
Status,2,3468240261,/g4t1,,init
Status,4,8781630533,/g3t1_1,,init
Status,5,8795878445,/g3t1_1,,init
Status,6,8795903310,/g3t1_1,,running
Status,7,8796571167,/g3t1_1,,success
Status,8,8895763866,/g3t1_1,,running
Status,9,8895862943,/g3t1_1,,success
Status,10,8995756516,/g3t1_1,,running
Status,11,8995851813,/g3t1_1,,success
Status,12,9082180102,/g3t1_2,,init
Status,14,9082234788,/g3t1_3,,init
Status,16,9094030099,/g3t1_2,,init
Status,17,9094049083,/g3t1_2,,running
Status,18,9094824152,/g3t1_3,,init
Status,19,9094840557,/g3t1_3,,running
Status,20,9095054235,/g3t1_2,,success
Status,21,9095345223,/g3t1_3,,success
Status,22,9095769976,/g3t1_1,,running
Status,23,9095962276,/g3t1_1,,success
Status,24,9112175537,/g4t1,,success
Status,25,9194875597,/g3t1_2,,running
Status,26,9195249781,/g3t1_2,,success
Status,27,9195536226,/g3t1_3,,running
Status,28,9196416294,/g3t1_3,,success
Status,29,9196483545,/g3t1_1,,running
Status,30,9196865140,/g3t1_1,,success
Status,31,9213285825,/g4t1,,success
Status,32,9233231599,/g4t1,,success
Status,33,9294845806,/g3t1_2,,running
Status,34,9295376800,/g3t1_2,,success
Status,35,9295929482,/g3t1_3,,running
Status,36,9296041421,/g3t1_3,,success
Status,37,9297351174,/g3t1_1,,running
Status,38,9297429424,/g3t1_1,,success
Status,39,9313732992,/g4t1,,success
Status,40,9333917970,/g4t1,,success
Status,41,9354433452,/g4t1,,success
Status,42,9394903243,/g3t1_2,,running
Status,43,9396038413,/g3t1_2,,success
Status,44,9396141219,/g3t1_3,,running
Status,45,9396848764,/g3t1_3,,success
Status,46,9397014759,/g3t1_1,,running
Status,47,9397223170,/g3t1_1,,success
Status,48,9414460410,/g4t1,,success
Status,49,9434508222,/g4t1,,success
Status,50,9454694261,/g4t1,,success
Status,51,9474710214,/g4t1,,success
Status,52,9495330868,/g4t1,,success
Status,53,9495432413,/g3t1_2,,running
Status,54,9496105426,/g3t1_3,,running
Status,55,9496756719,/g3t1_2,,success
Status,56,9497109447,/g3t1_1,,running
Status,57,9497178185,/g3t1_3,,success
Status,58,9497224398,/g3t1_1,,success
Status,59,9515384009,/g4t1,,fail
Status,60,9535169678,/g4t1,,success
Status,61,9555210387,/g4t1,,success
Status,62,9575396022,/g4t1,,success
Status,63,9595396435,/g3t1_2,,running
Status,64,9595456559,/g4t1,,success
Status,65,9595480045,/g3t1_2,,success
Status,66,9596353157,/g3t1_3,,running
Status,67,9596423368,/g3t1_3,,success
Status,68,9597209171,/g3t1_1,,running
Status,69,9597469122,/g3t1_1,,success
Status,70,9615678708,/g4t1,,fail
Status,71,9635261493,/g4t1,,success
Status,72,9655096797,/g4t1,,success
Status,73,9675484520,/g4t1,,success
Status,74,9694946225,/g3t1_2,,running
Status,75,9695063430,/g3t1_2,,success
Status,76,9695167478,/g4t1,,success
Status,77,9695641788,/g3t1_3,,running
Status,78,9695732430,/g3t1_3,,success
Status,79,9696413322,/g3t1_1,,running
Status,80,9696553209,/g3t1_1,,success
Status,81,9715331155,/g4t1,,fail
Status,82,9735851476,/g4t1,,success
Status,83,9756029906,/g4t1,,success
Status,84,9775571214,/g4t1,,success
Status,85,9795472497,/g3t1_2,,running
Status,86,9796114345,/g3t1_2,,success
Status,87,9796367616,/g3t1_3,,running
Status,88,9796410569,/g4t1,,success
Status,89,9796473293,/g3t1_3,,success
Status,90,9796773764,/g3t1_1,,running
Status,91,9797332414,/g3t1_1,,success
Status,92,9816115370,/g4t1,,fail
Status,93,9836356039,/g4t1,,success
Status,94,9856939993,/g4t1,,success
Status,95,9876800795,/g4t1,,success
Status,96,9895462131,/g3t1_2,,running
Status,97,9895920138,/g3t1_2,,success
Status,98,9896151532,/g3t1_3,,running
Status,99,9896644411,/g3t1_3,,success
Status,100,9896700895,/g4t1,,fail
Status,101,9897139908,/g3t1_1,,running
Status,102,9897465436,/g3t1_1,,success
Status,103,9916691262,/g4t1,,fail
Status,104,9937177700,/g4t1,,success
Status,105,9957163172,/g4t1,,success
Status,106,9977193196,/g4t1,,success
Status,107,9996247125,/g3t1_2,,running
Status,108,9996316984,/g3t1_2,,success
Status,109,9996409844,/g3t1_3,,running
Status,110,9996797837,/g3t1_3,,success
Status,111,9997194707,/g3t1_1,,running
Status,112,9997255163,/g4t1,,fail
Status,113,9997602549,/g3t1_1,,success
Status,114,10017779361,/g4t1,,fail
Status,115,10038368085,/g4t1,,success
Status,116,10058059865,/g4t1,,success
Status,117,10078016061,/g4t1,,success
Status,118,10096307853,/g3t1_2,,running
Status,119,10096426659,/g3t1_2,,success
Status,120,10096726749,/g3t1_3,,running
Status,121,10097551813,/g3t1_3,,success
Status,122,10098010678,/g3t1_1,,running
Status,123,10098069687,/g3t1_1,,success
Status,124,10098100973,/g4t1,,fail
Status,125,10118620525,/g4t1,,fail
Status,126,10138679318,/g4t1,,success
Status,127,10158958912,/g4t1,,success
Status,128,10178892289,/g4t1,,success
Status,129,10196196715,/g3t1_2,,running
Status,130,10196653401,/g3t1_3,,running
Status,131,10197242014,/g3t1_2,,success
Status,132,10197534570,/g3t1_3,,success
Status,133,10197832268,/g3t1_1,,running
Status,134,10198130923,/g3t1_1,,success
Status,135,10198571601,/g4t1,,fail
Status,136,10219185101,/g4t1,,success
Status,137,10239295956,/g4t1,,success
Status,138,10259405299,/g4t1,,success
Status,139,10279568405,/g4t1,,success
Status,140,10296502970,/g3t1_2,,running
Status,141,10296588873,/g3t1_2,,success
Status,142,10297626465,/g3t1_3,,running
Status,143,10297849489,/g3t1_3,,success
Status,144,10297969743,/g3t1_1,,running
Status,145,10298218731,/g3t1_1,,success
Status,146,10299209851,/g4t1,,fail
Status,147,10319858029,/g4t1,,success
Status,148,10339888443,/g4t1,,success
Status,149,10360096904,/g4t1,,success
Status,150,10379553224,/g4t1,,success
Status,151,10395752803,/g3t1_2,,running
Status,152,10395845434,/g3t1_2,,success
Status,153,10396337475,/g3t1_3,,running
Status,154,10396466749,/g3t1_3,,success
Status,155,10397183511,/g3t1_1,,running
Status,156,10397199432,/g3t1_1,,success
Status,157,10399419379,/g4t1,,fail
Status,158,10419663591,/g4t1,,success
Status,159,10439823628,/g4t1,,success
Status,160,10459954174,/g4t1,,success
Status,161,10480557863,/g4t1,,success
Status,162,10496361001,/g3t1_2,,running
Status,163,10497099074,/g3t1_2,,success
Status,164,10497177469,/g3t1_3,,running
Status,165,10497990130,/g3t1_3,,success
Status,166,10498058847,/g3t1_1,,running
Status,167,10498272141,/g3t1_1,,success
Status,168,10500267666,/g4t1,,fail
Status,169,10521089854,/g4t1,,success
Status,170,10541000004,/g4t1,,success
Status,171,10561148012,/g4t1,,success
Status,172,10581235355,/g4t1,,success
Status,173,10596771509,/g3t1_2,,running
Status,174,10597613768,/g3t1_2,,success
Status,175,10597687068,/g3t1_3,,running
Status,176,10597932993,/g3t1_3,,success
Status,177,10598483550,/g3t1_1,,running
Status,178,10598561067,/g3t1_1,,success
Status,179,10600852564,/g4t1,,fail
Status,180,10621442388,/g4t1,,success
Status,181,10641547671,/g4t1,,success
Status,182,10661747108,/g4t1,,success
Status,183,10681816317,/g4t1,,success
Status,184,10696442823,/g3t1_2,,running
Status,185,10697169336,/g3t1_3,,running
Status,186,10698060515,/g3t1_2,,success
Status,187,10698196475,/g3t1_3,,success
Status,188,10698228701,/g3t1_1,,running
Status,189,10698247197,/g3t1_1,,success
Status,190,10701771184,/g4t1,,fail
Status,191,10722107030,/g4t1,,success
Status,192,10741522575,/g4t1,,success
Status,193,10761785968,/g4t1,,success
Status,194,10781524390,/g4t1,,success
Status,195,10796271134,/g3t1_2,,running
Status,196,10796290094,/g3t1_2,,success
Status,197,10796711380,/g3t1_3,,running
Status,198,10796804997,/g3t1_3,,success
Status,199,10797411442,/g3t1_1,,running
Status,200,10797568146,/g3t1_1,,success
Status,201,10801789522,/g4t1,,fail
Status,202,10821934490,/g4t1,,success
Status,203,10841972651,/g4t1,,success
Status,204,10862863456,/g4t1,,success
Status,205,10882981030,/g4t1,,success
Status,206,10898124094,/g3t1_2,,running
Status,207,10898329978,/g3t1_2,,success
Status,208,10898651739,/g3t1_3,,running
Status,209,10898829721,/g3t1_3,,success
Status,210,10899274473,/g3t1_1,,running
Status,211,10899328493,/g3t1_1,,success
Status,212,10902849583,/g4t1,,fail
Status,213,10922767726,/g4t1,,success
Status,214,10942702447,/g4t1,,success
Status,215,10962751432,/g4t1,,success
Status,216,10982948591,/g4t1,,success
Status,217,10996646421,/g3t1_2,,running
Status,218,10996678399,/g3t1_2,,success
Status,219,10997072233,/g3t1_3,,running
Status,220,10997304006,/g3t1_3,,success
Status,221,10997715279,/g3t1_1,,running
Status,222,10997817721,/g3t1_1,,success
Status,223,11002989513,/g4t1,,fail
Status,224,11023389861,/g4t1,,success
Status,225,11043183147,/g4t1,,success
Status,226,11063797925,/g4t1,,success
Status,227,11083914588,/g4t1,,success
Status,228,11097681480,/g3t1_2,,running
Status,229,11097757523,/g3t1_2,,success
Status,230,11097793241,/g3t1_3,,running
Status,231,11098145688,/g3t1_3,,success
Status,232,11098250895,/g3t1_1,,running
Status,233,11099201667,/g3t1_1,,success
Status,234,11103986210,/g4t1,,fail
Status,235,11124292276,/g4t1,,success
Status,236,11144373309,/g4t1,,success
Status,237,11164534074,/g4t1,,success
Status,238,11184689795,/g4t1,,success
Status,239,11197966135,/g3t1_2,,running
Status,240,11198071137,/g3t1_3,,running
Status,241,11198200871,/g3t1_2,,success
Status,242,11198243218,/g3t1_3,,success
Status,243,11198276576,/g3t1_1,,running
Status,244,11198843386,/g3t1_1,,success
Status,245,11204533115,/g4t1,,fail
Status,246,11224742263,/g4t1,,success
Status,247,11245009558,/g4t1,,success
Status,248,11265043516,/g4t1,,success
Status,249,11285240277,/g4t1,,success
Status,250,11297668356,/g3t1_2,,running
Status,251,11297818126,/g3t1_2,,success
Status,252,11298918838,/g3t1_3,,running
Status,253,11299193322,/g3t1_3,,success
Status,254,11299241418,/g3t1_1,,running
Status,255,11299586971,/g3t1_1,,success
Status,256,11305205123,/g4t1,,fail
Status,257,11325598009,/g4t1,,success
Status,258,11345823939,/g4t1,,success
Status,259,11365631528,/g4t1,,success
Status,260,11385475452,/g4t1,,success
Status,261,11397188595,/g3t1_2,,running
Status,262,11397903007,/g3t1_2,,success
Status,263,11397936532,/g3t1_3,,running
Status,264,11398168796,/g3t1_3,,success
Status,265,11398431727,/g3t1_1,,running
Status,266,11399188927,/g3t1_1,,success
Status,267,11405554391,/g4t1,,fail
Status,268,11426105260,/g4t1,,success
Status,269,11446066106,/g4t1,,success
Status,270,11465884736,/g4t1,,success
Status,271,11486349624,/g4t1,,success
Status,272,11497115096,/g3t1_2,,running
Status,273,11497271292,/g3t1_2,,success
Status,274,11497634568,/g3t1_3,,running
Status,275,11497783613,/g3t1_3,,success
Status,276,11498188818,/g3t1_1,,running
Status,277,11498381202,/g3t1_1,,success
Status,278,11505946337,/g4t1,,fail
Status,279,11525948183,/g4t1,,success
Status,280,11545926900,/g4t1,,success
Status,281,11566057573,/g4t1,,success
Status,282,11586743281,/g4t1,,success
Status,283,11597215251,/g3t1_2,,running
Status,284,11597498852,/g3t1_2,,success
Status,285,11597951496,/g3t1_3,,running
Status,286,11598367379,/g3t1_3,,success
Status,287,11598456846,/g3t1_1,,running
Status,288,11598772762,/g3t1_1,,success
Status,289,11606481983,/g4t1,,fail
Status,290,11626517918,/g4t1,,success
Status,291,11646538843,/g4t1,,success
Status,292,11666798603,/g4t1,,success
Status,293,11687110767,/g4t1,,success
Status,294,11697256301,/g3t1_2,,running
Status,295,11697906770,/g3t1_2,,success
Status,296,11698398236,/g3t1_3,,running
Status,297,11698763376,/g3t1_1,,running
Status,298,11698961431,/g3t1_1,,success
Status,299,11698988658,/g3t1_3,,success
Status,300,11707094189,/g4t1,,fail
Status,301,11727213670,/g4t1,,success
Status,302,11747167851,/g4t1,,success
Status,303,11767357514,/g4t1,,success
Status,304,11787760776,/g4t1,,success
Status,305,11797673395,/g3t1_2,,running
Status,306,11798017852,/g3t1_2,,success
Status,307,11798487286,/g3t1_3,,running
Status,308,11798512133,/g3t1_3,,success
Status,309,11798810385,/g3t1_1,,running
Status,310,11798835892,/g3t1_1,,success
Status,311,11807398303,/g4t1,,fail
Status,312,11827710015,/g4t1,,success
Status,313,11847654879,/g4t1,,success
Status,314,11867777547,/g4t1,,success
Status,315,11888186909,/g4t1,,success
Status,316,11897678337,/g3t1_2,,running
Status,317,11897712718,/g3t1_2,,success
Status,318,11898467745,/g3t1_3,,running
Status,319,11898863888,/g3t1_3,,success
Status,320,11898889266,/g3t1_1,,running
Status,321,11899034409,/g3t1_1,,success
Status,322,11907939236,/g4t1,,fail
Status,323,11928147660,/g4t1,,success
Status,324,11948142307,/g4t1,,success
Status,325,11968437016,/g4t1,,success
Status,326,11988671436,/g4t1,,success
Status,327,11997816210,/g3t1_2,,running
Status,328,11998677169,/g3t1_2,,success
Status,329,11998740838,/g3t1_3,,running
Status,330,11999413834,/g3t1_3,,success
Status,331,11999470869,/g3t1_1,,running
Status,332,11999958336,/g3t1_1,,success
Status,333,12009402590,/g4t1,,fail
Status,334,12029086588,/g4t1,,success
Status,335,12049200609,/g4t1,,success
Status,336,12069050636,/g4t1,,success
Status,337,12089310095,/g4t1,,success
Status,338,12097573004,/g3t1_2,,running
Status,339,12097816257,/g3t1_2,,success
Status,340,12098255118,/g3t1_3,,running
Status,341,12098388190,/g3t1_3,,success
Status,342,12099025595,/g3t1_1,,running
Status,343,12099112275,/g3t1_1,,success
Status,344,12109006280,/g4t1,,fail
Status,345,12129278676,/g4t1,,success
Status,346,12149483114,/g4t1,,success
Status,347,12169873563,/g4t1,,success
Status,348,12189980701,/g4t1,,success
Status,349,12197974461,/g3t1_2,,running
Status,350,12198302686,/g3t1_2,,success
Status,351,12198724275,/g3t1_3,,running
Status,352,12199433312,/g3t1_3,,success
Status,353,12199489843,/g3t1_1,,running
Status,354,12200056433,/g3t1_1,,success
Status,355,12210001448,/g4t1,,fail
Status,356,12230126775,/g4t1,,success
Status,357,12250316609,/g4t1,,success
Status,358,12270614424,/g4t1,,success
Status,359,12290450637,/g4t1,,success
Status,360,12297665431,/g3t1_2,,running
Status,361,12297741700,/g3t1_2,,success
Status,362,12298480484,/g3t1_3,,running
Status,363,12298506895,/g3t1_3,,success
Status,364,12299241552,/g3t1_1,,running
Status,365,12299557241,/g3t1_1,,success
Status,366,12310148856,/g4t1,,fail
Status,367,12330236315,/g4t1,,success
Status,368,12350406813,/g4t1,,success
Status,369,12370689061,/g4t1,,success
Status,370,12390425062,/g4t1,,success
Status,371,12397809879,/g3t1_2,,running
Status,372,12397836010,/g3t1_2,,success
Status,373,12398432115,/g3t1_3,,running
Status,374,12398535801,/g3t1_3,,success
Status,375,12399365549,/g3t1_1,,running
Status,376,12399598346,/g3t1_1,,success
Status,377,12410547319,/g4t1,,fail
Status,378,12430684198,/g4t1,,success
Status,379,12450688860,/g4t1,,success
Status,380,12470979046,/g4t1,,success
Status,381,12490789795,/g4t1,,success
Status,382,12498220826,/g3t1_2,,running
Status,383,12498638009,/g3t1_2,,success
Status,384,12498660456,/g3t1_3,,running
Status,385,12498752082,/g3t1_3,,success
Status,386,12499269088,/g3t1_1,,running
Status,387,12499434367,/g3t1_1,,success
Status,388,12511199408,/g4t1,,fail
Status,389,12531228598,/g4t1,,success
Status,390,12551618430,/g4t1,,success
Status,391,12571758398,/g4t1,,success
Status,392,12591359730,/g4t1,,success
Status,393,12597970309,/g3t1_2,,running
Status,394,12597997200,/g3t1_2,,success
Status,395,12598590126,/g3t1_3,,running
Status,396,12598794722,/g3t1_3,,success
Status,397,12599363106,/g3t1_1,,running
Status,398,12599493348,/g3t1_1,,success
Status,399,12611591003,/g4t1,,fail
Status,400,12631549340,/g4t1,,success
Status,401,12652068395,/g4t1,,success
Status,402,12671928382,/g4t1,,success
Status,403,12691832359,/g4t1,,success
Status,404,12697905223,/g3t1_2,,running
Status,405,12698105288,/g3t1_2,,success
Status,406,12698617329,/g3t1_3,,running
Status,407,12698713021,/g3t1_3,,success
Status,408,12699443131,/g3t1_1,,running
Status,409,12699572110,/g3t1_1,,success
Status,410,12712086679,/g4t1,,fail
Status,411,12732141399,/g4t1,,success
Status,412,12752476936,/g4t1,,success
Status,413,12772462547,/g4t1,,success
Status,414,12792506623,/g4t1,,success
Status,415,12798183504,/g3t1_2,,running
Status,416,12798229381,/g3t1_2,,success
Status,417,12798722799,/g3t1_3,,running
Status,418,12798812878,/g3t1_3,,success
Status,419,12799523571,/g3t1_1,,running
Status,420,12799614265,/g3t1_1,,success
Status,421,12812530073,/g4t1,,fail
Status,422,12832671907,/g4t1,,success
Status,423,12852738988,/g4t1,,success
Status,424,12872806151,/g4t1,,success
Status,425,12892857208,/g4t1,,success
Status,426,12898149973,/g3t1_2,,running
Status,427,12898184568,/g3t1_2,,success
Status,428,12898733495,/g3t1_3,,running
Status,429,12898871976,/g3t1_3,,success
Status,430,12899529361,/g3t1_1,,running
Status,431,12899671985,/g3t1_1,,success
Status,432,12913195079,/g4t1,,fail
Status,433,12933341497,/g4t1,,success
Status,434,12953496578,/g4t1,,success
Status,435,12973654355,/g4t1,,success
Status,436,12993703955,/g4t1,,success
Status,437,12998572330,/g3t1_2,,running
Status,438,12998603442,/g3t1_2,,success
Status,439,12998893721,/g3t1_3,,running
Status,440,12999204076,/g3t1_3,,success
Status,441,12999760300,/g3t1_1,,running
Status,442,13000208235,/g3t1_1,,success
Status,443,13014028127,/g4t1,,fail
Status,444,13034104991,/g4t1,,success
Status,445,13054321183,/g4t1,,success
Status,446,13074193604,/g4t1,,success
Status,447,13094919779,/g4t1,,success
Status,448,13098712847,/g3t1_2,,running
Status,449,13099077116,/g3t1_2,,success
Status,450,13099313267,/g3t1_3,,running
Status,451,13100927571,/g3t1_3,,success
Status,452,13100970701,/g3t1_1,,running
Status,453,13100992617,/g3t1_1,,success
Status,454,13114400398,/g4t1,,fail
Status,455,13134777633,/g4t1,,success
Status,456,13154978470,/g4t1,,success
Status,457,13174481749,/g4t1,,success
Status,458,13194957885,/g4t1,,success
Status,459,13198599917,/g3t1_2,,running
Status,460,13198769085,/g3t1_2,,success
Status,461,13199194032,/g3t1_3,,running
Status,462,13199386607,/g3t1_3,,success
Status,463,13200092213,/g3t1_1,,running
Status,464,13200217205,/g3t1_1,,success
Status,465,13215016721,/g4t1,,fail
Status,466,13235451116,/g4t1,,success
Status,467,13255564443,/g4t1,,success
Status,468,13275306392,/g4t1,,success
Status,469,13295322042,/g4t1,,success
Status,470,13298680084,/g3t1_2,,running
Status,471,13298722609,/g3t1_2,,success
Status,472,13299317146,/g3t1_3,,running
Status,473,13299622545,/g3t1_3,,success
Status,474,13300066379,/g3t1_1,,running
Status,475,13300364844,/g3t1_1,,success
Status,476,13315514561,/g4t1,,fail
Status,477,13335901027,/g4t1,,success
Status,478,13356029387,/g4t1,,success
Status,479,13375896790,/g4t1,,success
Status,480,13396133339,/g4t1,,success
Status,481,13398932936,/g3t1_2,,running
Status,482,13399415734,/g3t1_3,,running
Status,483,13399499925,/g3t1_2,,success
Status,484,13400448979,/g3t1_3,,success
Status,485,13400530615,/g3t1_1,,running
Status,486,13400707896,/g3t1_1,,success
Status,487,13416331562,/g4t1,,fail
Status,488,13437438551,/g4t1,,success
Status,489,13456708694,/g4t1,,success
Status,490,13476296909,/g4t1,,success
Status,491,13496340763,/g4t1,,success
Status,492,13498945092,/g3t1_2,,running
Status,493,13499010002,/g3t1_2,,success
Status,494,13499630541,/g3t1_3,,running
Status,495,13499678260,/g3t1_3,,success
Status,496,13500223245,/g3t1_1,,running
Status,497,13500416382,/g3t1_1,,success
Status,498,13516551749,/g4t1,,fail
Status,499,13536971956,/g4t1,,success
Status,500,13556604524,/g4t1,,success
Status,501,13576797071,/g4t1,,success
Status,502,13596956510,/g4t1,,success
Status,503,13599143613,/g3t1_2,,running
Status,504,13599215505,/g3t1_2,,success
Status,505,13599860356,/g3t1_3,,running
Status,506,13600538404,/g3t1_3,,success
Status,507,13600588653,/g3t1_1,,running
Status,508,13600988382,/g3t1_1,,success
Status,509,13617436537,/g4t1,,fail
Status,510,13637669491,/g4t1,,success
Status,511,13657967276,/g4t1,,success
Status,512,13678158929,/g4t1,,success
Status,513,13697969126,/g4t1,,success
Status,514,13699225434,/g3t1_2,,running
Status,515,13699416222,/g3t1_2,,success
Status,516,13699918558,/g3t1_3,,running
Status,517,13700587410,/g3t1_3,,success
Status,518,13701039747,/g3t1_1,,running
Status,519,13701084073,/g3t1_1,,success
Status,520,13718100460,/g4t1,,fail
Status,521,13738602726,/g4t1,,success
Status,522,13758242308,/g4t1,,success
Status,523,13778460193,/g4t1,,success
Status,524,13798241712,/g4t1,,success
Status,525,13799276603,/g3t1_2,,running
Status,526,13799330956,/g3t1_2,,success
Status,527,13800527659,/g3t1_3,,running
Status,528,13800566170,/g3t1_3,,success
Status,529,13800652579,/g3t1_1,,running
Status,530,13801319803,/g3t1_1,,success
Status,531,13818095891,/g4t1,,fail
Status,532,13838692554,/g4t1,,success
Status,533,13858329764,/g4t1,,success
Status,534,13878692152,/g4t1,,success
Status,535,13898873708,/g4t1,,success
Status,536,13899206152,/g3t1_2,,running
Status,537,13899237282,/g3t1_2,,success
Status,538,13899763588,/g3t1_3,,running
Status,539,13900073291,/g3t1_3,,success
Status,540,13900487649,/g3t1_1,,running
Status,541,13900669837,/g3t1_1,,success
Status,542,13919398710,/g4t1,,fail
Status,543,13939808419,/g4t1,,success
Status,544,13959833354,/g4t1,,success
Status,545,13979776572,/g4t1,,success
Status,546,13999776653,/g3t1_2,,running
Status,547,13999898281,/g4t1,,success
Status,548,14000268168,/g3t1_2,,success
Status,549,14000327611,/g3t1_3,,running
Status,550,14001055704,/g3t1_3,,success
Status,551,14001117067,/g3t1_1,,running
Status,552,14001588481,/g3t1_1,,success
Status,553,14020079944,/g4t1,,fail
Status,554,14039940547,/g4t1,,success
Status,555,14060254894,/g4t1,,success
Status,556,14080299852,/g4t1,,success
Status,557,14099784863,/g3t1_2,,running
Status,558,14100431902,/g3t1_2,,success
Status,559,14100551513,/g3t1_3,,running
Status,560,14101243379,/g4t1,,success
Status,561,14101310237,/g3t1_3,,success
Status,562,14101633139,/g3t1_1,,running
Status,563,14102214889,/g3t1_1,,success
Status,564,14120822604,/g4t1,,fail
Status,565,14140787470,/g4t1,,success
Status,566,14161284863,/g4t1,,success
Status,567,14181111010,/g4t1,,success
Status,568,14200208160,/g3t1_2,,running
Status,569,14200535149,/g3t1_2,,success
Status,570,14201240952,/g3t1_3,,running
Status,571,14201347618,/g3t1_3,,success
Status,572,14201436550,/g4t1,,success
Status,573,14201642160,/g3t1_1,,running
Status,574,14202167271,/g3t1_1,,success
Status,575,14221510185,/g4t1,,fail
Status,576,14241564100,/g4t1,,success
Status,577,14262131802,/g4t1,,success
Status,578,14281868816,/g4t1,,success
Status,579,14300438727,/g3t1_2,,running
Status,580,14300530417,/g3t1_2,,success
Status,581,14300925828,/g3t1_3,,running
Status,582,14301803868,/g3t1_1,,running
Status,583,14301856110,/g3t1_3,,success
Status,584,14301946868,/g4t1,,success
Status,585,14301964431,/g3t1_1,,success
Status,586,14321834221,/g4t1,,fail
Status,587,14341741066,/g4t1,,success
Status,588,14361749351,/g4t1,,success
Status,589,14382133291,/g4t1,,success
Status,590,14399875013,/g3t1_2,,running
Status,591,14399969599,/g3t1_2,,success
Status,592,14400552082,/g3t1_3,,running
Status,593,14400675470,/g3t1_3,,success
Status,594,14401825269,/g3t1_1,,running
Status,595,14401874632,/g3t1_1,,success
Status,596,14402121251,/g4t1,,fail
Status,597,14422533500,/g4t1,,success
Status,598,14443055967,/g4t1,,success
Status,599,14462368052,/g4t1,,success
Status,600,14482685303,/g4t1,,success
Status,601,14499983638,/g3t1_2,,running
Status,602,14500349394,/g3t1_2,,success
Status,603,14500389582,/g3t1_3,,running
Status,604,14500738366,/g3t1_3,,success
Status,605,14501716639,/g3t1_1,,running
Status,606,14501758489,/g3t1_1,,success
Status,607,14502751325,/g4t1,,fail
Status,608,14522500899,/g4t1,,success
Status,609,14542675443,/g4t1,,success
Status,610,14562900900,/g4t1,,success
Status,611,14583282737,/g4t1,,success
Status,612,14600546937,/g3t1_2,,running
Status,613,14601313794,/g3t1_2,,success
Status,614,14601419531,/g3t1_3,,running
Status,615,14601447168,/g3t1_3,,success
Status,616,14602095312,/g3t1_1,,running
Status,617,14602762269,/g3t1_1,,success
Status,618,14603192050,/g4t1,,fail
Status,619,14623568893,/g4t1,,success
Status,620,14644080144,/g4t1,,success
Status,621,14663757116,/g4t1,,success
Status,622,14683926833,/g4t1,,success
Status,623,14700455336,/g3t1_2,,running
Status,624,14701028661,/g3t1_2,,success
Status,625,14701101637,/g3t1_3,,running
Status,626,14702061351,/g3t1_1,,running
Status,627,14702179396,/g3t1_3,,success
Status,628,14702213656,/g3t1_1,,success
Status,629,14704341407,/g4t1,,fail
Status,630,14724118547,/g4t1,,success
Status,631,14744483039,/g4t1,,success
Status,632,14763936793,/g4t1,,success
Status,633,14784041784,/g4t1,,success
Status,634,14800398065,/g3t1_2,,running
Status,635,14800429446,/g3t1_2,,success
Status,636,14801041301,/g3t1_3,,running
Status,637,14801383916,/g3t1_3,,success
Status,638,14801666175,/g3t1_1,,running
Status,639,14802209138,/g3t1_1,,success
Status,640,14804221046,/g4t1,,fail
Status,641,14824302953,/g4t1,,success
Status,642,14844435468,/g4t1,,success
Status,643,14865153183,/g4t1,,success
Status,644,14885230202,/g4t1,,success
Status,645,14901112212,/g3t1_2,,running
Status,646,14901618755,/g3t1_3,,running
Status,647,14902017773,/g3t1_2,,success
Status,648,14902389267,/g3t1_1,,running
Status,649,14902725708,/g3t1_1,,success
Status,650,14902881349,/g3t1_3,,success
Status,651,14905091167,/g4t1,,fail
Status,652,14925428129,/g4t1,,success
Status,653,14945826120,/g4t1,,success
Status,654,14965502900,/g4t1,,success
Status,655,14986076336,/g4t1,,success
Status,656,15001667718,/g3t1_2,,running
Status,657,15001796029,/g3t1_3,,running
Status,658,15002172268,/g3t1_2,,success
Status,659,15002207005,/g3t1_1,,running
Status,660,15002431755,/g3t1_3,,success
Status,661,15002593172,/g3t1_1,,success
Status,662,15005690322,/g4t1,,fail
Status,663,15026182913,/g4t1,,success
Status,664,15046385058,/g4t1,,success
Status,665,15065809928,/g4t1,,success
Status,666,15085678868,/g4t1,,success
Status,667,15100557112,/g3t1_2,,running
Status,668,15100665288,/g3t1_2,,success
Status,669,15101006314,/g3t1_3,,running
Status,670,15101233091,/g3t1_3,,success
Status,671,15101587051,/g3t1_1,,running
Status,672,15101761557,/g3t1_1,,success
Status,673,15105628252,/g4t1,,fail
Status,674,15125869365,/g4t1,,success
Status,675,15146131838,/g4t1,,success
Status,676,15165956155,/g4t1,,success
Status,677,15186398314,/g4t1,,success
Status,678,15201208794,/g3t1_2,,running
Status,679,15201263589,/g3t1_2,,success
Status,680,15201314920,/g3t1_3,,running
Status,681,15201740043,/g3t1_3,,success
Status,682,15202053392,/g3t1_1,,running
Status,683,15202145808,/g3t1_1,,success
Status,684,15206083030,/g4t1,,fail
Status,685,15226161471,/g4t1,,success
Status,686,15246350007,/g4t1,,success
Status,687,15266907779,/g4t1,,success
Status,688,15286486662,/g4t1,,success
Status,689,15301349712,/g3t1_2,,running
Status,690,15302068629,/g3t1_2,,success
Status,691,15302107867,/g3t1_3,,running
Status,692,15302443845,/g3t1_1,,running
Status,693,15302503921,/g3t1_3,,success
Status,694,15302512140,/g3t1_1,,success
Status,695,15306554561,/g4t1,,fail
Status,696,15326641213,/g4t1,,success
Status,697,15346782907,/g4t1,,success
Status,698,15366891638,/g4t1,,success
Status,699,15386928388,/g4t1,,success
Status,700,15400989114,/g3t1_2,,running
Status,701,15401009295,/g3t1_2,,success
Status,702,15401373094,/g3t1_3,,running
Status,703,15401565774,/g3t1_3,,success
Status,704,15401953964,/g3t1_1,,running
Status,705,15401973061,/g3t1_1,,success
Status,706,15407000746,/g4t1,,fail
Status,707,15426963545,/g4t1,,success
Status,708,15447187633,/g4t1,,success
Status,709,15467335552,/g4t1,,success
Status,710,15487275044,/g4t1,,success
Status,711,15501116167,/g3t1_2,,running
Status,712,15501135570,/g3t1_2,,success
Status,713,15501485550,/g3t1_3,,running
Status,714,15501539338,/g3t1_3,,success
Status,715,15501905056,/g3t1_1,,running
Status,716,15502017059,/g3t1_1,,success
Status,717,15507385679,/g4t1,,fail
Status,718,15527519438,/g4t1,,success
Status,719,15547646763,/g4t1,,success
Status,720,15567708987,/g4t1,,success
Status,721,15587701560,/g4t1,,success
Status,722,15601161421,/g3t1_2,,running
Status,723,15601186690,/g3t1_2,,success
Status,724,15601503356,/g3t1_3,,running
Status,725,15601588945,/g3t1_3,,success
Status,726,15601904351,/g3t1_1,,running
Status,727,15602059707,/g3t1_1,,success
Status,728,15607829569,/g4t1,,fail
Status,729,15627999904,/g4t1,,success
Status,730,15647998527,/g4t1,,success
Status,731,15668124297,/g4t1,,success
Status,732,15688477072,/g4t1,,success
Status,733,15701356877,/g3t1_2,,running
Status,734,15701378523,/g3t1_2,,success
Status,735,15701675975,/g3t1_3,,running
Status,736,15701692246,/g3t1_3,,success
Status,737,15701996810,/g3t1_1,,running
Status,738,15702132116,/g3t1_1,,success
Status,739,15708118643,/g4t1,,fail
Status,740,15729061068,/g4t1,,success
Status,741,15749874323,/g4t1,,success
Status,742,15769381687,/g4t1,,success
Status,743,15789492139,/g4t1,,success
Status,744,15802245042,/g3t1_2,,running
Status,745,15802580105,/g3t1_2,,success
Status,746,15802713629,/g3t1_3,,running
Status,747,15803014338,/g3t1_3,,success
Status,748,15803087501,/g3t1_1,,running
Status,749,15803470100,/g3t1_1,,success
Status,750,15809498905,/g4t1,,fail
Status,751,15829167823,/g4t1,,success
Status,752,15849232691,/g4t1,,success
Status,753,15869490927,/g4t1,,success
Status,754,15890074471,/g4t1,,success
Status,755,15902027772,/g3t1_2,,running
Status,756,15902241009,/g3t1_3,,running
Status,757,15902282077,/g3t1_2,,success
Status,758,15903478729,/g3t1_1,,running
Status,759,15903547215,/g3t1_1,,success
Status,760,15903576966,/g3t1_3,,success
Status,761,15910135735,/g4t1,,fail
Status,762,15929667921,/g4t1,,success
Status,763,15949728959,/g4t1,,success
Status,764,15970071102,/g4t1,,success
Status,765,15989996962,/g4t1,,success
Status,766,16002067999,/g3t1_2,,running
Status,767,16002127625,/g3t1_2,,success
Status,768,16002317229,/g3t1_3,,running
Status,769,16002936287,/g3t1_1,,running
Status,770,16002978476,/g3t1_3,,success
Status,771,16003136383,/g3t1_1,,success
Status,772,16009908097,/g4t1,,fail
Status,773,16030793733,/g4t1,,success
Status,774,16050313351,/g4t1,,success
Status,775,16070599266,/g4t1,,success
Status,776,16090322059,/g4t1,,success
Status,777,16101846715,/g3t1_2,,running
Status,778,16101928399,/g3t1_2,,success
Status,779,16102307769,/g3t1_3,,running
Status,780,16102487471,/g3t1_3,,success
Status,781,16102549036,/g3t1_1,,running
Status,782,16102990357,/g3t1_1,,success
Status,783,16110356280,/g4t1,,fail
Status,784,16130479298,/g4t1,,success
Status,785,16150908037,/g4t1,,success
Status,786,16171084771,/g4t1,,success
Status,787,16190657108,/g4t1,,success
Status,788,16202415826,/g3t1_2,,running
Status,789,16202886982,/g3t1_2,,success
Status,790,16202915122,/g3t1_3,,running
Status,791,16202923246,/g3t1_1,,running
Status,792,16203014242,/g3t1_3,,success
Status,793,16203177778,/g3t1_1,,success
Status,794,16211125633,/g4t1,,fail
Status,795,16230813311,/g4t1,,success
Status,796,16251373474,/g4t1,,success
Status,797,16271541651,/g4t1,,success
Status,798,16291121618,/g4t1,,success
Status,799,16302383250,/g3t1_2,,running
Status,800,16302685865,/g3t1_2,,success
Status,801,16302717766,/g3t1_3,,running
Status,802,16302996470,/g3t1_1,,running
Status,803,16303166775,/g3t1_3,,success
Status,804,16303312473,/g3t1_1,,success
Status,805,16311207391,/g4t1,,fail
Status,806,16331734242,/g4t1,,success
Status,807,16352055107,/g4t1,,success
Status,808,16371963389,/g4t1,,success
Status,809,16391827177,/g4t1,,success
Status,810,16402406529,/g3t1_2,,running
Status,811,16403419573,/g3t1_2,,success
Status,812,16403503005,/g3t1_3,,running
Status,813,16403523508,/g3t1_3,,success
Status,814,16403536385,/g3t1_1,,running
Status,815,16403547329,/g3t1_1,,success
Status,816,16411849178,/g4t1,,fail
Status,817,16432186169,/g4t1,,success
Status,818,16452150359,/g4t1,,success
Status,819,16472539619,/g4t1,,success
Status,820,16492203593,/g4t1,,success
Status,821,16502427017,/g3t1_2,,running
Status,822,16503264733,/g3t1_2,,success
Status,823,16503557966,/g3t1_1,,running
Status,824,16503614820,/g3t1_3,,running
Status,825,16503644399,/g3t1_3,,success
Status,826,16503670766,/g3t1_1,,success
Status,827,16512732753,/g4t1,,fail
Status,828,16532957160,/g4t1,,success
Status,829,16553122702,/g4t1,,success
Status,830,16573173912,/g4t1,,success
Status,831,16593402650,/g4t1,,success
Status,832,16602800921,/g3t1_2,,running
Status,833,16603315979,/g3t1_2,,success
Status,834,16603373581,/g3t1_3,,running
Status,835,16603579758,/g3t1_1,,running
Status,836,16604358629,/g3t1_3,,success
Status,837,16604397680,/g3t1_1,,success
Status,838,16613345337,/g4t1,,fail
Status,839,16633241353,/g4t1,,success
Status,840,16653628257,/g4t1,,success
Status,841,16673729105,/g4t1,,success
Status,842,16693852036,/g4t1,,success
Status,843,16703207736,/g3t1_2,,running
Status,844,16703911017,/g3t1_2,,success
Status,845,16703961039,/g3t1_3,,running
Status,846,16703993951,/g3t1_1,,running
Status,847,16704020970,/g3t1_3,,success
Status,848,16704475715,/g3t1_1,,success
Status,849,16714131966,/g4t1,,fail
Status,850,16734220269,/g4t1,,success
Status,851,16754394326,/g4t1,,success
Status,852,16774628597,/g4t1,,success
Status,853,16794316519,/g4t1,,success
Status,854,16803131153,/g3t1_2,,running
Status,855,16803697638,/g3t1_2,,success
Status,856,16803759471,/g3t1_3,,running
Status,857,16803861986,/g3t1_3,,success
Status,858,16803901913,/g3t1_1,,running
Status,859,16803926669,/g3t1_1,,success
Status,860,16814381203,/g4t1,,fail
Status,861,16834658999,/g4t1,,success
Status,862,16855134929,/g4t1,,success
Status,863,16874930069,/g4t1,,success
Status,864,16895058218,/g4t1,,success
Status,865,16902752673,/g3t1_2,,running
Status,866,16903086797,/g3t1_2,,success
Status,867,16903725421,/g3t1_3,,running
Status,868,16903956681,/g3t1_1,,running
Status,869,16904014119,/g3t1_3,,success
Status,870,16904227865,/g3t1_1,,success
Status,871,16915073356,/g4t1,,fail
Status,872,16935269329,/g4t1,,success
Status,873,16955655828,/g4t1,,success
Status,874,16975827155,/g4t1,,success
Status,875,16995759703,/g4t1,,success
Status,876,17003518404,/g3t1_2,,running
Status,877,17004450299,/g3t1_3,,running
Status,878,17004524167,/g3t1_3,,success
Status,879,17004820360,/g3t1_2,,success
Status,880,17005058137,/g3t1_1,,running
Status,881,17005109594,/g3t1_1,,success
Status,882,17015890209,/g4t1,,fail
Status,883,17036273666,/g4t1,,success
Status,884,17056633964,/g4t1,,success
Status,885,17076485650,/g4t1,,success
Status,886,17095812049,/g4t1,,success
Status,887,17103263946,/g3t1_2,,running
Status,888,17103386740,/g3t1_2,,success
Status,889,17103813516,/g3t1_3,,running
Status,890,17104307429,/g3t1_1,,running
Status,891,17104344443,/g3t1_3,,success
Status,892,17104514910,/g3t1_1,,success
Status,893,17116467101,/g4t1,,fail
Status,894,17136645127,/g4t1,,success
Status,895,17156414033,/g4t1,,success
Status,896,17176838562,/g4t1,,success
Status,897,17197228400,/g4t1,,success
Status,898,17203600352,/g3t1_2,,running
Status,899,17204793360,/g3t1_2,,success
Status,900,17205104817,/g3t1_3,,running
Status,901,17205134628,/g3t1_1,,running
Status,902,17205151960,/g3t1_3,,success
Status,903,17205380931,/g3t1_1,,success
Status,904,17217567173,/g4t1,,fail
Status,905,17237485152,/g4t1,,success
Status,906,17257189416,/g4t1,,success
Status,907,17277155253,/g4t1,,success
Status,908,17297468463,/g4t1,,success
Status,909,17302946934,/g3t1_2,,running
Status,910,17303074263,/g3t1_2,,success
Status,911,17303354772,/g3t1_3,,running
Status,912,17303541284,/g3t1_3,,success
Status,913,17303962983,/g3t1_1,,running
Status,914,17304074919,/g3t1_1,,success
Status,915,17317424751,/g4t1,,fail
Status,916,17337431291,/g4t1,,success
Status,917,17357539755,/g4t1,,success
Status,918,17377835704,/g4t1,,success
Status,919,17398036315,/g4t1,,success
Status,920,17403512897,/g3t1_2,,running
Status,921,17403548302,/g3t1_3,,running
Status,922,17403582457,/g3t1_2,,success
Status,923,17403681279,/g3t1_3,,success
Status,924,17404050092,/g3t1_1,,running
Status,925,17404253615,/g3t1_1,,success
Status,926,17418323529,/g4t1,,fail
Status,927,17438033278,/g4t1,,success
Status,928,17458280358,/g4t1,,success
Status,929,17478880727,/g4t1,,success
Status,930,17499038110,/g4t1,,success
Status,931,17503665332,/g3t1_2,,running
Status,932,17504322036,/g3t1_2,,success
Status,933,17504397932,/g3t1_3,,running
Status,934,17504967819,/g3t1_1,,running
Status,935,17505088268,/g3t1_3,,success
Status,936,17506004412,/g3t1_1,,success
Status,937,17519147662,/g4t1,,fail
Status,938,17539258112,/g4t1,,success
Status,939,17559529617,/g4t1,,success
Status,940,17578947135,/g4t1,,success
Status,941,17598999588,/g4t1,,success
Status,942,17603483905,/g3t1_2,,running
Status,943,17603532130,/g3t1_2,,success
Status,944,17603635069,/g3t1_3,,running
Status,945,17603945488,/g3t1_3,,success
Status,946,17604244062,/g3t1_1,,running
Status,947,17604419845,/g3t1_1,,success
Status,948,17619086499,/g4t1,,fail
Status,949,17639218141,/g4t1,,success
Status,950,17659376628,/g4t1,,success
Status,951,17679798952,/g4t1,,success
Status,952,17700302078,/g4t1,,success
Status,953,17704020434,/g3t1_2,,running
Status,954,17704550688,/g3t1_3,,running
Status,955,17704607460,/g3t1_2,,success
Status,956,17705047229,/g3t1_3,,success
Status,957,17705110400,/g3t1_1,,running
Status,958,17705564646,/g3t1_1,,success
Status,959,17720424472,/g4t1,,fail
Status,960,17740496620,/g4t1,,success
Status,961,17760950121,/g4t1,,success
Status,962,17780840010,/g4t1,,success
Status,963,17801082542,/g4t1,,success
Status,964,17804552730,/g3t1_2,,running
Status,965,17805491909,/g3t1_1,,running
Status,966,17805547068,/g3t1_2,,success
Status,967,17805640872,/g3t1_3,,running
Status,968,17805713392,/g3t1_3,,success
Status,969,17805749329,/g3t1_1,,success
Status,970,17821153249,/g4t1,,fail
Status,971,17840618902,/g4t1,,success
Status,972,17860677670,/g4t1,,success
Status,973,17880835782,/g4t1,,success
Status,974,17900819524,/g4t1,,success
Status,975,17903742161,/g3t1_2,,running
Status,976,17903767148,/g3t1_2,,success
Status,977,17903916528,/g3t1_3,,running
Status,978,17904083765,/g3t1_3,,success
Status,979,17904552689,/g3t1_1,,running
Status,980,17904711765,/g3t1_1,,success
Status,981,17921190147,/g4t1,,fail
Status,982,17941023246,/g4t1,,success
Status,983,17962103915,/g4t1,,success
Status,984,17982271710,/g4t1,,success
Status,985,18002195037,/g4t1,,success
Status,986,18004558230,/g3t1_2,,running
Status,987,18005273220,/g3t1_3,,running
Status,988,18005335342,/g3t1_2,,success
Status,989,18005365384,/g3t1_3,,success
Status,990,18005388994,/g3t1_1,,running
Status,991,18005961901,/g3t1_1,,success
Status,992,18022293449,/g4t1,,fail
Status,993,18042495336,/g4t1,,success
Status,994,18062358052,/g4t1,,success
Status,995,18082670687,/g4t1,,success
Status,996,18103068066,/g4t1,,success
Status,997,18104805335,/g3t1_2,,running
Status,998,18105005926,/g3t1_2,,success
Status,999,18105551275,/g3t1_3,,running
Status,1000,18105914177,/g3t1_1,,running
Status,1001,18105974275,/g3t1_1,,success
Status,1002,18106065595,/g3t1_3,,success
Status,1003,18122847957,/g4t1,,fail
Status,1004,18143137114,/g4t1,,success
Status,1005,18163288380,/g4t1,,success
Status,1006,18183270812,/g4t1,,success
Status,1007,18203474162,/g4t1,,success
Status,1008,18204670191,/g3t1_2,,running
Status,1009,18205335582,/g3t1_3,,running
Status,1010,18205392976,/g3t1_2,,success
Status,1011,18205759467,/g3t1_3,,success
Status,1012,18205816585,/g3t1_1,,running
Status,1013,18206052766,/g3t1_1,,success
Status,1014,18223381750,/g4t1,,fail
Status,1015,18243933275,/g4t1,,success
Status,1016,18263727895,/g4t1,,success
Status,1017,18284035292,/g4t1,,success
Status,1018,18303686459,/g4t1,,success
Status,1019,18304219558,/g3t1_2,,running
Status,1020,18304678527,/g3t1_2,,success
Status,1021,18304723218,/g3t1_3,,running
Status,1022,18305539718,/g3t1_3,,success
Status,1023,18305587521,/g3t1_1,,running
Status,1024,18305740042,/g3t1_1,,success
Status,1025,18323854884,/g4t1,,fail
Status,1026,18344103502,/g4t1,,success
Status,1027,18363912058,/g4t1,,success
Status,1028,18384410367,/g4t1,,success
Status,1029,18405272800,/g4t1,,success
Status,1030,18405581889,/g3t1_2,,running
Status,1031,18405634975,/g3t1_3,,running
Status,1032,18405666960,/g3t1_2,,success
Status,1033,18405727932,/g3t1_1,,running
Status,1034,18406287895,/g3t1_3,,success
Status,1035,18406728434,/g3t1_1,,success
Status,1036,18424830283,/g4t1,,fail
Status,1037,18445240436,/g4t1,,success
Status,1038,18465294112,/g4t1,,success
Status,1039,18485224392,/g4t1,,success
Status,1040,18505121351,/g3t1_2,,running
Status,1041,18506104140,/g3t1_3,,running
Status,1042,18506173169,/g4t1,,success
Status,1043,18506439567,/g3t1_1,,running
Status,1044,18506510753,/g3t1_2,,success
Status,1045,18506678996,/g3t1_1,,success
Status,1046,18506726657,/g3t1_3,,success
Status,1047,18525550380,/g4t1,,fail
Status,1048,18545831962,/g4t1,,success
Status,1049,18565815303,/g4t1,,success
Status,1050,18586247101,/g4t1,,success
Status,1051,18605438384,/g3t1_2,,running
Status,1052,18605518226,/g3t1_3,,running
Status,1053,18606278910,/g3t1_2,,success
Status,1054,18606377806,/g4t1,,success
Status,1055,18606443470,/g3t1_3,,success
Status,1056,18606729138,/g3t1_1,,running
Status,1057,18606828043,/g3t1_1,,success
Status,1058,18626328764,/g4t1,,fail
Status,1059,18646121567,/g4t1,,success
Status,1060,18666363344,/g4t1,,success
Status,1061,18686537157,/g4t1,,success
Status,1062,18706068926,/g3t1_2,,running
Status,1063,18707168606,/g3t1_2,,success
Status,1064,18707232160,/g3t1_3,,running
Status,1065,18707267725,/g3t1_3,,success
Status,1066,18707319418,/g4t1,,success
Status,1067,18707337459,/g3t1_1,,running
Status,1068,18707355637,/g3t1_1,,success
Status,1069,18727289764,/g4t1,,fail
Status,1070,18746941602,/g4t1,,success
Status,1071,18766989523,/g4t1,,success
Status,1072,18787120150,/g4t1,,success
Status,1073,18804792050,/g3t1_2,,running
Status,1074,18804815640,/g3t1_2,,success
Status,1075,18805037459,/g3t1_3,,running
Status,1076,18805207246,/g3t1_3,,success
Status,1077,18805625814,/g3t1_1,,running
Status,1078,18805801798,/g3t1_1,,success
Status,1079,18806951066,/g4t1,,fail
Status,1080,18827925709,/g4t1,,success
Status,1081,18847986681,/g4t1,,success
Status,1082,18868153388,/g4t1,,success
Status,1083,18888281872,/g4t1,,success
Status,1084,18905490356,/g3t1_2,,running
Status,1085,18905805985,/g3t1_3,,running
Status,1086,18905931842,/g3t1_2,,success
Status,1087,18906522594,/g3t1_1,,running
Status,1088,18907311755,/g3t1_3,,success
Status,1089,18907426128,/g3t1_1,,success
Status,1090,18908348923,/g4t1,,fail
Status,1091,18928697203,/g4t1,,success
Status,1092,18948822278,/g4t1,,success
Status,1093,18968476813,/g4t1,,success
Status,1094,18988643409,/g4t1,,success
Status,1095,19005205374,/g3t1_2,,running
Status,1096,19005352191,/g3t1_2,,success
Status,1097,19005435893,/g3t1_3,,running
Status,1098,19005788573,/g3t1_3,,success
Status,1099,19005974086,/g3t1_1,,running
Status,1100,19006266094,/g3t1_1,,success
Status,1101,19008408783,/g4t1,,fail
Status,1102,19028993059,/g4t1,,success
Status,1103,19049197891,/g4t1,,success
Status,1104,19069608652,/g4t1,,success
Status,1105,19089351934,/g4t1,,success
Status,1106,19106387703,/g3t1_2,,running
Status,1107,19106505171,/g3t1_3,,running
Status,1108,19106873650,/g3t1_2,,success
Status,1109,19106929510,/g3t1_1,,running
Status,1110,19106960887,/g3t1_3,,success
Status,1111,19107105883,/g3t1_1,,success
Status,1112,19109365703,/g4t1,,fail
Status,1113,19129859470,/g4t1,,success
Status,1114,19150080696,/g4t1,,success
Status,1115,19169859440,/g4t1,,success
Status,1116,19190289714,/g4t1,,success
Status,1117,19205262068,/g3t1_2,,running
Status,1118,19205307978,/g3t1_2,,success
Status,1119,19205784895,/g3t1_3,,running
Status,1120,19205820597,/g3t1_3,,success
Status,1121,19206259969,/g3t1_1,,running
Status,1122,19206380811,/g3t1_1,,success
Status,1123,19209630560,/g4t1,,fail
Status,1124,19229703927,/g4t1,,success
Status,1125,19250082775,/g4t1,,success
Status,1126,19270427339,/g4t1,,success
Status,1127,19290045538,/g4t1,,success
Status,1128,19305166153,/g3t1_2,,running
Status,1129,19305292651,/g3t1_2,,success
Status,1130,19305518708,/g3t1_3,,running
Status,1131,19305787703,/g3t1_3,,success
Status,1132,19306067695,/g3t1_1,,running
Status,1133,19306254872,/g3t1_1,,success
Status,1134,19309919194,/g4t1,,fail
Status,1135,19330218651,/g4t1,,success
Status,1136,19350759461,/g4t1,,success
Status,1137,19370885829,/g4t1,,success
Status,1138,19391085741,/g4t1,,success
Status,1139,19406371853,/g3t1_2,,running
Status,1140,19406430386,/g3t1_3,,running
Status,1141,19406462835,/g3t1_2,,success
Status,1142,19406486769,/g3t1_3,,success
Status,1143,19406787416,/g3t1_1,,running
Status,1144,19406859515,/g3t1_1,,success
Status,1145,19411038643,/g4t1,,fail
Status,1146,19431254232,/g4t1,,success
Status,1147,19451373430,/g4t1,,success
Status,1148,19470994689,/g4t1,,success
Status,1149,19490985336,/g4t1,,success
Status,1150,19505575047,/g3t1_2,,running
Status,1151,19505706012,/g3t1_2,,success
Status,1152,19505732078,/g3t1_3,,running
Status,1153,19505831154,/g3t1_3,,success
Status,1154,19506213911,/g3t1_1,,running
Status,1155,19506509128,/g3t1_1,,success
Status,1156,19511082007,/g4t1,,fail
Status,1157,19531158039,/g4t1,,success
Status,1158,19551390655,/g4t1,,success
Status,1159,19571409195,/g4t1,,success
Status,1160,19591521534,/g4t1,,success
Status,1161,19605491570,/g3t1_2,,running
Status,1162,19605583582,/g3t1_2,,success
Status,1163,19605743482,/g3t1_3,,running
Status,1164,19605874381,/g3t1_3,,success
Status,1165,19606240041,/g3t1_1,,running
Status,1166,19606430264,/g3t1_1,,success
Status,1167,19611534223,/g4t1,,fail
Status,1168,19632036488,/g4t1,,success
Status,1169,19652772241,/g4t1,,success
Status,1170,19672958868,/g4t1,,success
Status,1171,19692669848,/g4t1,,success
Status,1172,19706958217,/g3t1_2,,running
Status,1173,19707288307,/g3t1_3,,running
Status,1174,19707330955,/g3t1_3,,success
Status,1175,19707360107,/g3t1_1,,running
Status,1176,19707457984,/g3t1_2,,success
Status,1177,19707786646,/g3t1_1,,success
Status,1178,19712411263,/g4t1,,fail
Status,1179,19733009643,/g4t1,,success
Status,1180,19752599574,/g4t1,,success
Status,1181,19773291654,/g4t1,,success
Status,1182,19793462482,/g4t1,,success
Status,1183,19806523232,/g3t1_2,,running
Status,1184,19806699369,/g3t1_3,,running
Status,1185,19807189871,/g3t1_3,,success
Status,1186,19807242301,/g3t1_1,,running
Status,1187,19807271978,/g3t1_2,,success
Status,1188,19807854092,/g3t1_1,,success
Status,1189,19813303214,/g4t1,,fail
Status,1190,19833855540,/g4t1,,success
Status,1191,19853085868,/g4t1,,success
Status,1192,19873383548,/g4t1,,success
Status,1193,19893462376,/g4t1,,success
Status,1194,19905894014,/g3t1_2,,running
Status,1195,19906118387,/g3t1_2,,success
Status,1196,19906174371,/g3t1_3,,running
Status,1197,19906491464,/g3t1_3,,success
Status,1198,19906901298,/g3t1_1,,running
Status,1199,19907168959,/g3t1_1,,success
Status,1200,19913944513,/g4t1,,fail
Status,1201,19934313327,/g4t1,,success
Status,1202,19954371237,/g4t1,,success
Status,1203,19974532835,/g4t1,,success
Status,1204,19994713591,/g4t1,,success
Status,1205,20006936231,/g3t1_2,,running
Status,1206,20007066405,/g3t1_3,,running
Status,1207,20007335147,/g3t1_2,,success
Status,1208,20008009379,/g3t1_1,,running
Status,1209,20008141156,/g3t1_1,,success
Status,1210,20008167037,/g3t1_3,,success
Status,1211,20014681990,/g4t1,,fail
Status,1212,20034915183,/g4t1,,success
Status,1213,20054950581,/g4t1,,success
Status,1214,20074712314,/g4t1,,success
Status,1215,20094956268,/g4t1,,success
Status,1216,20106127226,/g3t1_2,,running
Status,1217,20106440098,/g3t1_3,,running
Status,1218,20106481726,/g3t1_2,,success
Status,1219,20107049907,/g3t1_3,,success
Status,1220,20107090486,/g3t1_1,,running
Status,1221,20107392819,/g3t1_1,,success
Status,1222,20115063395,/g4t1,,fail
Status,1223,20135461403,/g4t1,,success
Status,1224,20155174367,/g4t1,,success
Status,1225,20175374659,/g4t1,,success
Status,1226,20195450567,/g4t1,,success
Status,1227,20206396748,/g3t1_2,,running
Status,1228,20206487403,/g3t1_2,,success
Status,1229,20206508122,/g3t1_3,,running
Status,1230,20206696603,/g3t1_3,,success
Status,1231,20207122843,/g3t1_1,,running
Status,1232,20207275225,/g3t1_1,,success
Status,1233,20215638600,/g4t1,,fail
Status,1234,20235705870,/g4t1,,success
Status,1235,20256295569,/g4t1,,success
Status,1236,20276950427,/g4t1,,success
Status,1237,20296556868,/g4t1,,success
Status,1238,20306633943,/g3t1_2,,running
Status,1239,20306786689,/g3t1_3,,running
Status,1240,20306829426,/g3t1_2,,success
Status,1241,20307805242,/g3t1_1,,running
Status,1242,20307876794,/g3t1_3,,success
Status,1243,20308360349,/g3t1_1,,success
Status,1244,20316498466,/g4t1,,fail
Status,1245,20336719462,/g4t1,,success
Status,1246,20356845855,/g4t1,,success
Status,1247,20377140267,/g4t1,,success
Status,1248,20397130722,/g4t1,,success
Status,1249,20407002342,/g3t1_2,,running
Status,1250,20407076024,/g3t1_3,,running
Status,1251,20407988696,/g3t1_1,,running
Status,1252,20408048379,/g3t1_3,,success
Status,1253,20408140071,/g3t1_2,,success
Status,1254,20408175775,/g3t1_1,,success
Status,1255,20417424462,/g4t1,,fail
Status,1256,20437598614,/g4t1,,success
Status,1257,20457517772,/g4t1,,success
Status,1258,20477360661,/g4t1,,success
Status,1259,20497342262,/g4t1,,success
Status,1260,20507548729,/g3t1_2,,running
Status,1261,20507937975,/g3t1_3,,running
Status,1262,20507992370,/g3t1_2,,success
Status,1263,20508076150,/g3t1_1,,running
Status,1264,20508103649,/g3t1_3,,success
Status,1265,20508869103,/g3t1_1,,success
Status,1266,20517830899,/g4t1,,fail
Status,1267,20537762061,/g4t1,,success
Status,1268,20558165765,/g4t1,,success
Status,1269,20578297587,/g4t1,,success
Status,1270,20598288952,/g4t1,,success
Status,1271,20607479112,/g3t1_2,,running
Status,1272,20607560979,/g3t1_3,,running
Status,1273,20608466424,/g3t1_2,,success
Status,1274,20609024054,/g3t1_1,,running
Status,1275,20609069170,/g3t1_3,,success
Status,1276,20609089290,/g3t1_1,,success
Status,1277,20618459992,/g4t1,,fail
Status,1278,20638688273,/g4t1,,success
Status,1279,20658234266,/g4t1,,success
Status,1280,20678160464,/g4t1,,success
Status,1281,20698419490,/g4t1,,success
Status,1282,20706610187,/g3t1_2,,running
Status,1283,20706770381,/g3t1_2,,success
Status,1284,20706793757,/g3t1_3,,running
Status,1285,20707018785,/g3t1_3,,success
Status,1286,20707648119,/g3t1_1,,running
Status,1287,20707846354,/g3t1_1,,success
Status,1288,20718704974,/g4t1,,fail
Status,1289,20738820883,/g4t1,,success
Status,1290,20759174138,/g4t1,,success
Status,1291,20779225596,/g4t1,,success
Status,1292,20799354169,/g4t1,,success
Status,1293,20807414568,/g3t1_2,,running
Status,1294,20807502164,/g3t1_3,,running
Status,1295,20807825040,/g3t1_2,,success
Status,1296,20808631070,/g3t1_1,,running
Status,1297,20808735211,/g3t1_3,,success
Status,1298,20808794617,/g3t1_1,,success
Status,1299,20819414640,/g4t1,,fail
Status,1300,20839527262,/g4t1,,success
Status,1301,20858999784,/g4t1,,success
Status,1302,20879124135,/g4t1,,success
Status,1303,20899257402,/g4t1,,success
Status,1304,20907024467,/g3t1_2,,running
Status,1305,20907155721,/g3t1_2,,success
Status,1306,20907184197,/g3t1_3,,running
Status,1307,20907339213,/g3t1_3,,success
Status,1308,20907822264,/g3t1_1,,running
Status,1309,20907977067,/g3t1_1,,success
Status,1310,20919470612,/g4t1,,fail
Status,1311,20939559178,/g4t1,,success
Status,1312,20959638327,/g4t1,,success
Status,1313,20979748978,/g4t1,,success
Status,1314,21000148096,/g4t1,,success
Status,1315,21007510138,/g3t1_2,,running
Status,1316,21007745494,/g3t1_3,,running
Status,1317,21007793232,/g3t1_2,,success
Status,1318,21008676291,/g3t1_1,,running
Status,1319,21008729000,/g3t1_3,,success
Status,1320,21009042102,/g3t1_1,,success
Status,1321,21020508682,/g4t1,,fail
Status,1322,21041161990,/g4t1,,success
Status,1323,21060575585,/g4t1,,success
Status,1324,21080756404,/g4t1,,success
Status,1325,21101597431,/g4t1,,success
Status,1326,21107453362,/g3t1_2,,running
Status,1327,21107741994,/g3t1_3,,running
Status,1328,21107782706,/g3t1_2,,success
Status,1329,21108192811,/g3t1_3,,success
Status,1330,21108489867,/g3t1_1,,running
Status,1331,21108699968,/g3t1_1,,success
Status,1332,21121112521,/g4t1,,fail
Status,1333,21141134287,/g4t1,,success
Status,1334,21161919036,/g4t1,,success
Status,1335,21181533625,/g4t1,,success
Status,1336,21201766769,/g4t1,,success
Status,1337,21207924438,/g3t1_2,,running
Status,1338,21207989481,/g3t1_3,,running
Status,1339,21208312567,/g3t1_2,,success
Status,1340,21208349564,/g3t1_3,,success
Status,1341,21208543259,/g3t1_1,,running
Status,1342,21209237276,/g3t1_1,,success
Status,1343,21221591002,/g4t1,,fail
Status,1344,21242113512,/g4t1,,success
Status,1345,21262154626,/g4t1,,success
Status,1346,21282068003,/g4t1,,success
Status,1347,21302180054,/g4t1,,success
Status,1348,21307946057,/g3t1_2,,running
Status,1349,21308028621,/g3t1_3,,running
Status,1350,21308763595,/g3t1_2,,success
Status,1351,21308826859,/g3t1_3,,success
Status,1352,21309275712,/g3t1_1,,running
Status,1353,21309415095,/g3t1_1,,success
Status,1354,21322222736,/g4t1,,fail
Status,1355,21342394870,/g4t1,,success
Status,1356,21362595021,/g4t1,,success
Status,1357,21382523806,/g4t1,,success
Status,1358,21402802463,/g4t1,,success
Status,1359,21408853214,/g3t1_2,,running
Status,1360,21409059646,/g3t1_3,,running
Status,1361,21410761594,/g3t1_1,,running
Status,1362,21410983145,/g3t1_1,,success
Status,1363,21411027983,/g3t1_3,,success
Status,1364,21411127867,/g3t1_2,,success
Status,1365,21422607728,/g4t1,,fail
Status,1366,21442571249,/g4t1,,success
Status,1367,21462707824,/g4t1,,success
Status,1368,21482680987,/g4t1,,success
Status,1369,21503276188,/g4t1,,success
Status,1370,21507817317,/g3t1_2,,running
Status,1371,21507896814,/g3t1_3,,running
Status,1372,21508187299,/g3t1_2,,success
Status,1373,21508370288,/g3t1_3,,success
Status,1374,21508703928,/g3t1_1,,running
Status,1375,21509114090,/g3t1_1,,success
Status,1376,21523059144,/g4t1,,fail
Status,1377,21543429917,/g4t1,,success
Status,1378,21563513008,/g4t1,,success
Status,1379,21583749819,/g4t1,,success
Status,1380,21603786982,/g4t1,,success
Status,1381,21608411035,/g3t1_2,,running
Status,1382,21609261164,/g3t1_3,,running
Status,1383,21609313098,/g3t1_2,,success
Status,1384,21609385451,/g3t1_3,,success
Status,1385,21609411297,/g3t1_1,,running
Status,1386,21609896334,/g3t1_1,,success
Status,1387,21624206840,/g4t1,,fail
Status,1388,21644029758,/g4t1,,success
Status,1389,21664137717,/g4t1,,success
Status,1390,21684508443,/g4t1,,success
Status,1391,21704580974,/g4t1,,success
Status,1392,21708289625,/g3t1_2,,running
Status,1393,21708354105,/g3t1_3,,running
Status,1394,21708983541,/g3t1_3,,success
Status,1395,21709327033,/g3t1_1,,running
Status,1396,21709364639,/g3t1_2,,success
Status,1397,21710153348,/g3t1_1,,success
Status,1398,21724570894,/g4t1,,fail
Status,1399,21744819026,/g4t1,,success
Status,1400,21765025794,/g4t1,,success
Status,1401,21785233669,/g4t1,,success
Status,1402,21804792819,/g4t1,,success
Status,1403,21808265410,/g3t1_2,,running
Status,1404,21808320500,/g3t1_3,,running
Status,1405,21808369044,/g3t1_2,,success
Status,1406,21808575534,/g3t1_3,,success
Status,1407,21809147193,/g3t1_1,,running
Status,1408,21809796363,/g3t1_1,,success
Status,1409,21824610981,/g4t1,,fail
Status,1410,21844680510,/g4t1,,success
Status,1411,21865032723,/g4t1,,success
Status,1412,21885388154,/g4t1,,success
Status,1413,21904961931,/g4t1,,success
Status,1414,21908771839,/g3t1_2,,running
Status,1415,21908815462,/g3t1_3,,running
Status,1416,21908827498,/g3t1_2,,success
Status,1417,21908851912,/g3t1_3,,success
Status,1418,21908944626,/g3t1_1,,running
Status,1419,21909163561,/g3t1_1,,success
Status,1420,21925296593,/g4t1,,fail
Status,1421,21945258956,/g4t1,,success
Status,1422,21965842687,/g4t1,,success
Status,1423,21985471362,/g4t1,,success
Status,1424,22005974483,/g4t1,,success
Status,1425,22008679884,/g3t1_2,,running
Status,1426,22008786369,/g3t1_3,,running
Status,1427,22008842661,/g3t1_2,,success
Status,1428,22009667202,/g3t1_1,,running
Status,1429,22009722151,/g3t1_3,,success
Status,1430,22010289501,/g3t1_1,,success
Status,1431,22026112641,/g4t1,,fail
Status,1432,22046374310,/g4t1,,success
Status,1433,22066781101,/g4t1,,success
Status,1434,22086632712,/g4t1,,success
Status,1435,22106731953,/g4t1,,success
Status,1436,22109049808,/g3t1_2,,running
Status,1437,22109109676,/g3t1_3,,running
Status,1438,22109234271,/g3t1_2,,success
Status,1439,22109265145,/g3t1_3,,success
Status,1440,22109826159,/g3t1_1,,running
Status,1441,22111100787,/g3t1_1,,success
Status,1442,22126701401,/g4t1,,fail
Status,1443,22147077807,/g4t1,,success
Status,1444,22166698759,/g4t1,,success
Status,1445,22186743585,/g4t1,,success
Status,1446,22207380408,/g4t1,,success
Status,1447,22208977651,/g3t1_2,,running
Status,1448,22209760001,/g3t1_3,,running
Status,1449,22210261886,/g3t1_3,,success
Status,1450,22210454180,/g3t1_2,,success
Status,1451,22211088986,/g3t1_1,,running
Status,1452,22211207888,/g3t1_1,,success
Status,1453,22227637450,/g4t1,,fail
Status,1454,22247739373,/g4t1,,success
Status,1455,22267946512,/g4t1,,success
Status,1456,22287830014,/g4t1,,success
Status,1457,22308058482,/g4t1,,success
Status,1458,22309343753,/g3t1_2,,running
Status,1459,22309398809,/g3t1_3,,running
Status,1460,22310465006,/g3t1_2,,success
Status,1461,22310878415,/g3t1_1,,running
Status,1462,22310937853,/g3t1_3,,success
Status,1463,22311006068,/g3t1_1,,success
Status,1464,22328026305,/g4t1,,fail
Status,1465,22348161485,/g4t1,,success
Status,1466,22368248619,/g4t1,,success
Status,1467,22388441823,/g4t1,,success
Status,1468,22409509398,/g4t1,,success
Status,1469,22409581120,/g3t1_2,,running
Status,1470,22409616918,/g3t1_3,,running
Status,1471,22409646642,/g3t1_2,,success
Status,1472,22410568703,/g3t1_3,,success
Status,1473,22410636135,/g3t1_1,,running
Status,1474,22411107683,/g3t1_1,,success
Status,1475,22428802928,/g4t1,,fail
Status,1476,22448314919,/g4t1,,success
Status,1477,22468412773,/g4t1,,success
Status,1478,22488685255,/g4t1,,success
Status,1479,22509256724,/g3t1_2,,running
Status,1480,22509396801,/g4t1,,success
Status,1481,22509431763,/g3t1_3,,running
Status,1482,22510744020,/g3t1_3,,success
Status,1483,22510790510,/g3t1_2,,success
Status,1484,22510858326,/g3t1_1,,running
Status,1485,22510884038,/g3t1_1,,success
Status,1486,22529374795,/g4t1,,fail
Status,1487,22549544733,/g4t1,,success
Status,1488,22569976358,/g4t1,,success
Status,1489,22590026458,/g4t1,,success
Status,1490,22609656655,/g3t1_2,,running
Status,1491,22609731111,/g3t1_3,,running
Status,1492,22610103152,/g3t1_2,,success
Status,1493,22610150019,/g4t1,,success
Status,1494,22610844289,/g3t1_3,,success
Status,1495,22610906935,/g3t1_1,,running
Status,1496,22611602679,/g3t1_1,,success
Status,1497,22630344915,/g4t1,,fail
Status,1498,22650650399,/g4t1,,success
Status,1499,22670510271,/g4t1,,success
Status,1500,22690659868,/g4t1,,success
Status,1501,22709933991,/g3t1_2,,running
Status,1502,22710050673,/g3t1_3,,running
Status,1503,22710623690,/g3t1_2,,success
Status,1504,22711661620,/g4t1,,success
Status,1505,22711734424,/g3t1_3,,success
Status,1506,22711773929,/g3t1_1,,running
Status,1507,22711853755,/g3t1_1,,success
Status,1508,22730444655,/g4t1,,fail
Status,1509,22750652370,/g4t1,,success
Status,1510,22770887750,/g4t1,,success
Status,1511,22790830272,/g4t1,,success
Status,1512,22809318204,/g3t1_2,,running
Status,1513,22809549075,/g3t1_2,,success
Status,1514,22809590628,/g3t1_3,,running
Status,1515,22809796327,/g3t1_3,,success
Status,1516,22810377257,/g3t1_1,,running
Status,1517,22810723831,/g4t1,,fail
Status,1518,22810770558,/g3t1_1,,success
Status,1519,22831473032,/g4t1,,success
Status,1520,22851836595,/g4t1,,success
Status,1521,22871801687,/g4t1,,success
Status,1522,22891999764,/g4t1,,success
Status,1523,22909956855,/g3t1_2,,running
Status,1524,22910069494,/g3t1_3,,running
Status,1525,22910229356,/g3t1_2,,success
Status,1526,22910289927,/g3t1_3,,success
Status,1527,22911009946,/g3t1_1,,running
Status,1528,22911409368,/g3t1_1,,success
Status,1529,22912012432,/g4t1,,fail
Status,1530,22932371729,/g4t1,,success
Status,1531,22952744338,/g4t1,,success
Status,1532,22972714506,/g4t1,,success
Status,1533,22992840076,/g4t1,,success
Status,1534,23009945834,/g3t1_2,,running
Status,1535,23010064679,/g3t1_3,,running
Status,1536,23011463474,/g3t1_2,,success
Status,1537,23011531861,/g3t1_3,,success
Status,1538,23011555461,/g3t1_1,,running
Status,1539,23012088376,/g3t1_1,,success
Status,1540,23012598535,/g4t1,,fail
