
Status,2,3407817489,/g4t1,,init
Status,4,8619968835,/g3t1_1,,init
Status,5,8628389309,/g3t1_1,,init
Status,6,8628408352,/g3t1_1,,running
Status,7,8628797804,/g3t1_1,,success
Status,8,8678555654,/g3t1_1,,running
Status,9,8678702024,/g3t1_1,,success
Status,10,8728634982,/g3t1_1,,running
Status,11,8728714970,/g3t1_1,,success
Status,13,8774716598,/g3t1_2,,init
Status,14,8778649259,/g3t1_1,,running
Status,15,8778720590,/g3t1_1,,success
Status,16,8781542823,/g3t1_2,,init
Status,17,8781555012,/g3t1_2,,running
Status,18,8781931125,/g3t1_2,,success
Status,19,8828849674,/g3t1_1,,running
Status,20,8828963431,/g3t1_1,,success
Status,21,8831637138,/g3t1_2,,running
Status,22,8831734645,/g3t1_2,,success
Status,24,8875252105,/g3t1_3,,init
Status,25,8878889652,/g3t1_1,,running
Status,26,8878974110,/g3t1_1,,success
Status,27,8882112829,/g3t1_2,,running
Status,28,8882128901,/g3t1_2,,success
Status,29,8883131498,/g3t1_3,,init
Status,30,8883146195,/g3t1_3,,running
Status,31,8883539964,/g3t1_3,,success
Status,32,8929352084,/g3t1_1,,running
Status,33,8929766283,/g3t1_1,,success
Status,34,8932076659,/g3t1_2,,running
Status,35,8932231218,/g3t1_2,,success
Status,36,8933412214,/g3t1_3,,running
Status,37,8934392631,/g3t1_3,,success
Status,38,8979820712,/g3t1_1,,running
Status,39,8980256886,/g3t1_1,,success
Status,40,8982742151,/g3t1_2,,running
Status,41,8983137401,/g3t1_2,,success
Status,42,8984517827,/g3t1_3,,running
Status,43,8984580089,/g3t1_3,,success
Status,44,9027024273,/g4t1,,success
Status,45,9029853335,/g3t1_1,,running
Status,46,9030254200,/g3t1_1,,success
Status,47,9032608578,/g3t1_2,,running
Status,48,9033135896,/g3t1_2,,success
Status,49,9034086661,/g3t1_3,,running
Status,50,9034272184,/g3t1_3,,success
Status,51,9079905896,/g3t1_1,,running
Status,52,9080285491,/g3t1_1,,success
Status,53,9082564959,/g3t1_2,,running
Status,54,9082857532,/g3t1_2,,success
Status,55,9084107601,/g3t1_3,,running
Status,56,9084516443,/g3t1_3,,success
Status,57,9128010600,/g4t1,,success
Status,58,9130233524,/g3t1_1,,running
Status,59,9130680181,/g3t1_1,,success
Status,60,9133494276,/g3t1_2,,running
Status,61,9134105055,/g3t1_2,,success
Status,62,9134578852,/g3t1_3,,running
Status,63,9134986724,/g3t1_3,,success
Status,64,9180690467,/g3t1_1,,running
Status,65,9180785223,/g3t1_1,,success
Status,66,9183066621,/g3t1_2,,running
Status,67,9183467540,/g3t1_2,,success
Status,68,9184585103,/g3t1_3,,running
Status,69,9185248403,/g3t1_3,,success
Status,70,9228118562,/g4t1,,success
Status,71,9230538406,/g3t1_1,,running
Status,72,9230882393,/g3t1_1,,success
Status,73,9233531195,/g3t1_2,,running
Status,74,9233591687,/g3t1_2,,success
Status,75,9234912149,/g3t1_3,,running
Status,76,9235508532,/g3t1_3,,success
Status,77,9280988748,/g3t1_1,,running
Status,78,9281380058,/g3t1_1,,success
Status,79,9283385109,/g3t1_2,,running
Status,80,9283677704,/g3t1_2,,success
Status,81,9284915793,/g3t1_3,,running
Status,82,9285622359,/g3t1_3,,success
Status,83,9328423151,/g4t1,,fail
Status,84,9331016006,/g3t1_1,,running
Status,85,9331498153,/g3t1_1,,success
Status,86,9333437123,/g3t1_2,,running
Status,87,9333827070,/g3t1_2,,success
Status,88,9334861005,/g3t1_3,,running
Status,89,9335654836,/g3t1_3,,success
Status,90,9381438918,/g3t1_1,,running
Status,91,9381508961,/g3t1_1,,success
Status,92,9383618597,/g3t1_2,,running
Status,93,9384103775,/g3t1_2,,success
Status,94,9385054068,/g3t1_3,,running
Status,95,9385512189,/g3t1_3,,success
Status,96,9428281262,/g4t1,,fail
Status,97,9431334350,/g3t1_1,,running
Status,98,9431576253,/g3t1_1,,success
Status,99,9433663844,/g3t1_2,,running
Status,100,9434227031,/g3t1_2,,success
Status,101,9435753948,/g3t1_3,,running
Status,102,9435840046,/g3t1_3,,success
Status,103,9481587173,/g3t1_1,,running
Status,104,9482048735,/g3t1_1,,success
Status,105,9483763465,/g3t1_2,,running
Status,106,9484177473,/g3t1_2,,success
Status,107,9485467540,/g3t1_3,,running
Status,108,9485885620,/g3t1_3,,success
Status,109,9528449173,/g4t1,,fail
Status,110,9531507899,/g3t1_1,,running
Status,111,9531874567,/g3t1_1,,success
Status,112,9533930589,/g3t1_2,,running
Status,113,9534526395,/g3t1_2,,success
Status,114,9535808225,/g3t1_3,,running
Status,115,9536160571,/g3t1_3,,success
Status,116,9582282928,/g3t1_1,,running
Status,117,9582354131,/g3t1_1,,success
Status,118,9584140780,/g3t1_2,,running
Status,119,9584437985,/g3t1_2,,success
Status,120,9585479102,/g3t1_3,,running
Status,121,9585742325,/g3t1_3,,success
Status,122,9628636099,/g4t1,,fail
Status,123,9631362290,/g3t1_1,,running
Status,124,9631593859,/g3t1_1,,success
Status,125,9633826234,/g3t1_2,,running
Status,126,9634257358,/g3t1_2,,success
Status,127,9635297992,/g3t1_3,,running
Status,128,9635451735,/g3t1_3,,success
Status,129,9681522561,/g3t1_1,,running
Status,130,9681683076,/g3t1_1,,success
Status,131,9683856475,/g3t1_2,,running
Status,132,9684090464,/g3t1_2,,success
Status,133,9685195722,/g3t1_3,,running
Status,134,9685450311,/g3t1_3,,success
Status,135,9728719596,/g4t1,,fail
Status,136,9731928338,/g3t1_1,,running
Status,137,9732622006,/g3t1_1,,success
Status,138,9734326598,/g3t1_2,,running
Status,139,9734889337,/g3t1_2,,success
Status,140,9735769104,/g3t1_3,,running
Status,141,9736050550,/g3t1_3,,success
Status,142,9782239848,/g3t1_1,,running
Status,143,9782687513,/g3t1_1,,success
Status,144,9784383103,/g3t1_2,,running
Status,145,9785048737,/g3t1_2,,success
Status,146,9786095886,/g3t1_3,,running
Status,147,9786161689,/g3t1_3,,success
Status,148,9829044187,/g4t1,,fail
Status,149,9832194893,/g3t1_1,,running
Status,150,9832527474,/g3t1_1,,success
Status,151,9834562972,/g3t1_2,,running
Status,152,9835031013,/g3t1_2,,success
Status,153,9835860363,/g3t1_3,,running
Status,154,9836243760,/g3t1_3,,success
Status,155,9882687902,/g3t1_1,,running
Status,156,9882774218,/g3t1_1,,success
Status,157,9884663777,/g3t1_2,,running
Status,158,9884951199,/g3t1_2,,success
Status,159,9885964556,/g3t1_3,,running
Status,160,9886307568,/g3t1_3,,success
Status,161,9929094760,/g4t1,,fail
Status,162,9932286657,/g3t1_1,,running
Status,163,9932523871,/g3t1_1,,success
Status,164,9934499841,/g3t1_2,,running
Status,165,9934790576,/g3t1_2,,success
Status,166,9935722298,/g3t1_3,,running
Status,167,9935908884,/g3t1_3,,success
Status,168,9982745664,/g3t1_1,,running
Status,169,9983089446,/g3t1_1,,success
Status,170,9984938284,/g3t1_2,,running
Status,171,9985435410,/g3t1_2,,success
Status,172,9985951114,/g3t1_3,,running
Status,173,9986297033,/g3t1_3,,success
Status,174,10029187610,/g4t1,,fail
Status,175,10032933596,/g3t1_1,,running
Status,176,10033343317,/g3t1_1,,success
Status,177,10034982280,/g3t1_2,,running
Status,178,10035474137,/g3t1_2,,success
Status,179,10036612239,/g3t1_3,,running
Status,180,10037151352,/g3t1_3,,success
Status,181,10083050433,/g3t1_1,,running
Status,182,10083403974,/g3t1_1,,success
Status,183,10085472806,/g3t1_2,,running
Status,184,10085939619,/g3t1_2,,success
Status,185,10086675079,/g3t1_3,,running
Status,186,10086723618,/g3t1_3,,success
Status,187,10129330837,/g4t1,,fail
Status,188,10133081893,/g3t1_1,,running
Status,189,10133477389,/g3t1_1,,success
Status,190,10135219894,/g3t1_2,,running
Status,191,10135473188,/g3t1_2,,success
Status,192,10136594154,/g3t1_3,,running
Status,193,10137112250,/g3t1_3,,success
Status,194,10183587260,/g3t1_1,,running
Status,195,10183677090,/g3t1_1,,success
Status,196,10185267711,/g3t1_2,,running
Status,197,10185951288,/g3t1_2,,success
Status,198,10186652482,/g3t1_3,,running
Status,199,10186975191,/g3t1_3,,success
Status,200,10229555961,/g4t1,,fail
Status,201,10233272695,/g3t1_1,,running
Status,202,10233950486,/g3t1_1,,success
Status,203,10235434924,/g3t1_2,,running
Status,204,10236174880,/g3t1_2,,success
Status,205,10236725273,/g3t1_3,,running
Status,206,10237412702,/g3t1_3,,success
Status,207,10283673304,/g3t1_1,,running
Status,208,10284054733,/g3t1_1,,success
Status,209,10285631003,/g3t1_2,,running
Status,210,10285923294,/g3t1_2,,success
Status,211,10286794376,/g3t1_3,,running
Status,212,10287313742,/g3t1_3,,success
Status,213,10329775913,/g4t1,,fail
Status,214,10333644176,/g3t1_1,,running
Status,215,10333870443,/g3t1_1,,success
Status,216,10335633723,/g3t1_2,,running
Status,217,10336418855,/g3t1_2,,success
Status,218,10336949875,/g3t1_3,,running
Status,219,10337677568,/g3t1_3,,success
Status,220,10383975726,/g3t1_1,,running
Status,221,10384384857,/g3t1_1,,success
Status,222,10385662576,/g3t1_2,,running
Status,223,10386332246,/g3t1_2,,success
Status,224,10386793230,/g3t1_3,,running
Status,225,10387387802,/g3t1_3,,success
Status,226,10429754584,/g4t1,,fail
Status,227,10433827742,/g3t1_1,,running
Status,228,10434331716,/g3t1_1,,success
Status,229,10435944653,/g3t1_2,,running
Status,230,10436335821,/g3t1_2,,success
Status,231,10437009835,/g3t1_3,,running
Status,232,10437535123,/g3t1_3,,success
Status,233,10483717005,/g3t1_1,,running
Status,234,10483750941,/g3t1_1,,success
Status,235,10485616068,/g3t1_2,,running
Status,236,10485749148,/g3t1_2,,success
Status,237,10486651560,/g3t1_3,,running
Status,238,10486870598,/g3t1_3,,success
Status,239,10529956468,/g4t1,,fail
Status,240,10534127188,/g3t1_1,,running
Status,241,10534726155,/g3t1_1,,success
Status,242,10536232657,/g3t1_2,,running
Status,243,10537266679,/g3t1_2,,success
Status,244,10537741823,/g3t1_3,,running
Status,245,10537862281,/g3t1_3,,success
Status,246,10584128092,/g3t1_1,,running
Status,247,10584280097,/g3t1_1,,success
Status,248,10585645596,/g3t1_2,,running
Status,249,10585852137,/g3t1_2,,success
Status,250,10586832487,/g3t1_3,,running
Status,251,10587166481,/g3t1_3,,success
Status,252,10629588278,/g4t1,,fail
Status,253,10633900561,/g3t1_1,,running
Status,254,10634052555,/g3t1_1,,success
Status,255,10636041180,/g3t1_2,,running
Status,256,10636162708,/g3t1_2,,success
Status,257,10637400217,/g3t1_3,,running
Status,258,10637650577,/g3t1_3,,success
Status,259,10684179074,/g3t1_1,,running
Status,260,10684337160,/g3t1_1,,success
Status,261,10686055451,/g3t1_2,,running
Status,262,10686205465,/g3t1_2,,success
Status,263,10687057766,/g3t1_3,,running
Status,264,10687332940,/g3t1_3,,success
Status,265,10730348691,/g4t1,,fail
Status,266,10735001646,/g3t1_1,,running
Status,267,10735073027,/g3t1_1,,success
Status,268,10736615231,/g3t1_2,,running
Status,269,10737343322,/g3t1_2,,success
Status,270,10737844992,/g3t1_3,,running
Status,271,10738252977,/g3t1_3,,success
Status,272,10784865559,/g3t1_1,,running
Status,273,10784934449,/g3t1_1,,success
Status,274,10786603827,/g3t1_2,,running
Status,275,10786908091,/g3t1_2,,success
Status,276,10787730021,/g3t1_3,,running
Status,277,10787971202,/g3t1_3,,success
Status,278,10830287266,/g4t1,,fail
Status,279,10834836101,/g3t1_1,,running
Status,280,10835187688,/g3t1_1,,success
Status,281,10836651527,/g3t1_2,,running
Status,282,10837098727,/g3t1_2,,success
Status,283,10837870425,/g3t1_3,,running
Status,284,10838095949,/g3t1_3,,success
Status,285,10884768051,/g3t1_1,,running
Status,286,10884817238,/g3t1_1,,success
Status,287,10886296591,/g3t1_2,,running
Status,288,10886738192,/g3t1_2,,success
Status,289,10887493223,/g3t1_3,,running
Status,290,10887706682,/g3t1_3,,success
Status,291,10930505879,/g4t1,,fail
Status,292,10935409374,/g3t1_1,,running
Status,293,10935487139,/g3t1_1,,success
Status,294,10937315455,/g3t1_2,,running
Status,295,10937912964,/g3t1_2,,success
Status,296,10937974814,/g3t1_3,,running
Status,297,10938363892,/g3t1_3,,success
Status,298,10985806387,/g3t1_1,,running
Status,299,10985898291,/g3t1_1,,success
Status,300,10986938820,/g3t1_2,,running
Status,301,10987606079,/g3t1_2,,success
Status,302,10988108917,/g3t1_3,,running
Status,303,10988615043,/g3t1_3,,success
Status,304,11030557479,/g4t1,,fail
Status,305,11035275577,/g3t1_1,,running
Status,306,11035706801,/g3t1_1,,success
Status,307,11037075501,/g3t1_2,,running
Status,308,11037669647,/g3t1_2,,success
Status,309,11038406086,/g3t1_3,,running
Status,310,11038465565,/g3t1_3,,success
Status,311,11085814496,/g3t1_1,,running
Status,312,11085913919,/g3t1_1,,success
Status,313,11087254599,/g3t1_2,,running
Status,314,11087592154,/g3t1_2,,success
Status,315,11088914804,/g3t1_3,,running
Status,316,11088980370,/g3t1_3,,success
Status,317,11130810640,/g4t1,,fail
Status,318,11136053580,/g3t1_1,,running
Status,319,11136138219,/g3t1_1,,success
Status,320,11137532317,/g3t1_2,,running
Status,321,11138425110,/g3t1_2,,success
Status,322,11138861898,/g3t1_3,,running
Status,323,11139134588,/g3t1_3,,success
Status,324,11185926170,/g3t1_1,,running
Status,325,11186615246,/g3t1_1,,success
Status,326,11187423659,/g3t1_2,,running
Status,327,11187934919,/g3t1_2,,success
Status,328,11188345203,/g3t1_3,,running
Status,329,11189086516,/g3t1_3,,success
Status,330,11230904981,/g4t1,,fail
Status,331,11235835840,/g3t1_1,,running
Status,332,11236169805,/g3t1_1,,success
Status,333,11237745281,/g3t1_2,,running
Status,334,11238003911,/g3t1_2,,success
Status,335,11238664230,/g3t1_3,,running
Status,336,11239077153,/g3t1_3,,success
Status,337,11286113073,/g3t1_1,,running
Status,338,11286404330,/g3t1_1,,success
Status,339,11287540433,/g3t1_2,,running
Status,340,11288026586,/g3t1_2,,success
Status,341,11288709673,/g3t1_3,,running
Status,342,11289244708,/g3t1_3,,success
Status,343,11331088864,/g4t1,,fail
Status,344,11336090032,/g3t1_1,,running
Status,345,11336527143,/g3t1_1,,success
Status,346,11338022662,/g3t1_2,,running
Status,347,11338091387,/g3t1_2,,success
Status,348,11338841912,/g3t1_3,,running
Status,349,11339594601,/g3t1_3,,success
Status,350,11386336689,/g3t1_1,,running
Status,351,11386910209,/g3t1_1,,success
Status,352,11387996574,/g3t1_2,,running
Status,353,11388808051,/g3t1_2,,success
Status,354,11388886212,/g3t1_3,,running
Status,355,11389558872,/g3t1_3,,success
Status,356,11431224909,/g4t1,,fail
Status,357,11436194132,/g3t1_1,,running
Status,358,11436488929,/g3t1_1,,success
Status,359,11438135807,/g3t1_2,,running
Status,360,11438419615,/g3t1_2,,success
Status,361,11438978065,/g3t1_3,,running
Status,362,11439581858,/g3t1_3,,success
Status,363,11486674864,/g3t1_1,,running
Status,364,11487119689,/g3t1_1,,success
Status,365,11488535261,/g3t1_2,,running
Status,366,11488623366,/g3t1_2,,success
Status,367,11489522421,/g3t1_3,,running
Status,368,11489589659,/g3t1_3,,success
Status,369,11531352354,/g4t1,,fail
Status,370,11536557509,/g3t1_1,,running
Status,371,11537101850,/g3t1_1,,success
Status,372,11538108195,/g3t1_2,,running
Status,373,11538656499,/g3t1_2,,success
Status,374,11539591329,/g3t1_3,,running
Status,375,11539645150,/g3t1_3,,success
Status,376,11586731782,/g3t1_1,,running
Status,377,11587204059,/g3t1_1,,success
Status,378,11588153100,/g3t1_2,,running
Status,379,11589306060,/g3t1_2,,success
Status,380,11589391921,/g3t1_3,,running
Status,381,11589508830,/g3t1_3,,success
Status,382,11631482112,/g4t1,,fail
Status,383,11637371273,/g3t1_1,,running
Status,384,11637720740,/g3t1_1,,success
Status,385,11638346795,/g3t1_2,,running
Status,386,11639193776,/g3t1_2,,success
Status,387,11639261980,/g3t1_3,,running
Status,388,11640173021,/g3t1_3,,success
Status,389,11687084820,/g3t1_1,,running
Status,390,11687479119,/g3t1_1,,success
Status,391,11688442835,/g3t1_2,,running
Status,392,11689531443,/g3t1_2,,success
Status,393,11689612750,/g3t1_3,,running
Status,394,11690069478,/g3t1_3,,success
Status,395,11731542353,/g4t1,,fail
Status,396,11737375855,/g3t1_1,,running
Status,397,11737659532,/g3t1_1,,success
Status,398,11738644590,/g3t1_2,,running
Status,399,11739356908,/g3t1_2,,success
Status,400,11739971659,/g3t1_3,,running
Status,401,11740088056,/g3t1_3,,success
Status,402,11787822948,/g3t1_1,,running
Status,403,11787913198,/g3t1_1,,success
Status,404,11788945231,/g3t1_2,,running
Status,405,11789668367,/g3t1_2,,success
Status,406,11789756981,/g3t1_3,,running
Status,407,11790249071,/g3t1_3,,success
Status,408,11831654248,/g4t1,,fail
Status,409,11837970080,/g3t1_1,,running
Status,410,11838037967,/g3t1_1,,success
Status,411,11838966659,/g3t1_2,,running
Status,412,11839652107,/g3t1_2,,success
Status,413,11839725434,/g3t1_3,,running
Status,414,11840106195,/g3t1_3,,success
Status,415,11888098837,/g3t1_1,,running
Status,416,11888629372,/g3t1_1,,success
Status,417,11888874804,/g3t1_2,,running
Status,418,11889972225,/g3t1_3,,running
Status,419,11890045782,/g3t1_2,,success
Status,420,11890470102,/g3t1_3,,success
Status,421,11931870919,/g4t1,,fail
Status,422,11938247044,/g3t1_1,,running
Status,423,11938459834,/g3t1_1,,success
Status,424,11939229849,/g3t1_2,,running
Status,425,11940227075,/g3t1_2,,success
Status,426,11940289721,/g3t1_3,,running
Status,427,11940357956,/g3t1_3,,success
Status,428,11988486675,/g3t1_1,,running
Status,429,11988828253,/g3t1_1,,success
Status,430,11989152997,/g3t1_2,,running
Status,431,11989784790,/g3t1_2,,success
Status,432,11989849095,/g3t1_3,,running
Status,433,11990836448,/g3t1_3,,success
Status,434,12031976585,/g4t1,,fail
Status,435,12038291953,/g3t1_1,,running
Status,436,12038582280,/g3t1_1,,success
Status,437,12039393480,/g3t1_2,,running
Status,438,12039957889,/g3t1_2,,success
Status,439,12040032788,/g3t1_3,,running
Status,440,12040685293,/g3t1_3,,success
Status,441,12088900230,/g3t1_1,,running
Status,442,12088986229,/g3t1_1,,success
Status,443,12089479466,/g3t1_2,,running
Status,444,12090117840,/g3t1_2,,success
Status,445,12090615097,/g3t1_3,,running
Status,446,12091201982,/g3t1_3,,success
Status,447,12132096523,/g4t1,,fail
Status,448,12139054101,/g3t1_1,,running
Status,449,12139141046,/g3t1_1,,success
Status,450,12139382239,/g3t1_2,,running
Status,451,12139883885,/g3t1_2,,success
Status,452,12140226387,/g3t1_3,,running
Status,453,12141351486,/g3t1_3,,success
Status,454,12189294735,/g3t1_1,,running
Status,455,12189462724,/g3t1_1,,success
Status,456,12190380099,/g3t1_2,,running
Status,457,12190973826,/g3t1_2,,success
Status,458,12191057460,/g3t1_3,,running
Status,459,12191151493,/g3t1_3,,success
Status,460,12232176712,/g4t1,,fail
Status,461,12238995069,/g3t1_1,,running
Status,462,12239764900,/g3t1_1,,success
Status,463,12239842298,/g3t1_2,,running
Status,464,12240578334,/g3t1_2,,success
Status,465,12240632526,/g3t1_3,,running
Status,466,12241187884,/g3t1_3,,success
Status,467,12289331617,/g3t1_1,,running
Status,468,12290288241,/g3t1_2,,running
Status,469,12290557739,/g3t1_1,,success
Status,470,12290689494,/g3t1_3,,running
Status,471,12291334106,/g3t1_2,,success
Status,472,12291441727,/g3t1_3,,success
Status,473,12332249784,/g4t1,,fail
Status,474,12339434289,/g3t1_1,,running
Status,475,12339997838,/g3t1_1,,success
Status,476,12340200416,/g3t1_2,,running
Status,477,12341104874,/g3t1_3,,running
Status,478,12341216359,/g3t1_2,,success
Status,479,12341725773,/g3t1_3,,success
Status,480,12389840993,/g3t1_1,,running
Status,481,12390420674,/g3t1_1,,success
Status,482,12390490666,/g3t1_2,,running
Status,483,12391491485,/g3t1_3,,running
Status,484,12391570352,/g3t1_2,,success
Status,485,12391904997,/g3t1_3,,success
Status,486,12432541194,/g4t1,,fail
Status,487,12439712214,/g3t1_1,,running
Status,488,12440049639,/g3t1_1,,success
Status,489,12440534728,/g3t1_2,,running
Status,490,12441661975,/g3t1_2,,success
Status,491,12441935721,/g3t1_3,,running
Status,492,12441965891,/g3t1_3,,success
Status,493,12490094514,/g3t1_1,,running
Status,494,12490537409,/g3t1_1,,success
Status,495,12490743049,/g3t1_2,,running
Status,496,12491678685,/g3t1_2,,success
Status,497,12491741004,/g3t1_3,,running
Status,498,12491765284,/g3t1_3,,success
Status,499,12532591344,/g4t1,,fail
Status,500,12540319769,/g3t1_1,,running
Status,501,12541095251,/g3t1_2,,running
Status,502,12541178674,/g3t1_1,,success
Status,503,12542312318,/g3t1_3,,running
Status,504,12542394939,/g3t1_3,,success
Status,505,12542650917,/g3t1_2,,success
Status,506,12590308634,/g3t1_1,,running
Status,507,12590785086,/g3t1_1,,success
Status,508,12591069190,/g3t1_2,,running
Status,509,12591960476,/g3t1_2,,success
Status,510,12592008410,/g3t1_3,,running
Status,511,12592054001,/g3t1_3,,success
Status,512,12632711935,/g4t1,,fail
Status,513,12640461594,/g3t1_1,,running
Status,514,12641131095,/g3t1_1,,success
Status,515,12641237860,/g3t1_2,,running
Status,516,12641898510,/g3t1_2,,success
Status,517,12642018434,/g3t1_3,,running
Status,518,12642407827,/g3t1_3,,success
Status,519,12690742843,/g3t1_1,,running
Status,520,12690843227,/g3t1_1,,success
Status,521,12691578158,/g3t1_2,,running
Status,522,12691989401,/g3t1_2,,success
Status,523,12692079251,/g3t1_3,,running
Status,524,12692462392,/g3t1_3,,success
Status,525,12732842093,/g4t1,,fail
Status,526,12740845158,/g3t1_1,,running
Status,527,12741391699,/g3t1_1,,success
Status,528,12741474339,/g3t1_2,,running
Status,529,12742179084,/g3t1_3,,running
Status,530,12742559605,/g3t1_2,,success
Status,531,12742814023,/g3t1_3,,success
Status,532,12790771865,/g3t1_1,,running
Status,533,12791617821,/g3t1_1,,success
Status,534,12791698233,/g3t1_2,,running
Status,535,12792463948,/g3t1_2,,success
Status,536,12792542004,/g3t1_3,,running
Status,537,12793021723,/g3t1_3,,success
Status,538,12833068113,/g4t1,,fail
Status,539,12840997469,/g3t1_1,,running
Status,540,12841545937,/g3t1_1,,success
Status,541,12841857128,/g3t1_2,,running
Status,542,12842526526,/g3t1_2,,success
Status,543,12842707991,/g3t1_3,,running
Status,544,12843209109,/g3t1_3,,success
Status,545,12891043514,/g3t1_1,,running
Status,546,12891939922,/g3t1_1,,success
Status,547,12892023723,/g3t1_2,,running
Status,548,12892485902,/g3t1_2,,success
Status,549,12892581899,/g3t1_3,,running
Status,550,12893016406,/g3t1_3,,success
Status,551,12932993316,/g4t1,,fail
Status,552,12941254369,/g3t1_1,,running
Status,553,12941965106,/g3t1_2,,running
Status,554,12942040716,/g3t1_1,,success
Status,555,12942666942,/g3t1_2,,success
Status,556,12942728521,/g3t1_3,,running
Status,557,12943163276,/g3t1_3,,success
Status,558,12991233020,/g3t1_1,,running
Status,559,12991893729,/g3t1_1,,success
Status,560,12991972746,/g3t1_2,,running
Status,561,12992696208,/g3t1_2,,success
Status,562,12992844958,/g3t1_3,,running
Status,563,12993236364,/g3t1_3,,success
Status,564,13033196834,/g4t1,,fail
Status,565,13041611893,/g3t1_1,,running
Status,566,13042119732,/g3t1_2,,running
Status,567,13042819212,/g3t1_1,,success
Status,568,13042905433,/g3t1_2,,success
Status,569,13043126955,/g3t1_3,,running
Status,570,13043547989,/g3t1_3,,success
Status,571,13091365913,/g3t1_1,,running
Status,572,13092175664,/g3t1_1,,success
Status,573,13092290718,/g3t1_2,,running
Status,574,13093118958,/g3t1_2,,success
Status,575,13093411915,/g3t1_3,,running
Status,576,13094104266,/g3t1_3,,success
Status,577,13133383437,/g4t1,,fail
Status,578,13141743470,/g3t1_1,,running
Status,579,13142378441,/g3t1_1,,success
Status,580,13142529971,/g3t1_2,,running
Status,581,13142934329,/g3t1_2,,success
Status,582,13143032162,/g3t1_3,,running
Status,583,13143591602,/g3t1_3,,success
Status,584,13191736645,/g3t1_1,,running
Status,585,13192195150,/g3t1_1,,success
Status,586,13192299060,/g3t1_2,,running
Status,587,13193446418,/g3t1_2,,success
Status,588,13193803850,/g3t1_3,,running
Status,589,13193888000,/g3t1_3,,success
Status,590,13233592716,/g4t1,,fail
Status,591,13241939959,/g3t1_1,,running
Status,592,13242536802,/g3t1_1,,success
Status,593,13242666207,/g3t1_2,,running
Status,594,13243237101,/g3t1_2,,success
Status,595,13243353931,/g3t1_3,,running
Status,596,13244212529,/g3t1_3,,success
Status,597,13292190663,/g3t1_1,,running
Status,598,13292287292,/g3t1_1,,success
Status,599,13293063525,/g3t1_2,,running
Status,600,13293593639,/g3t1_2,,success
Status,601,13293672236,/g3t1_3,,running
Status,602,13294304589,/g3t1_3,,success
Status,603,13333417200,/g4t1,,fail
Status,604,13341805670,/g3t1_1,,running
Status,605,13342515647,/g3t1_1,,success
Status,606,13342814827,/g3t1_2,,running
Status,607,13343576649,/g3t1_2,,success
Status,608,13343947564,/g3t1_3,,running
Status,609,13344203143,/g3t1_3,,success
Status,610,13392197308,/g3t1_1,,running
Status,611,13392665048,/g3t1_1,,success
Status,612,13392992960,/g3t1_2,,running
Status,613,13394013354,/g3t1_3,,running
Status,614,13394074074,/g3t1_2,,success
Status,615,13394153471,/g3t1_3,,success
Status,616,13433616935,/g4t1,,fail
Status,617,13442241324,/g3t1_1,,running
Status,618,13442834368,/g3t1_1,,success
Status,619,13443009643,/g3t1_2,,running
Status,620,13443845771,/g3t1_2,,success
Status,621,13443936311,/g3t1_3,,running
Status,622,13444451662,/g3t1_3,,success
Status,623,13492368760,/g3t1_1,,running
Status,624,13493100960,/g3t1_1,,success
Status,625,13493179370,/g3t1_2,,running
Status,626,13494303644,/g3t1_2,,success
Status,627,13494402124,/g3t1_3,,running
Status,628,13494443454,/g3t1_3,,success
Status,629,13533769231,/g4t1,,fail
Status,630,13542462607,/g3t1_1,,running
Status,631,13543141723,/g3t1_1,,success
Status,632,13544067980,/g3t1_2,,running
Status,633,13544139763,/g3t1_2,,success
Status,634,13544554927,/g3t1_3,,running
Status,635,13545391125,/g3t1_3,,success
Status,636,13592510375,/g3t1_1,,running
Status,637,13592697115,/g3t1_1,,success
Status,638,13593664434,/g3t1_2,,running
Status,639,13594462075,/g3t1_2,,success
Status,640,13594532985,/g3t1_3,,running
Status,641,13594877343,/g3t1_3,,success
Status,642,13633950958,/g4t1,,fail
Status,643,13642719083,/g3t1_1,,running
Status,644,13643531923,/g3t1_1,,success
Status,645,13643678581,/g3t1_2,,running
Status,646,13644929942,/g3t1_2,,success
Status,647,13645034203,/g3t1_3,,running
Status,648,13645462863,/g3t1_3,,success
Status,649,13692850915,/g3t1_1,,running
Status,650,13693316954,/g3t1_1,,success
Status,651,13693966759,/g3t1_2,,running
Status,652,13694500465,/g3t1_3,,running
Status,653,13694563883,/g3t1_2,,success
Status,654,13695060574,/g3t1_3,,success
Status,655,13734097126,/g4t1,,fail
Status,656,13742936104,/g3t1_1,,running
Status,657,13743662486,/g3t1_1,,success
Status,658,13743776575,/g3t1_2,,running
Status,659,13744515757,/g3t1_2,,success
Status,660,13744585578,/g3t1_3,,running
Status,661,13745007601,/g3t1_3,,success
Status,662,13793261161,/g3t1_1,,running
Status,663,13793738951,/g3t1_1,,success
Status,664,13793874691,/g3t1_2,,running
Status,665,13794403943,/g3t1_2,,success
Status,666,13794883738,/g3t1_3,,running
Status,667,13795350297,/g3t1_3,,success
Status,668,13834177954,/g4t1,,fail
Status,669,13843337585,/g3t1_1,,running
Status,670,13843463454,/g3t1_1,,success
Status,671,13844277843,/g3t1_2,,running
Status,672,13844395789,/g3t1_2,,success
Status,673,13845168213,/g3t1_3,,running
Status,674,13845490315,/g3t1_3,,success
Status,675,13893474660,/g3t1_1,,running
Status,676,13893836126,/g3t1_1,,success
Status,677,13893908828,/g3t1_2,,running
Status,678,13894801448,/g3t1_2,,success
Status,679,13894929205,/g3t1_3,,running
Status,680,13895334523,/g3t1_3,,success
Status,681,13934243016,/g4t1,,fail
Status,682,13943597361,/g3t1_1,,running
Status,683,13943942439,/g3t1_1,,success
Status,684,13944006122,/g3t1_2,,running
Status,685,13945008324,/g3t1_2,,success
Status,686,13945158930,/g3t1_3,,running
Status,687,13945768641,/g3t1_3,,success
Status,688,13993624802,/g3t1_1,,running
Status,689,13994160604,/g3t1_1,,success
Status,690,13994381684,/g3t1_2,,running
Status,691,13995096888,/g3t1_2,,success
Status,692,13995717050,/g3t1_3,,running
Status,693,13995839056,/g3t1_3,,success
Status,694,14034200297,/g4t1,,fail
Status,695,14043738977,/g3t1_1,,running
Status,696,14044331345,/g3t1_1,,success
Status,697,14044440262,/g3t1_2,,running
Status,698,14045458355,/g3t1_2,,success
Status,699,14045546062,/g3t1_3,,running
Status,700,14045925151,/g3t1_3,,success
Status,701,14093649211,/g3t1_1,,running
Status,702,14094238200,/g3t1_1,,success
Status,703,14094315820,/g3t1_2,,running
Status,704,14095421597,/g3t1_2,,success
Status,705,14095542456,/g3t1_3,,running
Status,706,14096030575,/g3t1_3,,success
Status,707,14134349016,/g4t1,,fail
Status,708,14143839470,/g3t1_1,,running
Status,709,14144412249,/g3t1_1,,success
Status,710,14144494375,/g3t1_2,,running
Status,711,14145013797,/g3t1_2,,success
Status,712,14145692982,/g3t1_3,,running
Status,713,14146109299,/g3t1_3,,success
Status,714,14193954932,/g3t1_1,,running
Status,715,14194476066,/g3t1_1,,success
Status,716,14194855428,/g3t1_2,,running
Status,717,14195441379,/g3t1_2,,success
Status,718,14195590256,/g3t1_3,,running
Status,719,14196186768,/g3t1_3,,success
Status,720,14234350740,/g4t1,,fail
Status,721,14243902184,/g3t1_1,,running
Status,722,14244912872,/g3t1_1,,success
Status,723,14245004255,/g3t1_2,,running
Status,724,14245193909,/g3t1_2,,success
Status,725,14245656953,/g3t1_3,,running
Status,726,14246257079,/g3t1_3,,success
Status,727,14294262515,/g3t1_1,,running
Status,728,14294708890,/g3t1_2,,running
Status,729,14294838514,/g3t1_1,,success
Status,730,14295626236,/g3t1_2,,success
Status,731,14295856095,/g3t1_3,,running
Status,732,14296328188,/g3t1_3,,success
Status,733,14334541437,/g4t1,,fail
Status,734,14344429729,/g3t1_1,,running
Status,735,14345180191,/g3t1_2,,running
Status,736,14345330944,/g3t1_1,,success
Status,737,14345831601,/g3t1_2,,success
Status,738,14346578856,/g3t1_3,,running
Status,739,14346647499,/g3t1_3,,success
Status,740,14394884465,/g3t1_1,,running
Status,741,14394955292,/g3t1_2,,running
Status,742,14395029835,/g3t1_1,,success
Status,743,14395885479,/g3t1_2,,success
Status,744,14395992756,/g3t1_3,,running
Status,745,14396678024,/g3t1_3,,success
Status,746,14434680186,/g4t1,,fail
Status,747,14444526861,/g3t1_1,,running
Status,748,14445419608,/g3t1_2,,running
Status,749,14445558487,/g3t1_1,,success
Status,750,14445742619,/g3t1_2,,success
Status,751,14446138072,/g3t1_3,,running
Status,752,14446516037,/g3t1_3,,success
Status,753,14494443432,/g3t1_1,,running
Status,754,14495267190,/g3t1_1,,success
Status,755,14495323867,/g3t1_2,,running
Status,756,14496152701,/g3t1_2,,success
Status,757,14496229517,/g3t1_3,,running
Status,758,14496681020,/g3t1_3,,success
Status,759,14534777799,/g4t1,,fail
Status,760,14544649764,/g3t1_1,,running
Status,761,14545469670,/g3t1_1,,success
Status,762,14545591163,/g3t1_2,,running
Status,763,14546017809,/g3t1_2,,success
Status,764,14546374573,/g3t1_3,,running
Status,765,14546856654,/g3t1_3,,success
Status,766,14594741064,/g3t1_1,,running
Status,767,14595840175,/g3t1_1,,success
Status,768,14595906372,/g3t1_2,,running
Status,769,14596020422,/g3t1_2,,success
Status,770,14596514571,/g3t1_3,,running
Status,771,14597379406,/g3t1_3,,success
Status,772,14634872915,/g4t1,,fail
Status,773,14644936893,/g3t1_1,,running
Status,774,14645722811,/g3t1_1,,success
Status,775,14645793212,/g3t1_2,,running
Status,776,14646255366,/g3t1_2,,success
Status,777,14646682479,/g3t1_3,,running
Status,778,14647054288,/g3t1_3,,success
Status,779,14694992701,/g3t1_1,,running
Status,780,14695339740,/g3t1_1,,success
Status,781,14695853748,/g3t1_2,,running
Status,782,14696165081,/g3t1_2,,success
Status,783,14697203977,/g3t1_3,,running
Status,784,14697333656,/g3t1_3,,success
Status,785,14734854780,/g4t1,,fail
Status,786,14745048311,/g3t1_1,,running
Status,787,14745886137,/g3t1_1,,success
Status,788,14745948837,/g3t1_2,,running
Status,789,14746549299,/g3t1_2,,success
Status,790,14746624525,/g3t1_3,,running
Status,791,14747190681,/g3t1_3,,success
Status,792,14795291607,/g3t1_1,,running
Status,793,14795790831,/g3t1_1,,success
Status,794,14795852655,/g3t1_2,,running
Status,795,14796495366,/g3t1_2,,success
Status,796,14797336428,/g3t1_3,,running
Status,797,14797417366,/g3t1_3,,success
Status,798,14835026178,/g4t1,,fail
Status,799,14845701576,/g3t1_1,,running
Status,800,14846041628,/g3t1_1,,success
Status,801,14846104550,/g3t1_2,,running
Status,802,14846796319,/g3t1_2,,success
Status,803,14846937033,/g3t1_3,,running
Status,804,14847388335,/g3t1_3,,success
Status,805,14895429741,/g3t1_1,,running
Status,806,14895914466,/g3t1_1,,success
Status,807,14895976477,/g3t1_2,,running
Status,808,14896625803,/g3t1_2,,success
Status,809,14897014609,/g3t1_3,,running
Status,810,14897787278,/g3t1_3,,success
Status,811,14935174559,/g4t1,,fail
Status,812,14945591719,/g3t1_1,,running
Status,813,14946734597,/g3t1_1,,success
Status,814,14946810258,/g3t1_2,,running
Status,815,14946924347,/g3t1_2,,success
Status,816,14946985623,/g3t1_3,,running
Status,817,14947940686,/g3t1_3,,success
Status,818,14995696259,/g3t1_1,,running
Status,819,14996250805,/g3t1_1,,success
Status,820,14996331232,/g3t1_2,,running
Status,821,14996832926,/g3t1_2,,success
Status,822,14997581364,/g3t1_3,,running
Status,823,14998281799,/g3t1_3,,success
Status,824,15035209887,/g4t1,,fail
Status,825,15045957426,/g3t1_1,,running
Status,826,15046561155,/g3t1_1,,success
Status,827,15046685653,/g3t1_2,,running
Status,828,15047284224,/g3t1_2,,success
Status,829,15047351130,/g3t1_3,,running
Status,830,15048004409,/g3t1_3,,success
Status,831,15095914233,/g3t1_1,,running
Status,832,15096603561,/g3t1_1,,success
Status,833,15097117801,/g3t1_2,,running
Status,834,15097458233,/g3t1_2,,success
Status,835,15097800844,/g3t1_3,,running
Status,836,15098718068,/g3t1_3,,success
Status,837,15135536043,/g4t1,,fail
Status,838,15146131921,/g3t1_1,,running
Status,839,15146643633,/g3t1_1,,success
Status,840,15146760779,/g3t1_2,,running
Status,841,15147302065,/g3t1_2,,success
Status,842,15147999492,/g3t1_3,,running
Status,843,15148366706,/g3t1_3,,success
Status,844,15196937280,/g3t1_1,,running
Status,845,15197040986,/g3t1_1,,success
Status,846,15197073936,/g3t1_2,,running
Status,847,15197491858,/g3t1_2,,success
Status,848,15197880931,/g3t1_3,,running
Status,849,15198796976,/g3t1_3,,success
Status,850,15235438819,/g4t1,,fail
Status,851,15246535584,/g3t1_1,,running
Status,852,15247016676,/g3t1_1,,success
Status,853,15247084634,/g3t1_2,,running
Status,854,15247977735,/g3t1_2,,success
Status,855,15248043482,/g3t1_3,,running
Status,856,15248691094,/g3t1_3,,success
Status,857,15296490920,/g3t1_1,,running
Status,858,15297081127,/g3t1_1,,success
Status,859,15297217703,/g3t1_2,,running
Status,860,15298197351,/g3t1_2,,success
Status,861,15298283169,/g3t1_3,,running
Status,862,15298905195,/g3t1_3,,success
Status,863,15335471953,/g4t1,,fail
Status,864,15346885333,/g3t1_1,,running
Status,865,15347114110,/g3t1_1,,success
Status,866,15347196968,/g3t1_2,,running
Status,867,15347877313,/g3t1_2,,success
Status,868,15348491632,/g3t1_3,,running
Status,869,15348929340,/g3t1_3,,success
Status,870,15396893932,/g3t1_1,,running
Status,871,15397967531,/g3t1_1,,success
Status,872,15398373960,/g3t1_2,,running
Status,873,15398457953,/g3t1_2,,success
Status,874,15398492061,/g3t1_3,,running
Status,875,15399102733,/g3t1_3,,success
Status,876,15435700230,/g4t1,,fail
Status,877,15446958152,/g3t1_1,,running
Status,878,15447808450,/g3t1_1,,success
Status,879,15447987599,/g3t1_2,,running
Status,880,15448036755,/g3t1_2,,success
Status,881,15448416100,/g3t1_3,,running
Status,882,15449106972,/g3t1_3,,success
Status,883,15497174821,/g3t1_1,,running
Status,884,15498226430,/g3t1_1,,success
Status,885,15498324956,/g3t1_2,,running
Status,886,15498701899,/g3t1_2,,success
Status,887,15498851584,/g3t1_3,,running
Status,888,15499274011,/g3t1_3,,success
Status,889,15535970444,/g4t1,,fail
Status,890,15547227796,/g3t1_1,,running
Status,891,15547790308,/g3t1_1,,success
Status,892,15547930658,/g3t1_2,,running
Status,893,15548601662,/g3t1_2,,success
Status,894,15548680337,/g3t1_3,,running
Status,895,15549594760,/g3t1_3,,success
Status,896,15597396688,/g3t1_1,,running
Status,897,15597876838,/g3t1_1,,success
Status,898,15597976538,/g3t1_2,,running
Status,899,15598836270,/g3t1_2,,success
Status,900,15598907449,/g3t1_3,,running
Status,901,15599309256,/g3t1_3,,success
Status,902,15635953053,/g4t1,,fail
Status,903,15647654312,/g3t1_1,,running
Status,904,15648082294,/g3t1_1,,success
Status,905,15648530475,/g3t1_2,,running
Status,906,15648805556,/g3t1_2,,success
Status,907,15649707242,/g3t1_3,,running
Status,908,15650740151,/g3t1_3,,success
Status,909,15697357555,/g3t1_1,,running
Status,910,15697754335,/g3t1_1,,success
Status,911,15697811119,/g3t1_2,,running
Status,912,15698121495,/g3t1_2,,success
Status,913,15698941919,/g3t1_3,,running
Status,914,15699186880,/g3t1_3,,success
Status,915,15735844523,/g4t1,,fail
Status,916,15747695199,/g3t1_1,,running
Status,917,15748218481,/g3t1_1,,success
Status,918,15748626237,/g3t1_2,,running
Status,919,15749415171,/g3t1_2,,success
Status,920,15749651260,/g3t1_3,,running
Status,921,15750209842,/g3t1_3,,success
Status,922,15798011868,/g3t1_1,,running
Status,923,15798764569,/g3t1_2,,running
Status,924,15798867997,/g3t1_1,,success
Status,925,15799185649,/g3t1_2,,success
Status,926,15799955198,/g3t1_3,,running
Status,927,15800019566,/g3t1_3,,success
Status,928,15836006874,/g4t1,,fail
Status,929,15848241521,/g3t1_1,,running
Status,930,15848358954,/g3t1_1,,success
Status,931,15848643080,/g3t1_2,,running
Status,932,15849141516,/g3t1_2,,success
Status,933,15849649816,/g3t1_3,,running
Status,934,15850173436,/g3t1_3,,success
Status,935,15898394635,/g3t1_1,,running
Status,936,15898531664,/g3t1_1,,success
Status,937,15898958998,/g3t1_2,,running
Status,938,15899538766,/g3t1_2,,success
Status,939,15899600462,/g3t1_3,,running
Status,940,15900449476,/g3t1_3,,success
Status,941,15936137113,/g4t1,,fail
Status,942,15948397744,/g3t1_1,,running
Status,943,15949083410,/g3t1_1,,success
Status,944,15949158244,/g3t1_2,,running
Status,945,15949278378,/g3t1_2,,success
Status,946,15950081005,/g3t1_3,,running
Status,947,15950744896,/g3t1_3,,success
Status,948,15998624968,/g3t1_1,,running
Status,949,15999111243,/g3t1_1,,success
Status,950,15999240928,/g3t1_2,,running
Status,951,15999770879,/g3t1_2,,success
Status,952,16000355751,/g3t1_3,,running
Status,953,16000498510,/g3t1_3,,success
Status,954,16036171522,/g4t1,,fail
Status,955,16048662682,/g3t1_1,,running
Status,956,16049017109,/g3t1_1,,success
Status,957,16050014228,/g3t1_2,,running
Status,958,16050166183,/g3t1_2,,success
Status,959,16050349575,/g3t1_3,,running
Status,960,16051372166,/g3t1_3,,success
Status,961,16099245595,/g3t1_1,,running
Status,962,16099304038,/g3t1_1,,success
Status,963,16099398634,/g3t1_2,,running
Status,964,16099432436,/g3t1_2,,success
Status,965,16100354644,/g3t1_3,,running
Status,966,16101676542,/g3t1_3,,success
Status,967,16136434095,/g4t1,,fail
Status,968,16148823280,/g3t1_1,,running
Status,969,16149313593,/g3t1_1,,success
Status,970,16149400372,/g3t1_2,,running
Status,971,16149984388,/g3t1_2,,success
Status,972,16150685557,/g3t1_3,,running
Status,973,16151055968,/g3t1_3,,success
Status,974,16199010285,/g3t1_1,,running
Status,975,16199609936,/g3t1_1,,success
Status,976,16200281735,/g3t1_2,,running
Status,977,16200497654,/g3t1_2,,success
Status,978,16200573601,/g3t1_3,,running
Status,979,16201154167,/g3t1_3,,success
Status,980,16236515477,/g4t1,,fail
Status,981,16249040213,/g3t1_1,,running
Status,982,16249639348,/g3t1_1,,success
Status,983,16249766048,/g3t1_2,,running
Status,984,16251030677,/g3t1_2,,success
Status,985,16251076873,/g3t1_3,,running
Status,986,16251104933,/g3t1_3,,success
Status,987,16299440968,/g3t1_1,,running
Status,988,16299806910,/g3t1_2,,running
Status,989,16299866405,/g3t1_1,,success
Status,990,16300938906,/g3t1_2,,success
Status,991,16301172032,/g3t1_3,,running
Status,992,16301327409,/g3t1_3,,success
Status,993,16336552284,/g4t1,,fail
Status,994,16349274617,/g3t1_1,,running
Status,995,16350375179,/g3t1_1,,success
Status,996,16350480044,/g3t1_2,,running
Status,997,16351021379,/g3t1_2,,success
Status,998,16351067097,/g3t1_3,,running
Status,999,16351690966,/g3t1_3,,success
Status,1000,16399995084,/g3t1_1,,running
Status,1001,16400084012,/g3t1_1,,success
Status,1002,16400193111,/g3t1_2,,running
Status,1003,16400494386,/g3t1_2,,success
Status,1004,16401029740,/g3t1_3,,running
Status,1005,16401660607,/g3t1_3,,success
Status,1006,16436676889,/g4t1,,fail
Status,1007,16450090388,/g3t1_1,,running
Status,1008,16450176003,/g3t1_1,,success
Status,1009,16450220937,/g3t1_2,,running
Status,1010,16450780418,/g3t1_2,,success
Status,1011,16451195630,/g3t1_3,,running
Status,1012,16451646507,/g3t1_3,,success
Status,1013,16499841363,/g3t1_1,,running
Status,1014,16499935026,/g3t1_1,,success
Status,1015,16500400714,/g3t1_2,,running
Status,1016,16500936975,/g3t1_2,,success
Status,1017,16501186586,/g3t1_3,,running
Status,1018,16501993145,/g3t1_3,,success
Status,1019,16536878601,/g4t1,,fail
Status,1020,16549824402,/g3t1_1,,running
Status,1021,16550269327,/g3t1_1,,success
Status,1022,16550366691,/g3t1_2,,running
Status,1023,16551309803,/g3t1_2,,success
Status,1024,16551385771,/g3t1_3,,running
Status,1025,16552306846,/g3t1_3,,success
Status,1026,16600138045,/g3t1_1,,running
Status,1027,16600371382,/g3t1_1,,success
Status,1028,16600427872,/g3t1_2,,running
Status,1029,16601246986,/g3t1_2,,success
Status,1030,16601372159,/g3t1_3,,running
Status,1031,16602356920,/g3t1_3,,success
Status,1032,16637137428,/g4t1,,fail
Status,1033,16650365468,/g3t1_1,,running
Status,1034,16650526914,/g3t1_1,,success
Status,1035,16650624449,/g3t1_2,,running
Status,1036,16651959024,/g3t1_2,,success
Status,1037,16652020147,/g3t1_3,,running
Status,1038,16652049152,/g3t1_3,,success
Status,1039,16700188837,/g3t1_1,,running
Status,1040,16701312716,/g3t1_1,,success
Status,1041,16701446029,/g3t1_2,,running
Status,1042,16701915556,/g3t1_2,,success
Status,1043,16701979381,/g3t1_3,,running
Status,1044,16702582457,/g3t1_3,,success
Status,1045,16737559432,/g4t1,,fail
Status,1046,16750437994,/g3t1_1,,running
Status,1047,16751289534,/g3t1_1,,success
Status,1048,16751948346,/g3t1_2,,running
Status,1049,16752102896,/g3t1_2,,success
Status,1050,16752284437,/g3t1_3,,running
Status,1051,16752391265,/g3t1_3,,success
Status,1052,16800383949,/g3t1_1,,running
Status,1053,16801074835,/g3t1_1,,success
Status,1054,16801154099,/g3t1_2,,running
Status,1055,16801847949,/g3t1_2,,success
Status,1056,16802298936,/g3t1_3,,running
Status,1057,16802378629,/g3t1_3,,success
Status,1058,16837302344,/g4t1,,fail
Status,1059,16851117293,/g3t1_1,,running
Status,1060,16851183202,/g3t1_1,,success
Status,1061,16851314808,/g3t1_2,,running
Status,1062,16852679158,/g3t1_3,,running
Status,1063,16852732721,/g3t1_3,,success
Status,1064,16852865400,/g3t1_2,,success
Status,1065,16900948004,/g3t1_1,,running
Status,1066,16902139366,/g3t1_1,,success
Status,1067,16902341013,/g3t1_2,,running
Status,1068,16902393937,/g3t1_2,,success
Status,1069,16902437671,/g3t1_3,,running
Status,1070,16902670932,/g3t1_3,,success
Status,1071,16937372710,/g4t1,,fail
Status,1072,16950813791,/g3t1_1,,running
Status,1073,16951738878,/g3t1_2,,running
Status,1074,16951842878,/g3t1_1,,success
Status,1075,16951883748,/g3t1_2,,success
Status,1076,16952364435,/g3t1_3,,running
Status,1077,16953174552,/g3t1_3,,success
Status,1078,17001286167,/g3t1_1,,running
Status,1079,17001473416,/g3t1_2,,running
Status,1080,17001554214,/g3t1_1,,success
Status,1081,17002678090,/g3t1_2,,success
Status,1082,17002730374,/g3t1_3,,running
Status,1083,17002800803,/g3t1_3,,success
Status,1084,17037407038,/g4t1,,fail
Status,1085,17051986201,/g3t1_1,,running
Status,1086,17052122896,/g3t1_2,,running
Status,1087,17052162715,/g3t1_1,,success
Status,1088,17052361902,/g3t1_2,,success
Status,1089,17052899753,/g3t1_3,,running
Status,1090,17053658110,/g3t1_3,,success
Status,1091,17101394945,/g3t1_1,,running
Status,1092,17101572485,/g3t1_2,,running
Status,1093,17102487000,/g3t1_1,,success
Status,1094,17102569359,/g3t1_2,,success
Status,1095,17102681186,/g3t1_3,,running
Status,1096,17103271605,/g3t1_3,,success
Status,1097,17137554773,/g4t1,,fail
Status,1098,17151885049,/g3t1_1,,running
Status,1099,17151984067,/g3t1_1,,success
Status,1100,17152120149,/g3t1_2,,running
Status,1101,17152731010,/g3t1_2,,success
Status,1102,17152846633,/g3t1_3,,running
Status,1103,17153314948,/g3t1_3,,success
Status,1104,17202005662,/g3t1_1,,running
Status,1105,17202100226,/g3t1_2,,running
Status,1106,17202410044,/g3t1_1,,success
Status,1107,17202557722,/g3t1_2,,success
Status,1108,17203268304,/g3t1_3,,running
Status,1109,17203354314,/g3t1_3,,success
Status,1110,17237630271,/g4t1,,fail
Status,1111,17252577253,/g3t1_1,,running
Status,1112,17252700322,/g3t1_2,,running
Status,1113,17252861945,/g3t1_1,,success
Status,1114,17252895351,/g3t1_2,,success
Status,1115,17252930024,/g3t1_3,,running
Status,1116,17253517470,/g3t1_3,,success
Status,1117,17302131253,/g3t1_1,,running
Status,1118,17302223623,/g3t1_2,,running
Status,1119,17303155760,/g3t1_2,,success
Status,1120,17303477568,/g3t1_1,,success
Status,1121,17303540407,/g3t1_3,,running
Status,1122,17303722688,/g3t1_3,,success
Status,1123,17337779670,/g4t1,,fail
Status,1124,17352502270,/g3t1_1,,running
Status,1125,17352721481,/g3t1_2,,running
Status,1126,17354100022,/g3t1_2,,success
Status,1127,17354302929,/g3t1_1,,success
Status,1128,17354423732,/g3t1_3,,running
Status,1129,17354793601,/g3t1_3,,success
Status,1130,17402378643,/g3t1_1,,running
Status,1131,17402446634,/g3t1_2,,running
Status,1132,17402492099,/g3t1_1,,success
Status,1133,17403007140,/g3t1_2,,success
Status,1134,17403747326,/g3t1_3,,running
Status,1135,17403846797,/g3t1_3,,success
Status,1136,17438131474,/g4t1,,fail
Status,1137,17452879626,/g3t1_1,,running
Status,1138,17453467733,/g3t1_2,,running
Status,1139,17453545290,/g3t1_2,,success
Status,1140,17454308897,/g3t1_1,,success
Status,1141,17454402440,/g3t1_3,,running
Status,1142,17454493623,/g3t1_3,,success
Status,1143,17502606477,/g3t1_1,,running
Status,1144,17502699443,/g3t1_2,,running
Status,1145,17503568218,/g3t1_2,,success
Status,1146,17503648448,/g3t1_1,,success
Status,1147,17504117795,/g3t1_3,,running
Status,1148,17504184046,/g3t1_3,,success
Status,1149,17538072223,/g4t1,,fail
Status,1150,17553073038,/g3t1_1,,running
Status,1151,17553227519,/g3t1_2,,running
Status,1152,17553375891,/g3t1_2,,success
Status,1153,17553415032,/g3t1_1,,success
Status,1154,17553867372,/g3t1_3,,running
Status,1155,17554159756,/g3t1_3,,success
Status,1156,17603006304,/g3t1_1,,running
Status,1157,17603117324,/g3t1_2,,running
Status,1158,17603566088,/g3t1_1,,success
Status,1159,17603701963,/g3t1_2,,success
Status,1160,17604144718,/g3t1_3,,running
Status,1161,17604280525,/g3t1_3,,success
Status,1162,17638420095,/g4t1,,fail
Status,1163,17653052191,/g3t1_1,,running
Status,1164,17653188638,/g3t1_2,,running
Status,1165,17653924670,/g3t1_2,,success
Status,1166,17654003998,/g3t1_1,,success
Status,1167,17654058034,/g3t1_3,,running
Status,1168,17654302347,/g3t1_3,,success
Status,1169,17703270546,/g3t1_1,,running
Status,1170,17703415387,/g3t1_2,,running
Status,1171,17703458343,/g3t1_1,,success
Status,1172,17704073231,/g3t1_2,,success
Status,1173,17704185857,/g3t1_3,,running
Status,1174,17704232693,/g3t1_3,,success
Status,1175,17738457658,/g4t1,,fail
Status,1176,17753570622,/g3t1_1,,running
Status,1177,17753723570,/g3t1_2,,running
Status,1178,17753814168,/g3t1_2,,success
Status,1179,17754552819,/g3t1_1,,success
Status,1180,17754604054,/g3t1_3,,running
Status,1181,17754629098,/g3t1_3,,success
Status,1182,17803598669,/g3t1_1,,running
Status,1183,17803709230,/g3t1_2,,running
Status,1184,17803909197,/g3t1_1,,success
Status,1185,17803953091,/g3t1_2,,success
Status,1186,17803981209,/g3t1_3,,running
Status,1187,17804941279,/g3t1_3,,success
Status,1188,17838611608,/g4t1,,fail
Status,1189,17853944470,/g3t1_1,,running
Status,1190,17854045914,/g3t1_2,,running
Status,1191,17854345574,/g3t1_2,,success
Status,1192,17854496224,/g3t1_3,,running
Status,1193,17854716270,/g3t1_1,,success
Status,1194,17855452410,/g3t1_3,,success
Status,1195,17903742170,/g3t1_2,,running
Status,1196,17904341610,/g3t1_1,,running
Status,1197,17904397502,/g3t1_2,,success
Status,1198,17904430778,/g3t1_3,,running
Status,1199,17904468660,/g3t1_1,,success
Status,1200,17904995594,/g3t1_3,,success
Status,1201,17938608935,/g4t1,,fail
Status,1202,17953778976,/g3t1_1,,running
Status,1203,17953933545,/g3t1_2,,running
Status,1204,17954472384,/g3t1_2,,success
Status,1205,17954546335,/g3t1_1,,success
Status,1206,17954586950,/g3t1_3,,running
Status,1207,17955095838,/g3t1_3,,success
Status,1208,18004102858,/g3t1_2,,running
Status,1209,18004200807,/g3t1_1,,running
Status,1210,18004667731,/g3t1_3,,running
Status,1211,18004870972,/g3t1_2,,success
Status,1212,18004909484,/g3t1_1,,success
Status,1213,18005185901,/g3t1_3,,success
Status,1214,18038614852,/g4t1,,fail
Status,1215,18054310273,/g3t1_2,,running
Status,1216,18054460249,/g3t1_1,,running
Status,1217,18054592183,/g3t1_1,,success
Status,1218,18054628505,/g3t1_2,,success
Status,1219,18054978028,/g3t1_3,,running
Status,1220,18055357508,/g3t1_3,,success
Status,1221,18104316260,/g3t1_1,,running
Status,1222,18104514114,/g3t1_2,,running
Status,1223,18104558979,/g3t1_1,,success
Status,1224,18104677190,/g3t1_2,,success
Status,1225,18104928750,/g3t1_3,,running
Status,1226,18105495037,/g3t1_3,,success
Status,1227,18138871675,/g4t1,,fail
Status,1228,18154722667,/g3t1_1,,running
Status,1229,18154888997,/g3t1_2,,running
Status,1230,18155279884,/g3t1_3,,running
Status,1231,18155508388,/g3t1_1,,success
Status,1232,18155538816,/g3t1_2,,success
Status,1233,18155821969,/g3t1_3,,success
Status,1234,18204829555,/g3t1_1,,running
Status,1235,18204909888,/g3t1_2,,running
Status,1236,18205031658,/g3t1_1,,success
Status,1237,18205068989,/g3t1_2,,success
Status,1238,18205466535,/g3t1_3,,running
Status,1239,18205821984,/g3t1_3,,success
Status,1240,18239005613,/g4t1,,fail
Status,1241,18254791296,/g3t1_1,,running
Status,1242,18255577245,/g3t1_2,,running
Status,1243,18255646620,/g3t1_1,,success
Status,1244,18255683526,/g3t1_2,,success
Status,1245,18255752046,/g3t1_3,,running
Status,1246,18256162493,/g3t1_3,,success
Status,1247,18305304911,/g3t1_2,,running
Status,1248,18305581216,/g3t1_1,,running
Status,1249,18305631375,/g3t1_1,,success
Status,1250,18305691726,/g3t1_2,,success
Status,1251,18305742583,/g3t1_3,,running
Status,1252,18305775413,/g3t1_3,,success
Status,1253,18339157380,/g4t1,,fail
Status,1254,18355121867,/g3t1_1,,running
Status,1255,18355195076,/g3t1_2,,running
Status,1256,18355286509,/g3t1_2,,success
Status,1257,18355994917,/g3t1_1,,success
Status,1258,18356063088,/g3t1_3,,running
Status,1259,18356101720,/g3t1_3,,success
Status,1260,18405246841,/g3t1_1,,running
Status,1261,18405413418,/g3t1_2,,running
Status,1262,18406059598,/g3t1_3,,running
Status,1263,18406115774,/g3t1_1,,success
Status,1264,18406147888,/g3t1_2,,success
Status,1265,18406777050,/g3t1_3,,success
Status,1266,18439269308,/g4t1,,fail
Status,1267,18455624074,/g3t1_2,,running
Status,1268,18455722433,/g3t1_1,,running
Status,1269,18456088982,/g3t1_3,,running
Status,1270,18456396775,/g3t1_2,,success
Status,1271,18456426067,/g3t1_1,,success
Status,1272,18456515629,/g3t1_3,,success
Status,1273,18506028383,/g3t1_1,,running
Status,1274,18506119515,/g3t1_2,,running
Status,1275,18506541179,/g3t1_1,,success
Status,1276,18506626059,/g3t1_3,,running
Status,1277,18506705191,/g3t1_2,,success
Status,1278,18506745585,/g3t1_3,,success
Status,1279,18539252323,/g4t1,,fail
Status,1280,18555910911,/g3t1_2,,running
Status,1281,18555991800,/g3t1_1,,running
Status,1282,18556037211,/g3t1_2,,success
Status,1283,18556294196,/g3t1_1,,success
Status,1284,18556346176,/g3t1_3,,running
Status,1285,18556840860,/g3t1_3,,success
Status,1286,18606397859,/g3t1_2,,running
Status,1287,18606450176,/g3t1_2,,success
Status,1288,18606517338,/g3t1_1,,running
Status,1289,18606534987,/g3t1_1,,success
Status,1290,18606548669,/g3t1_3,,running
Status,1291,18606563454,/g3t1_3,,success
Status,1292,18638652089,/g4t1,,fail
Status,1293,18656421625,/g3t1_2,,running
Status,1294,18656541678,/g3t1_1,,running
Status,1295,18656588174,/g3t1_3,,running
Status,1296,18657269786,/g3t1_2,,success
Status,1297,18657332339,/g3t1_1,,success
Status,1298,18657487843,/g3t1_3,,success
Status,1299,18706360536,/g3t1_2,,running
Status,1300,18706449920,/g3t1_1,,running
Status,1301,18706944846,/g3t1_1,,success
Status,1302,18707252626,/g3t1_3,,running
Status,1303,18707378690,/g3t1_2,,success
Status,1304,18707702316,/g3t1_3,,success
Status,1305,18739667907,/g4t1,,fail
Status,1306,18756684738,/g3t1_2,,running
Status,1307,18756875397,/g3t1_1,,running
Status,1308,18757008147,/g3t1_1,,success
Status,1309,18757057016,/g3t1_2,,success
Status,1310,18757098376,/g3t1_3,,running
Status,1311,18757622122,/g3t1_3,,success
Status,1312,18806123525,/g3t1_2,,running
Status,1313,18806211408,/g3t1_1,,running
Status,1314,18806429457,/g3t1_2,,success
Status,1315,18806567088,/g3t1_1,,success
Status,1316,18806945096,/g3t1_3,,running
Status,1317,18807054784,/g3t1_3,,success
Status,1318,18838970209,/g4t1,,fail
Status,1319,18856408313,/g3t1_2,,running
Status,1320,18856477630,/g3t1_1,,running
Status,1321,18856713301,/g3t1_2,,success
Status,1322,18856809877,/g3t1_3,,running
Status,1323,18856841384,/g3t1_1,,success
Status,1324,18857256095,/g3t1_3,,success
Status,1325,18907641405,/g3t1_2,,running
Status,1326,18907727861,/g3t1_1,,running
Status,1327,18907908263,/g3t1_1,,success
Status,1328,18907967509,/g3t1_2,,success
Status,1329,18908160555,/g3t1_3,,running
Status,1330,18908204994,/g3t1_3,,success
Status,1331,18939746825,/g4t1,,fail
Status,1332,18957772467,/g3t1_2,,running
Status,1333,18957893930,/g3t1_1,,running
Status,1334,18957922732,/g3t1_3,,running
Status,1335,18957944866,/g3t1_1,,success
Status,1336,18958246259,/g3t1_2,,success
Status,1337,18958332640,/g3t1_3,,success
Status,1338,19007326019,/g3t1_1,,running
Status,1339,19007457452,/g3t1_2,,running
Status,1340,19007509932,/g3t1_3,,running
Status,1341,19008077000,/g3t1_2,,success
Status,1342,19008140184,/g3t1_3,,success
Status,1343,19008236006,/g3t1_1,,success
Status,1344,19039860985,/g4t1,,fail
Status,1345,19058095314,/g3t1_1,,running
Status,1346,19058153857,/g3t1_2,,running
Status,1347,19058333460,/g3t1_2,,success
Status,1348,19058366388,/g3t1_1,,success
Status,1349,19058434921,/g3t1_3,,running
Status,1350,19058459525,/g3t1_3,,success
Status,1351,19107316279,/g3t1_2,,running
Status,1352,19107413661,/g3t1_1,,running
Status,1353,19108054608,/g3t1_2,,success
Status,1354,19108122405,/g3t1_3,,running
Status,1355,19108222827,/g3t1_1,,success
Status,1356,19108491434,/g3t1_3,,success
Status,1357,19140119172,/g4t1,,fail
Status,1358,19157817523,/g3t1_1,,running
Status,1359,19157907035,/g3t1_2,,running
Status,1360,19158219485,/g3t1_3,,running
Status,1361,19158269006,/g3t1_1,,success
Status,1362,19158315461,/g3t1_2,,success
Status,1363,19158407566,/g3t1_3,,success
Status,1364,19208367135,/g3t1_2,,running
Status,1365,19208453642,/g3t1_1,,running
Status,1366,19209157060,/g3t1_2,,success
Status,1367,19209207837,/g3t1_3,,running
Status,1368,19209312218,/g3t1_1,,success
Status,1369,19209334200,/g3t1_3,,success
Status,1370,19240128490,/g4t1,,fail
Status,1371,19258108320,/g3t1_1,,running
Status,1372,19258191355,/g3t1_2,,running
Status,1373,19258391260,/g3t1_3,,running
Status,1374,19258428661,/g3t1_2,,success
Status,1375,19258581154,/g3t1_1,,success
Status,1376,19259434146,/g3t1_3,,success
Status,1377,19308506150,/g3t1_1,,running
Status,1378,19308613991,/g3t1_2,,running
Status,1379,19308652971,/g3t1_3,,running
Status,1380,19309185749,/g3t1_2,,success
Status,1381,19309260585,/g3t1_3,,success
Status,1382,19309301978,/g3t1_1,,success
Status,1383,19340336849,/g4t1,,fail
Status,1384,19358991554,/g3t1_2,,running
Status,1385,19359091245,/g3t1_1,,running
Status,1386,19359121580,/g3t1_3,,running
Status,1387,19359633354,/g3t1_2,,success
Status,1388,19359713915,/g3t1_1,,success
Status,1389,19359790496,/g3t1_3,,success
Status,1390,19409175685,/g3t1_1,,running
Status,1391,19409234850,/g3t1_2,,running
Status,1392,19409265743,/g3t1_3,,running
Status,1393,19409440705,/g3t1_2,,success
Status,1394,19409468690,/g3t1_1,,success
Status,1395,19409491001,/g3t1_3,,success
Status,1396,19440478791,/g4t1,,fail
Status,1397,19458976490,/g3t1_2,,running
Status,1398,19459050075,/g3t1_1,,running
Status,1399,19459135079,/g3t1_3,,running
Status,1400,19459175027,/g3t1_1,,success
Status,1401,19459205498,/g3t1_2,,success
Status,1402,19459642386,/g3t1_3,,success
Status,1403,19509220335,/g3t1_2,,running
Status,1404,19509352347,/g3t1_1,,running
Status,1405,19509748551,/g3t1_1,,success
Status,1406,19509813529,/g3t1_3,,running
Status,1407,19509855836,/g3t1_2,,success
Status,1408,19509887910,/g3t1_3,,success
Status,1409,19540623157,/g4t1,,fail
Status,1410,19559368459,/g3t1_1,,running
Status,1411,19559451490,/g3t1_2,,running
Status,1412,19559608112,/g3t1_3,,running
Status,1413,19559642298,/g3t1_1,,success
Status,1414,19559665048,/g3t1_2,,success
Status,1415,19560212528,/g3t1_3,,success
Status,1416,19609316922,/g3t1_2,,running
Status,1417,19609468935,/g3t1_1,,running
Status,1418,19610366593,/g3t1_3,,running
Status,1419,19610460165,/g3t1_3,,success
Status,1420,19610495072,/g3t1_2,,success
Status,1421,19610537605,/g3t1_1,,success
Status,1422,19640469036,/g4t1,,fail
Status,1423,19659318558,/g3t1_1,,running
Status,1424,19659442437,/g3t1_2,,running
Status,1425,19659571007,/g3t1_1,,success
Status,1426,19659630324,/g3t1_2,,success
Status,1427,19660299700,/g3t1_3,,running
Status,1428,19660384556,/g3t1_3,,success
Status,1429,19710098697,/g3t1_1,,running
Status,1430,19710245840,/g3t1_2,,running
Status,1431,19710282825,/g3t1_3,,running
Status,1432,19710481030,/g3t1_2,,success
Status,1433,19710528452,/g3t1_1,,success
Status,1434,19711009667,/g3t1_3,,success
Status,1435,19740710504,/g4t1,,fail
Status,1436,19759992701,/g3t1_2,,running
Status,1437,19760095045,/g3t1_1,,running
Status,1438,19760224350,/g3t1_2,,success
Status,1439,19760265659,/g3t1_3,,running
Status,1440,19760297006,/g3t1_1,,success
Status,1441,19760603625,/g3t1_3,,success
Status,1442,19810077658,/g3t1_1,,running
Status,1443,19810200200,/g3t1_2,,running
Status,1444,19810721280,/g3t1_3,,running
Status,1445,19810861049,/g3t1_2,,success
Status,1446,19811024170,/g3t1_1,,success
Status,1447,19811057623,/g3t1_3,,success
Status,1448,19840829514,/g4t1,,fail
Status,1449,19860529164,/g3t1_1,,running
Status,1450,19860626355,/g3t1_2,,running
Status,1451,19860800794,/g3t1_3,,running
Status,1452,19860844314,/g3t1_1,,success
Status,1453,19860906272,/g3t1_2,,success
Status,1454,19861218214,/g3t1_3,,success
Status,1455,19910234562,/g3t1_1,,running
Status,1456,19910318456,/g3t1_2,,running
Status,1457,19910353509,/g3t1_2,,success
Status,1458,19910835059,/g3t1_1,,success
Status,1459,19911015665,/g3t1_3,,running
Status,1460,19911054326,/g3t1_3,,success
Status,1461,19940969548,/g4t1,,fail
Status,1462,19960972565,/g3t1_1,,running
Status,1463,19961057570,/g3t1_2,,running
Status,1464,19961220450,/g3t1_3,,running
Status,1465,19961295779,/g3t1_2,,success
Status,1466,19961502952,/g3t1_3,,success
Status,1467,19961661185,/g3t1_1,,success
Status,1468,20009671231,/g3t1_1,,running
Status,1469,20009716353,/g3t1_2,,running
Status,1470,20010094352,/g3t1_1,,success
Status,1471,20010151912,/g3t1_2,,success
Status,1472,20010170486,/g3t1_3,,running
Status,1473,20010408917,/g3t1_3,,success
Status,1474,20040287605,/g4t1,,fail
Status,1475,20060892494,/g3t1_1,,running
Status,1476,20061554689,/g3t1_2,,running
Status,1477,20061628959,/g3t1_2,,success
Status,1478,20061732915,/g3t1_3,,running
Status,1479,20061836845,/g3t1_1,,success
Status,1480,20062149132,/g3t1_3,,success
Status,1481,20110930438,/g3t1_1,,running
Status,1482,20111060368,/g3t1_2,,running
Status,1483,20111691386,/g3t1_3,,running
Status,1484,20111820202,/g3t1_2,,success
Status,1485,20112105920,/g3t1_1,,success
Status,1486,20112175375,/g3t1_3,,success
Status,1487,20141282122,/g4t1,,fail
Status,1488,20160914567,/g3t1_2,,running
Status,1489,20161571180,/g3t1_1,,running
Status,1490,20161687865,/g3t1_1,,success
Status,1491,20161808098,/g3t1_3,,running
Status,1492,20161851027,/g3t1_2,,success
Status,1493,20161930125,/g3t1_3,,success
Status,1494,20211183744,/g3t1_2,,running
Status,1495,20211307922,/g3t1_1,,running
Status,1496,20211613837,/g3t1_3,,running
Status,1497,20212087338,/g3t1_2,,success
Status,1498,20212147325,/g3t1_1,,success
Status,1499,20212181932,/g3t1_3,,success
Status,1500,20241486991,/g4t1,,fail
Status,1501,20261142634,/g3t1_1,,running
Status,1502,20261241824,/g3t1_2,,running
Status,1503,20261528173,/g3t1_2,,success
Status,1504,20261806241,/g3t1_3,,running
Status,1505,20262025674,/g3t1_1,,success
Status,1506,20262074803,/g3t1_3,,success
Status,1507,20310715789,/g3t1_2,,running
Status,1508,20310767883,/g3t1_1,,running
Status,1509,20311157338,/g3t1_2,,success
Status,1510,20311180295,/g3t1_1,,success
Status,1511,20311325021,/g3t1_3,,running
Status,1512,20311779574,/g3t1_3,,success
