
Status,1,3446652912,/g4t1,,init
Status,3,8751652037,/g3t1_1,,init
Status,5,8766583372,/g3t1_1,,init
Status,6,8766619584,/g3t1_1,,running
Status,7,8767659600,/g3t1_1,,success
Status,8,8852741602,/g3t1_2,,init
Status,10,8866667427,/g3t1_1,,running
Status,11,8867334949,/g3t1_1,,success
Status,12,8871346874,/g3t1_2,,init
Status,13,8871376972,/g3t1_2,,running
Status,14,8872308114,/g3t1_2,,success
Status,15,8966835130,/g3t1_1,,running
Status,16,8966957860,/g3t1_1,,success
Status,17,8971325154,/g3t1_2,,running
Status,18,8971522332,/g3t1_2,,success
Status,19,9060013777,/g3t1_3,,init
Status,21,9066806207,/g3t1_1,,running
Status,22,9067117139,/g3t1_1,,success
Status,23,9069420514,/g4t1,,success
Status,24,9071422916,/g3t1_2,,running
Status,25,9071713574,/g3t1_2,,success
Status,26,9076315836,/g3t1_3,,init
Status,27,9076351148,/g3t1_3,,running
Status,28,9077393994,/g3t1_3,,success
Status,29,9166955535,/g3t1_1,,running
Status,30,9167117518,/g3t1_1,,success
Status,31,9169734517,/g4t1,,success
Status,32,9171507997,/g3t1_2,,running
Status,33,9171630895,/g3t1_2,,success
Status,34,9176377559,/g3t1_3,,running
Status,35,9176576238,/g3t1_3,,success
Status,36,9190006210,/g4t1,,success
Status,37,9210156338,/g4t1,,success
Status,38,9230265940,/g4t1,,success
Status,39,9267122882,/g3t1_1,,running
Status,40,9267155983,/g3t1_1,,success
Status,41,9270268219,/g4t1,,success
Status,42,9271653067,/g3t1_2,,running
Status,43,9271917913,/g3t1_2,,success
Status,44,9276649710,/g3t1_3,,running
Status,45,9276673160,/g3t1_3,,success
Status,46,9290523761,/g4t1,,success
Status,47,9310622415,/g4t1,,success
Status,48,9330596941,/g4t1,,success
Status,49,9350769147,/g4t1,,success
Status,50,9367194788,/g3t1_1,,running
Status,51,9367376071,/g3t1_1,,success
Status,52,9370671627,/g4t1,,success
Status,53,9371751492,/g3t1_2,,running
Status,54,9371891729,/g3t1_2,,success
Status,55,9376660239,/g3t1_3,,running
Status,56,9376860261,/g3t1_3,,success
Status,57,9390884474,/g4t1,,success
Status,58,9411002935,/g4t1,,success
Status,59,9431299789,/g4t1,,success
Status,60,9451153876,/g4t1,,success
Status,61,9467427605,/g3t1_1,,running
Status,62,9467455514,/g3t1_1,,success
Status,63,9471344042,/g4t1,,fail
Status,64,9471754845,/g3t1_2,,running
Status,65,9471893377,/g3t1_2,,success
Status,66,9476823884,/g3t1_3,,running
Status,67,9476911571,/g3t1_3,,success
Status,68,9491499748,/g4t1,,success
Status,69,9511523774,/g4t1,,success
Status,70,9531735356,/g4t1,,success
Status,71,9551736397,/g4t1,,success
Status,72,9567502813,/g3t1_1,,running
Status,73,9567534618,/g3t1_1,,success
Status,74,9571695898,/g4t1,,fail
Status,75,9571902088,/g3t1_2,,running
Status,76,9572116783,/g3t1_2,,success
Status,77,9576939688,/g3t1_3,,running
Status,78,9577203023,/g3t1_3,,success
Status,79,9591866196,/g4t1,,fail
Status,80,9612052592,/g4t1,,success
Status,81,9632082829,/g4t1,,success
Status,82,9652160181,/g4t1,,success
Status,83,9667502651,/g3t1_1,,running
Status,84,9667822968,/g3t1_1,,success
Status,85,9672049018,/g3t1_2,,running
Status,86,9672265575,/g3t1_2,,success
Status,87,9672291412,/g4t1,,fail
Status,88,9676996370,/g3t1_3,,running
Status,89,9677117019,/g3t1_3,,success
Status,90,9692347657,/g4t1,,fail
Status,91,9712426606,/g4t1,,success
Status,92,9732501570,/g4t1,,success
Status,93,9752585690,/g4t1,,success
Status,94,9767707005,/g3t1_1,,running
Status,95,9767769812,/g3t1_1,,success
Status,96,9772073976,/g3t1_2,,running
Status,97,9772382064,/g3t1_2,,success
Status,98,9772493611,/g4t1,,fail
Status,99,9777054852,/g3t1_3,,running
Status,100,9777237041,/g3t1_3,,success
Status,101,9792745999,/g4t1,,fail
Status,102,9812816542,/g4t1,,success
Status,103,9832947207,/g4t1,,success
Status,104,9853024612,/g4t1,,success
Status,105,9867749088,/g3t1_1,,running
Status,106,9867905183,/g3t1_1,,success
Status,107,9872166232,/g3t1_2,,running
Status,108,9872298870,/g3t1_2,,success
Status,109,9872921272,/g4t1,,fail
Status,110,9877274780,/g3t1_3,,running
Status,111,9877301560,/g3t1_3,,success
Status,112,9893158353,/g4t1,,fail
Status,113,9913251288,/g4t1,,success
Status,114,9933371844,/g4t1,,success
Status,115,9953424089,/g4t1,,success
Status,116,9967886580,/g3t1_1,,running
Status,117,9967918190,/g3t1_1,,success
Status,118,9972279429,/g3t1_2,,running
Status,119,9972410404,/g3t1_2,,success
Status,120,9973346059,/g4t1,,fail
Status,121,9977211468,/g3t1_3,,running
Status,122,9977287871,/g3t1_3,,success
Status,123,9993667727,/g4t1,,fail
Status,124,10013647373,/g4t1,,success
Status,125,10033857903,/g4t1,,success
Status,126,10053870903,/g4t1,,success
Status,127,10067893787,/g3t1_1,,running
Status,128,10068077703,/g3t1_1,,success
Status,129,10072282016,/g3t1_2,,running
Status,130,10072582886,/g3t1_2,,success
Status,131,10073788624,/g4t1,,fail
Status,132,10077350945,/g3t1_3,,running
Status,133,10077374857,/g3t1_3,,success
Status,134,10094084092,/g4t1,,fail
Status,135,10114112403,/g4t1,,success
Status,136,10134288128,/g4t1,,success
Status,137,10154422182,/g4t1,,success
Status,138,10167970665,/g3t1_1,,running
Status,139,10168140698,/g3t1_1,,success
Status,140,10172526714,/g3t1_2,,running
Status,141,10172695130,/g3t1_2,,success
Status,142,10174336718,/g4t1,,fail
Status,143,10177487926,/g3t1_3,,running
Status,144,10177695555,/g3t1_3,,success
Status,145,10194557378,/g4t1,,fail
Status,146,10214636446,/g4t1,,success
Status,147,10234715959,/g4t1,,success
Status,148,10254776726,/g4t1,,success
Status,149,10268141132,/g3t1_1,,running
Status,150,10268245009,/g3t1_1,,success
Status,151,10272519552,/g3t1_2,,running
Status,152,10272662409,/g3t1_2,,success
Status,153,10274574901,/g4t1,,fail
Status,154,10277414621,/g3t1_3,,running
Status,155,10277516429,/g3t1_3,,success
Status,156,10294901931,/g4t1,,fail
Status,157,10315120486,/g4t1,,success
Status,158,10335154235,/g4t1,,success
Status,159,10355189160,/g4t1,,success
Status,160,10368160704,/g3t1_1,,running
Status,161,10368421155,/g3t1_1,,success
Status,162,10372572090,/g3t1_2,,running
Status,163,10372804505,/g3t1_2,,success
Status,164,10375146902,/g4t1,,fail
Status,165,10377477056,/g3t1_3,,running
Status,166,10377779050,/g3t1_3,,success
Status,167,10395439646,/g4t1,,fail
Status,168,10415528570,/g4t1,,success
Status,169,10435629787,/g4t1,,success
Status,170,10455659673,/g4t1,,success
Status,171,10468406229,/g3t1_1,,running
Status,172,10468435002,/g3t1_1,,success
Status,173,10472711576,/g3t1_2,,running
Status,174,10472854173,/g3t1_2,,success
Status,175,10475493955,/g4t1,,fail
Status,176,10477597715,/g3t1_3,,running
Status,177,10477841804,/g3t1_3,,success
Status,178,10495737815,/g4t1,,fail
Status,179,10515821142,/g4t1,,success
Status,180,10535883707,/g4t1,,success
Status,181,10555987834,/g4t1,,success
Status,182,10568394697,/g3t1_1,,running
Status,183,10568487560,/g3t1_1,,success
Status,184,10572754031,/g3t1_2,,running
Status,185,10573155925,/g3t1_2,,success
Status,186,10575970806,/g4t1,,fail
Status,187,10577639446,/g3t1_3,,running
Status,188,10577836176,/g3t1_3,,success
Status,189,10596232523,/g4t1,,fail
Status,190,10616300895,/g4t1,,success
Status,191,10636411473,/g4t1,,success
Status,192,10656514010,/g4t1,,success
Status,193,10668604319,/g3t1_1,,running
Status,194,10668629303,/g3t1_1,,success
Status,195,10672828872,/g3t1_2,,running
Status,196,10672985959,/g3t1_2,,success
Status,197,10676500160,/g4t1,,fail
Status,198,10678358107,/g3t1_3,,running
Status,199,10678380156,/g3t1_3,,success
Status,200,10696672973,/g4t1,,fail
Status,201,10716757757,/g4t1,,success
Status,202,10736834327,/g4t1,,success
Status,203,10756900314,/g4t1,,success
Status,204,10768581140,/g3t1_1,,running
Status,205,10768682718,/g3t1_1,,success
Status,206,10773035298,/g3t1_2,,running
Status,207,10773131442,/g3t1_2,,success
Status,208,10776832967,/g4t1,,fail
Status,209,10777774825,/g3t1_3,,running
Status,210,10777885189,/g3t1_3,,success
Status,211,10797055320,/g4t1,,fail
Status,212,10817106029,/g4t1,,success
Status,213,10837215442,/g4t1,,success
Status,214,10857266925,/g4t1,,success
Status,215,10868685939,/g3t1_1,,running
Status,216,10868868169,/g3t1_1,,success
Status,217,10873001173,/g3t1_2,,running
Status,218,10873179926,/g3t1_2,,success
Status,219,10877390311,/g4t1,,fail
Status,220,10877795722,/g3t1_3,,running
Status,221,10877926743,/g3t1_3,,success
Status,222,10897512694,/g4t1,,fail
Status,223,10917552150,/g4t1,,success
Status,224,10937654137,/g4t1,,success
Status,225,10957770019,/g4t1,,success
Status,226,10968809381,/g3t1_1,,running
Status,227,10968848662,/g3t1_1,,success
Status,228,10973156958,/g3t1_2,,running
Status,229,10973441639,/g3t1_2,,success
Status,230,10977789195,/g4t1,,fail
Status,231,10977852770,/g3t1_3,,running
Status,232,10977927823,/g3t1_3,,success
Status,233,10998248164,/g4t1,,fail
Status,234,11018191150,/g4t1,,success
Status,235,11038270983,/g4t1,,success
Status,236,11058408083,/g4t1,,success
Status,237,11068858872,/g3t1_1,,running
Status,238,11069100664,/g3t1_1,,success
Status,239,11073240617,/g3t1_2,,running
Status,240,11073337700,/g3t1_2,,success
Status,241,11077988612,/g3t1_3,,running
Status,242,11078086101,/g3t1_3,,success
Status,243,11078184087,/g4t1,,fail
Status,244,11098555106,/g4t1,,success
Status,245,11118663551,/g4t1,,success
Status,246,11138723627,/g4t1,,success
Status,247,11158773401,/g4t1,,success
Status,248,11168954756,/g3t1_1,,running
Status,249,11169248041,/g3t1_1,,success
Status,250,11173303506,/g3t1_2,,running
Status,251,11173415437,/g3t1_2,,success
Status,252,11178111421,/g3t1_3,,running
Status,253,11178201794,/g3t1_3,,success
Status,254,11178562311,/g4t1,,fail
Status,255,11198861063,/g4t1,,success
Status,256,11218939151,/g4t1,,success
Status,257,11239011585,/g4t1,,success
Status,258,11259108782,/g4t1,,success
Status,259,11269048067,/g3t1_1,,running
Status,260,11269167276,/g3t1_1,,success
Status,261,11273365362,/g3t1_2,,running
Status,262,11273581896,/g3t1_2,,success
Status,263,11278220385,/g3t1_3,,running
Status,264,11278254115,/g3t1_3,,success
Status,265,11279088881,/g4t1,,fail
Status,266,11299286769,/g4t1,,success
Status,267,11319427444,/g4t1,,success
Status,268,11339476368,/g4t1,,success
Status,269,11359578685,/g4t1,,success
Status,270,11369234881,/g3t1_1,,running
Status,271,11369256746,/g3t1_1,,success
Status,272,11373386964,/g3t1_2,,running
Status,273,11373473153,/g3t1_2,,success
Status,274,11378301248,/g3t1_3,,running
Status,275,11378330120,/g3t1_3,,success
Status,276,11379663941,/g4t1,,fail
Status,277,11399770571,/g4t1,,success
Status,278,11419861305,/g4t1,,success
Status,279,11439946684,/g4t1,,success
Status,280,11459965249,/g4t1,,success
Status,281,11469259543,/g3t1_1,,running
Status,282,11469351597,/g3t1_1,,success
Status,283,11473517393,/g3t1_2,,running
Status,284,11473620097,/g3t1_2,,success
Status,285,11478296260,/g3t1_3,,running
Status,286,11478371115,/g3t1_3,,success
Status,287,11480074059,/g4t1,,fail
Status,288,11500306555,/g4t1,,success
Status,289,11520379695,/g4t1,,success
Status,290,11540435158,/g4t1,,success
Status,291,11560477627,/g4t1,,success
Status,292,11569308308,/g3t1_1,,running
Status,293,11569533149,/g3t1_1,,success
Status,294,11573511750,/g3t1_2,,running
Status,295,11573685889,/g3t1_2,,success
Status,296,11578366692,/g3t1_3,,running
Status,297,11578473241,/g3t1_3,,success
Status,298,11580373438,/g4t1,,fail
Status,299,11600637707,/g4t1,,success
Status,300,11620807053,/g4t1,,success
Status,301,11640866247,/g4t1,,success
Status,302,11661017973,/g4t1,,success
Status,303,11669368571,/g3t1_1,,running
Status,304,11669435567,/g3t1_1,,success
Status,305,11673703511,/g3t1_2,,running
Status,306,11673772910,/g3t1_2,,success
Status,307,11678539328,/g3t1_3,,running
Status,308,11678567959,/g3t1_3,,success
Status,309,11681196187,/g4t1,,fail
Status,310,11701195350,/g4t1,,success
Status,311,11721205693,/g4t1,,success
Status,312,11741345143,/g4t1,,success
Status,313,11761333215,/g4t1,,success
Status,314,11769505379,/g3t1_1,,running
Status,315,11769526676,/g3t1_1,,success
Status,316,11773866532,/g3t1_2,,running
Status,317,11773889616,/g3t1_2,,success
Status,318,11778648335,/g3t1_3,,running
Status,319,11778673318,/g3t1_3,,success
Status,320,11781479373,/g4t1,,fail
Status,321,11801595714,/g4t1,,success
Status,322,11821689807,/g4t1,,success
Status,323,11841761174,/g4t1,,success
Status,324,11861867302,/g4t1,,success
Status,325,11869523358,/g3t1_1,,running
Status,326,11869637957,/g3t1_1,,success
Status,327,11873818108,/g3t1_2,,running
Status,328,11873973469,/g3t1_2,,success
Status,329,11878781515,/g3t1_3,,running
Status,330,11878807939,/g3t1_3,,success
Status,331,11881859771,/g4t1,,fail
Status,332,11902040568,/g4t1,,success
Status,333,11922179159,/g4t1,,success
Status,334,11942205386,/g4t1,,success
Status,335,11962468336,/g4t1,,success
Status,336,11969664606,/g3t1_1,,running
Status,337,11969685030,/g3t1_1,,success
Status,338,11974001202,/g3t1_2,,running
Status,339,11974022474,/g3t1_2,,success
Status,340,11978722778,/g3t1_3,,running
Status,341,11978742124,/g3t1_3,,success
Status,342,11982326399,/g4t1,,fail
Status,343,12002475854,/g4t1,,success
Status,344,12022607592,/g4t1,,success
Status,345,12042669662,/g4t1,,success
Status,346,12062842626,/g4t1,,success
Status,347,12069767648,/g3t1_1,,running
Status,348,12069787462,/g3t1_1,,success
Status,349,12073942909,/g3t1_2,,running
Status,350,12074126971,/g3t1_2,,success
Status,351,12078624204,/g3t1_3,,running
Status,352,12078711879,/g3t1_3,,success
Status,353,12082613838,/g4t1,,fail
Status,354,12102861264,/g4t1,,success
Status,355,12122895069,/g4t1,,success
Status,356,12143045965,/g4t1,,success
Status,357,12163289670,/g4t1,,success
Status,358,12169875410,/g3t1_1,,running
Status,359,12169899893,/g3t1_1,,success
Status,360,12173997441,/g3t1_2,,running
Status,361,12174252383,/g3t1_2,,success
Status,362,12178748135,/g3t1_3,,running
Status,363,12178836657,/g3t1_3,,success
Status,364,12183181707,/g4t1,,fail
Status,365,12203277731,/g4t1,,success
Status,366,12223302543,/g4t1,,success
Status,367,12243576465,/g4t1,,success
Status,368,12263655582,/g4t1,,success
Status,369,12269805528,/g3t1_1,,running
Status,370,12269983576,/g3t1_1,,success
Status,371,12274316401,/g3t1_2,,running
Status,372,12274338857,/g3t1_2,,success
Status,373,12279028427,/g3t1_3,,running
Status,374,12279055550,/g3t1_3,,success
Status,375,12283738736,/g4t1,,fail
Status,376,12303731157,/g4t1,,success
Status,377,12323889656,/g4t1,,success
Status,378,12343952250,/g4t1,,success
Status,379,12364131545,/g4t1,,success
Status,380,12370015508,/g3t1_1,,running
Status,381,12370038250,/g3t1_1,,success
Status,382,12374241994,/g3t1_2,,running
Status,383,12374396396,/g3t1_2,,success
Status,384,12379007626,/g3t1_3,,running
Status,385,12379308079,/g3t1_3,,success
Status,386,12384215003,/g4t1,,fail
Status,387,12404332499,/g4t1,,success
Status,388,12424395763,/g4t1,,success
Status,389,12444406992,/g4t1,,success
Status,390,12464606263,/g4t1,,success
Status,391,12470078188,/g3t1_1,,running
Status,392,12470098929,/g3t1_1,,success
Status,393,12474358088,/g3t1_2,,running
Status,394,12474501431,/g3t1_2,,success
Status,395,12479296864,/g3t1_3,,running
Status,396,12479321926,/g3t1_3,,success
Status,397,12484664822,/g4t1,,fail
Status,398,12504765656,/g4t1,,success
Status,399,12524880825,/g4t1,,success
Status,400,12544960196,/g4t1,,success
Status,401,12564968444,/g4t1,,success
Status,402,12570177711,/g3t1_1,,running
Status,403,12570276817,/g3t1_1,,success
Status,404,12574473064,/g3t1_2,,running
Status,405,12574556332,/g3t1_2,,success
Status,406,12579125632,/g3t1_3,,running
Status,407,12579186643,/g3t1_3,,success
Status,408,12585115624,/g4t1,,fail
Status,409,12605256259,/g4t1,,success
Status,410,12625365285,/g4t1,,success
Status,411,12645405821,/g4t1,,success
Status,412,12665502230,/g4t1,,success
Status,413,12670115735,/g3t1_1,,running
Status,414,12670308982,/g3t1_1,,success
Status,415,12674432441,/g3t1_2,,running
Status,416,12674601227,/g3t1_2,,success
Status,417,12679146591,/g3t1_3,,running
Status,418,12679173221,/g3t1_3,,success
Status,419,12685582870,/g4t1,,fail
Status,420,12705665966,/g4t1,,success
Status,421,12725739652,/g4t1,,success
Status,422,12745865469,/g4t1,,success
Status,423,12765890340,/g4t1,,success
Status,424,12770245413,/g3t1_1,,running
Status,425,12770403187,/g3t1_1,,success
Status,426,12774656636,/g3t1_2,,running
Status,427,12774680899,/g3t1_2,,success
Status,428,12779374823,/g3t1_3,,running
Status,429,12779436170,/g3t1_3,,success
Status,430,12785963450,/g4t1,,fail
Status,431,12806122335,/g4t1,,success
Status,432,12826265551,/g4t1,,success
Status,433,12846596050,/g4t1,,success
Status,434,12866399125,/g4t1,,success
Status,435,12870324952,/g3t1_1,,running
Status,436,12870447392,/g3t1_1,,success
Status,437,12874695468,/g3t1_2,,running
Status,438,12874826611,/g3t1_2,,success
Status,439,12879421200,/g3t1_3,,running
Status,440,12879482703,/g3t1_3,,success
Status,441,12886601875,/g4t1,,fail
Status,442,12906664896,/g4t1,,success
Status,443,12926706691,/g4t1,,success
Status,444,12946944076,/g4t1,,success
Status,445,12966887091,/g4t1,,success
Status,446,12970361346,/g3t1_1,,running
Status,447,12970615238,/g3t1_1,,success
Status,448,12974682671,/g3t1_2,,running
Status,449,12974821763,/g3t1_2,,success
Status,450,12979605882,/g3t1_3,,running
Status,451,12979628825,/g3t1_3,,success
Status,452,12986917176,/g4t1,,fail
Status,453,13007098025,/g4t1,,success
Status,454,13027061380,/g4t1,,success
Status,455,13047244175,/g4t1,,success
Status,456,13067314275,/g4t1,,success
Status,457,13070462086,/g3t1_1,,running
Status,458,13070659506,/g3t1_1,,success
Status,459,13074720277,/g3t1_2,,running
Status,460,13074820626,/g3t1_2,,success
Status,461,13079354999,/g3t1_3,,running
Status,462,13079445771,/g3t1_3,,success
Status,463,13087252074,/g4t1,,fail
Status,464,13107428235,/g4t1,,success
Status,465,13127529444,/g4t1,,success
Status,466,13147598155,/g4t1,,success
Status,467,13167599946,/g4t1,,success
Status,468,13170512430,/g3t1_1,,running
Status,469,13170671873,/g3t1_1,,success
Status,470,13174898001,/g3t1_2,,running
Status,471,13174916870,/g3t1_2,,success
Status,472,13179522354,/g3t1_3,,running
Status,473,13179551634,/g3t1_3,,success
Status,474,13187721355,/g4t1,,fail
Status,475,13207866104,/g4t1,,success
Status,476,13227992484,/g4t1,,success
Status,477,13248092538,/g4t1,,success
Status,478,13267952450,/g4t1,,success
Status,479,13270706155,/g3t1_1,,running
Status,480,13270732913,/g3t1_1,,success
Status,481,13274923819,/g3t1_2,,running
Status,482,13274987407,/g3t1_2,,success
Status,483,13279777965,/g3t1_3,,running
Status,484,13279802883,/g3t1_3,,success
Status,485,13288127154,/g4t1,,fail
Status,486,13308351289,/g4t1,,success
Status,487,13328409175,/g4t1,,success
Status,488,13348508808,/g4t1,,success
Status,489,13368423130,/g4t1,,success
Status,490,13370670320,/g3t1_1,,running
Status,491,13370786615,/g3t1_1,,success
Status,492,13374867028,/g3t1_2,,running
Status,493,13374983658,/g3t1_2,,success
Status,494,13379761314,/g3t1_3,,running
Status,495,13379929347,/g3t1_3,,success
Status,496,13388621456,/g4t1,,fail
Status,497,13408736571,/g4t1,,success
Status,498,13428852497,/g4t1,,success
Status,499,13448936937,/g4t1,,success
Status,500,13469105338,/g4t1,,success
Status,501,13470702812,/g3t1_1,,running
Status,502,13470837835,/g3t1_1,,success
Status,503,13474964366,/g3t1_2,,running
Status,504,13475100971,/g3t1_2,,success
Status,505,13479967965,/g3t1_3,,running
Status,506,13479991441,/g3t1_3,,success
Status,507,13489098711,/g4t1,,fail
Status,508,13509249705,/g4t1,,success
Status,509,13529503028,/g4t1,,success
Status,510,13549470511,/g4t1,,success
Status,511,13569594537,/g4t1,,success
Status,512,13570900994,/g3t1_1,,running
Status,513,13570918765,/g3t1_1,,success
Status,514,13575124027,/g3t1_2,,running
Status,515,13575144231,/g3t1_2,,success
Status,516,13580083627,/g3t1_3,,running
Status,517,13580107190,/g3t1_3,,success
Status,518,13589731142,/g4t1,,fail
Status,519,13609764640,/g4t1,,success
Status,520,13629990831,/g4t1,,success
Status,521,13649926771,/g4t1,,success
Status,522,13670007717,/g4t1,,success
Status,523,13670881736,/g3t1_1,,running
Status,524,13670971624,/g3t1_1,,success
Status,525,13675260806,/g3t1_2,,running
Status,526,13675279339,/g3t1_2,,success
Status,527,13679972227,/g3t1_3,,running
Status,528,13680075386,/g3t1_3,,success
Status,529,13690086827,/g4t1,,fail
Status,530,13710198966,/g4t1,,success
Status,531,13730600189,/g4t1,,success
Status,532,13750389785,/g4t1,,success
Status,533,13770422428,/g4t1,,success
Status,534,13770910713,/g3t1_1,,running
Status,535,13771125597,/g3t1_1,,success
Status,536,13775206388,/g3t1_2,,running
Status,537,13775295895,/g3t1_2,,success
Status,538,13780179880,/g3t1_3,,running
Status,539,13780289041,/g3t1_3,,success
Status,540,13790471317,/g4t1,,fail
Status,541,13810568426,/g4t1,,success
Status,542,13830656907,/g4t1,,success
Status,543,13850715897,/g4t1,,success
Status,544,13870809497,/g4t1,,success
Status,545,13871101301,/g3t1_1,,running
Status,546,13871241517,/g3t1_1,,success
Status,547,13875279955,/g3t1_2,,running
Status,548,13875452100,/g3t1_2,,success
Status,549,13880243158,/g3t1_3,,running
Status,550,13880266602,/g3t1_3,,success
Status,551,13890857366,/g4t1,,fail
Status,552,13910931440,/g4t1,,success
Status,553,13931033282,/g4t1,,success
Status,554,13951123663,/g4t1,,success
Status,555,13971272153,/g3t1_1,,running
Status,556,13971301329,/g4t1,,success
Status,557,13971405428,/g3t1_1,,success
Status,558,13975350546,/g3t1_2,,running
Status,559,13975483876,/g3t1_2,,success
Status,560,13980099155,/g3t1_3,,running
Status,561,13980187183,/g3t1_3,,success
Status,562,13991346146,/g4t1,,fail
Status,563,14011497373,/g4t1,,success
Status,564,14031549912,/g4t1,,success
Status,565,14051546843,/g4t1,,success
Status,566,14071286733,/g3t1_1,,running
Status,567,14071392541,/g3t1_1,,success
Status,568,14071618802,/g4t1,,success
Status,569,14075463781,/g3t1_2,,running
Status,570,14075670765,/g3t1_2,,success
Status,571,14080151362,/g3t1_3,,running
Status,572,14080200743,/g3t1_3,,success
Status,573,14091859164,/g4t1,,fail
Status,574,14111944949,/g4t1,,success
Status,575,14132025871,/g4t1,,success
Status,576,14152153729,/g4t1,,success
Status,577,14171432669,/g3t1_1,,running
Status,578,14171455015,/g3t1_1,,success
Status,579,14172087372,/g4t1,,success
Status,580,14175560303,/g3t1_2,,running
Status,581,14175646284,/g3t1_2,,success
Status,582,14180518495,/g3t1_3,,running
Status,583,14180556955,/g3t1_3,,success
Status,584,14192239969,/g4t1,,fail
Status,585,14212359814,/g4t1,,success
Status,586,14232416432,/g4t1,,success
Status,587,14252454907,/g4t1,,success
Status,588,14271556137,/g3t1_1,,running
Status,589,14271577494,/g3t1_1,,success
Status,590,14272532539,/g4t1,,fail
Status,591,14275686072,/g3t1_2,,running
Status,592,14275770372,/g3t1_2,,success
Status,593,14280531854,/g3t1_3,,running
Status,594,14280641527,/g3t1_3,,success
Status,595,14292675822,/g4t1,,fail
Status,596,14312828837,/g4t1,,success
Status,597,14332783530,/g4t1,,success
Status,598,14352883175,/g4t1,,success
Status,599,14371613601,/g3t1_1,,running
Status,600,14371634383,/g3t1_1,,success
Status,601,14372866823,/g4t1,,success
Status,602,14375615640,/g3t1_2,,running
Status,603,14375779854,/g3t1_2,,success
Status,604,14380715099,/g3t1_3,,running
Status,605,14380795485,/g3t1_3,,success
Status,606,14393108811,/g4t1,,fail
Status,607,14413148816,/g4t1,,success
Status,608,14433182442,/g4t1,,success
Status,609,14453320409,/g4t1,,success
Status,610,14471572836,/g3t1_1,,running
Status,611,14471738739,/g3t1_1,,success
Status,612,14473195474,/g4t1,,fail
Status,613,14475770990,/g3t1_2,,running
Status,614,14475891245,/g3t1_2,,success
Status,615,14480594990,/g3t1_3,,running
Status,616,14480628018,/g3t1_3,,success
Status,617,14493278174,/g4t1,,fail
Status,618,14513505199,/g4t1,,success
Status,619,14533475804,/g4t1,,success
Status,620,14553459307,/g4t1,,success
Status,621,14571797678,/g3t1_1,,running
Status,622,14571816131,/g3t1_1,,success
Status,623,14573516269,/g4t1,,success
Status,624,14575995229,/g3t1_2,,running
Status,625,14576012083,/g3t1_2,,success
Status,626,14580622446,/g3t1_3,,running
Status,627,14580791997,/g3t1_3,,success
Status,628,14593604809,/g4t1,,fail
Status,629,14613761984,/g4t1,,success
Status,630,14633817822,/g4t1,,success
Status,631,14654005454,/g4t1,,success
Status,632,14671929171,/g3t1_1,,running
Status,633,14672060367,/g3t1_1,,success
Status,634,14673890258,/g4t1,,fail
Status,635,14676297813,/g3t1_2,,running
Status,636,14676322788,/g3t1_2,,success
Status,637,14680950451,/g3t1_3,,running
Status,638,14680971958,/g3t1_3,,success
Status,639,14694075779,/g4t1,,fail
Status,640,14714171427,/g4t1,,success
Status,641,14734325307,/g4t1,,success
Status,642,14754387800,/g4t1,,success
Status,643,14771876439,/g3t1_1,,running
Status,644,14772140509,/g3t1_1,,success
Status,645,14774322660,/g4t1,,success
Status,646,14776051551,/g3t1_2,,running
Status,647,14776189159,/g3t1_2,,success
Status,648,14781196158,/g3t1_3,,running
Status,649,14781240963,/g3t1_3,,success
Status,650,14794359441,/g4t1,,fail
Status,651,14814713818,/g4t1,,success
Status,652,14834674651,/g4t1,,success
Status,653,14854902946,/g4t1,,success
Status,654,14872070281,/g3t1_1,,running
Status,655,14872094319,/g3t1_1,,success
Status,656,14874849753,/g4t1,,fail
Status,657,14876052538,/g3t1_2,,running
Status,658,14876276409,/g3t1_2,,success
Status,659,14881094741,/g3t1_3,,running
Status,660,14881269066,/g3t1_3,,success
Status,661,14894896462,/g4t1,,fail
Status,662,14915062024,/g4t1,,success
Status,663,14935220486,/g4t1,,success
Status,664,14955313009,/g4t1,,success
Status,665,14972146289,/g3t1_1,,running
Status,666,14972168303,/g3t1_1,,success
Status,667,14975327579,/g4t1,,success
Status,668,14976141888,/g3t1_2,,running
Status,669,14976282162,/g3t1_2,,success
Status,670,14981227844,/g3t1_3,,running
Status,671,14981250032,/g3t1_3,,success
Status,672,14995398947,/g4t1,,fail
Status,673,15015607167,/g4t1,,success
Status,674,15035687326,/g4t1,,success
Status,675,15055741345,/g4t1,,success
Status,676,15072114693,/g3t1_1,,running
Status,677,15072285156,/g3t1_1,,success
Status,678,15075680255,/g4t1,,fail
Status,679,15076222800,/g3t1_2,,running
Status,680,15076357547,/g3t1_2,,success
Status,681,15081005253,/g3t1_3,,running
Status,682,15081334623,/g3t1_3,,success
Status,683,15095839230,/g4t1,,fail
Status,684,15116031981,/g4t1,,success
Status,685,15136120164,/g4t1,,success
Status,686,15156181034,/g4t1,,success
Status,687,15172203011,/g3t1_1,,running
Status,688,15172231978,/g3t1_1,,success
Status,689,15176064392,/g4t1,,success
Status,690,15176261822,/g3t1_2,,running
Status,691,15176494546,/g3t1_2,,success
Status,692,15181243317,/g3t1_3,,running
Status,693,15181389013,/g3t1_3,,success
Status,694,15196387617,/g4t1,,fail
Status,695,15216432765,/g4t1,,success
Status,696,15236514697,/g4t1,,success
Status,697,15256574654,/g4t1,,success
Status,698,15272315417,/g3t1_1,,running
Status,699,15272337018,/g3t1_1,,success
Status,700,15276592938,/g3t1_2,,running
Status,701,15276618735,/g4t1,,fail
Status,702,15276628395,/g3t1_2,,success
Status,703,15281307954,/g3t1_3,,running
Status,704,15281426027,/g3t1_3,,success
Status,705,15296659908,/g4t1,,fail
Status,706,15316837686,/g4t1,,success
Status,707,15336898453,/g4t1,,success
Status,708,15357010190,/g4t1,,success
Status,709,15372348386,/g3t1_1,,running
Status,710,15372373172,/g3t1_1,,success
Status,711,15376485914,/g3t1_2,,running
Status,712,15376743433,/g3t1_2,,success
Status,713,15376936089,/g4t1,,success
Status,714,15381388607,/g3t1_3,,running
Status,715,15381484419,/g3t1_3,,success
Status,716,15397180880,/g4t1,,fail
Status,717,15417280888,/g4t1,,success
Status,718,15437400406,/g4t1,,success
Status,719,15457489950,/g4t1,,success
Status,720,15472401412,/g3t1_1,,running
Status,721,15472422894,/g3t1_1,,success
Status,722,15476683871,/g3t1_2,,running
Status,723,15476707271,/g3t1_2,,success
Status,724,15477291463,/g4t1,,fail
Status,725,15481487713,/g3t1_3,,running
Status,726,15481507929,/g3t1_3,,success
Status,727,15497769669,/g4t1,,success
Status,728,15517704445,/g4t1,,success
Status,729,15537911062,/g4t1,,success
Status,730,15557906437,/g4t1,,success
Status,731,15572417216,/g3t1_1,,running
Status,732,15572521315,/g3t1_1,,success
Status,733,15576626163,/g3t1_2,,running
Status,734,15576818885,/g3t1_2,,success
Status,735,15577811612,/g4t1,,fail
Status,736,15581384708,/g3t1_3,,running
Status,737,15581480187,/g3t1_3,,success
Status,738,15598092633,/g4t1,,fail
Status,739,15618097025,/g4t1,,success
Status,740,15638190011,/g4t1,,success
Status,741,15658334856,/g4t1,,success
Status,742,15672479989,/g3t1_1,,running
Status,743,15672505498,/g3t1_1,,success
Status,744,15676713888,/g3t1_2,,running
Status,745,15676873707,/g3t1_2,,success
Status,746,15678227591,/g4t1,,fail
Status,747,15681687315,/g3t1_3,,running
Status,748,15681710820,/g3t1_3,,success
Status,749,15698443325,/g4t1,,success
Status,750,15718514353,/g4t1,,success
Status,751,15738580879,/g4t1,,success
Status,752,15758662578,/g4t1,,success
Status,753,15772649154,/g3t1_1,,running
Status,754,15772673896,/g3t1_1,,success
Status,755,15776910134,/g3t1_2,,running
Status,756,15777254353,/g3t1_2,,success
Status,757,15778744670,/g4t1,,fail
Status,758,15781695715,/g3t1_3,,running
Status,759,15781819748,/g3t1_3,,success
Status,760,15798829300,/g4t1,,fail
Status,761,15818948029,/g4t1,,success
Status,762,15839101763,/g4t1,,success
Status,763,15859169791,/g4t1,,success
Status,764,15872596695,/g3t1_1,,running
Status,765,15872688371,/g3t1_1,,success
Status,766,15876977266,/g3t1_2,,running
Status,767,15877320167,/g3t1_2,,success
Status,768,15879286448,/g4t1,,fail
Status,769,15881697439,/g3t1_3,,running
Status,770,15881718106,/g3t1_3,,success
Status,771,15899351446,/g4t1,,success
Status,772,15919497871,/g4t1,,success
Status,773,15939587396,/g4t1,,success
Status,774,15959681816,/g4t1,,success
Status,775,15972747087,/g3t1_1,,running
Status,776,15972871394,/g3t1_1,,success
Status,777,15976969547,/g3t1_2,,running
Status,778,15977061221,/g3t1_2,,success
Status,779,15979890828,/g4t1,,fail
Status,780,15981748229,/g3t1_3,,running
Status,781,15981895801,/g3t1_3,,success
Status,782,15999836292,/g4t1,,fail
Status,783,16019909468,/g4t1,,success
Status,784,16039977667,/g4t1,,success
Status,785,16060042778,/g4t1,,success
Status,786,16072712254,/g3t1_1,,running
Status,787,16072787111,/g3t1_1,,success
Status,788,16077022230,/g3t1_2,,running
Status,789,16077147761,/g3t1_2,,success
Status,790,16079963087,/g4t1,,fail
Status,791,16081836530,/g3t1_3,,running
Status,792,16081878236,/g3t1_3,,success
Status,793,16100277898,/g4t1,,success
Status,794,16120389289,/g4t1,,success
Status,795,16140451248,/g4t1,,success
Status,796,16160568780,/g4t1,,success
Status,797,16172803100,/g3t1_1,,running
Status,798,16172964253,/g3t1_1,,success
Status,799,16177198482,/g3t1_2,,running
Status,800,16177340646,/g3t1_2,,success
Status,801,16180627971,/g4t1,,fail
Status,802,16181800172,/g3t1_3,,running
Status,803,16182017677,/g3t1_3,,success
Status,804,16200716205,/g4t1,,fail
Status,805,16220858628,/g4t1,,success
Status,806,16240987453,/g4t1,,success
Status,807,16261058269,/g4t1,,success
Status,808,16272898563,/g3t1_1,,running
Status,809,16273111331,/g3t1_1,,success
Status,810,16277190637,/g3t1_2,,running
Status,811,16277316419,/g3t1_2,,success
Status,812,16281007948,/g4t1,,fail
Status,813,16281814004,/g3t1_3,,running
Status,814,16282016345,/g3t1_3,,success
Status,815,16301243572,/g4t1,,success
Status,816,16321281707,/g4t1,,success
Status,817,16341444190,/g4t1,,success
Status,818,16361536842,/g4t1,,success
Status,819,16373063702,/g3t1_1,,running
Status,820,16373085828,/g3t1_1,,success
Status,821,16377475888,/g3t1_2,,running
Status,822,16377501827,/g3t1_2,,success
Status,823,16381659917,/g4t1,,fail
Status,824,16381992949,/g3t1_3,,running
Status,825,16382155431,/g3t1_3,,success
Status,826,16401734597,/g4t1,,fail
Status,827,16421819761,/g4t1,,success
Status,828,16441897579,/g4t1,,success
Status,829,16462044699,/g4t1,,success
Status,830,16473072090,/g3t1_1,,running
Status,831,16473150399,/g3t1_1,,success
Status,832,16477437658,/g3t1_2,,running
Status,833,16477625135,/g3t1_2,,success
Status,834,16481995810,/g4t1,,fail
Status,835,16482026011,/g3t1_3,,running
Status,836,16482206069,/g3t1_3,,success
Status,837,16502159986,/g4t1,,success
Status,838,16522244748,/g4t1,,success
Status,839,16542400080,/g4t1,,success
Status,840,16562551108,/g4t1,,success
Status,841,16573065401,/g3t1_1,,running
Status,842,16573184177,/g3t1_1,,success
Status,843,16577683730,/g3t1_2,,running
Status,844,16577710390,/g3t1_2,,success
Status,845,16582325798,/g3t1_3,,running
Status,846,16582350181,/g3t1_3,,success
Status,847,16582357173,/g4t1,,fail
Status,848,16602602264,/g4t1,,fail
Status,849,16622624945,/g4t1,,success
Status,850,16642751640,/g4t1,,success
Status,851,16662933964,/g4t1,,success
Status,852,16673157842,/g3t1_1,,running
Status,853,16673243313,/g3t1_1,,success
Status,854,16677535729,/g3t1_2,,running
Status,855,16677671513,/g3t1_2,,success
Status,856,16682373713,/g3t1_3,,running
Status,857,16682394829,/g3t1_3,,success
Status,858,16682789887,/g4t1,,fail
Status,859,16702989400,/g4t1,,success
Status,860,16723035637,/g4t1,,success
Status,861,16743143338,/g4t1,,success
Status,862,16763290848,/g4t1,,success
Status,863,16773229565,/g3t1_1,,running
Status,864,16773338302,/g3t1_1,,success
Status,865,16777701636,/g3t1_2,,running
Status,866,16777786337,/g3t1_2,,success
Status,867,16782315670,/g3t1_3,,running
Status,868,16782393520,/g3t1_3,,success
Status,869,16783062925,/g4t1,,fail
Status,870,16803332280,/g4t1,,success
Status,871,16823478012,/g4t1,,success
Status,872,16843620861,/g4t1,,success
Status,873,16863651458,/g4t1,,success
Status,874,16873360939,/g3t1_1,,running
Status,875,16873450770,/g3t1_1,,success
Status,876,16877790962,/g3t1_2,,running
Status,877,16877847155,/g3t1_2,,success
Status,878,16882434701,/g3t1_3,,running
Status,879,16882528713,/g3t1_3,,success
Status,880,16883616062,/g4t1,,fail
Status,881,16903854989,/g4t1,,success
Status,882,16923887117,/g4t1,,success
Status,883,16944036109,/g4t1,,success
Status,884,16964129421,/g4t1,,success
Status,885,16973369027,/g3t1_1,,running
Status,886,16973472354,/g3t1_1,,success
Status,887,16977861620,/g3t1_2,,running
Status,888,16977882312,/g3t1_2,,success
Status,889,16982508779,/g3t1_3,,running
Status,890,16982537880,/g3t1_3,,success
Status,891,16984047782,/g4t1,,fail
Status,892,17004262680,/g4t1,,success
Status,893,17024323266,/g4t1,,success
Status,894,17044419994,/g4t1,,success
Status,895,17064527840,/g4t1,,success
Status,896,17073408388,/g3t1_1,,running
Status,897,17073543707,/g3t1_1,,success
Status,898,17077839084,/g3t1_2,,running
Status,899,17077986551,/g3t1_2,,success
Status,900,17082492976,/g3t1_3,,running
Status,901,17082607737,/g3t1_3,,success
Status,902,17084503695,/g4t1,,fail
Status,903,17104820548,/g4t1,,success
Status,904,17124892364,/g4t1,,success
Status,905,17144981544,/g4t1,,success
Status,906,17165148593,/g4t1,,success
Status,907,17173418951,/g3t1_1,,running
Status,908,17173650711,/g3t1_1,,success
Status,909,17178226723,/g3t1_2,,running
Status,910,17178566276,/g3t1_2,,success
Status,911,17182750627,/g3t1_3,,running
Status,912,17182773082,/g3t1_3,,success
Status,913,17185096379,/g4t1,,fail
Status,914,17205285239,/g4t1,,success
Status,915,17225391258,/g4t1,,success
Status,916,17245606504,/g4t1,,success
Status,917,17265545327,/g4t1,,success
Status,918,17273656170,/g3t1_1,,running
Status,919,17273678217,/g3t1_1,,success
Status,920,17278404080,/g3t1_2,,running
Status,921,17278556457,/g3t1_2,,success
Status,922,17282634589,/g3t1_3,,running
Status,923,17282869809,/g3t1_3,,success
Status,924,17285427793,/g4t1,,fail
Status,925,17305808317,/g4t1,,success
Status,926,17325846561,/g4t1,,success
Status,927,17346087526,/g4t1,,success
Status,928,17366085066,/g4t1,,success
Status,929,17373558494,/g3t1_1,,running
Status,930,17373747538,/g3t1_1,,success
Status,931,17378306130,/g3t1_2,,running
Status,932,17378382251,/g3t1_2,,success
Status,933,17382850315,/g3t1_3,,running
Status,934,17382883352,/g3t1_3,,success
Status,935,17386003286,/g4t1,,fail
Status,936,17406224658,/g4t1,,success
Status,937,17426305944,/g4t1,,success
Status,938,17446554073,/g4t1,,success
Status,939,17466500679,/g4t1,,success
Status,940,17473689120,/g3t1_1,,running
Status,941,17473803045,/g3t1_1,,success
Status,942,17478251381,/g3t1_2,,running
Status,943,17478366331,/g3t1_2,,success
Status,944,17482831536,/g3t1_3,,running
Status,945,17482851318,/g3t1_3,,success
Status,946,17486441362,/g4t1,,fail
Status,947,17506627354,/g4t1,,success
Status,948,17526714239,/g4t1,,success
Status,949,17546758419,/g4t1,,success
Status,950,17566872093,/g4t1,,success
Status,951,17573676924,/g3t1_1,,running
Status,952,17573838118,/g3t1_1,,success
Status,953,17578323561,/g3t1_2,,running
Status,954,17578486665,/g3t1_2,,success
Status,955,17582848352,/g3t1_3,,running
Status,956,17583011878,/g3t1_3,,success
Status,957,17586937523,/g4t1,,fail
Status,958,17607103178,/g4t1,,success
Status,959,17627123168,/g4t1,,success
Status,960,17647237909,/g4t1,,success
Status,961,17667341058,/g4t1,,success
Status,962,17673795745,/g3t1_1,,running
Status,963,17673908595,/g3t1_1,,success
Status,964,17678533395,/g3t1_2,,running
Status,965,17678557051,/g3t1_2,,success
Status,966,17682993842,/g3t1_3,,running
Status,967,17683013760,/g3t1_3,,success
Status,968,17687386698,/g4t1,,fail
Status,969,17707458888,/g4t1,,success
Status,970,17727565775,/g4t1,,success
Status,971,17747657093,/g4t1,,success
Status,972,17767764624,/g4t1,,success
Status,973,17773841909,/g3t1_1,,running
Status,974,17773986585,/g3t1_1,,success
Status,975,17778683022,/g3t1_2,,running
Status,976,17778779983,/g3t1_2,,success
Status,977,17783023060,/g3t1_3,,running
Status,978,17783141982,/g3t1_3,,success
Status,979,17787862594,/g4t1,,fail
Status,980,17808063938,/g4t1,,success
Status,981,17828128751,/g4t1,,success
Status,982,17848269201,/g4t1,,success
Status,983,17868346120,/g4t1,,success
Status,984,17873912501,/g3t1_1,,running
Status,985,17873949451,/g3t1_1,,success
Status,986,17878781711,/g3t1_2,,running
Status,987,17878852549,/g3t1_2,,success
Status,988,17883177062,/g3t1_3,,running
Status,989,17883200327,/g3t1_3,,success
Status,990,17888301222,/g4t1,,fail
Status,991,17908462169,/g4t1,,success
Status,992,17928592292,/g4t1,,success
Status,993,17948695491,/g4t1,,success
Status,994,17968788302,/g4t1,,success
Status,995,17973927214,/g3t1_1,,running
Status,996,17974129944,/g3t1_1,,success
Status,997,17978570219,/g3t1_2,,running
Status,998,17978732212,/g3t1_2,,success
Status,999,17983120292,/g3t1_3,,running
Status,1000,17983247571,/g3t1_3,,success
Status,1001,17988911112,/g4t1,,fail
Status,1002,18009088741,/g4t1,,success
Status,1003,18029254573,/g4t1,,success
Status,1004,18049169638,/g4t1,,success
Status,1005,18069249631,/g4t1,,success
Status,1006,18074077631,/g3t1_1,,running
Status,1007,18074187524,/g3t1_1,,success
Status,1008,18078663282,/g3t1_2,,running
Status,1009,18078768256,/g3t1_2,,success
Status,1010,18083226466,/g3t1_3,,running
Status,1011,18083254157,/g3t1_3,,success
Status,1012,18089382321,/g4t1,,fail
Status,1013,18109453022,/g4t1,,success
Status,1014,18129636327,/g4t1,,success
Status,1015,18149727412,/g4t1,,success
Status,1016,18169811300,/g4t1,,success
Status,1017,18174179488,/g3t1_1,,running
Status,1018,18174318550,/g3t1_1,,success
Status,1019,18179032537,/g3t1_2,,running
Status,1020,18179077531,/g3t1_2,,success
Status,1021,18183201086,/g3t1_3,,running
Status,1022,18183333926,/g3t1_3,,success
Status,1023,18189797473,/g4t1,,fail
Status,1024,18209927997,/g4t1,,success
Status,1025,18230078917,/g4t1,,success
Status,1026,18250231811,/g4t1,,success
Status,1027,18270263512,/g4t1,,success
Status,1028,18274205139,/g3t1_1,,running
Status,1029,18274364965,/g3t1_1,,success
Status,1030,18279128911,/g3t1_2,,running
Status,1031,18279151279,/g3t1_2,,success
Status,1032,18283339298,/g3t1_3,,running
Status,1033,18283451648,/g3t1_3,,success
Status,1034,18290365477,/g4t1,,fail
Status,1035,18310451253,/g4t1,,success
Status,1036,18330487176,/g4t1,,success
Status,1037,18350574037,/g4t1,,success
Status,1038,18370626036,/g4t1,,success
Status,1039,18374216545,/g3t1_1,,running
Status,1040,18374426344,/g3t1_1,,success
Status,1041,18379228883,/g3t1_2,,running
Status,1042,18379256985,/g3t1_2,,success
Status,1043,18383471792,/g3t1_3,,running
Status,1044,18383593043,/g3t1_3,,success
Status,1045,18390716765,/g4t1,,fail
Status,1046,18410834736,/g4t1,,success
Status,1047,18430939129,/g4t1,,success
Status,1048,18450937196,/g4t1,,success
Status,1049,18471024278,/g4t1,,success
Status,1050,18474286558,/g3t1_1,,running
Status,1051,18474372908,/g3t1_1,,success
Status,1052,18479060702,/g3t1_2,,running
Status,1053,18479151485,/g3t1_2,,success
Status,1054,18483494624,/g3t1_3,,running
Status,1055,18483618334,/g3t1_3,,success
Status,1056,18491151389,/g4t1,,fail
Status,1057,18511262984,/g4t1,,success
Status,1058,18531396267,/g4t1,,success
Status,1059,18551521725,/g4t1,,success
Status,1060,18571544816,/g4t1,,success
Status,1061,18574303237,/g3t1_1,,running
Status,1062,18574524747,/g3t1_1,,success
Status,1063,18579137845,/g3t1_2,,running
Status,1064,18579321045,/g3t1_2,,success
Status,1065,18583710090,/g3t1_3,,running
Status,1066,18583757265,/g3t1_3,,success
Status,1067,18591670610,/g4t1,,fail
Status,1068,18611756132,/g4t1,,success
Status,1070,18631949630,/g4t1,,success
Status,1071,18651854544,/g4t1,,success
Status,1072,18672086062,/g4t1,,success
Status,1073,18674458727,/g3t1_1,,running
Status,1074,18674758758,/g3t1_1,,fail
Status,1075,18679507894,/g3t1_2,,running
Status,1076,18679553929,/g3t1_2,,success
Status,1077,18683782836,/g3t1_3,,running
Status,1078,18683809211,/g3t1_3,,success
Status,1079,18692116563,/g4t1,,fail
Status,1080,18712277841,/g4t1,,success
Status,1081,18732344106,/g4t1,,success
Status,1082,18752434801,/g4t1,,success
Status,1083,18772545040,/g4t1,,success
Status,1084,18774423823,/g3t1_1,,running
Status,1085,18774538375,/g3t1_1,,fail
Status,1086,18779582365,/g3t1_2,,running
Status,1087,18779606104,/g3t1_2,,success
Status,1088,18783811820,/g3t1_3,,running
Status,1089,18783897036,/g3t1_3,,success
Status,1090,18792608158,/g4t1,,success
Status,1091,18812805388,/g4t1,,success
Status,1093,18832748319,/g4t1,,success
Status,1094,18852897318,/g4t1,,success
Status,1095,18872986486,/g4t1,,success
Status,1096,18874588350,/g3t1_1,,running
Status,1097,18874608563,/g3t1_1,,fail
Status,1098,18879546987,/g3t1_2,,running
Status,1099,18879568140,/g3t1_2,,success
Status,1100,18883960976,/g3t1_3,,running
Status,1101,18883983259,/g3t1_3,,success
Status,1102,18893104565,/g4t1,,success
Status,1103,18913194910,/g4t1,,success
Status,1104,18933290399,/g4t1,,success
Status,1105,18953769608,/g4t1,,success
Status,1106,18973589925,/g4t1,,success
Status,1107,18974582676,/g3t1_1,,running
Status,1108,18974752230,/g3t1_1,,fail
Status,1109,18979456220,/g3t1_2,,running
Status,1110,18979643061,/g3t1_2,,success
Status,1111,18983830110,/g3t1_3,,running
Status,1112,18983915482,/g3t1_3,,success
Status,1113,18993644100,/g4t1,,success
Status,1115,19013700828,/g4t1,,success
Status,1116,19033857711,/g4t1,,success
Status,1117,19053917585,/g4t1,,success
Status,1118,19073899078,/g4t1,,success
Status,1119,19074689463,/g3t1_1,,running
Status,1120,19074769702,/g3t1_1,,fail
Status,1121,19079640658,/g3t1_2,,running
Status,1122,19079661123,/g3t1_2,,success
Status,1123,19084107279,/g3t1_3,,running
Status,1124,19084128202,/g3t1_3,,success
Status,1125,19094202434,/g4t1,,success
Status,1126,19114156587,/g4t1,,success
Status,1127,19134298693,/g4t1,,success
Status,1128,19154412543,/g4t1,,success
Status,1129,19174424739,/g4t1,,success
Status,1130,19174617151,/g3t1_1,,running
Status,1131,19174771723,/g3t1_1,,fail
Status,1132,19179750730,/g3t1_2,,running
Status,1133,19179892613,/g3t1_2,,success
Status,1134,19184094974,/g3t1_3,,running
Status,1135,19184128427,/g3t1_3,,success
Status,1136,19194686399,/g4t1,,success
Status,1138,19214607517,/g4t1,,success
Status,1139,19234708091,/g4t1,,success
Status,1140,19254792744,/g4t1,,success
Status,1141,19274771018,/g3t1_1,,running
Status,1142,19274797757,/g4t1,,success
Status,1143,19274874684,/g3t1_1,,fail
Status,1144,19279994190,/g3t1_2,,running
Status,1145,19280021250,/g3t1_2,,success
Status,1146,19284204687,/g3t1_3,,running
Status,1147,19284227884,/g3t1_3,,success
Status,1148,19294945180,/g4t1,,success
Status,1149,19314986936,/g4t1,,success
Status,1150,19335192015,/g4t1,,success
Status,1151,19355260328,/g4t1,,success
Status,1152,19374868692,/g3t1_1,,running
Status,1153,19374897035,/g3t1_1,,fail
Status,1154,19375242961,/g4t1,,success
Status,1155,19379922408,/g3t1_2,,running
Status,1156,19379952940,/g3t1_2,,success
Status,1157,19384252637,/g3t1_3,,running
Status,1158,19384270014,/g3t1_3,,success
Status,1159,19395439998,/g4t1,,success
Status,1161,19415479356,/g4t1,,success
Status,1162,19435630254,/g4t1,,success
Status,1163,19455714631,/g4t1,,success
Status,1164,19474935629,/g3t1_1,,running
Status,1165,19474964979,/g3t1_1,,fail
Status,1166,19475580626,/g4t1,,success
Status,1167,19479874080,/g3t1_2,,running
Status,1168,19480056310,/g3t1_2,,success
Status,1169,19484199911,/g3t1_3,,running
Status,1170,19484322721,/g3t1_3,,success
Status,1171,19495873947,/g4t1,,success
Status,1172,19516011653,/g4t1,,success
Status,1173,19536107784,/g4t1,,success
Status,1174,19556152658,/g4t1,,success
Status,1175,19575063038,/g3t1_1,,running
Status,1176,19575086905,/g3t1_1,,fail
Status,1177,19576071517,/g4t1,,success
Status,1178,19579931051,/g3t1_2,,running
Status,1179,19580166670,/g3t1_2,,success
Status,1180,19584337653,/g3t1_3,,running
Status,1181,19584431251,/g3t1_3,,success
Status,1182,19596347442,/g4t1,,success
Status,1184,19616373351,/g4t1,,success
Status,1185,19636501073,/g4t1,,success
Status,1186,19656588874,/g4t1,,success
Status,1187,19675087047,/g3t1_1,,running
Status,1188,19675180511,/g3t1_1,,fail
Status,1189,19676421322,/g4t1,,success
Status,1190,19680014791,/g3t1_2,,running
Status,1191,19680290981,/g3t1_2,,success
Status,1192,19684332311,/g3t1_3,,running
Status,1193,19684478000,/g3t1_3,,success
Status,1194,19696762727,/g4t1,,success
Status,1195,19716909018,/g4t1,,success
Status,1196,19737009919,/g4t1,,success
Status,1197,19757060913,/g4t1,,success
Status,1198,19775167264,/g3t1_1,,running
Status,1199,19775245917,/g3t1_1,,fail
Status,1200,19776968366,/g4t1,,success
Status,1201,19780169020,/g3t1_2,,running
Status,1202,19780323183,/g3t1_2,,success
Status,1203,19784360911,/g3t1_3,,running
Status,1204,19784542353,/g3t1_3,,success
Status,1205,19797253583,/g4t1,,success
Status,1207,19817323387,/g4t1,,success
Status,1208,19837499396,/g4t1,,success
Status,1209,19857531814,/g4t1,,success
Status,1210,19875272124,/g3t1_1,,running
Status,1211,19875292873,/g3t1_1,,fail
Status,1212,19877407307,/g4t1,,success
Status,1213,19880475713,/g3t1_2,,running
Status,1214,19880575388,/g3t1_2,,success
Status,1215,19884475436,/g3t1_3,,running
Status,1216,19884786296,/g3t1_3,,success
Status,1217,19897726274,/g4t1,,success
Status,1218,19917828886,/g4t1,,success
Status,1219,19937922829,/g4t1,,success
Status,1220,19957972968,/g4t1,,success
Status,1221,19975310065,/g3t1_1,,running
Status,1222,19975335878,/g3t1_1,,fail
Status,1223,19978086969,/g4t1,,success
Status,1224,19980375733,/g3t1_2,,running
Status,1225,19980558229,/g3t1_2,,success
Status,1226,19984628479,/g3t1_3,,running
Status,1227,19984798452,/g3t1_3,,success
Status,1228,19998280477,/g4t1,,success
Status,1230,20018290298,/g4t1,,success
Status,1231,20038426063,/g4t1,,success
Status,1232,20058425198,/g4t1,,success
Status,1233,20075383489,/g3t1_1,,running
Status,1234,20075432879,/g3t1_1,,fail
Status,1235,20078415437,/g4t1,,success
Status,1236,20080466078,/g3t1_2,,running
Status,1237,20080596944,/g3t1_2,,success
Status,1238,20084685398,/g3t1_3,,running
Status,1239,20084978740,/g3t1_3,,success
Status,1240,20098638931,/g4t1,,success
Status,1241,20118718384,/g4t1,,success
Status,1242,20138772569,/g4t1,,success
Status,1243,20158869911,/g4t1,,success
Status,1244,20175583178,/g3t1_1,,running
Status,1245,20175607186,/g3t1_1,,fail
Status,1246,20178802347,/g4t1,,success
Status,1247,20180490874,/g3t1_2,,running
Status,1248,20180620124,/g3t1_2,,success
Status,1249,20184766392,/g3t1_3,,running
Status,1250,20185074140,/g3t1_3,,success
Status,1251,20199076893,/g4t1,,success
Status,1253,20219148592,/g4t1,,success
Status,1254,20239187790,/g4t1,,success
Status,1255,20259287604,/g4t1,,success
Status,1256,20275569104,/g3t1_1,,running
Status,1257,20275630549,/g3t1_1,,fail
Status,1258,20279365269,/g4t1,,success
Status,1259,20280582294,/g3t1_2,,running
Status,1260,20280747919,/g3t1_2,,success
Status,1261,20284807207,/g3t1_3,,running
Status,1262,20284905912,/g3t1_3,,success
Status,1263,20299409654,/g4t1,,success
Status,1264,20319554732,/g4t1,,success
Status,1265,20339677787,/g4t1,,success
Status,1266,20359706694,/g4t1,,success
Status,1267,20375641080,/g3t1_1,,running
Status,1268,20375661129,/g3t1_1,,fail
Status,1269,20379877815,/g4t1,,success
Status,1270,20380673538,/g3t1_2,,running
Status,1271,20380693488,/g3t1_2,,success
Status,1272,20384996165,/g3t1_3,,running
Status,1273,20385013777,/g3t1_3,,success
Status,1274,20399845814,/g4t1,,success
Status,1276,20419903068,/g4t1,,success
Status,1277,20440095903,/g4t1,,success
Status,1278,20460177815,/g4t1,,success
Status,1279,20475773690,/g3t1_1,,running
Status,1280,20475793233,/g3t1_1,,fail
Status,1281,20480257469,/g4t1,,success
Status,1282,20480673838,/g3t1_2,,running
Status,1283,20480890627,/g3t1_2,,success
Status,1284,20484941640,/g3t1_3,,running
Status,1285,20485077816,/g3t1_3,,success
Status,1286,20500351854,/g4t1,,success
Status,1287,20520422556,/g4t1,,success
Status,1288,20540526630,/g4t1,,success
Status,1289,20560737548,/g4t1,,success
Status,1290,20575761869,/g3t1_1,,running
Status,1291,20575786307,/g3t1_1,,fail
Status,1292,20580572352,/g4t1,,success
Status,1293,20580641871,/g3t1_2,,running
Status,1294,20580883164,/g3t1_2,,success
Status,1295,20585029051,/g3t1_3,,running
Status,1296,20585194234,/g3t1_3,,success
Status,1297,20600833712,/g4t1,,success
Status,1299,20620918012,/g4t1,,success
Status,1300,20641040403,/g4t1,,success
Status,1301,20661191912,/g4t1,,success
Status,1302,20675933498,/g3t1_1,,running
Status,1303,20675954654,/g3t1_1,,fail
Status,1304,20680963709,/g3t1_2,,running
Status,1305,20680989608,/g3t1_2,,success
Status,1306,20681195295,/g4t1,,success
Status,1307,20685211618,/g3t1_3,,running
Status,1308,20685268049,/g3t1_3,,success
Status,1309,20701253871,/g4t1,,success
Status,1310,20721360601,/g4t1,,success
Status,1311,20741432627,/g4t1,,success
Status,1312,20761652362,/g4t1,,success
Status,1313,20776033465,/g3t1_1,,running
Status,1314,20776057980,/g3t1_1,,fail
Status,1315,20780982640,/g3t1_2,,running
Status,1316,20781153237,/g3t1_2,,success
Status,1317,20781470592,/g4t1,,success
Status,1318,20785158345,/g3t1_3,,running
Status,1319,20785239902,/g3t1_3,,success
Status,1320,20801760593,/g4t1,,success
Status,1322,20821832008,/g4t1,,success
Status,1323,20842005640,/g4t1,,success
Status,1324,20862047437,/g4t1,,success
Status,1325,20876082225,/g3t1_1,,running
Status,1326,20876183749,/g3t1_1,,fail
Status,1327,20881134825,/g3t1_2,,running
Status,1328,20881156227,/g3t1_2,,success
Status,1329,20881995894,/g4t1,,success
Status,1330,20885193273,/g3t1_3,,running
Status,1331,20885421722,/g3t1_3,,success
Status,1332,20902332236,/g4t1,,success
Status,1333,20922277499,/g4t1,,success
Status,1334,20942483806,/g4t1,,success
Status,1335,20962465964,/g4t1,,success
Status,1336,20976158861,/g3t1_1,,running
Status,1337,20976262666,/g3t1_1,,fail
Status,1338,20981215770,/g3t1_2,,running
Status,1339,20981237634,/g3t1_2,,success
Status,1340,20982540682,/g4t1,,success
Status,1341,20985319302,/g3t1_3,,running
Status,1342,20985496488,/g3t1_3,,success
Status,1343,21002655377,/g4t1,,success
Status,1345,21022705964,/g4t1,,success
Status,1346,21042834738,/g4t1,,success
Status,1347,21063070206,/g4t1,,success
Status,1348,21076263280,/g3t1_1,,running
Status,1349,21076286448,/g3t1_1,,fail
Status,1350,21081367567,/g3t1_2,,running
Status,1351,21081464842,/g3t1_2,,success
Status,1352,21082793947,/g4t1,,success
Status,1353,21085367349,/g3t1_3,,running
Status,1354,21085536429,/g3t1_3,,success
Status,1355,21103081408,/g4t1,,success
Status,1356,21123112481,/g4t1,,success
Status,1357,21143200798,/g4t1,,success
Status,1358,21163355942,/g4t1,,success
Status,1359,21176232397,/g3t1_1,,running
Status,1360,21176253978,/g3t1_1,,fail
Status,1361,21181370924,/g3t1_2,,running
Status,1362,21181482339,/g3t1_2,,success
Status,1363,21183436721,/g4t1,,success
Status,1364,21185435940,/g3t1_3,,running
Status,1365,21185626673,/g3t1_3,,success
Status,1366,21203594119,/g4t1,,success
Status,1368,21223648368,/g4t1,,success
Status,1369,21243606315,/g4t1,,success
Status,1370,21263926805,/g4t1,,success
Status,1371,21276327942,/g3t1_1,,running
Status,1372,21276348174,/g3t1_1,,fail
Status,1373,21281366059,/g3t1_2,,running
Status,1374,21281505370,/g3t1_2,,success
Status,1375,21283773606,/g4t1,,success
Status,1376,21285512282,/g3t1_3,,running
Status,1377,21285606661,/g3t1_3,,success
Status,1378,21304005645,/g4t1,,success
Status,1379,21324060965,/g4t1,,success
Status,1380,21344282992,/g4t1,,success
Status,1381,21376387644,/g3t1_1,,running
Status,1382,21376407175,/g3t1_1,,fail
Status,1383,21381656079,/g3t1_2,,running
Status,1384,21381742700,/g3t1_2,,success
Status,1385,21385633239,/g3t1_3,,running
Status,1386,21385740474,/g3t1_3,,success
Status,1388,21476472743,/g3t1_1,,running
Status,1389,21476493219,/g3t1_1,,fail
Status,1390,21481712710,/g3t1_2,,running
Status,1391,21481802350,/g3t1_2,,success
Status,1392,21485632699,/g3t1_3,,running
Status,1393,21485760198,/g3t1_3,,success
Status,1394,21576476156,/g3t1_1,,running
Status,1395,21576503244,/g3t1_1,,fail
Status,1396,21581608240,/g3t1_2,,running
Status,1397,21581794290,/g3t1_2,,success
Status,1398,21585778035,/g3t1_3,,running
Status,1399,21585855175,/g3t1_3,,success
Status,1401,21676665406,/g3t1_1,,running
Status,1402,21676690093,/g3t1_1,,fail
Status,1403,21681757180,/g3t1_2,,running
Status,1404,21681901530,/g3t1_2,,success
Status,1405,21685779921,/g3t1_3,,running
Status,1406,21685997006,/g3t1_3,,success
Status,1407,21776761224,/g3t1_1,,running
Status,1408,21776782991,/g3t1_1,,fail
Status,1409,21781850608,/g3t1_2,,running
Status,1410,21781959111,/g3t1_2,,success
Status,1411,21785885238,/g3t1_3,,running
Status,1412,21786008867,/g3t1_3,,success
Status,1414,21876912332,/g3t1_1,,running
Status,1415,21876936342,/g3t1_1,,fail
Status,1416,21881992924,/g3t1_2,,running
Status,1417,21882169358,/g3t1_2,,success
Status,1418,21885971226,/g3t1_3,,running
Status,1419,21886077030,/g3t1_3,,success
Status,1420,21976960728,/g3t1_1,,running
Status,1421,21976982864,/g3t1_1,,fail
Status,1422,21982028492,/g3t1_2,,running
Status,1423,21982234750,/g3t1_2,,success
Status,1424,21986010510,/g3t1_3,,running
Status,1425,21986215264,/g3t1_3,,success
Status,1427,22077081767,/g3t1_1,,running
Status,1428,22077103108,/g3t1_1,,fail
Status,1429,22082186006,/g3t1_2,,running
Status,1430,22082401022,/g3t1_2,,success
Status,1431,22086200035,/g3t1_3,,running
Status,1432,22086225540,/g3t1_3,,success
Status,1433,22177079012,/g3t1_1,,running
Status,1434,22177100879,/g3t1_1,,fail
Status,1435,22182302537,/g3t1_2,,running
Status,1436,22182428770,/g3t1_2,,success
Status,1437,22186247698,/g3t1_3,,running
Status,1438,22186383626,/g3t1_3,,success
Status,1440,22277247575,/g3t1_1,,running
Status,1441,22277269305,/g3t1_1,,fail
Status,1442,22282498807,/g3t1_2,,running
Status,1443,22282519845,/g3t1_2,,success
Status,1444,22286322278,/g3t1_3,,running
Status,1445,22286410681,/g3t1_3,,success
Status,1446,22377266603,/g3t1_1,,running
Status,1447,22377291624,/g3t1_1,,fail
Status,1448,22382403098,/g3t1_2,,running
Status,1449,22382509833,/g3t1_2,,success
Status,1450,22386362262,/g3t1_3,,running
Status,1451,22386460357,/g3t1_3,,success
Status,1453,22477450261,/g3t1_1,,running
Status,1454,22477471557,/g3t1_1,,fail
Status,1455,22482537793,/g3t1_2,,running
Status,1456,22482558583,/g3t1_2,,success
Status,1457,22486436570,/g3t1_3,,running
Status,1458,22486519552,/g3t1_3,,success
Status,1459,22577506071,/g3t1_1,,running
Status,1460,22577530636,/g3t1_1,,fail
Status,1461,22582575076,/g3t1_2,,running
Status,1462,22582597039,/g3t1_2,,success
Status,1463,22586544744,/g3t1_3,,running
Status,1464,22586646233,/g3t1_3,,success
Status,1466,22677652742,/g3t1_1,,running
Status,1467,22677673692,/g3t1_1,,fail
Status,1468,22682707018,/g3t1_2,,running
Status,1469,22682806278,/g3t1_2,,success
Status,1470,22686642573,/g3t1_3,,running
Status,1471,22686751881,/g3t1_3,,success
Status,1472,22777767055,/g3t1_1,,running
Status,1473,22777789699,/g3t1_1,,fail
Status,1474,22782721660,/g3t1_2,,running
Status,1475,22782860966,/g3t1_2,,success
Status,1476,22786670073,/g3t1_3,,running
Status,1477,22786793477,/g3t1_3,,success
Status,1479,22877809638,/g3t1_1,,running
Status,1480,22877831531,/g3t1_1,,fail
Status,1481,22882738794,/g3t1_2,,running
Status,1482,22882857191,/g3t1_2,,success
Status,1483,22886773621,/g3t1_3,,running
Status,1484,22886872050,/g3t1_3,,success
Status,1485,22977851776,/g3t1_1,,running
Status,1486,22977874025,/g3t1_1,,fail
Status,1487,22982793738,/g3t1_2,,running
Status,1488,22982854911,/g3t1_2,,success
Status,1489,22986906727,/g3t1_3,,running
Status,1490,22986928670,/g3t1_3,,success
Status,1492,23077981472,/g3t1_1,,running
Status,1493,23078001223,/g3t1_1,,fail
Status,1494,23082995578,/g3t1_2,,running
Status,1495,23083014408,/g3t1_2,,success
Status,1496,23087008823,/g3t1_3,,running
Status,1497,23087088624,/g3t1_3,,success
Status,1498,23178106297,/g3t1_1,,running
Status,1499,23178126992,/g3t1_1,,fail
Status,1500,23182990420,/g3t1_2,,running
Status,1501,23183103061,/g3t1_2,,success
Status,1502,23187083683,/g3t1_3,,running
Status,1503,23187101082,/g3t1_3,,success
Status,1505,23278201340,/g3t1_1,,running
Status,1506,23278222983,/g3t1_1,,fail
Status,1507,23283038332,/g3t1_2,,running
Status,1508,23283163941,/g3t1_2,,success
Status,1509,23287105181,/g3t1_3,,running
Status,1510,23287181540,/g3t1_3,,success
Status,1511,23378333509,/g3t1_1,,running
Status,1512,23378355333,/g3t1_1,,fail
Status,1513,23383226669,/g3t1_2,,running
Status,1514,23383246102,/g3t1_2,,success
Status,1515,23387285769,/g3t1_3,,running
Status,1516,23387309518,/g3t1_3,,success
Status,1518,23478435325,/g3t1_1,,running
Status,1519,23478456636,/g3t1_1,,fail
Status,1520,23483302376,/g3t1_2,,running
Status,1521,23483338374,/g3t1_2,,success
Status,1522,23487247973,/g3t1_3,,running
Status,1523,23487337043,/g3t1_3,,success
Status,1524,23578425936,/g3t1_1,,running
Status,1525,23578450852,/g3t1_1,,fail
Status,1526,23583396926,/g3t1_2,,running
Status,1527,23583629424,/g3t1_2,,success
Status,1528,23587364339,/g3t1_3,,running
Status,1529,23587428284,/g3t1_3,,success
Status,1533,23678473953,/g3t1_1,,running
Status,1534,23678583766,/g3t1_1,,fail
Status,1535,23683535696,/g3t1_2,,running
Status,1536,23683557721,/g3t1_2,,fail
Status,1537,23687477705,/g3t1_3,,running
Status,1538,23687561469,/g3t1_3,,fail
Status,1539,23778529836,/g3t1_1,,running
Status,1540,23778554050,/g3t1_1,,fail
Status,1541,23783570191,/g3t1_2,,running
Status,1542,23783591697,/g3t1_2,,fail
Status,1543,23787580884,/g3t1_3,,running
Status,1544,23787639357,/g3t1_3,,fail
Status,1548,23878672857,/g3t1_1,,running
Status,1549,23878693375,/g3t1_1,,fail
Status,1550,23883720169,/g3t1_2,,running
Status,1551,23883740888,/g3t1_2,,fail
Status,1552,23887582760,/g3t1_3,,running
Status,1553,23887601580,/g3t1_3,,fail
Status,1554,23978774284,/g3t1_1,,running
Status,1555,23978794625,/g3t1_1,,fail
Status,1556,23983842818,/g3t1_2,,running
Status,1557,23983863021,/g3t1_2,,fail
Status,1558,23987691253,/g3t1_3,,running
Status,1559,23987709557,/g3t1_3,,fail
Status,1563,24078825722,/g3t1_1,,running
Status,1564,24078851662,/g3t1_1,,fail
Status,1565,24083832453,/g3t1_2,,running
Status,1566,24083950379,/g3t1_2,,fail
Status,1567,24087755423,/g3t1_3,,running
Status,1568,24087773112,/g3t1_3,,fail
Status,1569,24178973683,/g3t1_1,,running
Status,1570,24178994213,/g3t1_1,,fail
Status,1571,24183960547,/g3t1_2,,running
Status,1572,24183980503,/g3t1_2,,fail
Status,1573,24187837014,/g3t1_3,,running
Status,1574,24187855426,/g3t1_3,,fail
