
Status,1,3398302079,/g4t1,,init
Status,3,8608194286,/g3t1_1,,init
Status,5,8614927193,/g3t1_1,,init
Status,6,8614940831,/g3t1_1,,running
Status,7,8615420925,/g3t1_1,,success
Status,8,8665096616,/g3t1_1,,running
Status,9,8665277101,/g3t1_1,,success
Status,10,8711882237,/g3t1_2,,init
Status,12,8715193726,/g3t1_1,,running
Status,13,8715239409,/g3t1_1,,success
Status,17,8719253861,/g3t1_2,,init
Status,18,8719273097,/g3t1_2,,running
Status,19,8719749153,/g3t1_2,,success
Status,20,8765401619,/g3t1_1,,running
Status,21,8765427248,/g3t1_1,,success
Status,22,8769359759,/g3t1_2,,running
Status,23,8769507947,/g3t1_2,,success
Status,25,8812522066,/g3t1_3,,init
Status,26,8815355924,/g3t1_1,,running
Status,27,8815424273,/g3t1_1,,success
Status,28,8819239936,/g3t1_3,,init
Status,29,8819258685,/g3t1_3,,running
Status,30,8819384147,/g3t1_2,,running
Status,31,8819531609,/g3t1_2,,success
Status,32,8819678990,/g3t1_3,,success
Status,33,8866185231,/g3t1_1,,running
Status,34,8866729100,/g3t1_1,,success
Status,35,8870038741,/g3t1_3,,running
Status,36,8870148857,/g3t1_2,,running
Status,37,8871039534,/g3t1_3,,success
Status,38,8871242007,/g3t1_2,,success
Status,41,8916326505,/g3t1_1,,running
Status,43,8917289954,/g3t1_1,,success
Status,44,8920071414,/g3t1_3,,running
Status,45,8920361111,/g3t1_2,,running
Status,46,8921245756,/g3t1_3,,success
Status,47,8921323557,/g3t1_2,,success
Status,48,8966803034,/g3t1_1,,running
Status,49,8966909601,/g3t1_1,,fail
Status,50,8970255412,/g3t1_3,,running
Status,51,8970344877,/g3t1_2,,running
Status,52,8970764006,/g3t1_3,,success
Status,53,8971138844,/g3t1_2,,success
Status,54,9016771529,/g3t1_1,,running
Status,55,9016861162,/g3t1_1,,fail
Status,56,9016906198,/g4t1,,success
Status,57,9020335578,/g3t1_3,,running
Status,58,9020597550,/g3t1_2,,running
Status,59,9020984610,/g3t1_3,,success
Status,60,9021380665,/g3t1_2,,success
Status,61,9066631053,/g3t1_1,,running
Status,62,9067089514,/g3t1_1,,fail
Status,63,9070459368,/g3t1_3,,running
Status,64,9070571268,/g3t1_2,,running
Status,65,9071131582,/g3t1_3,,success
Status,66,9071208889,/g3t1_2,,success
Status,68,9116729350,/g3t1_1,,running
Status,71,9117201889,/g4t1,,success
Status,72,9117308543,/g3t1_1,,fail
Status,73,9120901669,/g3t1_3,,running
Status,74,9120974099,/g3t1_2,,running
Status,75,9121116987,/g3t1_3,,fail
Status,76,9121374465,/g3t1_2,,fail
Status,77,9167129836,/g3t1_1,,running
Status,78,9167205878,/g3t1_1,,fail
Status,79,9170786365,/g3t1_3,,running
Status,80,9170898852,/g3t1_2,,running
Status,81,9170945064,/g3t1_3,,fail
Status,82,9171283286,/g3t1_2,,fail
Status,83,9217067882,/g3t1_1,,running
Status,84,9217137677,/g4t1,,success
Status,85,9217239677,/g3t1_1,,fail
Status,86,9221370240,/g3t1_3,,running
Status,87,9221469458,/g3t1_2,,running
Status,88,9221528487,/g3t1_3,,fail
Status,89,9221709861,/g3t1_2,,fail
Status,90,9267239085,/g3t1_1,,running
Status,91,9267316833,/g3t1_1,,fail
Status,92,9271511536,/g3t1_3,,running
Status,93,9271587778,/g3t1_3,,fail
Status,94,9272023310,/g3t1_2,,running
Status,95,9272097989,/g3t1_2,,fail
Status,99,9317599190,/g3t1_1,,running
Status,100,9317683678,/g4t1,,success
Status,101,9317763869,/g3t1_1,,fail
Status,102,9321531863,/g3t1_3,,running
Status,103,9322028119,/g3t1_2,,running
Status,104,9322111630,/g3t1_3,,success
Status,105,9322546230,/g3t1_2,,success
Status,106,9367816544,/g3t1_1,,running
Status,107,9368292938,/g3t1_1,,fail
Status,108,9371287304,/g3t1_3,,running
Status,109,9371690856,/g3t1_2,,running
Status,110,9371755221,/g3t1_3,,success
Status,111,9372371505,/g3t1_2,,success
Status,112,9417703670,/g4t1,,success
Status,113,9417767579,/g3t1_1,,running
Status,114,9417794942,/g3t1_1,,fail
Status,115,9421631947,/g3t1_3,,running
Status,116,9421727042,/g3t1_2,,running
Status,117,9422333283,/g3t1_2,,success
Status,118,9422448658,/g3t1_3,,success
Status,119,9468005443,/g3t1_1,,running
Status,120,9468075222,/g3t1_1,,fail
Status,121,9471391255,/g3t1_3,,running
Status,122,9472604914,/g3t1_2,,running
Status,123,9472693395,/g3t1_2,,success
Status,124,9473037607,/g3t1_3,,success
Status,128,9518007470,/g3t1_1,,running
Status,129,9518135485,/g4t1,,success
Status,130,9518714218,/g3t1_1,,fail
Status,131,9521322598,/g3t1_3,,running
Status,132,9521797369,/g3t1_3,,fail
Status,133,9522089304,/g3t1_2,,running
Status,134,9522520383,/g3t1_2,,fail
Status,135,9568144664,/g3t1_1,,running
Status,136,9568213025,/g3t1_1,,fail
Status,137,9571803554,/g3t1_3,,running
Status,138,9571886516,/g3t1_3,,fail
Status,139,9571983591,/g3t1_2,,running
Status,140,9572230015,/g3t1_2,,fail
Status,141,9617652089,/g4t1,,success
Status,142,9618164043,/g3t1_1,,running
Status,143,9618260575,/g3t1_1,,fail
Status,144,9622253365,/g3t1_3,,running
Status,145,9622374477,/g3t1_3,,fail
Status,146,9622406999,/g3t1_2,,running
Status,147,9622463841,/g3t1_2,,fail
Status,148,9668397674,/g3t1_1,,running
Status,149,9668470642,/g3t1_1,,fail
Status,150,9672154611,/g3t1_3,,running
Status,151,9672256549,/g3t1_2,,running
Status,152,9672312987,/g3t1_3,,success
Status,153,9672492901,/g3t1_2,,fail
Status,157,9718100280,/g4t1,,success
Status,158,9718181006,/g3t1_1,,running
Status,159,9718634954,/g3t1_1,,fail
Status,160,9721996072,/g3t1_3,,running
Status,161,9722193259,/g3t1_2,,running
Status,162,9722288347,/g3t1_3,,fail
Status,163,9722941026,/g3t1_2,,success
Status,164,9768665103,/g3t1_1,,running
Status,165,9768733883,/g3t1_1,,fail
Status,166,9772310095,/g3t1_3,,running
Status,167,9772394579,/g3t1_2,,running
Status,168,9772435516,/g3t1_3,,success
Status,169,9773397592,/g3t1_2,,success
Status,170,9818086184,/g4t1,,success
Status,171,9818350963,/g3t1_1,,running
Status,172,9818793456,/g3t1_1,,fail
Status,173,9822579579,/g3t1_3,,running
Status,174,9822680283,/g3t1_2,,running
Status,175,9822817196,/g3t1_3,,success
Status,176,9823528618,/g3t1_2,,success
Status,177,9868767100,/g3t1_1,,running
Status,178,9869411634,/g3t1_1,,fail
Status,179,9872203268,/g3t1_3,,running
Status,180,9872743631,/g3t1_3,,success
Status,181,9872825166,/g3t1_2,,running
Status,182,9873279870,/g3t1_2,,success
Status,186,9917447876,/g4t1,,success
Status,187,9918055918,/g3t1_1,,running
Status,188,9918177587,/g3t1_1,,fail
Status,189,9922628850,/g3t1_3,,running
Status,190,9922686610,/g3t1_3,,fail
Status,191,9922721345,/g3t1_2,,running
Status,192,9922805178,/g3t1_2,,fail
Status,193,9969011079,/g3t1_1,,running
Status,194,9969078541,/g3t1_1,,fail
Status,195,9972665342,/g3t1_3,,running
Status,196,9972953032,/g3t1_2,,running
Status,197,9973256437,/g3t1_2,,fail
Status,198,9973325788,/g3t1_3,,fail
Status,199,10018312866,/g4t1,,success
Status,200,10018933901,/g3t1_1,,running
Status,201,10019629463,/g3t1_1,,fail
Status,202,10023531885,/g3t1_3,,running
Status,203,10023621700,/g3t1_2,,running
Status,204,10023646829,/g3t1_3,,fail
Status,205,10023672146,/g3t1_2,,fail
Status,206,10069351487,/g3t1_1,,running
Status,207,10069423132,/g3t1_1,,fail
Status,208,10072950950,/g3t1_3,,running
Status,209,10073006457,/g3t1_2,,running
Status,210,10073105037,/g3t1_3,,fail
Status,211,10073496852,/g3t1_2,,fail
Status,215,10118217706,/g4t1,,success
Status,216,10119288628,/g3t1_1,,running
Status,217,10119736562,/g3t1_1,,success
Status,218,10123190620,/g3t1_3,,running
Status,219,10123282658,/g3t1_2,,running
Status,220,10123637296,/g3t1_2,,fail
Status,221,10123678468,/g3t1_3,,success
Status,222,10169658973,/g3t1_1,,running
Status,223,10169728020,/g3t1_1,,fail
Status,224,10173166720,/g3t1_3,,running
Status,225,10173279385,/g3t1_2,,running
Status,226,10173699652,/g3t1_3,,fail
Status,227,10174137386,/g3t1_2,,success
Status,228,10218531341,/g4t1,,success
Status,229,10219466527,/g3t1_1,,running
Status,230,10220167457,/g3t1_1,,success
Status,231,10223917228,/g3t1_3,,running
Status,232,10224005281,/g3t1_2,,running
Status,233,10224114295,/g3t1_3,,success
Status,234,10224307212,/g3t1_2,,success
Status,235,10269880074,/g3t1_1,,running
Status,236,10270123631,/g3t1_1,,fail
Status,237,10273661590,/g3t1_3,,running
Status,238,10273730233,/g3t1_2,,running
Status,239,10273808263,/g3t1_3,,fail
Status,240,10274143299,/g3t1_2,,success
Status,244,10318411941,/g4t1,,success
Status,245,10320038566,/g3t1_1,,running
Status,246,10320100108,/g3t1_1,,fail
Status,247,10323905030,/g3t1_3,,running
Status,248,10323978320,/g3t1_2,,running
Status,249,10324155734,/g3t1_3,,fail
Status,250,10324203746,/g3t1_2,,fail
Status,251,10370299002,/g3t1_1,,running
Status,252,10370369894,/g3t1_1,,fail
Status,253,10373906181,/g3t1_2,,running
Status,254,10373994618,/g3t1_3,,running
Status,255,10374096056,/g3t1_3,,fail
Status,256,10374406992,/g3t1_2,,fail
Status,257,10418607320,/g4t1,,success
Status,258,10420056787,/g3t1_1,,running
Status,259,10420452244,/g3t1_1,,fail
Status,260,10424177801,/g3t1_3,,running
Status,261,10424243988,/g3t1_2,,running
Status,262,10424271097,/g3t1_2,,fail
Status,263,10424295318,/g3t1_3,,fail
Status,264,10469873027,/g3t1_1,,running
Status,265,10469906049,/g3t1_1,,fail
Status,266,10473673101,/g3t1_3,,running
Status,267,10473713623,/g3t1_2,,running
Status,268,10473814856,/g3t1_2,,fail
Status,269,10473867774,/g3t1_3,,fail
Status,273,10518371544,/g4t1,,success
Status,274,10519994792,/g3t1_1,,running
Status,275,10520316216,/g3t1_1,,fail
Status,276,10524275332,/g3t1_2,,running
Status,277,10524384444,/g3t1_2,,fail
Status,278,10524412538,/g3t1_3,,running
Status,279,10525045361,/g3t1_3,,success
Status,280,10570634806,/g3t1_1,,running
Status,281,10570727657,/g3t1_1,,fail
Status,282,10574186072,/g3t1_2,,running
Status,283,10574719208,/g3t1_2,,fail
Status,284,10574829878,/g3t1_3,,running
Status,285,10575386368,/g3t1_3,,fail
Status,286,10619066088,/g4t1,,success
Status,287,10620672467,/g3t1_1,,running
Status,288,10620744917,/g3t1_1,,fail
Status,289,10624363418,/g3t1_2,,running
Status,290,10624512450,/g3t1_2,,fail
Status,291,10624855246,/g3t1_3,,running
Status,292,10625721677,/g3t1_3,,success
Status,293,10671043592,/g3t1_1,,running
Status,294,10671135387,/g3t1_1,,fail
Status,295,10674724669,/g3t1_2,,running
Status,296,10674811226,/g3t1_2,,fail
Status,297,10675173629,/g3t1_3,,running
Status,298,10675814681,/g3t1_3,,success
Status,302,10718826281,/g4t1,,success
Status,303,10720687314,/g3t1_1,,running
Status,304,10721322356,/g3t1_1,,fail
Status,305,10724769481,/g3t1_2,,running
Status,306,10725357357,/g3t1_2,,success
Status,307,10725506521,/g3t1_3,,running
Status,308,10725594757,/g3t1_3,,fail
Status,309,10771500937,/g3t1_1,,running
Status,310,10771570006,/g3t1_1,,fail
Status,311,10775261021,/g3t1_2,,running
Status,312,10775348843,/g3t1_3,,running
Status,313,10775465105,/g3t1_2,,success
Status,314,10775801636,/g3t1_3,,success
Status,315,10819293179,/g4t1,,success
Status,316,10821218473,/g3t1_1,,running
Status,317,10821457352,/g3t1_1,,fail
Status,318,10825182836,/g3t1_2,,running
Status,319,10825554788,/g3t1_3,,running
Status,320,10825623912,/g3t1_2,,success
Status,321,10826124648,/g3t1_3,,fail
Status,322,10871826871,/g3t1_1,,running
Status,323,10871899693,/g3t1_1,,fail
Status,324,10875219129,/g3t1_2,,running
Status,325,10875376496,/g3t1_3,,running
Status,326,10875515123,/g3t1_2,,success
Status,327,10876195885,/g3t1_3,,success
Status,331,10919061073,/g4t1,,success
Status,332,10921516383,/g3t1_1,,running
Status,333,10921885036,/g3t1_1,,fail
Status,334,10925386309,/g3t1_2,,running
Status,335,10925443547,/g3t1_2,,fail
Status,336,10925474239,/g3t1_3,,running
Status,337,10925910465,/g3t1_3,,fail
Status,338,10971883183,/g3t1_1,,running
Status,339,10971951973,/g3t1_1,,fail
Status,340,10975279279,/g3t1_2,,running
Status,341,10975895103,/g3t1_3,,running
Status,342,10975980472,/g3t1_2,,fail
Status,343,10976108734,/g3t1_3,,success
Status,344,11019384218,/g4t1,,success
Status,345,11021695404,/g3t1_1,,running
Status,346,11021777649,/g3t1_1,,fail
Status,347,11025983321,/g3t1_2,,running
Status,348,11026041375,/g3t1_2,,fail
Status,349,11026085416,/g3t1_3,,running
Status,350,11026273796,/g3t1_3,,fail
Status,351,11072047611,/g3t1_1,,running
Status,352,11072111542,/g3t1_1,,fail
Status,353,11075871713,/g3t1_2,,running
Status,354,11075955344,/g3t1_3,,running
Status,355,11075989777,/g3t1_2,,fail
Status,356,11076341720,/g3t1_3,,fail
Status,360,11119351078,/g4t1,,success
Status,361,11121953705,/g3t1_1,,running
Status,362,11122290071,/g3t1_1,,fail
Status,363,11125523385,/g3t1_2,,running
Status,364,11125858588,/g3t1_3,,running
Status,365,11125936480,/g3t1_2,,success
Status,366,11127016581,/g3t1_3,,success
Status,367,11172132105,/g3t1_1,,running
Status,368,11172192145,/g3t1_1,,fail
Status,369,11175622130,/g3t1_2,,running
Status,370,11176169594,/g3t1_3,,running
Status,371,11176308968,/g3t1_2,,success
Status,372,11176398848,/g3t1_3,,success
Status,373,11219573643,/g4t1,,success
Status,374,11222245570,/g3t1_1,,running
Status,375,11222318939,/g3t1_1,,fail
Status,376,11225879170,/g3t1_2,,running
Status,377,11226029171,/g3t1_3,,running
Status,378,11226203938,/g3t1_2,,success
Status,379,11226400697,/g3t1_3,,fail
Status,380,11272316665,/g3t1_1,,running
Status,381,11272389678,/g3t1_1,,fail
Status,382,11276073246,/g3t1_2,,running
Status,383,11276462981,/g3t1_3,,running
Status,384,11276542471,/g3t1_2,,success
Status,385,11276637626,/g3t1_3,,fail
Status,389,11319617439,/g4t1,,success
Status,390,11322228888,/g3t1_1,,running
Status,391,11323185116,/g3t1_1,,success
Status,392,11326195972,/g3t1_2,,running
Status,393,11326284849,/g3t1_2,,fail
Status,394,11326491321,/g3t1_3,,running
Status,395,11326525883,/g3t1_3,,fail
Status,396,11372795154,/g3t1_1,,running
Status,397,11373035150,/g3t1_1,,success
Status,398,11376305597,/g3t1_2,,running
Status,399,11376752903,/g3t1_3,,running
Status,400,11376814651,/g3t1_2,,fail
Status,401,11376841009,/g3t1_3,,fail
Status,402,11419820785,/g4t1,,success
Status,403,11422750152,/g3t1_1,,running
Status,404,11423288267,/g3t1_1,,success
Status,405,11426356460,/g3t1_2,,running
Status,406,11426448806,/g3t1_2,,fail
Status,407,11426558061,/g3t1_3,,running
Status,408,11431557378,/g3t1_3,,fail
Status,409,11472248825,/g3t1_1,,running
Status,410,11472384763,/g3t1_1,,success
Status,411,11475731372,/g3t1_2,,running
Status,412,11475860524,/g3t1_2,,fail
Status,413,11476047637,/g3t1_3,,running
Status,414,11476161507,/g3t1_3,,fail
Status,415,11519106263,/g4t1,,success
Status,416,11522569894,/g3t1_1,,running
Status,417,11522593174,/g3t1_1,,success
Status,418,11525844501,/g3t1_2,,running
Status,419,11525933445,/g3t1_2,,fail
Status,420,11526100363,/g3t1_3,,running
Status,421,11526248078,/g3t1_3,,fail
Status,422,11573296033,/g3t1_1,,running
Status,423,11573763387,/g3t1_1,,fail
Status,424,11576466117,/g3t1_2,,running
Status,425,11576781494,/g3t1_2,,fail
Status,426,11576847435,/g3t1_3,,running
Status,427,11577221056,/g3t1_3,,fail
Status,428,11619946349,/g4t1,,success
Status,429,11623308981,/g3t1_1,,running
Status,430,11623701124,/g3t1_1,,success
Status,431,11627225696,/g3t1_2,,running
Status,432,11627294090,/g3t1_3,,running
Status,433,11627387286,/g3t1_3,,fail
Status,434,11627405005,/g3t1_2,,fail
Status,435,11673767901,/g3t1_1,,running
Status,436,11673938038,/g3t1_1,,success
Status,437,11676870899,/g3t1_2,,running
Status,438,11676942315,/g3t1_3,,running
Status,439,11677088971,/g3t1_2,,fail
Status,440,11677459090,/g3t1_3,,success
Status,441,11720241152,/g4t1,,success
Status,442,11723414010,/g3t1_1,,running
Status,443,11723796041,/g3t1_1,,success
Status,444,11727044761,/g3t1_2,,running
Status,445,11727136153,/g3t1_3,,running
Status,446,11727554710,/g3t1_2,,fail
Status,447,11727612452,/g3t1_3,,fail
Status,448,11773689622,/g3t1_1,,running
Status,449,11774070983,/g3t1_1,,success
Status,450,11777256640,/g3t1_2,,running
Status,451,11777346051,/g3t1_3,,running
Status,452,11777423088,/g3t1_2,,fail
Status,453,11777457374,/g3t1_3,,fail
Status,454,11820707006,/g4t1,,fail
Status,455,11823873637,/g3t1_1,,running
Status,456,11824333238,/g3t1_1,,success
Status,457,11827448805,/g3t1_3,,running
Status,458,11827513206,/g3t1_2,,running
Status,459,11827588524,/g3t1_2,,fail
Status,460,11827867384,/g3t1_3,,fail
Status,461,11874180818,/g3t1_1,,running
Status,462,11874636790,/g3t1_1,,fail
Status,463,11877592346,/g3t1_3,,running
Status,464,11877653837,/g3t1_2,,running
Status,465,11877730956,/g3t1_2,,fail
Status,466,11878192959,/g3t1_3,,success
Status,467,11920378963,/g4t1,,success
Status,468,11924069328,/g3t1_1,,running
Status,469,11924413467,/g3t1_1,,fail
Status,470,11927631258,/g3t1_2,,running
Status,471,11927681675,/g3t1_3,,running
Status,472,11927708240,/g3t1_3,,fail
Status,473,11927733036,/g3t1_2,,fail
Status,474,11974171801,/g3t1_1,,running
Status,475,11974517611,/g3t1_1,,success
Status,476,11977765238,/g3t1_3,,running
Status,477,11977839494,/g3t1_2,,running
Status,478,11977930397,/g3t1_2,,fail
Status,479,11977954882,/g3t1_3,,fail
Status,480,12020337412,/g4t1,,success
Status,481,12024477757,/g3t1_1,,running
Status,482,12025192544,/g3t1_1,,success
Status,483,12028202126,/g3t1_3,,running
Status,484,12028630420,/g3t1_2,,running
Status,485,12028727661,/g3t1_2,,fail
Status,486,12028869352,/g3t1_3,,success
Status,487,12074608468,/g3t1_1,,running
Status,488,12075349602,/g3t1_1,,success
Status,489,12078067634,/g3t1_3,,running
Status,490,12078471048,/g3t1_2,,running
Status,491,12078567530,/g3t1_3,,fail
Status,492,12078701650,/g3t1_2,,fail
Status,493,12120728250,/g4t1,,fail
Status,494,12124496614,/g3t1_1,,running
Status,495,12124803023,/g3t1_1,,fail
Status,496,12127980407,/g3t1_3,,running
Status,497,12128073293,/g3t1_3,,fail
Status,498,12128481643,/g3t1_2,,running
Status,499,12128542239,/g3t1_2,,fail
Status,500,12174753172,/g3t1_1,,running
Status,501,12175404839,/g3t1_1,,success
Status,502,12178306855,/g3t1_3,,running
Status,503,12178396916,/g3t1_3,,fail
Status,504,12178472894,/g3t1_2,,running
Status,505,12178802291,/g3t1_2,,fail
Status,506,12220670500,/g4t1,,success
Status,507,12224914367,/g3t1_1,,running
Status,508,12225387979,/g3t1_1,,success
Status,509,12228163316,/g3t1_3,,running
Status,510,12228239562,/g3t1_3,,fail
Status,511,12228714697,/g3t1_2,,running
Status,512,12229146392,/g3t1_2,,fail
Status,513,12275191441,/g3t1_1,,running
Status,514,12275668417,/g3t1_1,,success
Status,515,12278239196,/g3t1_3,,running
Status,516,12278438649,/g3t1_3,,fail
Status,517,12278590903,/g3t1_2,,running
Status,518,12278999445,/g3t1_2,,fail
Status,522,12320593555,/g4t1,,fail
Status,523,12325411464,/g3t1_1,,running
Status,524,12325820317,/g3t1_1,,success
Status,525,12328534436,/g3t1_3,,running
Status,526,12328622630,/g3t1_3,,fail
Status,527,12328894251,/g3t1_2,,running
Status,528,12329201653,/g3t1_2,,fail
Status,529,12375563203,/g3t1_1,,running
Status,530,12375905283,/g3t1_1,,success
Status,531,12378381087,/g3t1_3,,running
Status,532,12379052489,/g3t1_3,,success
Status,533,12379128299,/g3t1_2,,running
Status,534,12379474648,/g3t1_2,,success
Status,535,12421264732,/g4t1,,fail
Status,536,12425683960,/g3t1_1,,running
Status,537,12425752004,/g3t1_1,,fail
Status,538,12428503806,/g3t1_3,,running
Status,539,12428594330,/g3t1_3,,fail
Status,540,12429036696,/g3t1_2,,running
Status,541,12429208164,/g3t1_2,,fail
Status,542,12475364663,/g3t1_1,,running
Status,543,12475627194,/g3t1_1,,success
Status,544,12478199632,/g3t1_3,,running
Status,545,12478231426,/g3t1_3,,fail
Status,546,12478488801,/g3t1_2,,running
Status,547,12478710361,/g3t1_2,,fail
Status,551,12520873062,/g4t1,,success
Status,552,12525977407,/g3t1_1,,running
Status,553,12526044292,/g3t1_1,,fail
Status,554,12528767066,/g3t1_3,,running
Status,555,12528862936,/g3t1_3,,fail
Status,556,12529328232,/g3t1_2,,running
Status,557,12529666351,/g3t1_2,,success
Status,558,12575959465,/g3t1_1,,running
Status,559,12576027953,/g3t1_1,,fail
Status,560,12578929726,/g3t1_3,,running
Status,561,12578996770,/g3t1_3,,fail
Status,562,12579251357,/g3t1_2,,running
Status,563,12579618343,/g3t1_2,,fail
Status,564,12621285913,/g4t1,,success
Status,565,12626136565,/g3t1_1,,running
Status,566,12626205743,/g3t1_1,,fail
Status,567,12628980666,/g3t1_3,,running
Status,568,12629064454,/g3t1_3,,fail
Status,569,12629245245,/g3t1_2,,running
Status,570,12629821783,/g3t1_2,,success
Status,571,12675977633,/g3t1_1,,running
Status,572,12676024055,/g3t1_1,,fail
Status,573,12678735933,/g3t1_3,,running
Status,574,12678779627,/g3t1_3,,fail
Status,575,12679068010,/g3t1_2,,running
Status,576,12679434597,/g3t1_2,,fail
Status,580,12721179960,/g4t1,,success
Status,581,12726299312,/g3t1_1,,running
Status,582,12726362722,/g3t1_1,,fail
Status,583,12729172028,/g3t1_3,,running
Status,584,12729451325,/g3t1_3,,fail
Status,585,12729519237,/g3t1_2,,running
Status,586,12729872065,/g3t1_2,,success
Status,587,12776563282,/g3t1_1,,running
Status,588,12776633842,/g3t1_1,,fail
Status,589,12779287904,/g3t1_3,,running
Status,590,12779973489,/g3t1_2,,running
Status,591,12780096653,/g3t1_3,,success
Status,592,12780451269,/g3t1_2,,success
Status,593,12821769019,/g4t1,,success
Status,594,12826416291,/g3t1_1,,running
Status,595,12826806626,/g3t1_1,,fail
Status,596,12829371477,/g3t1_3,,running
Status,597,12829642109,/g3t1_3,,success
Status,598,12830099031,/g3t1_2,,running
Status,599,12830217157,/g3t1_2,,success
Status,600,12876855077,/g3t1_1,,running
Status,601,12876922606,/g3t1_1,,fail
Status,602,12879779262,/g3t1_3,,running
Status,603,12879860159,/g3t1_3,,success
Status,604,12879965414,/g3t1_2,,running
Status,605,12880361484,/g3t1_2,,success
Status,609,12921423954,/g4t1,,success
Status,610,12927109148,/g3t1_1,,running
Status,611,12927177405,/g3t1_1,,fail
Status,612,12929656160,/g3t1_3,,running
Status,613,12930172612,/g3t1_2,,running
Status,614,12930258348,/g3t1_3,,fail
Status,615,12930940244,/g3t1_2,,success
Status,616,12976875903,/g3t1_1,,running
Status,617,12976920538,/g3t1_1,,fail
Status,618,12979372823,/g3t1_3,,running
Status,619,12979413830,/g3t1_3,,fail
Status,620,12980015979,/g3t1_2,,running
Status,621,12980052503,/g3t1_2,,success
Status,622,13021701542,/g4t1,,success
Status,623,13027029567,/g3t1_1,,running
Status,624,13027156224,/g3t1_1,,fail
Status,625,13029912256,/g3t1_3,,running
Status,626,13029954461,/g3t1_3,,fail
Status,627,13030020160,/g3t1_2,,running
Status,628,13030318709,/g3t1_2,,success
Status,629,13077297762,/g3t1_1,,running
Status,630,13077364646,/g3t1_1,,fail
Status,631,13079896432,/g3t1_3,,running
Status,632,13080338865,/g3t1_2,,running
Status,633,13080452148,/g3t1_3,,fail
Status,634,13080912759,/g3t1_2,,success
Status,638,13121740136,/g4t1,,fail
Status,639,13127712353,/g3t1_1,,running
Status,640,13127773647,/g3t1_1,,fail
Status,641,13130492051,/g3t1_3,,running
Status,642,13130587713,/g3t1_2,,running
Status,643,13130682029,/g3t1_3,,fail
Status,644,13131365943,/g3t1_2,,success
Status,645,13177760242,/g3t1_1,,running
Status,646,13177834737,/g3t1_1,,fail
Status,647,13180039341,/g3t1_3,,running
Status,648,13180532869,/g3t1_2,,running
Status,649,13180646470,/g3t1_3,,fail
Status,650,13180917934,/g3t1_2,,success
Status,651,13221930384,/g4t1,,fail
Status,652,13227731321,/g3t1_1,,running
Status,653,13227813927,/g3t1_1,,fail
Status,654,13230164638,/g3t1_3,,running
Status,655,13230360530,/g3t1_3,,fail
Status,656,13230725431,/g3t1_2,,running
Status,657,13230804784,/g3t1_2,,success
Status,658,13277901698,/g3t1_1,,running
Status,659,13278180434,/g3t1_1,,fail
Status,660,13280477833,/g3t1_3,,running
Status,661,13280564218,/g3t1_2,,running
Status,662,13280652085,/g3t1_3,,fail
Status,663,13280984335,/g3t1_2,,success
Status,667,13321884551,/g4t1,,fail
Status,668,13327919528,/g3t1_1,,running
Status,669,13328059554,/g3t1_1,,fail
Status,670,13330657848,/g3t1_3,,running
Status,671,13330753683,/g3t1_2,,running
Status,672,13331219812,/g3t1_3,,success
Status,673,13331299843,/g3t1_2,,success
Status,674,13378395290,/g3t1_1,,running
Status,675,13378483595,/g3t1_1,,fail
Status,676,13380603988,/g3t1_3,,running
Status,677,13380953843,/g3t1_2,,running
Status,678,13381074276,/g3t1_3,,success
Status,679,13381116121,/g3t1_2,,fail
Status,680,13422097013,/g4t1,,success
Status,681,13428501456,/g3t1_1,,running
Status,682,13428571724,/g3t1_1,,fail
Status,683,13430565245,/g3t1_3,,running
Status,684,13430903765,/g3t1_2,,running
Status,685,13431289915,/g3t1_3,,success
Status,686,13431330381,/g3t1_2,,fail
Status,687,13478767902,/g3t1_1,,running
Status,688,13478931269,/g3t1_1,,fail
Status,689,13480772843,/g3t1_3,,running
Status,690,13480837905,/g3t1_2,,running
Status,691,13481181258,/g3t1_3,,success
Status,692,13481516008,/g3t1_2,,fail
Status,696,13522043222,/g4t1,,success
Status,697,13528793175,/g3t1_1,,running
Status,698,13528861111,/g3t1_1,,fail
Status,699,13531215173,/g3t1_3,,running
Status,700,13531311770,/g3t1_2,,running
Status,701,13531439448,/g3t1_2,,fail
Status,702,13531743195,/g3t1_3,,success
Status,703,13578991898,/g3t1_1,,running
Status,704,13579065212,/g3t1_1,,fail
Status,705,13580969736,/g3t1_3,,running
Status,706,13581029492,/g3t1_2,,running
Status,707,13581453531,/g3t1_3,,success
Status,708,13581526665,/g3t1_2,,fail
Status,709,13622297382,/g4t1,,success
Status,710,13628817196,/g3t1_1,,running
Status,711,13629266010,/g3t1_1,,fail
Status,712,13630962005,/g3t1_3,,running
Status,713,13631333505,/g3t1_2,,running
Status,714,13631394267,/g3t1_3,,fail
Status,715,13631726949,/g3t1_2,,fail
Status,716,13679508724,/g3t1_1,,running
Status,717,13679574384,/g3t1_1,,fail
Status,718,13681379557,/g3t1_3,,running
Status,719,13681449462,/g3t1_2,,running
Status,720,13681564197,/g3t1_3,,fail
Status,721,13681869184,/g3t1_2,,success
Status,725,13722292996,/g4t1,,success
Status,726,13729426241,/g3t1_1,,running
Status,727,13729490091,/g3t1_1,,fail
Status,728,13731240212,/g3t1_3,,running
Status,729,13731522404,/g3t1_2,,running
Status,730,13731965615,/g3t1_3,,success
Status,731,13732406186,/g3t1_2,,success
Status,732,13779824976,/g3t1_1,,running
Status,733,13779901272,/g3t1_1,,fail
Status,734,13781264533,/g3t1_3,,running
Status,735,13781636774,/g3t1_2,,running
Status,736,13781711559,/g3t1_3,,success
Status,737,13782132487,/g3t1_2,,success
Status,738,13822559899,/g4t1,,success
Status,739,13829779225,/g3t1_1,,running
Status,740,13829852953,/g3t1_1,,fail
Status,741,13831851667,/g3t1_3,,running
Status,742,13831927352,/g3t1_2,,running
Status,743,13832032095,/g3t1_2,,success
Status,744,13832050491,/g3t1_3,,success
Status,745,13879942644,/g3t1_1,,running
Status,746,13880024275,/g3t1_1,,fail
Status,747,13881700343,/g3t1_3,,running
Status,748,13881793270,/g3t1_2,,running
Status,749,13881957214,/g3t1_3,,success
Status,750,13882171585,/g3t1_2,,success
Status,754,13922646311,/g4t1,,fail
Status,755,13929911477,/g3t1_1,,running
Status,756,13929978802,/g3t1_1,,fail
Status,757,13931969354,/g3t1_3,,running
Status,758,13932020181,/g3t1_2,,running
Status,759,13932120904,/g3t1_2,,fail
Status,760,13932145976,/g3t1_3,,success
Status,761,13979893824,/g3t1_1,,running
Status,762,13979984746,/g3t1_1,,fail
Status,763,13981420611,/g3t1_3,,running
Status,764,13981573241,/g3t1_2,,running
Status,765,13981607820,/g3t1_3,,success
Status,766,13981877967,/g3t1_2,,fail
Status,767,14022748580,/g4t1,,fail
Status,768,14030429657,/g3t1_1,,running
Status,769,14030507359,/g3t1_1,,fail
Status,770,14032011147,/g3t1_3,,running
Status,771,14032068934,/g3t1_2,,running
Status,772,14032275761,/g3t1_3,,success
Status,773,14032706336,/g3t1_2,,fail
Status,774,14080541885,/g3t1_1,,running
Status,775,14080605595,/g3t1_1,,fail
Status,776,14082276700,/g3t1_3,,running
Status,777,14082365594,/g3t1_2,,running
Status,778,14082747053,/g3t1_3,,success
Status,779,14082827773,/g3t1_2,,fail
Status,783,14122790473,/g4t1,,fail
Status,784,14130441804,/g3t1_1,,running
Status,785,14130506698,/g3t1_1,,fail
Status,786,14132088066,/g3t1_3,,running
Status,787,14132516968,/g3t1_2,,running
Status,788,14132592580,/g3t1_3,,success
Status,789,14132637010,/g3t1_2,,fail
Status,790,14180725036,/g3t1_1,,running
Status,791,14180791743,/g3t1_1,,fail
Status,792,14182610883,/g3t1_3,,running
Status,793,14182754974,/g3t1_2,,running
Status,794,14182799978,/g3t1_2,,fail
Status,795,14183291946,/g3t1_3,,success
Status,796,14223118177,/g4t1,,fail
Status,797,14230998191,/g3t1_1,,running
Status,798,14231067857,/g3t1_1,,fail
Status,799,14232535093,/g3t1_3,,running
Status,800,14232648612,/g3t1_2,,running
Status,801,14233148603,/g3t1_3,,success
Status,802,14233302811,/g3t1_2,,fail
Status,803,14280995131,/g3t1_1,,running
Status,804,14281070478,/g3t1_1,,fail
Status,805,14282929667,/g3t1_3,,running
Status,806,14282986281,/g3t1_2,,running
Status,807,14283012273,/g3t1_3,,success
Status,808,14283104070,/g3t1_2,,fail
Status,812,14323057895,/g4t1,,fail
Status,813,14331071977,/g3t1_1,,running
Status,814,14331131618,/g3t1_1,,fail
Status,815,14332831162,/g3t1_3,,running
Status,816,14332931352,/g3t1_2,,running
Status,817,14333005959,/g3t1_3,,fail
Status,818,14333187983,/g3t1_2,,fail
Status,819,14381254363,/g3t1_1,,running
Status,820,14381330754,/g3t1_1,,fail
Status,821,14382534494,/g3t1_3,,running
Status,822,14382624000,/g3t1_2,,running
Status,823,14383160154,/g3t1_2,,fail
Status,824,14383220614,/g3t1_3,,fail
Status,825,14423111069,/g4t1,,success
Status,826,14431560594,/g3t1_1,,running
Status,827,14431628870,/g3t1_1,,fail
Status,828,14433110847,/g3t1_3,,running
Status,829,14433184375,/g3t1_2,,running
Status,830,14433376996,/g3t1_2,,fail
Status,831,14433606745,/g3t1_3,,fail
Status,832,14481598469,/g3t1_1,,running
Status,833,14481668755,/g3t1_1,,fail
Status,834,14483074748,/g3t1_3,,running
Status,835,14483282578,/g3t1_2,,running
Status,836,14483341467,/g3t1_3,,fail
Status,837,14483396103,/g3t1_2,,fail
Status,841,14523097646,/g4t1,,success
Status,842,14531570463,/g3t1_1,,running
Status,843,14531957513,/g3t1_1,,fail
Status,844,14533294898,/g3t1_3,,running
Status,845,14533349063,/g3t1_2,,running
Status,846,14533469046,/g3t1_3,,fail
Status,847,14533497046,/g3t1_2,,fail
Status,848,14581957750,/g3t1_1,,running
Status,849,14582026506,/g3t1_1,,fail
Status,850,14583369165,/g3t1_3,,running
Status,851,14583584917,/g3t1_2,,running
Status,852,14583658010,/g3t1_3,,fail
Status,853,14583872476,/g3t1_2,,success
Status,854,14623451547,/g4t1,,success
Status,855,14632288191,/g3t1_1,,running
Status,856,14633173453,/g3t1_1,,fail
Status,857,14633940808,/g3t1_2,,running
Status,858,14634047697,/g3t1_3,,running
Status,859,14634089680,/g3t1_3,,fail
Status,860,14634568808,/g3t1_2,,fail
Status,861,14682227813,/g3t1_1,,running
Status,862,14682297377,/g3t1_1,,fail
Status,863,14684032699,/g3t1_3,,running
Status,864,14684088422,/g3t1_2,,running
Status,865,14684180029,/g3t1_2,,fail
Status,866,14684205836,/g3t1_3,,fail
Status,870,14723434884,/g4t1,,success
Status,871,14732397452,/g3t1_1,,running
Status,872,14732529727,/g3t1_1,,fail
Status,873,14733514785,/g3t1_3,,running
Status,874,14733600158,/g3t1_2,,running
Status,875,14733743996,/g3t1_3,,fail
Status,876,14734124845,/g3t1_2,,fail
Status,877,14782069853,/g3t1_1,,running
Status,878,14782123830,/g3t1_1,,fail
Status,879,14783116821,/g3t1_3,,running
Status,880,14783178272,/g3t1_2,,running
Status,881,14783199281,/g3t1_3,,fail
Status,882,14783338847,/g3t1_2,,fail
Status,883,14823819514,/g4t1,,success
Status,884,14832880002,/g3t1_1,,running
Status,885,14833011353,/g3t1_1,,fail
Status,886,14833803833,/g3t1_3,,running
Status,887,14833872445,/g3t1_2,,running
Status,888,14834010088,/g3t1_2,,fail
Status,889,14834040655,/g3t1_3,,fail
Status,890,14882820004,/g3t1_1,,running
Status,891,14883621506,/g3t1_1,,fail
Status,892,14884031180,/g3t1_3,,running
Status,893,14884141406,/g3t1_2,,running
Status,894,14884174037,/g3t1_3,,fail
Status,895,14884199552,/g3t1_2,,fail
Status,899,14923682109,/g4t1,,success
Status,900,14932855785,/g3t1_1,,running
Status,901,14932990608,/g3t1_1,,fail
Status,902,14934273414,/g3t1_3,,running
Status,903,14934475456,/g3t1_2,,running
Status,904,14934619138,/g3t1_2,,fail
Status,905,14934658142,/g3t1_3,,success
Status,906,14982755817,/g3t1_1,,running
Status,907,14982816524,/g3t1_1,,fail
Status,908,14983890469,/g3t1_3,,running
Status,909,14983933442,/g3t1_2,,running
Status,910,14983968571,/g3t1_2,,fail
Status,911,14984023816,/g3t1_3,,success
Status,912,15024227809,/g4t1,,success
Status,913,15033333915,/g3t1_1,,running
Status,914,15033715436,/g3t1_1,,fail
Status,915,15033889953,/g3t1_2,,running
Status,916,15034589695,/g3t1_3,,running
Status,917,15034665712,/g3t1_2,,fail
Status,918,15035103118,/g3t1_3,,success
Status,919,15083407498,/g3t1_1,,running
Status,920,15084028338,/g3t1_1,,fail
Status,921,15084493061,/g3t1_3,,running
Status,922,15084595695,/g3t1_2,,running
Status,923,15084674216,/g3t1_2,,fail
Status,924,15084708645,/g3t1_3,,success
Status,928,15124121594,/g4t1,,success
Status,929,15133383483,/g3t1_1,,running
Status,930,15133973112,/g3t1_1,,fail
Status,931,15134187024,/g3t1_2,,running
Status,932,15134309889,/g3t1_3,,running
Status,933,15134768593,/g3t1_2,,fail
Status,934,15134939840,/g3t1_3,,success
Status,935,15183510087,/g3t1_1,,running
Status,936,15184428469,/g3t1_1,,fail
Status,937,15184839406,/g3t1_2,,running
Status,938,15184943127,/g3t1_3,,running
Status,939,15184968652,/g3t1_2,,fail
Status,940,15185166418,/g3t1_3,,success
Status,941,15224239418,/g4t1,,success
Status,942,15233574559,/g3t1_1,,running
Status,943,15234117970,/g3t1_1,,fail
Status,944,15234762421,/g3t1_2,,running
Status,945,15234931227,/g3t1_3,,running
Status,946,15235079140,/g3t1_2,,fail
Status,947,15235131524,/g3t1_3,,success
Status,948,15284008311,/g3t1_1,,running
Status,949,15284103078,/g3t1_1,,fail
Status,950,15284522813,/g3t1_2,,running
Status,951,15284663655,/g3t1_3,,running
Status,952,15284786090,/g3t1_2,,fail
Status,953,15284911733,/g3t1_3,,success
Status,957,15324396989,/g4t1,,fail
Status,958,15333839386,/g3t1_1,,running
Status,959,15334405713,/g3t1_1,,fail
Status,960,15334556235,/g3t1_2,,running
Status,961,15334686521,/g3t1_3,,running
Status,962,15335249927,/g3t1_3,,fail
Status,963,15335376025,/g3t1_2,,fail
Status,964,15383641907,/g3t1_1,,running
Status,965,15383684371,/g3t1_1,,fail
Status,966,15384346764,/g3t1_2,,running
Status,967,15384409219,/g3t1_3,,running
Status,968,15384584701,/g3t1_2,,fail
Status,969,15384650813,/g3t1_3,,fail
Status,970,15424392155,/g4t1,,success
Status,971,15434336899,/g3t1_1,,running
Status,972,15434993082,/g3t1_1,,fail
Status,973,15435063311,/g3t1_2,,running
Status,974,15435100078,/g3t1_3,,running
Status,975,15435136896,/g3t1_2,,fail
Status,976,15435313120,/g3t1_3,,fail
Status,977,15484298135,/g3t1_1,,running
Status,978,15484601068,/g3t1_1,,fail
Status,979,15485245204,/g3t1_2,,running
Status,980,15485327064,/g3t1_3,,running
Status,981,15485434342,/g3t1_2,,fail
Status,982,15485466253,/g3t1_3,,fail
Status,983,15524499193,/g4t1,,success
Status,984,15534207521,/g3t1_1,,running
Status,985,15535420074,/g3t1_1,,fail
Status,986,15535476405,/g3t1_2,,running
Status,987,15535501898,/g3t1_2,,fail
Status,988,15535583995,/g3t1_3,,running
Status,989,15535608434,/g3t1_3,,fail
Status,990,15583766931,/g3t1_1,,running
Status,991,15583868336,/g3t1_1,,fail
Status,992,15584663011,/g3t1_3,,running
Status,993,15584684771,/g3t1_3,,fail
Status,994,15584707937,/g3t1_2,,running
Status,995,15584716502,/g3t1_2,,fail
Status,996,15623977326,/g4t1,,success
Status,997,15634041053,/g3t1_1,,running
Status,998,15634082597,/g3t1_1,,fail
Status,999,15634971574,/g3t1_2,,running
Status,1000,15635009717,/g3t1_3,,running
Status,1001,15635064697,/g3t1_3,,fail
Status,1002,15635270162,/g3t1_2,,fail
Status,1003,15684807155,/g3t1_1,,running
Status,1004,15684883485,/g3t1_1,,fail
Status,1005,15685180540,/g3t1_3,,running
Status,1006,15685245013,/g3t1_2,,running
Status,1007,15685531753,/g3t1_2,,fail
Status,1008,15685609009,/g3t1_3,,fail
Status,1009,15724630599,/g4t1,,success
Status,1010,15734635465,/g3t1_1,,running
Status,1011,15734728768,/g3t1_1,,fail
Status,1012,15735713723,/g3t1_2,,running
Status,1013,15735767760,/g3t1_3,,running
Status,1014,15735836462,/g3t1_3,,fail
Status,1015,15735928620,/g3t1_2,,fail
Status,1016,15784685350,/g3t1_1,,running
Status,1017,15785101698,/g3t1_1,,fail
Status,1018,15785466453,/g3t1_2,,running
Status,1019,15785893506,/g3t1_3,,running
Status,1020,15785959849,/g3t1_3,,fail
Status,1021,15786033212,/g3t1_2,,success
Status,1022,15824460761,/g4t1,,success
Status,1023,15834262478,/g3t1_1,,running
Status,1024,15834289771,/g3t1_1,,fail
Status,1025,15834899866,/g3t1_2,,running
Status,1026,15835057915,/g3t1_2,,success
Status,1027,15835104483,/g3t1_3,,running
Status,1028,15835143768,/g3t1_3,,fail
Status,1029,15884379821,/g3t1_1,,running
Status,1030,15884412246,/g3t1_1,,fail
Status,1031,15884967046,/g3t1_2,,running
Status,1032,15884988904,/g3t1_3,,running
Status,1033,15884997361,/g3t1_2,,fail
Status,1034,15885007994,/g3t1_3,,fail
Status,1035,15924929866,/g4t1,,success
Status,1036,15934921236,/g3t1_1,,running
Status,1037,15935406340,/g3t1_1,,fail
Status,1038,15936153487,/g3t1_3,,running
Status,1039,15936255684,/g3t1_3,,fail
Status,1040,15936294991,/g3t1_2,,running
Status,1041,15936403927,/g3t1_2,,fail
Status,1042,15985182012,/g3t1_1,,running
Status,1043,15986228669,/g3t1_1,,fail
Status,1044,15986361175,/g3t1_2,,running
Status,1045,15986619519,/g3t1_3,,running
Status,1046,15986670696,/g3t1_3,,fail
Status,1047,15986755224,/g3t1_2,,success
Status,1048,16025060006,/g4t1,,success
Status,1049,16035314812,/g3t1_1,,running
Status,1050,16036255822,/g3t1_1,,fail
Status,1051,16036316437,/g3t1_3,,running
Status,1052,16036346869,/g3t1_2,,running
Status,1053,16036370477,/g3t1_2,,success
Status,1054,16036448268,/g3t1_3,,fail
Status,1055,16085882239,/g3t1_1,,running
Status,1056,16086004617,/g3t1_1,,fail
Status,1057,16086306495,/g3t1_2,,running
Status,1058,16086368365,/g3t1_3,,running
Status,1059,16086395705,/g3t1_3,,fail
Status,1060,16086482300,/g3t1_2,,fail
Status,1061,16125289099,/g4t1,,success
Status,1062,16136466244,/g3t1_1,,running
Status,1063,16136569512,/g3t1_1,,fail
Status,1064,16136618307,/g3t1_2,,running
Status,1065,16136684908,/g3t1_3,,running
Status,1066,16136708375,/g3t1_3,,fail
Status,1067,16136730364,/g3t1_2,,fail
Status,1068,16186361812,/g3t1_1,,running
Status,1069,16186426851,/g3t1_1,,fail
Status,1070,16186509393,/g3t1_2,,running
Status,1071,16186532800,/g3t1_3,,running
Status,1072,16186554776,/g3t1_3,,fail
Status,1073,16186984841,/g3t1_2,,success
Status,1074,16225339082,/g4t1,,success
Status,1075,16236214486,/g3t1_1,,running
Status,1076,16236347825,/g3t1_1,,fail
Status,1077,16236486721,/g3t1_3,,running
Status,1078,16236542956,/g3t1_3,,fail
Status,1079,16237632814,/g3t1_2,,running
Status,1080,16238390151,/g3t1_2,,success
Status,1081,16286250708,/g3t1_1,,running
Status,1082,16286564993,/g3t1_1,,fail
Status,1083,16286713360,/g3t1_3,,running
Status,1084,16286912266,/g3t1_3,,fail
Status,1085,16288593685,/g3t1_2,,running
Status,1086,16288778967,/g3t1_2,,fail
Status,1090,16325367801,/g4t1,,success
Status,1091,16336384429,/g3t1_1,,running
Status,1092,16337010132,/g3t1_1,,success
Status,1093,16337081125,/g3t1_2,,running
Status,1094,16337120040,/g3t1_3,,running
Status,1095,16337224889,/g3t1_2,,fail
Status,1096,16337258752,/g3t1_3,,fail
Status,1097,16386473937,/g3t1_1,,running
Status,1098,16387016211,/g3t1_1,,success
Status,1099,16387092320,/g3t1_3,,running
Status,1100,16387215923,/g3t1_2,,running
Status,1101,16387250772,/g3t1_3,,fail
Status,1102,16387603366,/g3t1_2,,fail
Status,1103,16425460873,/g4t1,,success
Status,1104,16436867469,/g3t1_1,,running
Status,1105,16437073332,/g3t1_2,,running
Status,1106,16437166834,/g3t1_3,,running
Status,1107,16437208686,/g3t1_1,,success
Status,1108,16437410558,/g3t1_2,,fail
Status,1109,16437513431,/g3t1_3,,fail
Status,1110,16486025243,/g3t1_1,,running
Status,1111,16486064555,/g3t1_1,,fail
Status,1112,16486587253,/g3t1_2,,running
Status,1113,16486616567,/g3t1_3,,running
Status,1114,16486660359,/g3t1_3,,fail
Status,1115,16486676799,/g3t1_2,,success
Status,1119,16525110403,/g4t1,,success
Status,1120,16536184935,/g3t1_1,,running
Status,1121,16536479696,/g3t1_1,,fail
Status,1122,16537369085,/g3t1_2,,running
Status,1123,16537520735,/g3t1_3,,running
Status,1124,16537572880,/g3t1_2,,fail
Status,1125,16537591400,/g3t1_3,,fail
Status,1126,16587127035,/g3t1_1,,running
Status,1127,16587199307,/g3t1_3,,running
Status,1128,16587509057,/g3t1_2,,running
Status,1129,16587766869,/g3t1_1,,fail
Status,1130,16587818103,/g3t1_2,,fail
Status,1131,16587844015,/g3t1_3,,fail
Status,1132,16625920273,/g4t1,,success
Status,1133,16637506855,/g3t1_1,,running
Status,1134,16637628039,/g3t1_2,,running
Status,1135,16637775144,/g3t1_1,,fail
Status,1136,16637813511,/g3t1_2,,fail
Status,1137,16637889131,/g3t1_3,,running
Status,1138,16637910504,/g3t1_3,,fail
Status,1139,16687312577,/g3t1_1,,running
Status,1140,16687970928,/g3t1_2,,running
Status,1141,16688023652,/g3t1_3,,running
Status,1142,16688091850,/g3t1_1,,fail
Status,1143,16688115634,/g3t1_2,,success
Status,1144,16688135756,/g3t1_3,,fail
Status,1148,16725951892,/g4t1,,success
Status,1149,16737556936,/g3t1_1,,running
Status,1150,16737845696,/g3t1_1,,fail
Status,1151,16737886234,/g3t1_2,,running
Status,1152,16737910692,/g3t1_2,,fail
Status,1153,16737931375,/g3t1_3,,running
Status,1154,16737953735,/g3t1_3,,fail
Status,1155,16787683298,/g3t1_1,,running
Status,1156,16787799245,/g3t1_2,,running
Status,1157,16788129233,/g3t1_1,,fail
Status,1158,16788164821,/g3t1_3,,running
Status,1159,16788256678,/g3t1_2,,fail
Status,1160,16788282736,/g3t1_3,,fail
Status,1161,16826128321,/g4t1,,success
Status,1162,16838411281,/g3t1_1,,running
Status,1163,16838477478,/g3t1_2,,running
Status,1164,16838506750,/g3t1_1,,fail
Status,1165,16838595804,/g3t1_3,,running
Status,1166,16838625483,/g3t1_3,,fail
Status,1167,16838662392,/g3t1_2,,success
Status,1168,16887857704,/g3t1_1,,running
Status,1169,16888035863,/g3t1_2,,running
Status,1170,16888086437,/g3t1_3,,running
Status,1171,16888370191,/g3t1_2,,fail
Status,1172,16888426126,/g3t1_1,,fail
Status,1173,16888868123,/g3t1_3,,fail
Status,1177,16926212728,/g4t1,,success
Status,1178,16937641524,/g3t1_1,,running
Status,1179,16938067252,/g3t1_2,,running
Status,1180,16938147997,/g3t1_3,,running
Status,1181,16938183495,/g3t1_1,,fail
Status,1182,16938279793,/g3t1_2,,fail
Status,1183,16938370946,/g3t1_3,,fail
Status,1184,16987639056,/g3t1_1,,running
Status,1185,16987970933,/g3t1_2,,running
Status,1186,16988178051,/g3t1_1,,fail
Status,1187,16988210565,/g3t1_2,,fail
Status,1188,16988303984,/g3t1_3,,running
Status,1189,16988319856,/g3t1_3,,fail
Status,1190,17026355159,/g4t1,,success
Status,1191,17038441602,/g3t1_1,,running
Status,1192,17038521921,/g3t1_2,,running
Status,1193,17038726010,/g3t1_1,,fail
Status,1194,17038769804,/g3t1_3,,running
Status,1195,17039139622,/g3t1_3,,fail
Status,1196,17039224507,/g3t1_2,,fail
Status,1197,17088132543,/g3t1_1,,running
Status,1198,17088208283,/g3t1_2,,running
Status,1199,17088338844,/g3t1_1,,fail
Status,1200,17088380684,/g3t1_3,,running
Status,1201,17088418095,/g3t1_2,,fail
Status,1202,17088944393,/g3t1_3,,success
Status,1206,17126593421,/g4t1,,success
Status,1207,17138290984,/g3t1_1,,running
Status,1208,17138379910,/g3t1_2,,running
Status,1209,17138669764,/g3t1_1,,fail
Status,1210,17138767035,/g3t1_3,,running
Status,1211,17138798169,/g3t1_2,,fail
Status,1212,17139328092,/g3t1_3,,success
Status,1213,17188513344,/g3t1_1,,running
Status,1214,17188611761,/g3t1_2,,running
Status,1215,17188653107,/g3t1_1,,fail
Status,1216,17188690086,/g3t1_2,,fail
Status,1217,17188853582,/g3t1_3,,running
Status,1218,17189297349,/g3t1_3,,success
Status,1219,17227111731,/g4t1,,success
Status,1220,17238569685,/g3t1_1,,running
Status,1221,17238652854,/g3t1_2,,running
Status,1222,17239318057,/g3t1_3,,running
Status,1223,17239406611,/g3t1_1,,fail
Status,1224,17239513782,/g3t1_2,,fail
Status,1225,17239552288,/g3t1_3,,success
Status,1226,17289152952,/g3t1_2,,running
Status,1227,17289254970,/g3t1_2,,fail
Status,1228,17289368240,/g3t1_1,,running
Status,1229,17289400385,/g3t1_1,,fail
Status,1230,17289422754,/g3t1_3,,running
Status,1231,17289760957,/g3t1_3,,success
Status,1235,17327042634,/g4t1,,success
Status,1236,17338690269,/g3t1_1,,running
Status,1237,17338770371,/g3t1_2,,running
Status,1238,17338980370,/g3t1_1,,fail
Status,1239,17339418918,/g3t1_2,,success
Status,1240,17339506646,/g3t1_3,,running
Status,1241,17339612361,/g3t1_3,,fail
Status,1242,17389354511,/g3t1_1,,running
Status,1243,17389579022,/g3t1_2,,running
Status,1244,17389615114,/g3t1_1,,fail
Status,1245,17389805444,/g3t1_2,,fail
Status,1246,17389900392,/g3t1_3,,running
Status,1247,17389937861,/g3t1_3,,fail
Status,1248,17427313890,/g4t1,,success
Status,1249,17439304707,/g3t1_2,,running
Status,1250,17439397076,/g3t1_1,,running
Status,1251,17439536369,/g3t1_1,,fail
Status,1252,17439560839,/g3t1_2,,fail
Status,1253,17439587963,/g3t1_3,,running
Status,1254,17439944159,/g3t1_3,,fail
Status,1255,17489121754,/g3t1_2,,running
Status,1256,17489411361,/g3t1_1,,running
Status,1257,17489470986,/g3t1_1,,fail
Status,1258,17489499714,/g3t1_2,,fail
Status,1259,17489702560,/g3t1_3,,running
Status,1260,17490459809,/g3t1_3,,fail
Status,1264,17527329009,/g4t1,,success
Status,1265,17539834151,/g3t1_1,,running
Status,1266,17540008086,/g3t1_2,,running
Status,1267,17540170190,/g3t1_1,,fail
Status,1268,17540647127,/g3t1_3,,running
Status,1269,17540797763,/g3t1_3,,success
Status,1270,17541347144,/g3t1_2,,success
Status,1271,17588916753,/g3t1_1,,running
Status,1272,17588950037,/g3t1_2,,running
Status,1273,17588962976,/g3t1_1,,fail
Status,1274,17589171545,/g3t1_2,,success
Status,1275,17589507213,/g3t1_3,,running
Status,1276,17589541091,/g3t1_3,,success
Status,1277,17627121400,/g4t1,,success
Status,1278,17640209155,/g3t1_1,,running
Status,1279,17640279335,/g3t1_2,,running
Status,1280,17640307683,/g3t1_3,,running
Status,1281,17640331528,/g3t1_1,,success
Status,1282,17640502401,/g3t1_3,,fail
Status,1283,17640529572,/g3t1_2,,success
Status,1284,17690299427,/g3t1_1,,running
Status,1285,17690456162,/g3t1_2,,running
Status,1286,17690496477,/g3t1_3,,running
Status,1287,17690587906,/g3t1_2,,success
Status,1288,17690614892,/g3t1_1,,fail
Status,1289,17690638802,/g3t1_3,,success
Status,1293,17727689933,/g4t1,,success
Status,1294,17740609870,/g3t1_1,,running
Status,1295,17740688607,/g3t1_2,,running
Status,1296,17740797123,/g3t1_3,,running
Status,1297,17740833349,/g3t1_1,,fail
Status,1298,17740864972,/g3t1_2,,success
Status,1299,17740900863,/g3t1_3,,success
Status,1300,17790328800,/g3t1_1,,running
Status,1301,17790501993,/g3t1_2,,running
Status,1302,17790548943,/g3t1_2,,success
Status,1303,17790585213,/g3t1_1,,success
Status,1304,17791307253,/g3t1_3,,running
Status,1305,17791398488,/g3t1_3,,success
Status,1306,17827937622,/g4t1,,success
Status,1307,17840290117,/g3t1_1,,running
Status,1308,17840535297,/g3t1_2,,running
Status,1309,17840571828,/g3t1_1,,fail
Status,1310,17840596997,/g3t1_2,,success
Status,1311,17840627446,/g3t1_3,,running
Status,1312,17840980054,/g3t1_3,,success
Status,1313,17890605049,/g3t1_1,,running
Status,1314,17890742075,/g3t1_2,,running
Status,1315,17890774783,/g3t1_1,,fail
Status,1316,17890798196,/g3t1_3,,running
Status,1317,17891075949,/g3t1_2,,success
Status,1318,17891239619,/g3t1_3,,success
Status,1322,17927886257,/g4t1,,fail
Status,1323,17940722275,/g3t1_2,,running
Status,1324,17940807183,/g3t1_1,,running
Status,1325,17940892916,/g3t1_1,,fail
Status,1326,17940916113,/g3t1_3,,running
Status,1327,17940937713,/g3t1_3,,fail
Status,1328,17941229761,/g3t1_2,,fail
Status,1329,17989925518,/g3t1_2,,running
Status,1330,17989963460,/g3t1_1,,running
Status,1331,17990144703,/g3t1_1,,fail
Status,1332,17990175114,/g3t1_2,,fail
Status,1333,17990208371,/g3t1_3,,running
Status,1334,17990325886,/g3t1_3,,fail
Status,1335,18027958348,/g4t1,,success
Status,1336,18041209138,/g3t1_1,,running
Status,1337,18041341738,/g3t1_2,,running
Status,1338,18041437522,/g3t1_2,,fail
Status,1339,18041467544,/g3t1_3,,running
Status,1340,18041489658,/g3t1_3,,fail
Status,1341,18041578185,/g3t1_1,,fail
Status,1342,18091179664,/g3t1_2,,running
Status,1343,18091286238,/g3t1_1,,running
Status,1344,18091375993,/g3t1_3,,running
Status,1345,18091399033,/g3t1_1,,fail
Status,1346,18091424683,/g3t1_3,,fail
Status,1347,18091787426,/g3t1_2,,success
Status,1351,18128120317,/g4t1,,success
Status,1352,18141187044,/g3t1_1,,running
Status,1353,18141245046,/g3t1_1,,fail
Status,1354,18141272252,/g3t1_2,,running
Status,1355,18141344346,/g3t1_2,,fail
Status,1356,18141371027,/g3t1_3,,running
Status,1357,18141821443,/g3t1_3,,success
Status,1358,18191482336,/g3t1_2,,running
Status,1359,18191586016,/g3t1_2,,success
Status,1360,18191799196,/g3t1_1,,running
Status,1361,18191856261,/g3t1_1,,fail
Status,1362,18191892512,/g3t1_3,,running
Status,1363,18192345445,/g3t1_3,,success
Status,1364,18228350375,/g4t1,,success
Status,1365,18241780476,/g3t1_2,,running
Status,1366,18241843073,/g3t1_1,,running
Status,1367,18242021495,/g3t1_1,,fail
Status,1368,18242086589,/g3t1_2,,success
Status,1369,18242113297,/g3t1_3,,running
Status,1370,18242143652,/g3t1_3,,success
Status,1371,18291428939,/g3t1_1,,running
Status,1372,18291526764,/g3t1_2,,running
Status,1373,18291702690,/g3t1_3,,running
Status,1374,18291869942,/g3t1_1,,fail
Status,1375,18291974677,/g3t1_3,,fail
Status,1376,18292010830,/g3t1_2,,fail
Status,1380,18328431712,/g4t1,,success
Status,1381,18341629811,/g3t1_1,,running
Status,1382,18341707998,/g3t1_2,,running
Status,1383,18341799962,/g3t1_3,,running
Status,1384,18341830112,/g3t1_2,,success
Status,1385,18341855077,/g3t1_1,,success
Status,1386,18341937126,/g3t1_3,,fail
Status,1387,18391640817,/g3t1_2,,running
Status,1388,18391689517,/g3t1_1,,running
Status,1389,18391809069,/g3t1_3,,running
Status,1390,18391859251,/g3t1_3,,fail
Status,1391,18391877005,/g3t1_2,,success
Status,1392,18391892170,/g3t1_1,,success
Status,1393,18428391858,/g4t1,,success
Status,1394,18441531202,/g3t1_2,,running
Status,1395,18441823000,/g3t1_1,,running
Status,1396,18441862458,/g3t1_3,,running
Status,1397,18441970545,/g3t1_1,,success
Status,1398,18441992782,/g3t1_2,,success
Status,1399,18442012381,/g3t1_3,,fail
Status,1400,18491589973,/g3t1_1,,running
Status,1401,18491649914,/g3t1_2,,running
Status,1402,18491707560,/g3t1_2,,success
Status,1403,18491729588,/g3t1_3,,running
Status,1404,18491748985,/g3t1_3,,fail
Status,1405,18491770496,/g3t1_1,,success
Status,1409,18528681522,/g4t1,,fail
Status,1410,18542188746,/g3t1_2,,running
Status,1411,18542262619,/g3t1_1,,running
Status,1412,18542300294,/g3t1_3,,running
Status,1413,18542341114,/g3t1_1,,fail
Status,1414,18542382056,/g3t1_2,,fail
Status,1415,18542423271,/g3t1_3,,success
Status,1416,18591896400,/g3t1_1,,running
Status,1417,18592118121,/g3t1_2,,running
Status,1418,18592186370,/g3t1_2,,fail
Status,1419,18592210619,/g3t1_3,,running
Status,1420,18592237939,/g3t1_3,,fail
Status,1421,18592414186,/g3t1_1,,fail
Status,1422,18628663959,/g4t1,,success
Status,1423,18642578153,/g3t1_2,,running
Status,1424,18642657557,/g3t1_1,,running
Status,1425,18642729806,/g3t1_3,,running
Status,1426,18642753258,/g3t1_1,,fail
Status,1427,18642777020,/g3t1_3,,fail
Status,1428,18642805066,/g3t1_2,,fail
Status,1429,18692470578,/g3t1_2,,running
Status,1430,18692615540,/g3t1_1,,running
Status,1431,18692731783,/g3t1_3,,running
Status,1432,18693265287,/g3t1_2,,fail
Status,1433,18693348081,/g3t1_1,,fail
Status,1434,18693538599,/g3t1_3,,success
Status,1438,18728745767,/g4t1,,success
Status,1439,18742475282,/g3t1_1,,running
Status,1440,18742561521,/g3t1_2,,running
Status,1441,18742904193,/g3t1_3,,running
Status,1442,18742979229,/g3t1_1,,fail
Status,1443,18743024409,/g3t1_3,,fail
Status,1444,18743058601,/g3t1_2,,success
Status,1445,18792638405,/g3t1_1,,running
Status,1446,18792697042,/g3t1_2,,running
Status,1447,18792806282,/g3t1_3,,running
Status,1448,18792845807,/g3t1_1,,fail
Status,1449,18792912614,/g3t1_2,,success
Status,1450,18792933775,/g3t1_3,,fail
Status,1451,18828963102,/g4t1,,success
Status,1452,18843362358,/g3t1_1,,running
Status,1453,18843448182,/g3t1_2,,running
Status,1454,18843536168,/g3t1_3,,running
Status,1455,18843569924,/g3t1_2,,success
Status,1456,18843606346,/g3t1_1,,fail
Status,1457,18843641447,/g3t1_3,,fail
Status,1458,18893061771,/g3t1_1,,running
Status,1459,18893176409,/g3t1_1,,fail
Status,1460,18893211541,/g3t1_2,,running
Status,1461,18893246283,/g3t1_3,,running
Status,1462,18893278188,/g3t1_3,,fail
Status,1463,18893299434,/g3t1_2,,success
Status,1467,18929120339,/g4t1,,success
Status,1468,18942997169,/g3t1_1,,running
Status,1469,18943058264,/g3t1_1,,fail
Status,1470,18943097746,/g3t1_2,,running
Status,1471,18943274472,/g3t1_2,,fail
Status,1472,18943349390,/g3t1_3,,running
Status,1473,18943375014,/g3t1_3,,fail
Status,1474,18992637351,/g3t1_2,,running
Status,1475,18992857045,/g3t1_2,,fail
Status,1476,18992900799,/g3t1_1,,running
Status,1477,18992941785,/g3t1_1,,fail
Status,1478,18992955412,/g3t1_3,,running
Status,1479,18992971224,/g3t1_3,,fail
Status,1480,19029152194,/g4t1,,success
Status,1481,19043306722,/g3t1_2,,running
Status,1482,19043374550,/g3t1_1,,running
Status,1483,19043401253,/g3t1_3,,running
Status,1484,19043424632,/g3t1_2,,fail
Status,1485,19043447803,/g3t1_1,,fail
Status,1486,19043847966,/g3t1_3,,fail
Status,1487,19093376853,/g3t1_3,,running
Status,1488,19093432774,/g3t1_1,,running
Status,1489,19093480359,/g3t1_2,,running
Status,1490,19093638720,/g3t1_2,,fail
Status,1491,19093667877,/g3t1_3,,fail
Status,1492,19093722405,/g3t1_1,,fail
Status,1496,19129266175,/g4t1,,success
Status,1497,19143630461,/g3t1_1,,running
Status,1498,19143693463,/g3t1_1,,fail
Status,1499,19143864567,/g3t1_2,,running
Status,1500,19143930404,/g3t1_2,,fail
Status,1501,19143993388,/g3t1_3,,running
Status,1502,19144102199,/g3t1_3,,fail
Status,1503,19192916373,/g3t1_1,,running
Status,1504,19192940740,/g3t1_3,,running
Status,1505,19192949187,/g3t1_2,,running
Status,1506,19192956381,/g3t1_2,,fail
Status,1507,19192963968,/g3t1_3,,fail
Status,1508,19192971264,/g3t1_1,,fail
Status,1509,19229350158,/g4t1,,success
Status,1510,19243802741,/g3t1_3,,running
Status,1511,19243882905,/g3t1_1,,running
Status,1512,19244004906,/g3t1_2,,running
Status,1513,19244037341,/g3t1_3,,fail
Status,1514,19244062586,/g3t1_1,,fail
Status,1515,19244085161,/g3t1_2,,fail
Status,1516,19294180626,/g3t1_3,,running
Status,1517,19294283729,/g3t1_1,,running
Status,1518,19294314558,/g3t1_2,,running
Status,1519,19294337765,/g3t1_1,,fail
Status,1520,19294481093,/g3t1_2,,fail
Status,1521,19294541133,/g3t1_3,,fail
Status,1525,19329604324,/g4t1,,success
Status,1526,19343937285,/g3t1_1,,running
Status,1527,19344084199,/g3t1_2,,running
Status,1528,19344129269,/g3t1_3,,running
Status,1529,19344521472,/g3t1_1,,success
Status,1530,19344597190,/g3t1_2,,fail
Status,1531,19344692121,/g3t1_3,,fail
Status,1532,19394445763,/g3t1_3,,running
Status,1533,19394531332,/g3t1_2,,running
Status,1534,19394644950,/g3t1_2,,fail
Status,1535,19394674169,/g3t1_1,,running
Status,1536,19394696867,/g3t1_1,,success
Status,1537,19394718854,/g3t1_3,,fail
Status,1538,19429634089,/g4t1,,success
Status,1539,19444164631,/g3t1_3,,running
Status,1540,19444308004,/g3t1_2,,running
Status,1541,19444460589,/g3t1_1,,running
Status,1542,19444620752,/g3t1_2,,fail
Status,1543,19444723742,/g3t1_3,,fail
Status,1544,19445549147,/g3t1_1,,success
Status,1545,19494687539,/g3t1_3,,running
Status,1546,19494747274,/g3t1_1,,running
Status,1547,19494812920,/g3t1_2,,running
Status,1548,19494907945,/g3t1_3,,fail
Status,1549,19495038980,/g3t1_2,,fail
Status,1550,19495216744,/g3t1_1,,success
Status,1551,19529591417,/g4t1,,success
Status,1552,19544684739,/g3t1_3,,running
Status,1553,19544770756,/g3t1_1,,running
Status,1554,19544809167,/g3t1_2,,running
Status,1555,19544909888,/g3t1_2,,fail
Status,1556,19545040671,/g3t1_3,,fail
Status,1557,19545648188,/g3t1_1,,success
Status,1558,19594973589,/g3t1_2,,running
Status,1559,19595060036,/g3t1_1,,running
Status,1560,19595173452,/g3t1_3,,running
Status,1561,19595200464,/g3t1_3,,fail
Status,1562,19595226399,/g3t1_2,,fail
Status,1563,19595249720,/g3t1_1,,success
Status,1564,19629890547,/g4t1,,success
Status,1565,19644903924,/g3t1_3,,running
Status,1566,19645007575,/g3t1_2,,running
Status,1567,19645093694,/g3t1_2,,fail
Status,1568,19645124805,/g3t1_1,,running
Status,1569,19645149726,/g3t1_1,,success
Status,1570,19645475778,/g3t1_3,,fail
Status,1571,19695381735,/g3t1_3,,running
Status,1572,19695462936,/g3t1_2,,running
Status,1573,19695578414,/g3t1_1,,running
Status,1574,19695614031,/g3t1_1,,fail
Status,1575,19695647615,/g3t1_2,,fail
Status,1576,19695682642,/g3t1_3,,fail
Status,1577,19730039182,/g4t1,,success
Status,1578,19745297147,/g3t1_3,,running
Status,1579,19745353777,/g3t1_2,,running
Status,1580,19745539707,/g3t1_1,,running
Status,1581,19745586574,/g3t1_2,,fail
Status,1582,19745756228,/g3t1_1,,fail
Status,1583,19745942249,/g3t1_3,,fail
Status,1584,19795601698,/g3t1_3,,running
Status,1585,19795789460,/g3t1_2,,running
Status,1586,19795872642,/g3t1_1,,running
Status,1587,19796105163,/g3t1_3,,fail
Status,1588,19796136178,/g3t1_2,,fail
Status,1589,19796171000,/g3t1_1,,success
Status,1590,19830208257,/g4t1,,success
Status,1591,19845477604,/g3t1_1,,running
Status,1592,19845537387,/g3t1_3,,running
Status,1593,19845603517,/g3t1_2,,running
Status,1594,19845627689,/g3t1_2,,fail
Status,1595,19845649272,/g3t1_1,,fail
Status,1596,19845670932,/g3t1_3,,fail
Status,1597,19896057218,/g3t1_3,,running
Status,1598,19896141930,/g3t1_3,,fail
Status,1599,19896204208,/g3t1_1,,running
Status,1600,19896313921,/g3t1_1,,success
Status,1601,19896339842,/g3t1_2,,running
Status,1602,19896408508,/g3t1_2,,fail
Status,1603,19930238627,/g4t1,,success
Status,1604,19945847833,/g3t1_1,,running
Status,1605,19945938202,/g3t1_3,,running
Status,1606,19945980005,/g3t1_2,,running
Status,1607,19946482205,/g3t1_3,,fail
Status,1608,19946548475,/g3t1_2,,fail
Status,1609,19946654857,/g3t1_1,,success
Status,1610,19996524468,/g3t1_3,,running
Status,1611,19996617778,/g3t1_1,,running
Status,1612,19996673702,/g3t1_2,,running
Status,1613,19996775671,/g3t1_3,,fail
Status,1614,19996799138,/g3t1_2,,fail
Status,1615,19996822041,/g3t1_1,,success
Status,1616,20030479859,/g4t1,,fail
Status,1617,20046225420,/g3t1_3,,running
Status,1618,20046567139,/g3t1_2,,running
Status,1619,20046624122,/g3t1_1,,running
Status,1620,20046692300,/g3t1_2,,fail
Status,1621,20046716429,/g3t1_3,,fail
Status,1622,20046737758,/g3t1_1,,success
Status,1623,20096696421,/g3t1_3,,running
Status,1624,20096759083,/g3t1_2,,running
Status,1625,20096785256,/g3t1_1,,running
Status,1626,20096811656,/g3t1_3,,fail
Status,1627,20096855964,/g3t1_2,,fail
Status,1628,20097032251,/g3t1_1,,success
Status,1629,20130652416,/g4t1,,fail
Status,1630,20146321487,/g3t1_1,,running
Status,1631,20146477538,/g3t1_2,,running
Status,1632,20146531300,/g3t1_3,,running
Status,1633,20146559824,/g3t1_2,,fail
Status,1634,20146652127,/g3t1_1,,fail
Status,1635,20147078448,/g3t1_3,,fail
Status,1636,20196874925,/g3t1_2,,running
Status,1637,20196941413,/g3t1_1,,running
Status,1638,20196966547,/g3t1_3,,running
Status,1639,20196989630,/g3t1_2,,fail
Status,1640,20197018986,/g3t1_1,,fail
Status,1641,20197199742,/g3t1_3,,fail
Status,1642,20230688953,/g4t1,,success
Status,1643,20246948592,/g3t1_1,,running
Status,1644,20247011995,/g3t1_2,,running
Status,1645,20247040818,/g3t1_3,,running
Status,1646,20247089094,/g3t1_2,,fail
Status,1647,20247257290,/g3t1_1,,success
Status,1648,20247285795,/g3t1_3,,fail
Status,1649,20297298899,/g3t1_3,,running
Status,1650,20297366859,/g3t1_2,,running
Status,1651,20297393294,/g3t1_2,,fail
Status,1652,20297418551,/g3t1_1,,running
Status,1653,20297582527,/g3t1_1,,fail
Status,1654,20297620589,/g3t1_3,,fail
Status,1658,20330616173,/g4t1,,success
Status,1659,20347467234,/g3t1_3,,running
Status,1660,20347536159,/g3t1_1,,running
Status,1661,20347565987,/g3t1_1,,fail
Status,1662,20347738676,/g3t1_2,,running
Status,1663,20347758267,/g3t1_2,,success
Status,1664,20347773900,/g3t1_3,,success
Status,1665,20397168783,/g3t1_1,,running
Status,1666,20397312639,/g3t1_3,,running
Status,1667,20397338630,/g3t1_2,,running
Status,1668,20397815033,/g3t1_3,,success
Status,1669,20397869346,/g3t1_1,,fail
Status,1670,20397892875,/g3t1_2,,success
Status,1671,20431014759,/g4t1,,success
Status,1672,20447884714,/g3t1_3,,running
Status,1673,20447942957,/g3t1_2,,running
Status,1674,20447966936,/g3t1_1,,running
Status,1675,20447993504,/g3t1_3,,success
Status,1676,20448017586,/g3t1_1,,fail
Status,1677,20448041605,/g3t1_2,,success
Status,1678,20497602790,/g3t1_3,,running
Status,1679,20497668932,/g3t1_2,,running
Status,1680,20497840815,/g3t1_1,,running
