
Status,2,3507144359,/g4t1,,init
Status,3,8617843007,/g3t1_1,,init
Status,5,8637059009,/g3t1_1,,init
Status,6,8637084839,/g3t1_1,,running
Status,7,8637809795,/g3t1_1,,success
Status,8,8687489937,/g3t1_1,,running
Status,9,8687770703,/g3t1_1,,success
Status,10,8737412832,/g3t1_1,,running
Status,11,8737439280,/g3t1_1,,success
Status,12,8787312501,/g3t1_1,,running
Status,13,8787514846,/g3t1_1,,success
Status,14,8837437095,/g3t1_1,,running
Status,15,8837498025,/g3t1_1,,success
Status,16,8887534004,/g3t1_1,,running
Status,17,8887555918,/g3t1_1,,success
Status,19,8921039577,/g3t1_2,,init
Status,20,8928752854,/g3t1_2,,init
Status,21,8928787062,/g3t1_2,,running
Status,22,8929383951,/g3t1_2,,success
Status,23,8937557324,/g3t1_1,,running
Status,24,8937576099,/g3t1_1,,success
Status,25,8979005204,/g3t1_2,,running
Status,26,8979086655,/g3t1_2,,success
Status,27,8987751002,/g3t1_1,,running
Status,28,8987769315,/g3t1_1,,success
Status,30,9021693658,/g3t1_3,,init
Status,31,9025596470,/g4t1,,success
Status,32,9028986631,/g3t1_2,,running
Status,33,9029083806,/g3t1_2,,success
Status,34,9031003370,/g3t1_3,,init
Status,35,9031025369,/g3t1_3,,running
Status,36,9031573955,/g3t1_3,,success
Status,37,9038058097,/g3t1_1,,running
Status,38,9038560560,/g3t1_1,,success
Status,39,9080042697,/g3t1_2,,running
Status,40,9080105759,/g3t1_2,,success
Status,41,9082481617,/g3t1_3,,running
Status,42,9083189326,/g3t1_3,,success
Status,43,9088553439,/g3t1_1,,running
Status,44,9088643701,/g3t1_1,,success
Status,45,9125777020,/g4t1,,success
Status,46,9129394048,/g3t1_2,,running
Status,47,9129439244,/g3t1_2,,success
Status,48,9131464775,/g3t1_3,,running
Status,49,9131490291,/g3t1_3,,success
Status,50,9138333863,/g3t1_1,,running
Status,51,9138439061,/g3t1_1,,success
Status,52,9179591930,/g3t1_2,,running
Status,53,9179805987,/g3t1_2,,success
Status,54,9181589823,/g3t1_3,,running
Status,55,9181827726,/g3t1_3,,success
Status,56,9188516702,/g3t1_1,,running
Status,57,9188928327,/g3t1_1,,success
Status,58,9226417208,/g4t1,,success
Status,59,9230371854,/g3t1_2,,running
Status,60,9230920991,/g3t1_2,,success
Status,61,9232498684,/g3t1_3,,running
Status,62,9232584976,/g3t1_3,,success
Status,63,9238955134,/g3t1_1,,running
Status,64,9239736968,/g3t1_1,,success
Status,65,9280320175,/g3t1_2,,running
Status,66,9280925357,/g3t1_2,,success
Status,67,9282153496,/g3t1_3,,running
Status,68,9282431313,/g3t1_3,,success
Status,69,9288843977,/g3t1_1,,running
Status,70,9289250285,/g3t1_1,,success
Status,71,9326802277,/g4t1,,fail
Status,72,9330797327,/g3t1_2,,running
Status,73,9331342019,/g3t1_2,,success
Status,74,9332364735,/g3t1_3,,running
Status,75,9332663329,/g3t1_3,,success
Status,76,9338906656,/g3t1_1,,running
Status,77,9339234218,/g3t1_1,,success
Status,78,9380663249,/g3t1_2,,running
Status,79,9381136234,/g3t1_2,,success
Status,80,9382510342,/g3t1_3,,running
Status,81,9383167742,/g3t1_3,,success
Status,82,9389176549,/g3t1_1,,running
Status,83,9389790252,/g3t1_1,,success
Status,84,9427087016,/g4t1,,fail
Status,85,9431226577,/g3t1_2,,running
Status,86,9431659814,/g3t1_2,,success
Status,87,9433048370,/g3t1_3,,running
Status,88,9433112715,/g3t1_3,,success
Status,89,9439590335,/g3t1_1,,running
Status,90,9440153438,/g3t1_1,,success
Status,91,9481191974,/g3t1_2,,running
Status,92,9481840228,/g3t1_2,,success
Status,93,9482700591,/g3t1_3,,running
Status,94,9483432678,/g3t1_3,,success
Status,95,9489389310,/g3t1_1,,running
Status,96,9489945832,/g3t1_1,,success
Status,97,9526750067,/g4t1,,fail
Status,98,9530797988,/g3t1_2,,running
Status,99,9531058095,/g3t1_2,,success
Status,100,9532445307,/g3t1_3,,running
Status,101,9532722034,/g3t1_3,,success
Status,102,9539325408,/g3t1_1,,running
Status,103,9539422046,/g3t1_1,,success
Status,104,9581414726,/g3t1_2,,running
Status,105,9581528029,/g3t1_2,,success
Status,106,9582876734,/g3t1_3,,running
Status,107,9583313017,/g3t1_3,,success
Status,108,9589635107,/g3t1_1,,running
Status,109,9589980843,/g3t1_1,,success
Status,110,9627206676,/g4t1,,fail
Status,111,9631569833,/g3t1_2,,running
Status,112,9632407758,/g3t1_2,,success
Status,113,9632904313,/g3t1_3,,running
Status,114,9633677282,/g3t1_3,,success
Status,115,9639848793,/g3t1_1,,running
Status,116,9640442048,/g3t1_1,,success
Status,117,9681065780,/g3t1_2,,running
Status,118,9681097830,/g3t1_2,,success
Status,119,9682533045,/g3t1_3,,running
Status,120,9682663164,/g3t1_3,,success
Status,121,9689300694,/g3t1_1,,running
Status,122,9689336641,/g3t1_1,,success
Status,123,9726520341,/g4t1,,fail
Status,124,9731472296,/g3t1_2,,running
Status,125,9732024085,/g3t1_2,,success
Status,126,9733057723,/g3t1_3,,running
Status,127,9733461844,/g3t1_3,,success
Status,128,9739960469,/g3t1_1,,running
Status,129,9740406976,/g3t1_1,,success
Status,130,9781945011,/g3t1_2,,running
Status,131,9782411459,/g3t1_2,,success
Status,132,9783274872,/g3t1_3,,running
Status,133,9783708781,/g3t1_3,,success
Status,134,9790242870,/g3t1_1,,running
Status,135,9790310317,/g3t1_1,,success
Status,136,9827490619,/g4t1,,fail
Status,137,9831909063,/g3t1_2,,running
Status,138,9832094415,/g3t1_2,,success
Status,139,9833189160,/g3t1_3,,running
Status,140,9833587532,/g3t1_3,,success
Status,141,9840005140,/g3t1_1,,running
Status,142,9840638053,/g3t1_1,,success
Status,143,9882213770,/g3t1_2,,running
Status,144,9882640894,/g3t1_2,,success
Status,145,9883799164,/g3t1_3,,running
Status,146,9884082550,/g3t1_3,,success
Status,147,9890297246,/g3t1_1,,running
Status,148,9890743584,/g3t1_1,,success
Status,149,9927888057,/g4t1,,fail
Status,150,9932105210,/g3t1_2,,running
Status,151,9932487070,/g3t1_2,,success
Status,152,9933583240,/g3t1_3,,running
Status,153,9934153001,/g3t1_3,,success
Status,154,9940585611,/g3t1_1,,running
Status,155,9941213372,/g3t1_1,,success
Status,156,9982779577,/g3t1_2,,running
Status,157,9983009759,/g3t1_2,,success
Status,158,9983495791,/g3t1_3,,running
Status,159,9983976317,/g3t1_3,,success
Status,160,9990464629,/g3t1_1,,running
Status,161,9990987421,/g3t1_1,,success
Status,162,10027437836,/g4t1,,fail
Status,163,10032421548,/g3t1_2,,running
Status,164,10032988159,/g3t1_2,,success
Status,165,10033570794,/g3t1_3,,running
Status,166,10034319011,/g3t1_3,,success
Status,167,10040614609,/g3t1_1,,running
Status,168,10040696692,/g3t1_1,,success
Status,169,10082819407,/g3t1_2,,running
Status,170,10083158590,/g3t1_2,,success
Status,171,10083626924,/g3t1_3,,running
Status,172,10084473801,/g3t1_3,,success
Status,173,10090736386,/g3t1_1,,running
Status,174,10091096197,/g3t1_1,,success
Status,175,10127750746,/g4t1,,fail
Status,176,10133009327,/g3t1_2,,running
Status,177,10133092428,/g3t1_2,,success
Status,178,10134397673,/g3t1_3,,running
Status,179,10135005205,/g3t1_3,,success
Status,180,10140780550,/g3t1_1,,running
Status,181,10141338568,/g3t1_1,,success
Status,182,10182975817,/g3t1_2,,running
Status,183,10183021278,/g3t1_2,,success
Status,184,10183688293,/g3t1_3,,running
Status,185,10183942712,/g3t1_3,,success
Status,186,10190730877,/g3t1_1,,running
Status,187,10191157014,/g3t1_1,,success
Status,188,10227403886,/g4t1,,fail
Status,189,10233295150,/g3t1_2,,running
Status,190,10233347992,/g3t1_2,,success
Status,191,10233938487,/g3t1_3,,running
Status,192,10234051264,/g3t1_3,,success
Status,193,10240778861,/g3t1_1,,running
Status,194,10241022648,/g3t1_1,,success
Status,195,10283334335,/g3t1_2,,running
Status,196,10283519122,/g3t1_2,,success
Status,197,10283749798,/g3t1_3,,running
Status,198,10283974022,/g3t1_3,,success
Status,199,10290788464,/g3t1_1,,running
Status,200,10291363835,/g3t1_1,,success
Status,201,10327553700,/g4t1,,fail
Status,202,10333325419,/g3t1_2,,running
Status,203,10333683097,/g3t1_2,,success
Status,204,10333735135,/g3t1_3,,running
Status,205,10334238025,/g3t1_3,,success
Status,206,10341032624,/g3t1_1,,running
Status,207,10341318085,/g3t1_1,,success
Status,208,10383911673,/g3t1_2,,running
Status,209,10384356122,/g3t1_3,,running
Status,210,10384554113,/g3t1_2,,success
Status,211,10385071153,/g3t1_3,,success
Status,212,10391384591,/g3t1_1,,running
Status,213,10391878940,/g3t1_1,,success
Status,214,10428083721,/g4t1,,fail
Status,215,10433904959,/g3t1_2,,running
Status,216,10434401705,/g3t1_2,,success
Status,217,10434479440,/g3t1_3,,running
Status,218,10435367238,/g3t1_3,,success
Status,219,10441420673,/g3t1_1,,running
Status,220,10441820508,/g3t1_1,,success
Status,221,10484253101,/g3t1_2,,running
Status,222,10484582098,/g3t1_2,,success
Status,223,10484648008,/g3t1_3,,running
Status,224,10485418362,/g3t1_3,,success
Status,225,10491740480,/g3t1_1,,running
Status,226,10492277953,/g3t1_1,,success
Status,227,10528265549,/g4t1,,fail
Status,228,10534269315,/g3t1_2,,running
Status,229,10534935348,/g3t1_2,,success
Status,230,10535007753,/g3t1_3,,running
Status,231,10535205911,/g3t1_3,,success
Status,232,10541764558,/g3t1_1,,running
Status,233,10542744484,/g3t1_1,,success
Status,234,10583912378,/g3t1_2,,running
Status,235,10583946985,/g3t1_2,,success
Status,236,10584418974,/g3t1_3,,running
Status,237,10584441135,/g3t1_3,,success
Status,238,10591423467,/g3t1_1,,running
Status,239,10591459399,/g3t1_1,,success
Status,240,10627769407,/g4t1,,fail
Status,241,10633764391,/g3t1_2,,running
Status,242,10633789127,/g3t1_2,,success
Status,243,10634453840,/g3t1_3,,running
Status,244,10634581468,/g3t1_3,,success
Status,245,10641463324,/g3t1_1,,running
Status,246,10641600239,/g3t1_1,,success
Status,247,10684561130,/g3t1_2,,running
Status,248,10684867804,/g3t1_2,,success
Status,249,10684931058,/g3t1_3,,running
Status,250,10685457295,/g3t1_3,,success
Status,251,10692083544,/g3t1_1,,running
Status,252,10692374133,/g3t1_1,,success
Status,253,10728433162,/g4t1,,fail
Status,254,10734994024,/g3t1_2,,running
Status,255,10735201129,/g3t1_3,,running
Status,256,10735906542,/g3t1_2,,success
Status,257,10735983449,/g3t1_3,,success
Status,258,10742610554,/g3t1_1,,running
Status,259,10742761898,/g3t1_1,,success
Status,260,10785059025,/g3t1_2,,running
Status,261,10785512197,/g3t1_3,,running
Status,262,10785623362,/g3t1_2,,success
Status,263,10786455014,/g3t1_3,,success
Status,264,10792282313,/g3t1_1,,running
Status,265,10792817181,/g3t1_1,,success
Status,266,10828228710,/g4t1,,fail
Status,267,10835077431,/g3t1_2,,running
Status,268,10835246185,/g3t1_2,,success
Status,269,10835281882,/g3t1_3,,running
Status,270,10835529448,/g3t1_3,,success
Status,271,10842207844,/g3t1_1,,running
Status,272,10842495225,/g3t1_1,,success
Status,273,10885298948,/g3t1_2,,running
Status,274,10885455443,/g3t1_2,,success
Status,275,10885541694,/g3t1_3,,running
Status,276,10885888266,/g3t1_3,,success
Status,277,10892445335,/g3t1_1,,running
Status,278,10892746531,/g3t1_1,,success
Status,279,10928329798,/g4t1,,fail
Status,280,10935256671,/g3t1_2,,running
Status,281,10935485709,/g3t1_2,,success
Status,282,10935556307,/g3t1_3,,running
Status,283,10935769482,/g3t1_3,,success
Status,284,10942383833,/g3t1_1,,running
Status,285,10942589645,/g3t1_1,,success
Status,286,10985142049,/g3t1_2,,running
Status,287,10985202260,/g3t1_2,,success
Status,288,10985456902,/g3t1_3,,running
Status,289,10985492174,/g3t1_3,,success
Status,290,10992502760,/g3t1_1,,running
Status,291,10992556342,/g3t1_1,,success
Status,292,11028926788,/g4t1,,fail
Status,293,11035793135,/g3t1_2,,running
Status,294,11035862222,/g3t1_3,,running
Status,295,11036186111,/g3t1_2,,success
Status,296,11036244137,/g3t1_3,,success
Status,297,11043074844,/g3t1_1,,running
Status,298,11043183196,/g3t1_1,,success
Status,299,11085690117,/g3t1_2,,running
Status,300,11086057046,/g3t1_3,,running
Status,301,11086577506,/g3t1_2,,success
Status,302,11086910811,/g3t1_3,,success
Status,303,11092950994,/g3t1_1,,running
Status,304,11093350130,/g3t1_1,,success
Status,305,11129083049,/g4t1,,fail
Status,306,11136176194,/g3t1_2,,running
Status,307,11136241069,/g3t1_2,,success
Status,308,11136285509,/g3t1_3,,running
Status,309,11136762005,/g3t1_3,,success
Status,310,11142891355,/g3t1_1,,running
Status,311,11143668696,/g3t1_1,,success
Status,312,11186067569,/g3t1_2,,running
Status,313,11186131657,/g3t1_3,,running
Status,314,11186156660,/g3t1_2,,success
Status,315,11186800622,/g3t1_3,,success
Status,316,11192782956,/g3t1_1,,running
Status,317,11193131090,/g3t1_1,,success
Status,318,11229350444,/g4t1,,fail
Status,319,11236189858,/g3t1_2,,running
Status,320,11236518411,/g3t1_3,,running
Status,321,11236584887,/g3t1_2,,success
Status,322,11237053073,/g3t1_3,,success
Status,323,11243258195,/g3t1_1,,running
Status,324,11243474094,/g3t1_1,,success
Status,325,11286787702,/g3t1_2,,running
Status,326,11286875210,/g3t1_3,,running
Status,327,11287652098,/g3t1_2,,success
Status,328,11287736101,/g3t1_3,,success
Status,329,11293209802,/g3t1_1,,running
Status,330,11293604575,/g3t1_1,,success
Status,331,11329200245,/g4t1,,fail
Status,332,11336577425,/g3t1_2,,running
Status,333,11336667039,/g3t1_3,,running
Status,334,11337421660,/g3t1_2,,success
Status,335,11337503799,/g3t1_3,,success
Status,336,11343418632,/g3t1_1,,running
Status,337,11343709574,/g3t1_1,,success
Status,338,11386528558,/g3t1_2,,running
Status,339,11386576681,/g3t1_3,,running
Status,340,11386710381,/g3t1_2,,success
Status,341,11386869390,/g3t1_3,,success
Status,342,11393582002,/g3t1_1,,running
Status,343,11394270804,/g3t1_1,,success
Status,344,11429811478,/g4t1,,fail
Status,345,11436963396,/g3t1_2,,running
Status,346,11437066768,/g3t1_3,,running
Status,347,11437112801,/g3t1_2,,success
Status,348,11437942000,/g3t1_3,,success
Status,349,11443757736,/g3t1_1,,running
Status,350,11444158162,/g3t1_1,,success
Status,351,11486969545,/g3t1_2,,running
Status,352,11487068412,/g3t1_3,,running
Status,353,11487517091,/g3t1_2,,success
Status,354,11487582592,/g3t1_3,,success
Status,355,11493776780,/g3t1_1,,running
Status,356,11494122218,/g3t1_1,,success
Status,357,11529624873,/g4t1,,fail
Status,358,11537219600,/g3t1_2,,running
Status,359,11537326438,/g3t1_3,,running
Status,360,11537405888,/g3t1_2,,success
Status,361,11537714418,/g3t1_3,,success
Status,362,11543966703,/g3t1_1,,running
Status,363,11544432660,/g3t1_1,,success
Status,364,11587270365,/g3t1_2,,running
Status,365,11587419223,/g3t1_3,,running
Status,366,11587866135,/g3t1_2,,success
Status,367,11588587657,/g3t1_3,,success
Status,368,11593800354,/g3t1_1,,running
Status,369,11594286490,/g3t1_1,,success
Status,370,11629757792,/g4t1,,fail
Status,371,11637376812,/g3t1_2,,running
Status,372,11637505870,/g3t1_3,,running
Status,373,11637835900,/g3t1_2,,success
Status,374,11638530898,/g3t1_3,,success
Status,375,11644101452,/g3t1_1,,running
Status,376,11644177015,/g3t1_1,,success
Status,377,11688219124,/g3t1_2,,running
Status,378,11688311524,/g3t1_3,,running
Status,379,11688422036,/g3t1_2,,success
Status,380,11688455385,/g3t1_3,,success
Status,381,11694173194,/g3t1_1,,running
Status,382,11694870608,/g3t1_1,,success
Status,383,11729652458,/g4t1,,fail
Status,384,11737976388,/g3t1_2,,running
Status,385,11738109449,/g3t1_3,,running
Status,386,11738235942,/g3t1_2,,success
Status,387,11738278940,/g3t1_3,,success
Status,388,11744333251,/g3t1_1,,running
Status,389,11744807417,/g3t1_1,,success
Status,390,11788020665,/g3t1_2,,running
Status,391,11788154102,/g3t1_3,,running
Status,392,11788652379,/g3t1_3,,success
Status,393,11788753285,/g3t1_2,,success
Status,394,11794615041,/g3t1_1,,running
Status,395,11795510926,/g3t1_1,,success
Status,396,11829902648,/g4t1,,fail
Status,397,11838153392,/g3t1_2,,running
Status,398,11838385654,/g3t1_3,,running
Status,399,11838495904,/g3t1_2,,success
Status,400,11838818045,/g3t1_3,,success
Status,401,11844697284,/g3t1_1,,running
Status,402,11845050266,/g3t1_1,,success
Status,403,11888220532,/g3t1_2,,running
Status,404,11888430059,/g3t1_3,,running
Status,405,11888789355,/g3t1_2,,success
Status,406,11888850170,/g3t1_3,,success
Status,407,11894642110,/g3t1_1,,running
Status,408,11895118214,/g3t1_1,,success
Status,409,11929906985,/g4t1,,fail
Status,410,11938553500,/g3t1_2,,running
Status,411,11938664730,/g3t1_3,,running
Status,412,11939300316,/g3t1_3,,success
Status,413,11939346001,/g3t1_2,,success
Status,414,11944474306,/g3t1_1,,running
Status,415,11944664370,/g3t1_1,,success
Status,416,11987733557,/g3t1_2,,running
Status,417,11987872827,/g3t1_2,,success
Status,418,11987891840,/g3t1_3,,running
Status,419,11987920430,/g3t1_3,,success
Status,420,11994494942,/g3t1_1,,running
Status,421,11994521978,/g3t1_1,,success
Status,422,12029140376,/g4t1,,fail
Status,423,12037812754,/g3t1_2,,running
Status,424,12037849516,/g3t1_2,,success
Status,425,12037965375,/g3t1_3,,running
Status,426,12038089085,/g3t1_3,,success
Status,427,12044388063,/g3t1_1,,running
Status,428,12044421477,/g3t1_1,,success
Status,429,12087936290,/g3t1_2,,running
Status,430,12088218785,/g3t1_3,,running
Status,431,12088604497,/g3t1_2,,success
Status,432,12088934201,/g3t1_3,,success
Status,433,12094571703,/g3t1_1,,running
Status,434,12094602552,/g3t1_1,,success
Status,435,12129473256,/g4t1,,fail
Status,436,12138264004,/g3t1_2,,running
Status,437,12138332395,/g3t1_2,,success
Status,438,12138429840,/g3t1_3,,running
Status,439,12138561388,/g3t1_3,,success
Status,440,12147321826,/g3t1_1,,running
Status,441,12149814609,/g3t1_1,,success
Status,442,12187995639,/g3t1_2,,running
Status,443,12188544303,/g3t1_3,,running
Status,444,12188607096,/g3t1_3,,success
Status,445,12188674267,/g3t1_2,,success
Status,446,12194831924,/g3t1_1,,running
Status,447,12194880305,/g3t1_1,,success
Status,448,12229312191,/g4t1,,fail
Status,449,12238256522,/g3t1_2,,running
Status,450,12238287226,/g3t1_2,,success
Status,451,12238430864,/g3t1_3,,running
Status,452,12238453817,/g3t1_3,,success
Status,453,12244985264,/g3t1_1,,running
Status,454,12245180804,/g3t1_1,,success
Status,455,12287949477,/g3t1_2,,running
Status,456,12288100784,/g3t1_2,,success
Status,457,12288223777,/g3t1_3,,running
Status,458,12288350299,/g3t1_3,,success
Status,459,12295426739,/g3t1_1,,running
Status,460,12295488116,/g3t1_1,,success
Status,461,12329477169,/g4t1,,fail
Status,462,12338711154,/g3t1_2,,running
Status,463,12338743842,/g3t1_3,,running
Status,464,12338771009,/g3t1_2,,success
Status,465,12338779508,/g3t1_3,,success
Status,466,12345867221,/g3t1_1,,running
Status,467,12345899309,/g3t1_1,,success
Status,468,12388666000,/g3t1_2,,running
Status,469,12388874405,/g3t1_3,,running
Status,470,12388910874,/g3t1_3,,success
Status,471,12389017541,/g3t1_2,,success
Status,472,12395613665,/g3t1_1,,running
Status,473,12395639526,/g3t1_1,,success
Status,474,12430056157,/g4t1,,fail
Status,475,12439124087,/g3t1_2,,running
Status,476,12439175245,/g3t1_3,,running
Status,477,12439231288,/g3t1_2,,success
Status,478,12439780646,/g3t1_3,,success
Status,479,12445430608,/g3t1_1,,running
Status,480,12445494562,/g3t1_1,,success
Status,481,12488687922,/g3t1_2,,running
Status,482,12488742125,/g3t1_2,,success
Status,483,12488916926,/g3t1_3,,running
Status,484,12489157219,/g3t1_3,,success
Status,485,12495464034,/g3t1_1,,running
Status,486,12495494283,/g3t1_1,,success
Status,487,12529846615,/g4t1,,fail
Status,488,12538986861,/g3t1_2,,running
Status,489,12539023166,/g3t1_2,,success
Status,490,12539043359,/g3t1_3,,running
Status,491,12539615336,/g3t1_3,,success
Status,492,12545588930,/g3t1_1,,running
Status,493,12545618781,/g3t1_1,,success
Status,494,12588969475,/g3t1_2,,running
Status,495,12589390270,/g3t1_2,,success
Status,496,12589421264,/g3t1_3,,running
Status,497,12589563024,/g3t1_3,,success
Status,498,12595767109,/g3t1_1,,running
Status,499,12595940833,/g3t1_1,,success
Status,500,12630206889,/g4t1,,fail
Status,501,12639206643,/g3t1_2,,running
Status,502,12639351910,/g3t1_3,,running
Status,503,12639380577,/g3t1_2,,success
Status,504,12639466262,/g3t1_3,,success
Status,505,12645836977,/g3t1_1,,running
Status,506,12645900245,/g3t1_1,,success
Status,507,12689148871,/g3t1_2,,running
Status,508,12689186390,/g3t1_3,,running
Status,509,12689302440,/g3t1_2,,success
Status,510,12689351794,/g3t1_3,,success
Status,511,12696190883,/g3t1_1,,running
Status,512,12696235894,/g3t1_1,,success
Status,513,12730064433,/g4t1,,fail
Status,514,12739091595,/g3t1_2,,running
Status,515,12739224619,/g3t1_2,,success
Status,516,12739243140,/g3t1_3,,running
Status,517,12739472347,/g3t1_3,,success
Status,518,12746121860,/g3t1_1,,running
Status,519,12746322670,/g3t1_1,,success
Status,520,12789251289,/g3t1_2,,running
Status,521,12789421373,/g3t1_3,,running
Status,522,12789744546,/g3t1_3,,success
Status,523,12789767354,/g3t1_2,,success
Status,524,12796012733,/g3t1_1,,running
Status,525,12796175107,/g3t1_1,,success
Status,526,12830263542,/g4t1,,fail
Status,527,12841370851,/g3t1_2,,running
Status,528,12841414932,/g3t1_3,,running
Status,529,12841455074,/g3t1_3,,success
Status,530,12841465527,/g3t1_2,,success
Status,531,12846468833,/g3t1_1,,running
Status,532,12846511126,/g3t1_1,,success
Status,533,12889535220,/g3t1_2,,running
Status,534,12889812144,/g3t1_2,,success
Status,535,12890020807,/g3t1_3,,running
Status,536,12890043395,/g3t1_3,,success
Status,537,12896951940,/g3t1_1,,running
Status,538,12896983323,/g3t1_1,,success
Status,539,12930505704,/g4t1,,fail
Status,540,12939623953,/g3t1_2,,running
Status,541,12940016304,/g3t1_3,,running
Status,542,12940039821,/g3t1_3,,success
Status,543,12940617429,/g3t1_2,,success
Status,544,12946551543,/g3t1_1,,running
Status,545,12946588274,/g3t1_1,,success
Status,546,12989674101,/g3t1_2,,running
Status,547,12989754514,/g3t1_3,,running
Status,548,12989792955,/g3t1_2,,success
Status,549,12990206680,/g3t1_3,,success
Status,550,12996408624,/g3t1_1,,running
Status,551,12996562267,/g3t1_1,,success
Status,552,13030127412,/g4t1,,fail
Status,553,13039739538,/g3t1_2,,running
Status,554,13039772270,/g3t1_2,,success
Status,555,13039915819,/g3t1_3,,running
Status,556,13040078128,/g3t1_3,,success
Status,557,13046618259,/g3t1_1,,running
Status,558,13046648491,/g3t1_1,,success
Status,559,13089629288,/g3t1_2,,running
Status,560,13089810722,/g3t1_2,,success
Status,561,13089849169,/g3t1_3,,running
Status,562,13090154706,/g3t1_3,,success
Status,563,13096737569,/g3t1_1,,running
Status,564,13096764012,/g3t1_1,,success
Status,565,13130379509,/g4t1,,fail
Status,566,13139729541,/g3t1_2,,running
Status,567,13140020513,/g3t1_2,,success
Status,568,13140066381,/g3t1_3,,running
Status,569,13140090633,/g3t1_3,,success
Status,570,13146832443,/g3t1_1,,running
Status,571,13146865579,/g3t1_1,,success
Status,572,13189766623,/g3t1_2,,running
Status,573,13190067536,/g3t1_2,,success
Status,574,13190093590,/g3t1_3,,running
Status,575,13190209685,/g3t1_3,,success
Status,576,13196956399,/g3t1_1,,running
Status,577,13196978081,/g3t1_1,,success
Status,578,13230389181,/g4t1,,fail
Status,579,13239955062,/g3t1_2,,running
Status,580,13240286545,/g3t1_2,,success
Status,581,13240312951,/g3t1_3,,running
Status,582,13240632709,/g3t1_3,,success
Status,583,13246857379,/g3t1_1,,running
Status,584,13247042816,/g3t1_1,,success
Status,585,13290258288,/g3t1_2,,running
Status,586,13290290055,/g3t1_2,,success
Status,587,13290326539,/g3t1_3,,running
Status,588,13290562879,/g3t1_3,,success
Status,589,13297094461,/g3t1_1,,running
Status,590,13297210210,/g3t1_1,,success
Status,591,13330579534,/g4t1,,fail
Status,592,13340016377,/g3t1_2,,running
Status,593,13340128032,/g3t1_2,,success
Status,594,13340296583,/g3t1_3,,running
Status,595,13340429122,/g3t1_3,,success
Status,596,13347205140,/g3t1_1,,running
Status,597,13347228099,/g3t1_1,,success
Status,598,13390093356,/g3t1_2,,running
Status,599,13390141942,/g3t1_2,,success
Status,600,13390313972,/g3t1_3,,running
Status,601,13390536768,/g3t1_3,,success
Status,602,13397213088,/g3t1_1,,running
Status,603,13397303319,/g3t1_1,,success
Status,604,13430622451,/g4t1,,fail
Status,605,13440251343,/g3t1_2,,running
Status,606,13440285953,/g3t1_2,,success
Status,607,13440524951,/g3t1_3,,running
Status,608,13440548138,/g3t1_3,,success
Status,609,13447316183,/g3t1_1,,running
Status,610,13447340013,/g3t1_1,,success
Status,611,13490230163,/g3t1_2,,running
Status,612,13490358385,/g3t1_2,,success
Status,613,13490555765,/g3t1_3,,running
Status,614,13490824327,/g3t1_3,,success
Status,615,13497530705,/g3t1_1,,running
Status,616,13497555906,/g3t1_1,,success
Status,617,13530635886,/g4t1,,fail
Status,618,13540328976,/g3t1_2,,running
Status,619,13540522568,/g3t1_2,,success
Status,620,13540736856,/g3t1_3,,running
Status,621,13540858743,/g3t1_3,,success
Status,622,13547584787,/g3t1_1,,running
Status,623,13547692609,/g3t1_1,,success
Status,624,13590330072,/g3t1_2,,running
Status,625,13590445141,/g3t1_2,,success
Status,626,13590640384,/g3t1_3,,running
Status,627,13590838970,/g3t1_3,,success
Status,628,13597503944,/g3t1_1,,running
Status,629,13597701645,/g3t1_1,,success
Status,630,13630687842,/g4t1,,fail
Status,631,13640516707,/g3t1_2,,running
Status,632,13640549395,/g3t1_2,,success
Status,633,13640644380,/g3t1_3,,running
Status,634,13640869541,/g3t1_3,,success
Status,635,13647465143,/g3t1_1,,running
Status,636,13647624341,/g3t1_1,,success
Status,637,13690524171,/g3t1_2,,running
Status,638,13690546451,/g3t1_2,,success
Status,639,13690680290,/g3t1_3,,running
Status,640,13690891386,/g3t1_3,,success
Status,641,13697663220,/g3t1_1,,running
Status,642,13697686286,/g3t1_1,,success
Status,643,13730737365,/g4t1,,fail
Status,644,13740639921,/g3t1_2,,running
Status,645,13740668251,/g3t1_2,,success
Status,646,13740783898,/g3t1_3,,running
Status,647,13741036648,/g3t1_3,,success
Status,648,13747870146,/g3t1_1,,running
Status,649,13747968334,/g3t1_1,,success
Status,650,13790706892,/g3t1_2,,running
Status,651,13790746831,/g3t1_2,,success
Status,652,13791073261,/g3t1_3,,running
Status,653,13791105104,/g3t1_3,,success
Status,654,13797955935,/g3t1_1,,running
Status,655,13798029522,/g3t1_1,,success
Status,656,13830950129,/g4t1,,fail
Status,657,13841544867,/g3t1_2,,running
Status,658,13841580326,/g3t1_2,,success
Status,659,13841606624,/g3t1_3,,running
Status,660,13841614685,/g3t1_3,,success
Status,661,13847983941,/g3t1_1,,running
Status,662,13848131567,/g3t1_1,,success
Status,663,13890896477,/g3t1_2,,running
Status,664,13891357139,/g3t1_2,,success
Status,665,13891374464,/g3t1_3,,running
Status,666,13891392275,/g3t1_3,,success
Status,667,13898087352,/g3t1_1,,running
Status,668,13898120014,/g3t1_1,,success
Status,669,13930820726,/g4t1,,fail
Status,670,13941020790,/g3t1_2,,running
Status,671,13941059765,/g3t1_2,,success
Status,672,13941452047,/g3t1_3,,running
Status,673,13941477638,/g3t1_3,,success
Status,674,13948216237,/g3t1_1,,running
Status,675,13948245668,/g3t1_1,,success
Status,676,13991039397,/g3t1_2,,running
Status,677,13991087693,/g3t1_2,,success
Status,678,13991382111,/g3t1_3,,running
Status,679,13991517044,/g3t1_3,,success
Status,680,13998335288,/g3t1_1,,running
Status,681,13998491347,/g3t1_1,,success
Status,682,14031064792,/g4t1,,fail
Status,683,14041207378,/g3t1_2,,running
Status,684,14041240833,/g3t1_2,,success
Status,685,14041503511,/g3t1_3,,running
Status,686,14041529973,/g3t1_3,,success
Status,687,14048469629,/g3t1_1,,running
Status,688,14048610518,/g3t1_1,,success
Status,689,14091119615,/g3t1_2,,running
Status,690,14091381141,/g3t1_2,,success
Status,691,14091409433,/g3t1_3,,running
Status,692,14091545873,/g3t1_3,,success
Status,693,14098436738,/g3t1_1,,running
Status,694,14098553904,/g3t1_1,,success
Status,695,14131157628,/g4t1,,fail
Status,696,14141312130,/g3t1_2,,running
Status,697,14141349358,/g3t1_2,,success
Status,698,14141472222,/g3t1_3,,running
Status,699,14141770357,/g3t1_3,,success
Status,700,14148572547,/g3t1_1,,running
Status,701,14148595961,/g3t1_1,,success
Status,702,14191291018,/g3t1_2,,running
Status,703,14191319110,/g3t1_2,,success
Status,704,14191619743,/g3t1_3,,running
Status,705,14191840526,/g3t1_3,,success
Status,706,14198653943,/g3t1_1,,running
Status,707,14198676296,/g3t1_1,,success
Status,708,14231390834,/g4t1,,fail
Status,709,14241332206,/g3t1_2,,running
Status,710,14241504814,/g3t1_2,,success
Status,711,14241722449,/g3t1_3,,running
Status,712,14241743380,/g3t1_3,,success
Status,713,14248750855,/g3t1_1,,running
Status,714,14248777148,/g3t1_1,,success
Status,715,14291583702,/g3t1_2,,running
Status,716,14291615780,/g3t1_2,,success
Status,717,14291793589,/g3t1_3,,running
Status,718,14291863239,/g3t1_3,,success
Status,719,14298733106,/g3t1_1,,running
Status,720,14298770873,/g3t1_1,,success
Status,721,14331339138,/g4t1,,fail
Status,722,14341516727,/g3t1_2,,running
Status,723,14341546198,/g3t1_2,,success
Status,724,14341982428,/g3t1_3,,running
Status,725,14342034273,/g3t1_3,,success
Status,726,14348826308,/g3t1_1,,running
Status,727,14348848074,/g3t1_1,,success
Status,728,14391699645,/g3t1_2,,running
Status,729,14391730964,/g3t1_2,,success
Status,730,14391795404,/g3t1_3,,running
Status,731,14392005902,/g3t1_3,,success
Status,732,14398974144,/g3t1_1,,running
Status,733,14398997441,/g3t1_1,,success
Status,734,14431427865,/g4t1,,fail
Status,735,14441737203,/g3t1_2,,running
Status,736,14441868832,/g3t1_2,,success
Status,737,14441885652,/g3t1_3,,running
Status,738,14442102983,/g3t1_3,,success
Status,739,14449055165,/g3t1_1,,running
Status,740,14449188634,/g3t1_1,,success
Status,741,14491985917,/g3t1_2,,running
Status,742,14492013110,/g3t1_2,,success
Status,743,14492108678,/g3t1_3,,running
Status,744,14492275152,/g3t1_3,,success
Status,745,14499170216,/g3t1_1,,running
Status,746,14499376138,/g3t1_1,,success
Status,747,14531742426,/g4t1,,fail
Status,748,14541909031,/g3t1_2,,running
Status,749,14542160937,/g3t1_2,,success
Status,750,14542196943,/g3t1_3,,running
Status,751,14542317490,/g3t1_3,,success
Status,752,14549191346,/g3t1_1,,running
Status,753,14549311324,/g3t1_1,,success
Status,754,14592135793,/g3t1_2,,running
Status,755,14592170108,/g3t1_2,,success
Status,756,14592253174,/g3t1_3,,running
Status,757,14592438396,/g3t1_3,,success
Status,758,14599320696,/g3t1_1,,running
Status,759,14599436363,/g3t1_1,,success
Status,760,14631712011,/g4t1,,fail
Status,761,14642291717,/g3t1_2,,running
Status,762,14642330799,/g3t1_2,,success
Status,763,14642499350,/g3t1_3,,running
Status,764,14642695269,/g3t1_3,,success
Status,765,14649467346,/g3t1_1,,running
Status,766,14649498910,/g3t1_1,,success
Status,767,14692850464,/g3t1_2,,running
Status,768,14692947691,/g3t1_3,,running
Status,769,14693703560,/g3t1_3,,success
Status,770,14693805214,/g3t1_2,,success
Status,771,14700037394,/g3t1_1,,running
Status,772,14700458482,/g3t1_1,,success
Status,773,14732662850,/g4t1,,fail
Status,774,14743134365,/g3t1_2,,running
Status,775,14743227532,/g3t1_3,,running
Status,776,14743369796,/g3t1_2,,success
Status,777,14743728222,/g3t1_3,,success
Status,778,14750493284,/g3t1_1,,running
Status,779,14750948407,/g3t1_1,,success
Status,780,14793387909,/g3t1_2,,running
Status,781,14793465651,/g3t1_3,,running
Status,782,14793591148,/g3t1_2,,success
Status,783,14794509807,/g3t1_3,,success
Status,784,14800597326,/g3t1_1,,running
Status,785,14800796151,/g3t1_1,,success
Status,786,14832674002,/g4t1,,fail
Status,787,14843554621,/g3t1_2,,running
Status,788,14843658916,/g3t1_3,,running
Status,789,14843745415,/g3t1_2,,success
Status,790,14843882394,/g3t1_3,,success
Status,791,14850579774,/g3t1_1,,running
Status,792,14850869117,/g3t1_1,,success
Status,793,14893407994,/g3t1_2,,running
Status,794,14893975151,/g3t1_3,,running
Status,795,14894098802,/g3t1_2,,success
Status,796,14894127092,/g3t1_3,,success
Status,797,14900614671,/g3t1_1,,running
Status,798,14901069327,/g3t1_1,,success
Status,799,14932816712,/g4t1,,fail
Status,800,14943463618,/g3t1_2,,running
Status,801,14944015062,/g3t1_2,,success
Status,802,14944518485,/g3t1_3,,running
Status,803,14944635797,/g3t1_3,,success
Status,804,14950824517,/g3t1_1,,running
Status,805,14951203334,/g3t1_1,,success
Status,806,14992969576,/g3t1_2,,running
Status,807,14993210266,/g3t1_2,,success
Status,808,14993772467,/g3t1_3,,running
Status,809,14993797225,/g3t1_3,,success
Status,810,15000213111,/g3t1_1,,running
Status,811,15000351701,/g3t1_1,,success
Status,812,15032242217,/g4t1,,fail
Status,813,15043115468,/g3t1_2,,running
Status,814,15043147032,/g3t1_2,,success
Status,815,15043372889,/g3t1_3,,running
Status,816,15043393570,/g3t1_3,,success
Status,817,15050545912,/g3t1_1,,running
Status,818,15050570644,/g3t1_1,,success
Status,819,15093060519,/g3t1_2,,running
Status,820,15093085616,/g3t1_2,,success
Status,821,15093308040,/g3t1_3,,running
Status,822,15093479218,/g3t1_3,,success
Status,823,15100332609,/g3t1_1,,running
Status,824,15100355255,/g3t1_1,,success
Status,825,15132330511,/g4t1,,fail
Status,826,15143252873,/g3t1_2,,running
Status,827,15143309449,/g3t1_2,,success
Status,828,15143368016,/g3t1_3,,running
Status,829,15143547042,/g3t1_3,,success
Status,830,15150477623,/g3t1_1,,running
Status,831,15150502432,/g3t1_1,,success
Status,832,15194039406,/g3t1_2,,running
Status,833,15194728697,/g3t1_3,,running
Status,834,15195098772,/g3t1_3,,success
Status,835,15195174499,/g3t1_2,,success
Status,836,15201017634,/g3t1_1,,running
Status,837,15201621063,/g3t1_1,,success
Status,838,15233281024,/g4t1,,fail
Status,839,15243996352,/g3t1_2,,running
Status,840,15244765829,/g3t1_2,,success
Status,841,15244900381,/g3t1_3,,running
Status,842,15245006523,/g3t1_3,,success
Status,843,15251808847,/g3t1_1,,running
Status,844,15251878420,/g3t1_1,,success
Status,845,15294587347,/g3t1_2,,running
Status,846,15294657005,/g3t1_3,,running
Status,847,15294685737,/g3t1_2,,success
Status,848,15295121743,/g3t1_3,,success
Status,849,15301230328,/g3t1_1,,running
Status,850,15301485983,/g3t1_1,,success
Status,851,15333485984,/g4t1,,fail
Status,852,15344469349,/g3t1_2,,running
Status,853,15344557913,/g3t1_2,,success
Status,854,15344607967,/g3t1_3,,running
Status,855,15345004472,/g3t1_3,,success
Status,856,15351543854,/g3t1_1,,running
Status,857,15351996723,/g3t1_1,,success
Status,858,15394846226,/g3t1_2,,running
Status,859,15394914000,/g3t1_3,,running
Status,860,15395114894,/g3t1_2,,success
Status,861,15395447203,/g3t1_3,,success
Status,862,15401502477,/g3t1_1,,running
Status,863,15401777554,/g3t1_1,,success
Status,864,15433385877,/g4t1,,fail
Status,865,15444642751,/g3t1_2,,running
Status,866,15444802655,/g3t1_3,,running
Status,867,15444838098,/g3t1_2,,success
Status,868,15445269335,/g3t1_3,,success
Status,869,15451858874,/g3t1_1,,running
Status,870,15452308301,/g3t1_1,,success
Status,871,15494870937,/g3t1_2,,running
Status,872,15494966583,/g3t1_3,,running
Status,873,15495152985,/g3t1_2,,success
Status,874,15495503848,/g3t1_3,,success
Status,875,15501870322,/g3t1_1,,running
Status,876,15502207391,/g3t1_1,,success
Status,877,15533715217,/g4t1,,fail
Status,878,15544656093,/g3t1_2,,running
Status,879,15544745983,/g3t1_3,,running
Status,880,15545531643,/g3t1_3,,success
Status,881,15545599042,/g3t1_2,,success
Status,882,15551994910,/g3t1_1,,running
Status,883,15552496324,/g3t1_1,,success
Status,884,15594865888,/g3t1_2,,running
Status,885,15595079804,/g3t1_3,,running
Status,886,15595568072,/g3t1_2,,success
Status,887,15595668889,/g3t1_3,,success
Status,888,15601937140,/g3t1_1,,running
Status,889,15602320976,/g3t1_1,,success
Status,890,15632851215,/g4t1,,fail
Status,891,15644252063,/g3t1_2,,running
Status,892,15644351974,/g3t1_2,,success
Status,893,15644509441,/g3t1_3,,running
Status,894,15644756960,/g3t1_3,,success
Status,895,15651626043,/g3t1_1,,running
Status,896,15651676688,/g3t1_1,,success
Status,897,15694376309,/g3t1_2,,running
Status,898,15694661439,/g3t1_2,,success
Status,899,15694885776,/g3t1_3,,running
Status,900,15694920746,/g3t1_3,,success
Status,901,15701838743,/g3t1_1,,running
Status,902,15701865274,/g3t1_1,,success
Status,903,15733688640,/g4t1,,fail
Status,904,15745170504,/g3t1_2,,running
Status,905,15745498137,/g3t1_3,,running
Status,906,15745923982,/g3t1_2,,success
Status,907,15746141086,/g3t1_3,,success
Status,908,15752580023,/g3t1_1,,running
Status,909,15752641193,/g3t1_1,,success
Status,910,15795143314,/g3t1_2,,running
Status,911,15795931012,/g3t1_3,,running
Status,912,15796003536,/g3t1_2,,success
Status,913,15796038410,/g3t1_3,,success
Status,914,15802704449,/g3t1_1,,running
Status,915,15802996366,/g3t1_1,,success
Status,916,15833291802,/g4t1,,fail
Status,917,15844633718,/g3t1_2,,running
Status,918,15844775814,/g3t1_2,,success
Status,919,15844797039,/g3t1_3,,running
Status,920,15845155329,/g3t1_3,,success
Status,921,15851973475,/g3t1_1,,running
Status,922,15852200896,/g3t1_1,,success
Status,923,15895504579,/g3t1_2,,running
Status,924,15895584619,/g3t1_3,,running
Status,925,15896324247,/g3t1_2,,success
Status,926,15896429375,/g3t1_3,,success
Status,927,15902922320,/g3t1_1,,running
Status,928,15903363561,/g3t1_1,,success
Status,929,15934135106,/g4t1,,fail
Status,930,15945537955,/g3t1_2,,running
Status,931,15945754217,/g3t1_3,,running
Status,932,15945870585,/g3t1_2,,success
Status,933,15946342913,/g3t1_3,,success
Status,934,15953015456,/g3t1_1,,running
Status,935,15953903380,/g3t1_1,,success
Status,936,15995784127,/g3t1_2,,running
Status,937,15995856330,/g3t1_3,,running
Status,938,15995943902,/g3t1_2,,success
Status,939,15996512352,/g3t1_3,,success
Status,940,16003329405,/g3t1_1,,running
Status,941,16003565297,/g3t1_1,,success
Status,942,16034639059,/g4t1,,fail
Status,943,16045947965,/g3t1_2,,running
Status,944,16046234445,/g3t1_3,,running
Status,945,16046510408,/g3t1_2,,success
Status,946,16046631171,/g3t1_3,,success
Status,947,16053353944,/g3t1_1,,running
Status,948,16053443165,/g3t1_1,,success
Status,949,16095476408,/g3t1_2,,running
Status,950,16096166620,/g3t1_3,,running
Status,951,16096238629,/g3t1_2,,success
Status,952,16096441680,/g3t1_3,,success
Status,953,16102988982,/g3t1_1,,running
Status,954,16103033487,/g3t1_1,,success
Status,955,16133860143,/g4t1,,fail
Status,956,16145604753,/g3t1_2,,running
Status,957,16146502806,/g3t1_3,,running
Status,958,16146633079,/g3t1_2,,success
Status,959,16146979884,/g3t1_3,,success
Status,960,16153085475,/g3t1_1,,running
Status,961,16153329991,/g3t1_1,,success
Status,962,16196019680,/g3t1_2,,running
Status,963,16196458198,/g3t1_2,,success
Status,964,16196537942,/g3t1_3,,running
Status,965,16196939448,/g3t1_3,,success
Status,966,16203173192,/g3t1_1,,running
Status,967,16203687032,/g3t1_1,,success
Status,968,16234478767,/g4t1,,fail
Status,969,16246416876,/g3t1_2,,running
Status,970,16246506826,/g3t1_2,,success
Status,971,16246587233,/g3t1_3,,running
Status,972,16247347113,/g3t1_3,,success
Status,973,16253515445,/g3t1_1,,running
Status,974,16253768543,/g3t1_1,,success
Status,975,16296479061,/g3t1_2,,running
Status,976,16297078228,/g3t1_3,,running
Status,977,16297209402,/g3t1_2,,success
Status,978,16297761827,/g3t1_3,,success
Status,979,16303592060,/g3t1_1,,running
Status,980,16304233113,/g3t1_1,,success
Status,981,16334563877,/g4t1,,fail
Status,982,16346875751,/g3t1_2,,running
Status,983,16347377164,/g3t1_3,,running
Status,984,16347440894,/g3t1_2,,success
Status,985,16347483433,/g3t1_3,,success
Status,986,16353719763,/g3t1_1,,running
Status,987,16354310347,/g3t1_1,,success
Status,988,16396864671,/g3t1_2,,running
Status,989,16397147045,/g3t1_3,,running
Status,990,16397802003,/g3t1_2,,success
Status,991,16397875605,/g3t1_3,,success
Status,992,16403871603,/g3t1_1,,running
Status,993,16404734971,/g3t1_1,,success
Status,994,16434632389,/g4t1,,fail
Status,995,16447539614,/g3t1_2,,running
Status,996,16447623206,/g3t1_3,,running
Status,997,16447688502,/g3t1_2,,success
Status,998,16448096160,/g3t1_3,,success
Status,999,16454079226,/g3t1_1,,running
Status,1000,16454422612,/g3t1_1,,success
Status,1001,16496802882,/g3t1_2,,running
Status,1002,16497187810,/g3t1_2,,success
Status,1003,16497536113,/g3t1_3,,running
Status,1004,16498083848,/g3t1_3,,success
Status,1005,16503713510,/g3t1_1,,running
Status,1006,16503943243,/g3t1_1,,success
Status,1007,16533870270,/g4t1,,fail
Status,1008,16546460584,/g3t1_2,,running
Status,1009,16546493721,/g3t1_2,,success
Status,1010,16547178348,/g3t1_3,,running
Status,1011,16547398039,/g3t1_3,,success
Status,1012,16553725981,/g3t1_1,,running
Status,1013,16553748661,/g3t1_1,,success
Status,1014,16596676148,/g3t1_2,,running
Status,1015,16596706887,/g3t1_2,,success
Status,1016,16597280469,/g3t1_3,,running
Status,1017,16597604085,/g3t1_3,,success
Status,1018,16604262131,/g3t1_1,,running
Status,1019,16604800933,/g3t1_1,,success
Status,1020,16634826843,/g4t1,,fail
Status,1021,16647085015,/g3t1_2,,running
Status,1022,16647511734,/g3t1_2,,success
Status,1023,16647905760,/g3t1_3,,running
Status,1024,16648385794,/g3t1_3,,success
Status,1025,16654683628,/g3t1_1,,running
Status,1026,16654745064,/g3t1_1,,success
Status,1027,16697667801,/g3t1_2,,running
Status,1028,16697745263,/g3t1_2,,success
Status,1029,16697895517,/g3t1_3,,running
Status,1030,16698386476,/g3t1_3,,success
Status,1031,16704437195,/g3t1_1,,running
Status,1032,16704897039,/g3t1_1,,success
Status,1033,16735053445,/g4t1,,fail
Status,1034,16747737345,/g3t1_2,,running
Status,1035,16747889673,/g3t1_2,,success
Status,1036,16748407023,/g3t1_3,,running
Status,1037,16748512537,/g3t1_3,,success
Status,1038,16754552707,/g3t1_1,,running
Status,1039,16755247829,/g3t1_1,,success
Status,1040,16797629687,/g3t1_2,,running
Status,1041,16797958860,/g3t1_2,,success
Status,1042,16798211056,/g3t1_3,,running
Status,1043,16798660960,/g3t1_3,,success
Status,1044,16804944519,/g3t1_1,,running
Status,1045,16805007729,/g3t1_1,,success
Status,1046,16835115494,/g4t1,,fail
Status,1047,16847863991,/g3t1_2,,running
Status,1048,16848563401,/g3t1_3,,running
Status,1049,16848997238,/g3t1_2,,success
Status,1050,16849052559,/g3t1_3,,success
Status,1051,16855057457,/g3t1_1,,running
Status,1052,16855255966,/g3t1_1,,success
Status,1053,16897867649,/g3t1_2,,running
Status,1054,16898974621,/g3t1_2,,success
Status,1055,16899059904,/g3t1_3,,running
Status,1056,16899261168,/g3t1_3,,success
Status,1057,16905251791,/g3t1_1,,running
Status,1058,16905313393,/g3t1_1,,success
Status,1059,16935319051,/g4t1,,fail
Status,1060,16948030120,/g3t1_2,,running
Status,1061,16948922394,/g3t1_3,,running
Status,1062,16948989285,/g3t1_2,,success
Status,1063,16949912075,/g3t1_3,,success
Status,1064,16954973726,/g3t1_1,,running
Status,1065,16955019482,/g3t1_1,,success
Status,1066,16997545797,/g3t1_2,,running
Status,1067,16997774914,/g3t1_2,,success
Status,1068,16998194635,/g3t1_3,,running
Status,1069,16998271060,/g3t1_3,,success
Status,1070,17004780858,/g3t1_1,,running
Status,1071,17004810146,/g3t1_1,,success
Status,1072,17035105963,/g4t1,,fail
Status,1073,17048697423,/g3t1_2,,running
Status,1074,17048826808,/g3t1_2,,success
Status,1075,17048882352,/g3t1_3,,running
Status,1076,17049281463,/g3t1_3,,success
Status,1077,17055420595,/g3t1_1,,running
Status,1078,17055625689,/g3t1_1,,success
Status,1079,17098614207,/g3t1_2,,running
Status,1080,17099143915,/g3t1_2,,success
Status,1081,17099474334,/g3t1_3,,running
Status,1082,17100219160,/g3t1_3,,success
Status,1083,17105529892,/g3t1_1,,running
Status,1084,17105868239,/g3t1_1,,success
Status,1085,17135507249,/g4t1,,fail
Status,1086,17148557505,/g3t1_2,,running
Status,1087,17149221232,/g3t1_2,,success
Status,1088,17149309318,/g3t1_3,,running
Status,1089,17150419872,/g3t1_3,,success
Status,1090,17155625826,/g3t1_1,,running
Status,1091,17156037758,/g3t1_1,,success
Status,1092,17199023840,/g3t1_2,,running
Status,1093,17199488006,/g3t1_2,,success
Status,1094,17199557696,/g3t1_3,,running
Status,1095,17199877104,/g3t1_3,,success
Status,1096,17205584436,/g3t1_1,,running
Status,1097,17205880061,/g3t1_1,,success
Status,1098,17235743345,/g4t1,,fail
Status,1099,17248756254,/g3t1_2,,running
Status,1100,17249258384,/g3t1_2,,success
Status,1101,17249367799,/g3t1_3,,running
Status,1102,17249840119,/g3t1_3,,success
Status,1103,17255677027,/g3t1_1,,running
Status,1104,17256137683,/g3t1_1,,success
Status,1105,17299285017,/g3t1_2,,running
Status,1106,17299378782,/g3t1_2,,success
Status,1107,17299723498,/g3t1_3,,running
Status,1108,17300257085,/g3t1_3,,success
Status,1109,17305859655,/g3t1_1,,running
Status,1110,17306195431,/g3t1_1,,success
Status,1111,17335674283,/g4t1,,fail
Status,1112,17349283905,/g3t1_2,,running
Status,1113,17349448147,/g3t1_2,,success
Status,1114,17349924555,/g3t1_3,,running
Status,1115,17350060035,/g3t1_3,,success
Status,1116,17355758854,/g3t1_1,,running
Status,1117,17356261441,/g3t1_1,,success
Status,1118,17399381357,/g3t1_2,,running
Status,1119,17399509319,/g3t1_2,,success
Status,1120,17399548531,/g3t1_3,,running
Status,1121,17400693167,/g3t1_3,,success
Status,1122,17405938702,/g3t1_1,,running
Status,1123,17406353219,/g3t1_1,,success
Status,1124,17435191119,/g4t1,,fail
Status,1125,17449014402,/g3t1_2,,running
Status,1126,17449221105,/g3t1_2,,success
Status,1127,17449274743,/g3t1_3,,running
Status,1128,17449498591,/g3t1_3,,success
Status,1129,17455759094,/g3t1_1,,running
Status,1130,17455865318,/g3t1_1,,success
Status,1131,17498890064,/g3t1_2,,running
Status,1132,17498925696,/g3t1_2,,success
Status,1133,17499328527,/g3t1_3,,running
Status,1134,17499430975,/g3t1_3,,success
Status,1135,17505717748,/g3t1_1,,running
Status,1136,17505735084,/g3t1_1,,success
Status,1137,17535463865,/g4t1,,fail
Status,1138,17550218413,/g3t1_2,,running
Status,1139,17550438014,/g3t1_2,,success
Status,1140,17550486046,/g3t1_3,,running
Status,1141,17550789090,/g3t1_3,,success
Status,1142,17556343290,/g3t1_1,,running
Status,1143,17556633892,/g3t1_1,,success
Status,1144,17599880432,/g3t1_2,,running
Status,1145,17600283752,/g3t1_2,,success
Status,1146,17600354035,/g3t1_3,,running
Status,1147,17600692478,/g3t1_3,,success
Status,1148,17606470682,/g3t1_1,,running
Status,1149,17607054039,/g3t1_1,,success
Status,1150,17635913320,/g4t1,,fail
Status,1151,17650225419,/g3t1_2,,running
Status,1152,17650629137,/g3t1_3,,running
Status,1153,17650759393,/g3t1_2,,success
Status,1154,17651146246,/g3t1_3,,success
Status,1155,17656463363,/g3t1_1,,running
Status,1156,17656822824,/g3t1_1,,success
Status,1157,17700587503,/g3t1_2,,running
Status,1158,17700751673,/g3t1_3,,running
Status,1159,17701202944,/g3t1_2,,success
Status,1160,17701274930,/g3t1_3,,success
Status,1161,17706737267,/g3t1_1,,running
Status,1162,17707405177,/g3t1_1,,success
Status,1163,17736137704,/g4t1,,fail
Status,1164,17750672618,/g3t1_2,,running
Status,1165,17750865521,/g3t1_3,,running
Status,1166,17750930715,/g3t1_2,,success
Status,1167,17751253381,/g3t1_3,,success
Status,1168,17756794311,/g3t1_1,,running
Status,1169,17757357776,/g3t1_1,,success
Status,1170,17800973383,/g3t1_2,,running
Status,1171,17801043341,/g3t1_3,,running
Status,1172,17801448567,/g3t1_2,,success
Status,1173,17801510989,/g3t1_3,,success
Status,1174,17806772721,/g3t1_1,,running
Status,1175,17807556049,/g3t1_1,,success
Status,1176,17836169847,/g4t1,,fail
Status,1177,17851012205,/g3t1_2,,running
Status,1178,17851099348,/g3t1_3,,running
Status,1179,17851265148,/g3t1_2,,success
Status,1180,17851318389,/g3t1_3,,success
Status,1181,17856999353,/g3t1_1,,running
Status,1182,17857288925,/g3t1_1,,success
Status,1183,17901302449,/g3t1_2,,running
Status,1184,17901382857,/g3t1_3,,running
Status,1185,17901739614,/g3t1_3,,success
Status,1186,17901817971,/g3t1_2,,success
Status,1187,17907164988,/g3t1_1,,running
Status,1188,17907591726,/g3t1_1,,success
Status,1189,17936303165,/g4t1,,fail
Status,1190,17951119534,/g3t1_2,,running
Status,1191,17951205748,/g3t1_3,,running
Status,1192,17951306060,/g3t1_2,,success
Status,1193,17951836145,/g3t1_3,,success
Status,1194,17957411514,/g3t1_1,,running
Status,1195,17957507134,/g3t1_1,,success
Status,1196,18001392406,/g3t1_2,,running
Status,1197,18001469985,/g3t1_3,,running
Status,1198,18001516997,/g3t1_3,,success
Status,1199,18001557100,/g3t1_2,,success
Status,1200,18007528774,/g3t1_1,,running
Status,1201,18007916482,/g3t1_1,,success
Status,1202,18036465711,/g4t1,,fail
Status,1203,18051215303,/g3t1_2,,running
Status,1204,18051306748,/g3t1_3,,running
Status,1205,18051659673,/g3t1_2,,success
Status,1206,18051756718,/g3t1_3,,success
Status,1207,18057563809,/g3t1_1,,running
Status,1208,18058185282,/g3t1_1,,success
Status,1209,18101691792,/g3t1_2,,running
Status,1210,18101778912,/g3t1_3,,running
Status,1211,18101917423,/g3t1_2,,success
Status,1212,18101946513,/g3t1_3,,success
Status,1213,18107623459,/g3t1_1,,running
Status,1214,18108035353,/g3t1_1,,success
Status,1215,18136575775,/g4t1,,fail
Status,1216,18151496918,/g3t1_2,,running
Status,1217,18151587470,/g3t1_3,,running
Status,1218,18152146010,/g3t1_3,,success
Status,1219,18152236888,/g3t1_2,,success
Status,1220,18157898365,/g3t1_1,,running
Status,1221,18158008536,/g3t1_1,,success
Status,1222,18201608859,/g3t1_2,,running
Status,1223,18201714742,/g3t1_3,,running
Status,1224,18202490999,/g3t1_2,,success
Status,1225,18202556379,/g3t1_3,,success
Status,1226,18207854370,/g3t1_1,,running
Status,1227,18208574735,/g3t1_1,,success
Status,1228,18236790139,/g4t1,,fail
Status,1229,18252290996,/g3t1_3,,running
Status,1230,18252414230,/g3t1_2,,running
Status,1231,18252470298,/g3t1_2,,success
Status,1232,18252568375,/g3t1_3,,success
Status,1233,18258072915,/g3t1_1,,running
Status,1234,18258474019,/g3t1_1,,success
Status,1235,18301969851,/g3t1_2,,running
Status,1236,18302187753,/g3t1_3,,running
Status,1237,18302869943,/g3t1_3,,success
Status,1238,18302951821,/g3t1_2,,success
Status,1239,18307966925,/g3t1_1,,running
Status,1240,18308448009,/g3t1_1,,success
Status,1241,18336770777,/g4t1,,fail
Status,1242,18352461182,/g3t1_2,,running
Status,1243,18352544316,/g3t1_3,,running
Status,1244,18352726845,/g3t1_3,,success
Status,1245,18353011455,/g3t1_2,,success
Status,1246,18358181086,/g3t1_1,,running
Status,1247,18358691889,/g3t1_1,,success
Status,1248,18402665454,/g3t1_2,,running
Status,1249,18402751549,/g3t1_3,,running
Status,1250,18403162235,/g3t1_3,,success
Status,1251,18403217531,/g3t1_2,,success
Status,1252,18408340771,/g3t1_1,,running
Status,1253,18409001620,/g3t1_1,,success
Status,1254,18436971742,/g4t1,,fail
Status,1255,18452850454,/g3t1_2,,running
Status,1256,18452917571,/g3t1_3,,running
Status,1257,18452941851,/g3t1_2,,success
Status,1258,18452968742,/g3t1_3,,success
Status,1259,18458511054,/g3t1_1,,running
Status,1260,18459128540,/g3t1_1,,success
Status,1261,18502535732,/g3t1_2,,running
Status,1262,18502616048,/g3t1_3,,running
Status,1263,18502709203,/g3t1_3,,success
Status,1264,18503009237,/g3t1_2,,success
Status,1265,18508288207,/g3t1_1,,running
Status,1266,18508502127,/g3t1_1,,success
Status,1267,18536684545,/g4t1,,fail
Status,1268,18552554060,/g3t1_2,,running
Status,1269,18552643764,/g3t1_3,,running
Status,1270,18553039008,/g3t1_2,,success
Status,1271,18553370318,/g3t1_3,,success
Status,1272,18558747640,/g3t1_1,,running
Status,1273,18559208851,/g3t1_1,,success
Status,1274,18603097165,/g3t1_2,,running
Status,1275,18603196106,/g3t1_3,,running
Status,1276,18603500412,/g3t1_3,,success
Status,1277,18603553223,/g3t1_2,,success
Status,1278,18608844900,/g3t1_1,,running
Status,1279,18609439029,/g3t1_1,,success
Status,1280,18637144064,/g4t1,,fail
Status,1281,18653067601,/g3t1_3,,running
Status,1282,18653167223,/g3t1_2,,running
Status,1283,18653440753,/g3t1_3,,success
Status,1284,18653497111,/g3t1_2,,success
Status,1285,18659040893,/g3t1_1,,running
Status,1286,18659462598,/g3t1_1,,success
Status,1287,18703181669,/g3t1_2,,running
Status,1288,18703587464,/g3t1_3,,running
Status,1289,18703770785,/g3t1_2,,success
Status,1290,18704022063,/g3t1_3,,success
Status,1291,18709152907,/g3t1_1,,running
Status,1292,18709567263,/g3t1_1,,success
Status,1293,18737314441,/g4t1,,fail
Status,1294,18753568398,/g3t1_2,,running
Status,1295,18753917782,/g3t1_3,,running
Status,1296,18754398789,/g3t1_2,,success
Status,1297,18754487318,/g3t1_3,,success
Status,1298,18759379466,/g3t1_1,,running
Status,1299,18759815530,/g3t1_1,,success
Status,1300,18803551023,/g3t1_3,,running
Status,1301,18803657505,/g3t1_2,,running
Status,1302,18803718542,/g3t1_2,,success
Status,1303,18803744315,/g3t1_3,,success
Status,1304,18809333130,/g3t1_1,,running
Status,1305,18809631958,/g3t1_1,,success
Status,1306,18837383394,/g4t1,,fail
Status,1307,18853725963,/g3t1_2,,running
Status,1308,18853857693,/g3t1_3,,running
Status,1309,18853904473,/g3t1_2,,success
Status,1310,18854161517,/g3t1_3,,success
Status,1311,18859328799,/g3t1_1,,running
Status,1312,18859765364,/g3t1_1,,success
Status,1313,18904151029,/g3t1_2,,running
Status,1314,18904219005,/g3t1_3,,running
Status,1315,18904472125,/g3t1_2,,success
Status,1316,18904524392,/g3t1_3,,success
Status,1317,18909675476,/g3t1_1,,running
Status,1318,18909895561,/g3t1_1,,success
Status,1319,18937487399,/g4t1,,fail
Status,1320,18954055587,/g3t1_2,,running
Status,1321,18954159111,/g3t1_3,,running
Status,1322,18954265067,/g3t1_3,,success
Status,1323,18954436375,/g3t1_2,,success
Status,1324,18959667276,/g3t1_1,,running
Status,1325,18960064857,/g3t1_1,,success
Status,1326,19004535001,/g3t1_3,,running
Status,1327,19004609406,/g3t1_2,,running
Status,1328,19004638470,/g3t1_2,,success
Status,1329,19004900254,/g3t1_3,,success
Status,1330,19009802088,/g3t1_1,,running
Status,1331,19010218937,/g3t1_1,,success
Status,1332,19037567311,/g4t1,,fail
Status,1333,19054225815,/g3t1_2,,running
Status,1334,19054329545,/g3t1_3,,running
Status,1335,19055042216,/g3t1_2,,success
Status,1336,19055113419,/g3t1_3,,success
Status,1337,19059780022,/g3t1_1,,running
Status,1338,19060338019,/g3t1_1,,success
Status,1339,19104638049,/g3t1_2,,running
Status,1340,19104723055,/g3t1_3,,running
Status,1341,19104753649,/g3t1_2,,success
Status,1342,19104781838,/g3t1_3,,success
Status,1343,19110054299,/g3t1_1,,running
Status,1344,19110477182,/g3t1_1,,success
Status,1345,19137955095,/g4t1,,fail
Status,1346,19154768774,/g3t1_2,,running
Status,1347,19154876491,/g3t1_3,,running
Status,1348,19155296066,/g3t1_2,,success
Status,1349,19155359344,/g3t1_3,,success
Status,1350,19160118091,/g3t1_1,,running
Status,1351,19160474283,/g3t1_1,,success
Status,1352,19205351516,/g3t1_2,,running
Status,1353,19205421878,/g3t1_3,,running
Status,1354,19205520286,/g3t1_2,,success
Status,1355,19205546423,/g3t1_3,,success
Status,1356,19210235567,/g3t1_1,,running
Status,1357,19210751277,/g3t1_1,,success
Status,1358,19237765070,/g4t1,,fail
Status,1359,19255385124,/g3t1_2,,running
Status,1360,19255452438,/g3t1_3,,running
Status,1361,19255475351,/g3t1_2,,success
Status,1362,19255502887,/g3t1_3,,success
Status,1363,19260342859,/g3t1_1,,running
Status,1364,19260712923,/g3t1_1,,success
Status,1365,19305121312,/g3t1_2,,running
Status,1366,19305200271,/g3t1_3,,running
Status,1367,19305531933,/g3t1_3,,success
Status,1368,19305618527,/g3t1_2,,success
Status,1369,19310262216,/g3t1_1,,running
Status,1370,19310883587,/g3t1_1,,success
Status,1371,19337089455,/g4t1,,fail
Status,1372,19354359525,/g3t1_3,,running
Status,1373,19354396286,/g3t1_2,,running
Status,1374,19354592469,/g3t1_2,,success
Status,1375,19354627458,/g3t1_3,,success
Status,1376,19360057829,/g3t1_1,,running
Status,1377,19360305591,/g3t1_1,,success
Status,1378,19405480665,/g3t1_3,,running
Status,1379,19405577159,/g3t1_2,,running
Status,1380,19406090221,/g3t1_2,,success
Status,1381,19406489034,/g3t1_3,,success
Status,1382,19410636835,/g3t1_1,,running
Status,1383,19411023106,/g3t1_1,,success
Status,1384,19438209722,/g4t1,,fail
Status,1385,19455696794,/g3t1_2,,running
Status,1386,19455759532,/g3t1_3,,running
Status,1387,19455802843,/g3t1_3,,success
Status,1388,19455980739,/g3t1_2,,success
Status,1389,19460762730,/g3t1_1,,running
Status,1390,19461335146,/g3t1_1,,success
Status,1391,19505605652,/g3t1_2,,running
Status,1392,19505934837,/g3t1_3,,running
Status,1393,19506078588,/g3t1_3,,success
Status,1394,19506126032,/g3t1_2,,success
Status,1395,19510907528,/g3t1_1,,running
Status,1396,19511225737,/g3t1_1,,success
Status,1397,19538225383,/g4t1,,fail
Status,1398,19555956175,/g3t1_2,,running
Status,1399,19556079388,/g3t1_3,,running
Status,1400,19556502720,/g3t1_3,,success
Status,1401,19556675255,/g3t1_2,,success
Status,1402,19561134415,/g3t1_1,,running
Status,1403,19561463691,/g3t1_1,,success
Status,1404,19605884889,/g3t1_2,,running
Status,1405,19606172387,/g3t1_3,,running
Status,1406,19606305414,/g3t1_2,,success
Status,1407,19606584234,/g3t1_3,,success
Status,1408,19610901768,/g3t1_1,,running
Status,1409,19611173884,/g3t1_1,,success
Status,1410,19637698638,/g4t1,,fail
Status,1411,19655488415,/g3t1_2,,running
Status,1412,19655530903,/g3t1_3,,running
Status,1413,19655604421,/g3t1_2,,success
Status,1414,19655626808,/g3t1_3,,success
Status,1415,19660708471,/g3t1_1,,running
Status,1416,19661060834,/g3t1_1,,success
Status,1417,19706317038,/g3t1_2,,running
Status,1418,19706470269,/g3t1_3,,running
Status,1419,19706506198,/g3t1_2,,success
Status,1420,19706957738,/g3t1_3,,success
Status,1421,19711339356,/g3t1_1,,running
Status,1422,19711783999,/g3t1_1,,success
Status,1423,19738493675,/g4t1,,fail
Status,1424,19756292193,/g3t1_3,,running
Status,1425,19756389995,/g3t1_2,,running
Status,1426,19756872158,/g3t1_3,,success
Status,1427,19756969010,/g3t1_2,,success
Status,1428,19761379283,/g3t1_1,,running
Status,1429,19761837152,/g3t1_1,,success
Status,1430,19806710656,/g3t1_2,,running
Status,1431,19806809277,/g3t1_3,,running
Status,1432,19807203488,/g3t1_3,,success
Status,1433,19807264890,/g3t1_2,,success
Status,1434,19811381347,/g3t1_1,,running
Status,1435,19811752436,/g3t1_1,,success
Status,1436,19838684477,/g4t1,,fail
Status,1437,19856925010,/g3t1_2,,running
Status,1438,19857098848,/g3t1_3,,running
Status,1439,19857126203,/g3t1_3,,success
Status,1440,19857210886,/g3t1_2,,success
Status,1441,19861709330,/g3t1_1,,running
Status,1442,19862505163,/g3t1_1,,success
Status,1443,19907098220,/g3t1_2,,running
Status,1444,19907333924,/g3t1_3,,running
Status,1445,19907649389,/g3t1_2,,success
Status,1446,19907710438,/g3t1_3,,success
Status,1447,19911594762,/g3t1_1,,running
Status,1448,19911966113,/g3t1_1,,success
Status,1449,19938785012,/g4t1,,fail
Status,1450,19957188717,/g3t1_2,,running
Status,1451,19957318734,/g3t1_3,,running
Status,1452,19957361769,/g3t1_2,,success
Status,1453,19957405511,/g3t1_3,,success
Status,1454,19961786959,/g3t1_1,,running
Status,1455,19962321752,/g3t1_1,,success
Status,1456,20006424408,/g3t1_3,,running
Status,1457,20006493656,/g3t1_2,,running
Status,1458,20006651340,/g3t1_2,,success
Status,1459,20006689617,/g3t1_3,,success
Status,1460,20011344864,/g3t1_1,,running
Status,1461,20011524561,/g3t1_1,,success
Status,1462,20037944957,/g4t1,,fail
Status,1463,20057149882,/g3t1_2,,running
Status,1464,20057234215,/g3t1_3,,running
Status,1465,20057659092,/g3t1_2,,success
Status,1466,20057710147,/g3t1_3,,success
Status,1467,20061960634,/g3t1_1,,running
Status,1468,20062365797,/g3t1_1,,success
Status,1469,20107445571,/g3t1_3,,running
Status,1470,20107588655,/g3t1_2,,running
Status,1471,20108199210,/g3t1_2,,success
Status,1472,20108297423,/g3t1_3,,success
Status,1473,20112506000,/g3t1_1,,running
Status,1474,20112957043,/g3t1_1,,success
Status,1475,20138900447,/g4t1,,fail
Status,1476,20157506731,/g3t1_2,,running
Status,1477,20157755351,/g3t1_3,,running
Status,1478,20157866561,/g3t1_2,,success
Status,1479,20158261933,/g3t1_3,,success
Status,1480,20162263158,/g3t1_1,,running
Status,1481,20162814036,/g3t1_1,,success
Status,1482,20207900351,/g3t1_2,,running
Status,1483,20208020729,/g3t1_3,,running
Status,1484,20208229082,/g3t1_3,,success
Status,1485,20208279682,/g3t1_2,,success
Status,1486,20212187605,/g3t1_1,,running
Status,1487,20212735098,/g3t1_1,,success
Status,1488,20238232276,/g4t1,,fail
Status,1489,20257206971,/g3t1_2,,running
Status,1490,20257258501,/g3t1_3,,running
Status,1491,20257386802,/g3t1_2,,success
Status,1492,20257794792,/g3t1_3,,success
Status,1493,20262039586,/g3t1_1,,running
Status,1494,20262068020,/g3t1_1,,success
Status,1495,20307623665,/g3t1_2,,running
Status,1496,20307671270,/g3t1_3,,running
Status,1497,20308020439,/g3t1_2,,success
Status,1498,20308230034,/g3t1_3,,success
Status,1499,20312533051,/g3t1_1,,running
Status,1500,20313093486,/g3t1_1,,success
Status,1501,20339325634,/g4t1,,fail
Status,1502,20358220717,/g3t1_2,,running
Status,1503,20358485641,/g3t1_3,,running
Status,1504,20359816953,/g3t1_3,,success
Status,1505,20360139741,/g3t1_2,,success
Status,1506,20362609172,/g3t1_1,,running
Status,1507,20363464326,/g3t1_1,,success
Status,1508,20408367956,/g3t1_2,,running
Status,1509,20408615369,/g3t1_3,,running
Status,1510,20408672151,/g3t1_2,,success
Status,1511,20408711995,/g3t1_3,,success
Status,1512,20413014818,/g3t1_1,,running
