
Status,2,3485483696,/g4t1,,init
Status,5,8698446029,/g3t1_1,,init
Status,6,8698472742,/g3t1_2,,init
Status,7,8709464818,/g3t1_1,,init
Status,8,8709479332,/g3t1_1,,running
Status,9,8710050823,/g3t1_1,,success
Status,10,8710395857,/g3t1_2,,init
Status,11,8710408198,/g3t1_2,,running
Status,12,8710845437,/g3t1_2,,success
Status,13,8759742386,/g3t1_1,,running
Status,14,8759760202,/g3t1_1,,success
Status,15,8760517388,/g3t1_2,,running
Status,16,8760648070,/g3t1_2,,success
Status,17,8809928852,/g3t1_1,,running
Status,18,8809978734,/g3t1_1,,success
Status,19,8810533246,/g3t1_2,,running
Status,20,8810659397,/g3t1_2,,success
Status,21,8859852181,/g3t1_1,,running
Status,22,8859948630,/g3t1_1,,success
Status,23,8860641845,/g3t1_2,,running
Status,24,8860718394,/g3t1_2,,success
Status,25,8910063035,/g3t1_1,,running
Status,26,8910259322,/g3t1_1,,success
Status,27,8910847074,/g3t1_2,,running
Status,28,8911209759,/g3t1_2,,success
Status,29,8960360895,/g3t1_1,,running
Status,30,8960630193,/g3t1_1,,success
Status,31,8961632438,/g3t1_2,,running
Status,32,8961737117,/g3t1_2,,success
Status,34,9000460783,/g3t1_3,,init
Status,35,9011155041,/g3t1_1,,running
Status,36,9011230786,/g3t1_1,,success
Status,37,9011302070,/g3t1_2,,running
Status,38,9012638364,/g3t1_2,,success
Status,39,9021070129,/g3t1_3,,init
Status,40,9021094037,/g3t1_3,,running
Status,41,9021936758,/g3t1_3,,success
Status,42,9060748705,/g3t1_1,,running
Status,43,9060789542,/g3t1_1,,success
Status,44,9061482114,/g3t1_2,,running
Status,45,9061974165,/g3t1_2,,success
Status,46,9071335766,/g3t1_3,,running
Status,47,9071661409,/g3t1_3,,success
Status,48,9103613866,/g4t1,,success
Status,49,9110608321,/g3t1_1,,running
Status,50,9110924921,/g3t1_1,,success
Status,51,9111405314,/g3t1_2,,running
Status,52,9111705921,/g3t1_2,,success
Status,53,9121483297,/g3t1_3,,running
Status,54,9121632263,/g3t1_3,,success
Status,55,9161146989,/g3t1_1,,running
Status,56,9161429195,/g3t1_1,,success
Status,57,9161633697,/g3t1_2,,running
Status,58,9162318871,/g3t1_2,,success
Status,59,9171502797,/g3t1_3,,running
Status,60,9171528605,/g3t1_3,,success
Status,61,9203053778,/g4t1,,success
Status,62,9210728611,/g3t1_1,,running
Status,63,9210870120,/g3t1_1,,success
Status,64,9211416624,/g3t1_2,,running
Status,65,9211579982,/g3t1_2,,success
Status,66,9221783195,/g3t1_3,,running
Status,67,9221995573,/g3t1_3,,success
Status,68,9261561496,/g3t1_1,,running
Status,69,9262078358,/g3t1_1,,success
Status,70,9262132831,/g3t1_2,,running
Status,71,9262624808,/g3t1_2,,success
Status,72,9272290870,/g3t1_3,,running
Status,73,9272706506,/g3t1_3,,success
Status,74,9303133318,/g4t1,,success
Status,75,9311393001,/g3t1_1,,running
Status,76,9311447479,/g3t1_1,,success
Status,77,9312440108,/g3t1_2,,running
Status,78,9312485009,/g3t1_2,,success
Status,79,9321745729,/g3t1_3,,running
Status,80,9321882167,/g3t1_3,,success
Status,81,9361567700,/g3t1_1,,running
Status,82,9362116679,/g3t1_1,,success
Status,83,9362205996,/g3t1_2,,running
Status,84,9362674032,/g3t1_2,,success
Status,85,9371902382,/g3t1_3,,running
Status,86,9371945529,/g3t1_3,,success
Status,87,9403405026,/g4t1,,fail
Status,88,9411830921,/g3t1_1,,running
Status,89,9411892863,/g3t1_1,,success
Status,90,9412136269,/g3t1_2,,running
Status,91,9413207661,/g3t1_2,,success
Status,92,9421892459,/g3t1_3,,running
Status,93,9422099902,/g3t1_3,,success
Status,94,9462457932,/g3t1_1,,running
Status,95,9462683955,/g3t1_1,,success
Status,96,9462912090,/g3t1_2,,running
Status,97,9463305296,/g3t1_2,,success
Status,98,9472390388,/g3t1_3,,running
Status,99,9472782110,/g3t1_3,,success
Status,100,9504455100,/g4t1,,fail
Status,101,9511721561,/g3t1_1,,running
Status,102,9512066567,/g3t1_1,,success
Status,103,9513130484,/g3t1_2,,running
Status,104,9513176898,/g3t1_2,,success
Status,105,9522419965,/g3t1_3,,running
Status,106,9522515695,/g3t1_3,,success
Status,107,9561605113,/g3t1_1,,running
Status,108,9561630223,/g3t1_1,,success
Status,109,9562528854,/g3t1_2,,running
Status,110,9562700591,/g3t1_2,,success
Status,111,9572520293,/g3t1_3,,running
Status,112,9572851956,/g3t1_3,,success
Status,113,9604332412,/g4t1,,fail
Status,114,9612028316,/g3t1_1,,running
Status,115,9612225335,/g3t1_1,,success
Status,116,9612968602,/g3t1_2,,running
Status,117,9613280089,/g3t1_2,,success
Status,118,9623006930,/g3t1_3,,running
Status,119,9623065331,/g3t1_3,,success
Status,120,9662124938,/g3t1_1,,running
Status,121,9662252579,/g3t1_1,,success
Status,122,9662979423,/g3t1_2,,running
Status,123,9663724552,/g3t1_2,,success
Status,124,9672761111,/g3t1_3,,running
Status,125,9672956403,/g3t1_3,,success
Status,126,9704441435,/g4t1,,fail
Status,127,9712232341,/g3t1_1,,running
Status,128,9712570878,/g3t1_1,,success
Status,129,9713328826,/g3t1_2,,running
Status,130,9714279402,/g3t1_2,,success
Status,131,9722902908,/g3t1_3,,running
Status,132,9723205198,/g3t1_3,,success
Status,133,9762333429,/g3t1_1,,running
Status,134,9762655553,/g3t1_1,,success
Status,135,9763282022,/g3t1_2,,running
Status,136,9763473723,/g3t1_2,,success
Status,137,9773034717,/g3t1_3,,running
Status,138,9773634790,/g3t1_3,,success
Status,139,9804272758,/g4t1,,fail
Status,140,9812185319,/g3t1_1,,running
Status,141,9812221892,/g3t1_1,,success
Status,142,9812853419,/g3t1_2,,running
Status,143,9812975226,/g3t1_2,,success
Status,144,9822704506,/g3t1_3,,running
Status,145,9822829415,/g3t1_3,,success
Status,146,9862428118,/g3t1_1,,running
Status,147,9862454910,/g3t1_1,,success
Status,148,9863240051,/g3t1_2,,running
Status,149,9863410058,/g3t1_2,,success
Status,150,9872690415,/g3t1_3,,running
Status,151,9872795683,/g3t1_3,,success
Status,152,9903739815,/g4t1,,fail
Status,153,9912829180,/g3t1_1,,running
Status,154,9912966636,/g3t1_1,,success
Status,155,9913173715,/g3t1_2,,running
Status,156,9913582123,/g3t1_2,,success
Status,157,9922853470,/g3t1_3,,running
Status,158,9922953314,/g3t1_3,,success
Status,159,9963692767,/g3t1_1,,running
Status,160,9963899729,/g3t1_1,,success
Status,161,9964058978,/g3t1_2,,running
Status,162,9964545193,/g3t1_2,,success
Status,163,9973202205,/g3t1_3,,running
Status,164,9973895152,/g3t1_3,,success
Status,165,10004346773,/g4t1,,fail
Status,166,10012924469,/g3t1_1,,running
Status,167,10013248978,/g3t1_1,,success
Status,168,10013651232,/g3t1_2,,running
Status,169,10014798609,/g3t1_2,,success
Status,170,10023783075,/g3t1_3,,running
Status,171,10024073671,/g3t1_3,,success
Status,172,10063043547,/g3t1_1,,running
Status,173,10063288106,/g3t1_1,,success
Status,174,10063931528,/g3t1_2,,running
Status,175,10065198654,/g3t1_2,,success
Status,176,10073770886,/g3t1_3,,running
Status,177,10074452664,/g3t1_3,,success
Status,178,10104094232,/g4t1,,fail
Status,179,10112920900,/g3t1_1,,running
Status,180,10112953125,/g3t1_1,,success
Status,181,10114152138,/g3t1_2,,running
Status,182,10114344748,/g3t1_2,,success
Status,183,10123408356,/g3t1_3,,running
Status,184,10123471724,/g3t1_3,,success
Status,185,10163011823,/g3t1_1,,running
Status,186,10163139392,/g3t1_1,,success
Status,187,10163688938,/g3t1_2,,running
Status,188,10163804845,/g3t1_2,,success
Status,189,10173265354,/g3t1_3,,running
Status,190,10173368325,/g3t1_3,,success
Status,191,10204828429,/g4t1,,fail
Status,192,10213016214,/g3t1_1,,running
Status,193,10213168952,/g3t1_1,,success
Status,194,10213660251,/g3t1_2,,running
Status,195,10213706745,/g3t1_2,,success
Status,196,10223449392,/g3t1_3,,running
Status,197,10223527548,/g3t1_3,,success
Status,198,10263110083,/g3t1_1,,running
Status,199,10263216441,/g3t1_1,,success
Status,200,10263850655,/g3t1_2,,running
Status,201,10263875873,/g3t1_2,,success
Status,202,10273645088,/g3t1_3,,running
Status,203,10273867274,/g3t1_3,,success
Status,204,10305326764,/g4t1,,fail
Status,205,10313499926,/g3t1_1,,running
Status,206,10314037281,/g3t1_1,,success
Status,207,10314111321,/g3t1_2,,running
Status,208,10314466000,/g3t1_2,,success
Status,209,10323854666,/g3t1_3,,running
Status,210,10324249083,/g3t1_3,,success
Status,211,10364199942,/g3t1_1,,running
Status,212,10364281128,/g3t1_1,,success
Status,213,10364322399,/g3t1_2,,running
Status,214,10364489989,/g3t1_2,,success
Status,215,10374145481,/g3t1_3,,running
Status,216,10374268707,/g3t1_3,,success
Status,217,10404908876,/g4t1,,fail
Status,218,10414488450,/g3t1_1,,running
Status,219,10414829921,/g3t1_1,,success
Status,220,10414901420,/g3t1_2,,running
Status,221,10415279570,/g3t1_2,,success
Status,222,10424358793,/g3t1_3,,running
Status,223,10424816438,/g3t1_3,,success
Status,224,10464580078,/g3t1_1,,running
Status,225,10464667209,/g3t1_2,,running
Status,226,10465025572,/g3t1_1,,success
Status,227,10465468465,/g3t1_2,,success
Status,228,10474571065,/g3t1_3,,running
Status,229,10475022733,/g3t1_3,,success
Status,230,10504961325,/g4t1,,fail
Status,231,10515009892,/g3t1_1,,running
Status,232,10515111490,/g3t1_1,,success
Status,233,10515277864,/g3t1_2,,running
Status,234,10515666094,/g3t1_2,,success
Status,235,10524557443,/g3t1_3,,running
Status,236,10524799745,/g3t1_3,,success
Status,237,10563727470,/g3t1_1,,running
Status,238,10563816606,/g3t1_1,,success
Status,239,10564342814,/g3t1_2,,running
Status,240,10564507341,/g3t1_2,,success
Status,241,10574062973,/g3t1_3,,running
Status,242,10574266600,/g3t1_3,,success
Status,243,10604585026,/g4t1,,fail
Status,244,10614641013,/g3t1_1,,running
Status,245,10614671834,/g3t1_1,,success
Status,246,10614711553,/g3t1_2,,running
Status,247,10614720665,/g3t1_2,,success
Status,248,10624271259,/g3t1_3,,running
Status,249,10624298070,/g3t1_3,,success
Status,250,10664035568,/g3t1_1,,running
Status,251,10664452918,/g3t1_1,,success
Status,252,10664514859,/g3t1_2,,running
Status,253,10664812352,/g3t1_2,,success
Status,254,10674555971,/g3t1_3,,running
Status,255,10674760858,/g3t1_3,,success
Status,256,10705620998,/g4t1,,fail
Status,257,10715272491,/g3t1_1,,running
Status,258,10715460883,/g3t1_2,,running
Status,259,10715504680,/g3t1_1,,success
Status,260,10716023766,/g3t1_2,,success
Status,261,10725040409,/g3t1_3,,running
Status,262,10725128712,/g3t1_3,,success
Status,263,10765190183,/g3t1_1,,running
Status,264,10765342078,/g3t1_2,,running
Status,265,10765466401,/g3t1_1,,success
Status,266,10765760268,/g3t1_2,,success
Status,267,10774992164,/g3t1_3,,running
Status,268,10775814260,/g3t1_3,,success
Status,269,10805604058,/g4t1,,fail
Status,270,10815627647,/g3t1_1,,running
Status,271,10815721070,/g3t1_2,,running
Status,272,10815869627,/g3t1_1,,success
Status,273,10815900317,/g3t1_2,,success
Status,274,10825073672,/g3t1_3,,running
Status,275,10825814313,/g3t1_3,,success
Status,276,10865566723,/g3t1_1,,running
Status,277,10865654638,/g3t1_2,,running
Status,278,10865758543,/g3t1_2,,success
Status,279,10866263311,/g3t1_1,,success
Status,280,10875219811,/g3t1_3,,running
Status,281,10875589649,/g3t1_3,,success
Status,282,10905339830,/g4t1,,fail
Status,283,10915030907,/g3t1_1,,running
Status,284,10915113797,/g3t1_2,,running
Status,285,10915349866,/g3t1_1,,success
Status,286,10915444303,/g3t1_2,,success
Status,287,10925043699,/g3t1_3,,running
Status,288,10925415867,/g3t1_3,,success
Status,289,10965513606,/g3t1_1,,running
Status,290,10965911933,/g3t1_2,,running
Status,291,10966001693,/g3t1_2,,success
Status,292,10966031555,/g3t1_1,,success
Status,293,10975376439,/g3t1_3,,running
Status,294,10976146341,/g3t1_3,,success
Status,295,11005852022,/g4t1,,fail
Status,296,11015821159,/g3t1_1,,running
Status,297,11015905445,/g3t1_2,,running
Status,298,11016361404,/g3t1_2,,success
Status,299,11016426151,/g3t1_1,,success
Status,300,11025793918,/g3t1_3,,running
Status,301,11026152387,/g3t1_3,,success
Status,302,11066007840,/g3t1_1,,running
Status,303,11066246645,/g3t1_2,,running
Status,304,11066300892,/g3t1_1,,success
Status,305,11066757511,/g3t1_2,,success
Status,306,11075793731,/g3t1_3,,running
Status,307,11076412805,/g3t1_3,,success
Status,308,11105436504,/g4t1,,fail
Status,309,11115615776,/g3t1_1,,running
Status,310,11115737693,/g3t1_2,,running
Status,311,11115786747,/g3t1_1,,success
Status,312,11116071780,/g3t1_2,,success
Status,313,11125986684,/g3t1_3,,running
Status,314,11126147033,/g3t1_3,,success
Status,315,11165678326,/g3t1_1,,running
Status,316,11165738217,/g3t1_2,,running
Status,317,11166022764,/g3t1_1,,success
Status,318,11166068056,/g3t1_2,,success
Status,319,11176064386,/g3t1_3,,running
Status,320,11176416705,/g3t1_3,,success
Status,321,11205484863,/g4t1,,fail
Status,322,11215755564,/g3t1_1,,running
Status,323,11216192941,/g3t1_2,,running
Status,324,11216244740,/g3t1_1,,success
Status,325,11216394745,/g3t1_2,,success
Status,326,11225908351,/g3t1_3,,running
Status,327,11225975169,/g3t1_3,,success
Status,328,11266474835,/g3t1_1,,running
Status,329,11266570064,/g3t1_2,,running
Status,330,11266654209,/g3t1_1,,success
Status,331,11266969942,/g3t1_2,,success
Status,332,11276009819,/g3t1_3,,running
Status,333,11276678657,/g3t1_3,,success
Status,334,11306010487,/g4t1,,fail
Status,335,11316465207,/g3t1_1,,running
Status,336,11316522469,/g3t1_2,,running
Status,337,11316758392,/g3t1_1,,success
Status,338,11316803687,/g3t1_2,,success
Status,339,11326792156,/g3t1_3,,running
Status,340,11326874172,/g3t1_3,,success
Status,341,11366962036,/g3t1_1,,running
Status,342,11367057691,/g3t1_2,,running
Status,343,11367599436,/g3t1_2,,success
Status,344,11368354040,/g3t1_1,,success
Status,345,11376479794,/g3t1_3,,running
Status,346,11376992035,/g3t1_3,,success
Status,347,11405833462,/g4t1,,fail
Status,348,11415977369,/g3t1_1,,running
Status,349,11416010242,/g3t1_1,,success
Status,350,11416045913,/g3t1_2,,running
Status,351,11416244685,/g3t1_2,,success
Status,352,11426679433,/g3t1_3,,running
Status,353,11426723379,/g3t1_3,,success
Status,354,11466704231,/g3t1_1,,running
Status,355,11466766062,/g3t1_2,,running
Status,356,11466985665,/g3t1_1,,success
Status,357,11467048647,/g3t1_2,,success
Status,358,11476165376,/g3t1_3,,running
Status,359,11476227437,/g3t1_3,,success
Status,360,11505379348,/g4t1,,fail
Status,361,11516257867,/g3t1_1,,running
Status,362,11516397956,/g3t1_1,,success
Status,363,11516452945,/g3t1_2,,running
Status,364,11516568995,/g3t1_2,,success
Status,365,11526401165,/g3t1_3,,running
Status,366,11526531416,/g3t1_3,,success
Status,367,11566323092,/g3t1_1,,running
Status,368,11566357789,/g3t1_2,,running
Status,369,11566579407,/g3t1_2,,success
Status,370,11566687212,/g3t1_1,,success
Status,371,11576405664,/g3t1_3,,running
Status,372,11576429383,/g3t1_3,,success
Status,373,11605539989,/g4t1,,fail
Status,374,11616316871,/g3t1_1,,running
Status,375,11616345956,/g3t1_1,,success
Status,376,11616693268,/g3t1_2,,running
Status,377,11616733796,/g3t1_2,,success
Status,378,11627313851,/g3t1_3,,running
Status,379,11627377050,/g3t1_3,,success
Status,380,11666624360,/g3t1_1,,running
Status,381,11666744391,/g3t1_2,,running
Status,382,11666763379,/g3t1_1,,success
Status,383,11666871117,/g3t1_2,,success
Status,384,11677168133,/g3t1_3,,running
Status,385,11677244784,/g3t1_3,,success
Status,386,11705580087,/g4t1,,fail
Status,387,11716714263,/g3t1_1,,running
Status,388,11716737568,/g3t1_1,,success
Status,389,11716768113,/g3t1_2,,running
Status,390,11716776133,/g3t1_2,,success
Status,391,11726765380,/g3t1_3,,running
Status,392,11726790681,/g3t1_3,,success
Status,393,11766570728,/g3t1_1,,running
Status,394,11766600677,/g3t1_1,,success
Status,395,11766849316,/g3t1_2,,running
Status,396,11766871175,/g3t1_2,,success
Status,397,11776984601,/g3t1_3,,running
Status,398,11777013449,/g3t1_3,,success
Status,399,11805613003,/g4t1,,fail
Status,400,11816658201,/g3t1_1,,running
Status,401,11816750695,/g3t1_1,,success
Status,402,11816772145,/g3t1_2,,running
Status,403,11817135647,/g3t1_2,,success
Status,404,11826896761,/g3t1_3,,running
Status,405,11826921317,/g3t1_3,,success
Status,406,11866988696,/g3t1_1,,running
Status,407,11867135156,/g3t1_2,,running
Status,408,11867162901,/g3t1_1,,success
Status,409,11867329336,/g3t1_2,,success
Status,410,11877430303,/g3t1_3,,running
Status,411,11877701369,/g3t1_3,,success
Status,412,11905757503,/g4t1,,fail
Status,413,11917270006,/g3t1_1,,running
Status,414,11917938111,/g3t1_2,,running
Status,415,11917991664,/g3t1_2,,success
Status,416,11918045169,/g3t1_1,,success
Status,417,11926952398,/g3t1_3,,running
Status,418,11927155348,/g3t1_3,,success
Status,419,11966903990,/g3t1_1,,running
Status,420,11967047109,/g3t1_1,,success
Status,421,11967067543,/g3t1_2,,running
Status,422,11967188377,/g3t1_2,,success
Status,423,11977082402,/g3t1_3,,running
Status,424,11977182394,/g3t1_3,,success
Status,425,12005867847,/g4t1,,fail
Status,426,12017224732,/g3t1_1,,running
Status,427,12017243500,/g3t1_1,,success
Status,428,12017264405,/g3t1_2,,running
Status,429,12017271057,/g3t1_2,,success
Status,430,12027122504,/g3t1_3,,running
Status,431,12027147237,/g3t1_3,,success
Status,432,12067145000,/g3t1_1,,running
Status,433,12067176673,/g3t1_2,,running
Status,434,12067211097,/g3t1_1,,success
Status,435,12067310086,/g3t1_2,,success
Status,436,12077685231,/g3t1_3,,running
Status,437,12077955711,/g3t1_3,,success
Status,438,12105971405,/g4t1,,fail
Status,439,12117299817,/g3t1_1,,running
Status,440,12117321044,/g3t1_1,,success
Status,441,12117357328,/g3t1_2,,running
Status,442,12117474472,/g3t1_2,,success
Status,443,12127458804,/g3t1_3,,running
Status,444,12127633172,/g3t1_3,,success
Status,445,12167383254,/g3t1_1,,running
Status,446,12167442202,/g3t1_2,,running
Status,447,12167633376,/g3t1_1,,success
Status,448,12167665139,/g3t1_2,,success
Status,449,12178028861,/g3t1_3,,running
Status,450,12178083735,/g3t1_3,,success
Status,451,12206734797,/g4t1,,fail
Status,452,12217836161,/g3t1_1,,running
Status,453,12217883634,/g3t1_2,,running
Status,454,12218090365,/g3t1_1,,success
Status,455,12218388874,/g3t1_2,,success
Status,456,12228222942,/g3t1_3,,running
Status,457,12228271305,/g3t1_3,,success
Status,458,12268049732,/g3t1_1,,running
Status,459,12268097779,/g3t1_2,,running
Status,460,12268120571,/g3t1_1,,success
Status,461,12268138646,/g3t1_2,,success
Status,462,12278549491,/g3t1_3,,running
Status,463,12278922100,/g3t1_3,,success
Status,464,12306502697,/g4t1,,fail
Status,465,12317940509,/g3t1_1,,running
Status,466,12318012225,/g3t1_1,,success
Status,467,12318040122,/g3t1_2,,running
Status,468,12318071032,/g3t1_2,,success
Status,469,12328218154,/g3t1_3,,running
Status,470,12328395297,/g3t1_3,,success
Status,471,12367764898,/g3t1_1,,running
Status,472,12367804504,/g3t1_2,,running
Status,473,12367836730,/g3t1_1,,success
Status,474,12367939652,/g3t1_2,,success
Status,475,12378409585,/g3t1_3,,running
Status,476,12378433522,/g3t1_3,,success
Status,477,12406476769,/g4t1,,fail
Status,478,12418491199,/g3t1_1,,running
Status,479,12418559358,/g3t1_2,,running
Status,480,12418667515,/g3t1_1,,success
Status,481,12418686236,/g3t1_2,,success
Status,482,12428265886,/g3t1_3,,running
Status,483,12428297925,/g3t1_3,,success
Status,484,12468117225,/g3t1_1,,running
Status,485,12468379119,/g3t1_2,,running
Status,486,12468439131,/g3t1_1,,success
Status,487,12468503825,/g3t1_2,,success
Status,488,12478650117,/g3t1_3,,running
Status,489,12478791649,/g3t1_3,,success
Status,490,12506769471,/g4t1,,fail
Status,491,12518535470,/g3t1_1,,running
Status,492,12518635347,/g3t1_2,,running
Status,493,12518667309,/g3t1_2,,success
Status,494,12518874383,/g3t1_1,,success
Status,495,12528775857,/g3t1_3,,running
Status,496,12528934141,/g3t1_3,,success
Status,497,12568551999,/g3t1_1,,running
Status,498,12568596966,/g3t1_2,,running
Status,499,12568635330,/g3t1_1,,success
Status,500,12568653394,/g3t1_2,,success
Status,501,12578629806,/g3t1_3,,running
Status,502,12579161031,/g3t1_3,,success
Status,503,12606964241,/g4t1,,fail
Status,504,12618694822,/g3t1_1,,running
Status,505,12618757264,/g3t1_2,,running
Status,506,12619240507,/g3t1_2,,success
Status,507,12619291079,/g3t1_1,,success
Status,508,12628861467,/g3t1_3,,running
Status,509,12629173832,/g3t1_3,,success
Status,510,12668786915,/g3t1_1,,running
Status,511,12668899474,/g3t1_2,,running
Status,512,12669362333,/g3t1_2,,success
Status,513,12669428272,/g3t1_1,,success
Status,514,12678920132,/g3t1_3,,running
Status,515,12679355380,/g3t1_3,,success
Status,516,12707069639,/g4t1,,fail
Status,517,12719127496,/g3t1_1,,running
Status,518,12719257675,/g3t1_2,,running
Status,519,12719290969,/g3t1_1,,success
Status,520,12719462209,/g3t1_2,,success
Status,521,12729252414,/g3t1_3,,running
Status,522,12729310086,/g3t1_3,,success
Status,523,12769093968,/g3t1_1,,running
Status,524,12769170121,/g3t1_2,,running
Status,525,12769385796,/g3t1_1,,success
Status,526,12769578320,/g3t1_2,,success
Status,527,12779372112,/g3t1_3,,running
Status,528,12779429661,/g3t1_3,,success
Status,529,12807511967,/g4t1,,fail
Status,530,12818910182,/g3t1_1,,running
Status,531,12819335843,/g3t1_2,,running
Status,532,12819969505,/g3t1_1,,success
Status,533,12820032364,/g3t1_2,,success
Status,534,12829408410,/g3t1_3,,running
Status,535,12829693667,/g3t1_3,,success
Status,536,12869077283,/g3t1_1,,running
Status,537,12869216811,/g3t1_2,,running
Status,538,12869284924,/g3t1_1,,success
Status,539,12869574948,/g3t1_2,,success
Status,540,12879628575,/g3t1_3,,running
Status,541,12880162357,/g3t1_3,,success
Status,542,12907202067,/g4t1,,fail
Status,543,12919302719,/g3t1_1,,running
Status,544,12919376071,/g3t1_2,,running
Status,545,12919456034,/g3t1_1,,success
Status,546,12920242167,/g3t1_2,,success
Status,547,12929674572,/g3t1_3,,running
Status,548,12930234236,/g3t1_3,,success
Status,549,12969376667,/g3t1_1,,running
Status,550,12969724110,/g3t1_2,,running
Status,551,12970079539,/g3t1_1,,success
Status,552,12970231602,/g3t1_2,,success
Status,553,12980200807,/g3t1_3,,running
Status,554,12981012996,/g3t1_3,,success
Status,555,13008195251,/g4t1,,fail
Status,556,13019952344,/g3t1_1,,running
Status,557,13020076374,/g3t1_2,,running
Status,558,13020114823,/g3t1_2,,success
Status,559,13020959772,/g3t1_1,,success
Status,560,13030601914,/g3t1_3,,running
Status,561,13030851241,/g3t1_3,,success
Status,562,13069170825,/g3t1_1,,running
Status,563,13069250746,/g3t1_1,,success
Status,564,13069429576,/g3t1_2,,running
Status,565,13069620165,/g3t1_2,,success
Status,566,13079724785,/g3t1_3,,running
Status,567,13080088108,/g3t1_3,,success
Status,568,13107348501,/g4t1,,fail
Status,569,13119129132,/g3t1_1,,running
Status,570,13119418074,/g3t1_1,,success
Status,571,13119441631,/g3t1_2,,running
Status,572,13119458330,/g3t1_2,,success
Status,573,13129747850,/g3t1_3,,running
Status,574,13129949211,/g3t1_3,,success
Status,575,13169763559,/g3t1_1,,running
Status,576,13169843953,/g3t1_2,,running
Status,577,13170435512,/g3t1_2,,success
Status,578,13170537658,/g3t1_1,,success
Status,579,13180253432,/g3t1_3,,running
Status,580,13180616606,/g3t1_3,,success
Status,581,13207728034,/g4t1,,fail
Status,582,13220050749,/g3t1_1,,running
Status,583,13220139796,/g3t1_2,,running
Status,584,13220553044,/g3t1_1,,success
Status,585,13220627160,/g3t1_2,,success
Status,586,13230665054,/g3t1_3,,running
Status,587,13230972717,/g3t1_3,,success
Status,588,13269693472,/g3t1_1,,running
Status,589,13269772761,/g3t1_1,,success
Status,590,13269792579,/g3t1_2,,running
Status,591,13269977322,/g3t1_2,,success
Status,592,13280719382,/g3t1_3,,running
Status,593,13280941015,/g3t1_3,,success
Status,594,13307316149,/g4t1,,fail
Status,595,13319734131,/g3t1_1,,running
Status,596,13319775541,/g3t1_1,,success
Status,597,13319812606,/g3t1_2,,running
Status,598,13319969901,/g3t1_2,,success
Status,599,13330298714,/g3t1_3,,running
Status,600,13330483080,/g3t1_3,,success
Status,601,13369809585,/g3t1_1,,running
Status,602,13369939250,/g3t1_1,,success
Status,603,13370137101,/g3t1_2,,running
Status,604,13370214986,/g3t1_2,,success
Status,605,13380807328,/g3t1_3,,running
Status,606,13380842669,/g3t1_3,,success
Status,607,13407318642,/g4t1,,fail
Status,608,13419864133,/g3t1_1,,running
Status,609,13419899451,/g3t1_2,,running
Status,610,13419988754,/g3t1_1,,success
Status,611,13420009386,/g3t1_2,,success
Status,612,13430523550,/g3t1_3,,running
Status,613,13430569200,/g3t1_3,,success
Status,614,13470602402,/g3t1_1,,running
Status,615,13470957480,/g3t1_1,,success
Status,616,13471093866,/g3t1_2,,running
Status,617,13471413330,/g3t1_2,,success
Status,618,13481284189,/g3t1_3,,running
Status,619,13481897067,/g3t1_3,,success
Status,620,13507832269,/g4t1,,fail
Status,621,13520372886,/g3t1_1,,running
Status,622,13520463732,/g3t1_2,,running
Status,623,13520721951,/g3t1_2,,success
Status,624,13520767989,/g3t1_1,,success
Status,625,13530802661,/g3t1_3,,running
Status,626,13531014835,/g3t1_3,,success
Status,627,13571412672,/g3t1_1,,running
Status,628,13571482477,/g3t1_2,,running
Status,629,13571508763,/g3t1_2,,success
Status,630,13571536826,/g3t1_1,,success
Status,631,13581297708,/g3t1_3,,running
Status,632,13581675938,/g3t1_3,,success
Status,633,13608216647,/g4t1,,fail
Status,634,13621051861,/g3t1_1,,running
Status,635,13621133590,/g3t1_2,,running
Status,636,13621669955,/g3t1_2,,success
Status,637,13622008736,/g3t1_1,,success
Status,638,13631303949,/g3t1_3,,running
Status,639,13631863342,/g3t1_3,,success
Status,640,13671413446,/g3t1_1,,running
Status,641,13671511335,/g3t1_2,,running
Status,642,13672278825,/g3t1_2,,success
Status,643,13672419009,/g3t1_1,,success
Status,644,13681655418,/g3t1_3,,running
Status,645,13681743457,/g3t1_3,,success
Status,646,13708375827,/g4t1,,fail
Status,647,13721288472,/g3t1_1,,running
Status,648,13721380063,/g3t1_2,,running
Status,649,13721767087,/g3t1_1,,success
Status,650,13721823236,/g3t1_2,,success
Status,651,13731709711,/g3t1_3,,running
Status,652,13732000355,/g3t1_3,,success
Status,653,13771860757,/g3t1_2,,running
Status,654,13771985575,/g3t1_1,,running
Status,655,13772380305,/g3t1_1,,success
Status,656,13772462307,/g3t1_2,,success
Status,657,13781994342,/g3t1_3,,running
Status,658,13782087163,/g3t1_3,,success
Status,659,13808625822,/g4t1,,fail
Status,660,13821594842,/g3t1_1,,running
Status,661,13821968499,/g3t1_2,,running
Status,662,13822079545,/g3t1_1,,success
Status,663,13822870910,/g3t1_2,,success
Status,664,13831904693,/g3t1_3,,running
Status,665,13832204218,/g3t1_3,,success
Status,666,13871739661,/g3t1_1,,running
Status,667,13871862035,/g3t1_2,,running
Status,668,13872554415,/g3t1_2,,success
Status,669,13872938748,/g3t1_1,,success
Status,670,13882300918,/g3t1_3,,running
Status,671,13882404672,/g3t1_3,,success
Status,672,13908720805,/g4t1,,fail
Status,673,13921919243,/g3t1_2,,running
Status,674,13922016133,/g3t1_1,,running
Status,675,13922103825,/g3t1_2,,success
Status,676,13922286476,/g3t1_1,,success
Status,677,13932199337,/g3t1_3,,running
Status,678,13932548715,/g3t1_3,,success
Status,679,13972123544,/g3t1_1,,running
Status,680,13972243751,/g3t1_2,,running
Status,681,13972917147,/g3t1_1,,success
Status,682,13972994201,/g3t1_2,,success
Status,683,13982575491,/g3t1_3,,running
Status,684,13982843673,/g3t1_3,,success
Status,685,14008888237,/g4t1,,fail
Status,686,14022024242,/g3t1_1,,running
Status,687,14022233003,/g3t1_2,,running
Status,688,14022515564,/g3t1_2,,success
Status,689,14022656876,/g3t1_1,,success
Status,690,14032581609,/g3t1_3,,running
Status,691,14032808970,/g3t1_3,,success
Status,692,14072631869,/g3t1_2,,running
Status,693,14072725001,/g3t1_1,,running
Status,694,14073242328,/g3t1_2,,success
Status,695,14073315373,/g3t1_1,,success
Status,696,14082627973,/g3t1_3,,running
Status,697,14083043423,/g3t1_3,,success
Status,698,14108917707,/g4t1,,fail
Status,699,14122525610,/g3t1_2,,running
Status,700,14122615783,/g3t1_1,,running
Status,701,14122777535,/g3t1_2,,success
Status,702,14122830586,/g3t1_1,,success
Status,703,14132829249,/g3t1_3,,running
Status,704,14133409394,/g3t1_3,,success
Status,705,14172602644,/g3t1_1,,running
Status,706,14172677232,/g3t1_2,,running
Status,707,14173303804,/g3t1_2,,success
Status,708,14173387989,/g3t1_1,,success
Status,709,14183404270,/g3t1_3,,running
Status,710,14183861327,/g3t1_3,,success
Status,711,14209122526,/g4t1,,fail
Status,712,14222375534,/g3t1_1,,running
Status,713,14222449766,/g3t1_2,,running
Status,714,14222801833,/g3t1_1,,success
Status,715,14222885036,/g3t1_2,,success
Status,716,14233328167,/g3t1_3,,running
Status,717,14233883828,/g3t1_3,,success
Status,718,14272802212,/g3t1_2,,running
Status,719,14272880356,/g3t1_1,,running
Status,720,14273157973,/g3t1_2,,success
Status,721,14273226574,/g3t1_1,,success
Status,722,14283242209,/g3t1_3,,running
Status,723,14283688947,/g3t1_3,,success
Status,724,14309251977,/g4t1,,fail
Status,725,14322253915,/g3t1_2,,running
Status,726,14322291958,/g3t1_1,,running
Status,727,14322492465,/g3t1_2,,success
Status,728,14322520489,/g3t1_1,,success
Status,729,14333056197,/g3t1_3,,running
Status,730,14333078888,/g3t1_3,,success
Status,731,14372698067,/g3t1_1,,running
Status,732,14372731543,/g3t1_2,,running
Status,733,14372855440,/g3t1_1,,success
Status,734,14372874606,/g3t1_2,,success
Status,735,14382975592,/g3t1_3,,running
Status,736,14383003323,/g3t1_3,,success
Status,737,14408804694,/g4t1,,fail
Status,738,14422814398,/g3t1_1,,running
Status,739,14422863399,/g3t1_2,,running
Status,740,14422939991,/g3t1_1,,success
Status,741,14423096947,/g3t1_2,,success
Status,742,14433341613,/g3t1_3,,running
Status,743,14433403775,/g3t1_3,,success
Status,744,14472812692,/g3t1_1,,running
Status,745,14473649111,/g3t1_2,,running
Status,746,14473745840,/g3t1_1,,success
Status,747,14473842019,/g3t1_2,,success
Status,748,14483373905,/g3t1_3,,running
Status,749,14483407520,/g3t1_3,,success
Status,750,14508690534,/g4t1,,fail
Status,751,14522979746,/g3t1_2,,running
Status,752,14523012861,/g3t1_1,,running
Status,753,14523043827,/g3t1_1,,success
Status,754,14523056336,/g3t1_2,,success
Status,755,14533580307,/g3t1_3,,running
Status,756,14533623398,/g3t1_3,,success
Status,757,14572999944,/g3t1_2,,running
Status,758,14573531688,/g3t1_1,,running
Status,759,14573563568,/g3t1_2,,success
Status,760,14573597283,/g3t1_1,,success
Status,761,14583402841,/g3t1_3,,running
Status,762,14583695452,/g3t1_3,,success
Status,763,14609632317,/g4t1,,fail
Status,764,14622959379,/g3t1_2,,running
Status,765,14622992666,/g3t1_2,,success
Status,766,14623339626,/g3t1_1,,running
Status,767,14623364895,/g3t1_1,,success
Status,768,14633473036,/g3t1_3,,running
Status,769,14633515149,/g3t1_3,,success
Status,770,14673524296,/g3t1_2,,running
Status,771,14674042279,/g3t1_1,,running
Status,772,14674125068,/g3t1_2,,success
Status,773,14674150298,/g3t1_1,,success
Status,774,14684038695,/g3t1_3,,running
Status,775,14684101014,/g3t1_3,,success
Status,776,14709083681,/g4t1,,fail
Status,777,14723944005,/g3t1_2,,running
Status,778,14723988068,/g3t1_1,,running
Status,779,14724057447,/g3t1_2,,success
Status,780,14724206636,/g3t1_1,,success
Status,781,14733539773,/g3t1_3,,running
Status,782,14733696738,/g3t1_3,,success
Status,783,14773621468,/g3t1_2,,running
Status,784,14773662496,/g3t1_1,,running
Status,785,14773839372,/g3t1_2,,success
Status,786,14773861126,/g3t1_1,,success
Status,787,14783645126,/g3t1_3,,running
Status,788,14783760563,/g3t1_3,,success
Status,789,14809402526,/g4t1,,fail
Status,790,14823708684,/g3t1_2,,running
Status,791,14823762462,/g3t1_1,,running
Status,792,14823776641,/g3t1_1,,success
Status,793,14823880052,/g3t1_2,,success
Status,794,14833774601,/g3t1_3,,running
Status,795,14833800113,/g3t1_3,,success
Status,796,14874248509,/g3t1_2,,running
Status,797,14874341372,/g3t1_1,,running
Status,798,14874445622,/g3t1_2,,success
Status,799,14874483222,/g3t1_1,,success
Status,800,14884087180,/g3t1_3,,running
Status,801,14884505140,/g3t1_3,,success
Status,802,14909021192,/g4t1,,fail
Status,803,14923488593,/g3t1_2,,running
Status,804,14923598466,/g3t1_2,,success
Status,805,14923619917,/g3t1_1,,running
Status,806,14923788507,/g3t1_1,,success
Status,807,14933779318,/g3t1_3,,running
Status,808,14933857409,/g3t1_3,,success
Status,809,14974023691,/g3t1_2,,running
Status,810,14974081948,/g3t1_1,,running
Status,811,14974121517,/g3t1_2,,success
Status,812,14974463989,/g3t1_1,,success
Status,813,14984242921,/g3t1_3,,running
Status,814,14984275383,/g3t1_3,,success
Status,815,15010290947,/g4t1,,fail
Status,816,15024304997,/g3t1_2,,running
Status,817,15024671575,/g3t1_1,,running
Status,818,15024739330,/g3t1_2,,success
Status,819,15024777683,/g3t1_1,,success
Status,820,15034484435,/g3t1_3,,running
Status,821,15034870965,/g3t1_3,,success
Status,822,15074301809,/g3t1_2,,running
Status,823,15074647752,/g3t1_1,,running
Status,824,15074783945,/g3t1_2,,success
Status,825,15074935913,/g3t1_1,,success
Status,826,15084498529,/g3t1_3,,running
Status,827,15084820728,/g3t1_3,,success
Status,828,15109753178,/g4t1,,fail
Status,829,15124185989,/g3t1_2,,running
Status,830,15124588377,/g3t1_2,,success
Status,831,15124885732,/g3t1_1,,running
Status,832,15125217597,/g3t1_1,,success
Status,833,15134689959,/g3t1_3,,running
Status,834,15134974145,/g3t1_3,,success
Status,835,15174563623,/g3t1_2,,running
Status,836,15174638290,/g3t1_2,,success
Status,837,15175009478,/g3t1_1,,running
Status,838,15175418892,/g3t1_1,,success
Status,839,15184750116,/g3t1_3,,running
Status,840,15184980946,/g3t1_3,,success
Status,841,15209925073,/g4t1,,fail
Status,842,15224622640,/g3t1_2,,running
Status,843,15224980462,/g3t1_2,,success
Status,844,15225103294,/g3t1_1,,running
Status,845,15225418252,/g3t1_1,,success
Status,846,15234884259,/g3t1_3,,running
Status,847,15235306661,/g3t1_3,,success
Status,848,15275007720,/g3t1_2,,running
Status,849,15275082193,/g3t1_2,,success
Status,850,15275187608,/g3t1_1,,running
Status,851,15275654226,/g3t1_1,,success
Status,852,15284726710,/g3t1_3,,running
Status,853,15284848462,/g3t1_3,,success
Status,854,15310598026,/g4t1,,fail
Status,855,15325030354,/g3t1_2,,running
Status,856,15325098554,/g3t1_2,,success
Status,857,15325162186,/g3t1_1,,running
Status,858,15325531887,/g3t1_1,,success
Status,859,15334948948,/g3t1_3,,running
Status,860,15335170933,/g3t1_3,,success
Status,861,15375557501,/g3t1_2,,running
Status,862,15375644375,/g3t1_1,,running
Status,863,15375783100,/g3t1_2,,success
Status,864,15376099601,/g3t1_1,,success
Status,865,15385187150,/g3t1_3,,running
Status,866,15385573895,/g3t1_3,,success
Status,867,15410061609,/g4t1,,fail
Status,868,15425380235,/g3t1_2,,running
Status,869,15425503324,/g3t1_1,,running
Status,870,15426107736,/g3t1_2,,success
Status,871,15426514985,/g3t1_1,,success
Status,872,15435306027,/g3t1_3,,running
Status,873,15435838344,/g3t1_3,,success
Status,874,15475081375,/g3t1_2,,running
Status,875,15475773665,/g3t1_1,,running
Status,876,15475836765,/g3t1_2,,success
Status,877,15475873918,/g3t1_1,,success
Status,878,15485426595,/g3t1_3,,running
Status,879,15485992070,/g3t1_3,,success
Status,880,15510934482,/g4t1,,fail
Status,881,15524984083,/g3t1_2,,running
Status,882,15525590292,/g3t1_1,,running
Status,883,15525657801,/g3t1_2,,success
Status,884,15525955907,/g3t1_1,,success
Status,885,15535641985,/g3t1_3,,running
Status,886,15536221015,/g3t1_3,,success
Status,887,15575081066,/g3t1_2,,running
Status,888,15575500572,/g3t1_2,,success
Status,889,15575578367,/g3t1_1,,running
Status,890,15575969077,/g3t1_1,,success
Status,891,15586033548,/g3t1_3,,running
Status,892,15586279601,/g3t1_3,,success
Status,893,15611062710,/g4t1,,fail
Status,894,15625184417,/g3t1_2,,running
Status,895,15625757714,/g3t1_2,,success
Status,896,15625814102,/g3t1_1,,running
Status,897,15626213710,/g3t1_1,,success
Status,898,15636005611,/g3t1_3,,running
Status,899,15636477988,/g3t1_3,,success
Status,900,15675502351,/g3t1_2,,running
Status,901,15675829046,/g3t1_2,,success
Status,902,15675931113,/g3t1_1,,running
Status,903,15676314319,/g3t1_1,,success
Status,904,15686009473,/g3t1_3,,running
Status,905,15687306184,/g3t1_3,,success
Status,906,15711226973,/g4t1,,fail
Status,907,15725316278,/g3t1_2,,running
Status,908,15725859952,/g3t1_2,,success
Status,909,15725972311,/g3t1_1,,running
Status,910,15726471435,/g3t1_1,,success
Status,911,15736039958,/g3t1_3,,running
Status,912,15736251640,/g3t1_3,,success
Status,913,15776095554,/g3t1_2,,running
Status,914,15776206357,/g3t1_2,,success
Status,915,15776708211,/g3t1_1,,running
Status,916,15777236822,/g3t1_1,,success
Status,917,15785797228,/g3t1_3,,running
Status,918,15786049144,/g3t1_3,,success
Status,919,15810150511,/g4t1,,fail
Status,920,15825820510,/g3t1_2,,running
Status,921,15825891218,/g3t1_2,,success
Status,922,15826380260,/g3t1_1,,running
Status,923,15826815472,/g3t1_1,,success
Status,924,15835807121,/g3t1_3,,running
Status,925,15835949168,/g3t1_3,,success
Status,926,15875338061,/g3t1_2,,running
Status,927,15875527492,/g3t1_2,,success
Status,928,15875924584,/g3t1_1,,running
Status,929,15876037589,/g3t1_1,,success
Status,930,15885939186,/g3t1_3,,running
Status,931,15886052774,/g3t1_3,,success
Status,932,15910209410,/g4t1,,fail
Status,933,15925954666,/g3t1_2,,running
Status,934,15926463334,/g3t1_2,,success
Status,935,15926509875,/g3t1_1,,running
Status,936,15927204701,/g3t1_1,,success
Status,937,15936179099,/g3t1_3,,running
Status,938,15936453629,/g3t1_3,,success
Status,939,15975796375,/g3t1_2,,running
Status,940,15975975662,/g3t1_2,,success
Status,941,15976694250,/g3t1_1,,running
Status,942,15976734771,/g3t1_1,,success
Status,943,15986842793,/g3t1_3,,running
Status,944,15986964672,/g3t1_3,,success
Status,945,16011541185,/g4t1,,fail
Status,946,16026480380,/g3t1_2,,running
Status,947,16027817759,/g3t1_2,,success
Status,948,16027919985,/g3t1_1,,running
Status,949,16027971256,/g3t1_1,,success
Status,950,16036903750,/g3t1_3,,running
Status,951,16036973074,/g3t1_3,,success
Status,952,16076306436,/g3t1_2,,running
Status,953,16076866754,/g3t1_2,,success
Status,954,16077018875,/g3t1_1,,running
Status,955,16077432073,/g3t1_1,,success
Status,956,16087029367,/g3t1_3,,running
Status,957,16087111033,/g3t1_3,,success
Status,958,16111303077,/g4t1,,fail
Status,959,16126994703,/g3t1_2,,running
Status,960,16127249222,/g3t1_2,,success
Status,961,16127412307,/g3t1_1,,running
Status,962,16127909143,/g3t1_1,,success
Status,963,16137160516,/g3t1_3,,running
Status,964,16137418595,/g3t1_3,,success
Status,965,16176974765,/g3t1_2,,running
Status,966,16177125608,/g3t1_2,,success
Status,967,16177202220,/g3t1_1,,running
Status,968,16177865837,/g3t1_1,,success
Status,969,16187589430,/g3t1_3,,running
Status,970,16188617006,/g3t1_3,,success
Status,971,16210580039,/g4t1,,fail
Status,972,16226130588,/g3t1_2,,running
Status,973,16226321188,/g3t1_2,,success
Status,974,16226706630,/g3t1_1,,running
Status,975,16226879568,/g3t1_1,,success
Status,976,16236770710,/g3t1_3,,running
Status,977,16236936501,/g3t1_3,,success
Status,978,16276662203,/g3t1_2,,running
Status,979,16276696252,/g3t1_2,,success
Status,980,16277167617,/g3t1_1,,running
Status,981,16277340156,/g3t1_1,,success
Status,982,16286832375,/g3t1_3,,running
Status,983,16287039583,/g3t1_3,,success
Status,984,16311023274,/g4t1,,fail
Status,985,16326589754,/g3t1_2,,running
Status,986,16326653936,/g3t1_2,,success
Status,987,16326978559,/g3t1_1,,running
Status,988,16327207734,/g3t1_1,,success
Status,989,16336939910,/g3t1_3,,running
Status,990,16337095964,/g3t1_3,,success
Status,991,16377100871,/g3t1_2,,running
Status,992,16377192865,/g3t1_2,,success
Status,993,16377261401,/g3t1_1,,running
Status,994,16377550930,/g3t1_1,,success
Status,995,16387044979,/g3t1_3,,running
Status,996,16387193656,/g3t1_3,,success
Status,997,16411078021,/g4t1,,fail
Status,998,16427060736,/g3t1_2,,running
Status,999,16427284356,/g3t1_2,,success
Status,1000,16427326204,/g3t1_1,,running
Status,1001,16428020858,/g3t1_1,,success
Status,1002,16437438247,/g3t1_3,,running
Status,1003,16437655330,/g3t1_3,,success
Status,1004,16476914807,/g3t1_2,,running
Status,1005,16477140134,/g3t1_2,,success
Status,1006,16477387173,/g3t1_1,,running
Status,1007,16477612959,/g3t1_1,,success
Status,1008,16487205296,/g3t1_3,,running
Status,1009,16487266526,/g3t1_3,,success
Status,1010,16510670825,/g4t1,,fail
Status,1011,16527727207,/g3t1_2,,running
Status,1012,16527794995,/g3t1_2,,success
Status,1013,16527832499,/g3t1_1,,running
Status,1014,16528047025,/g3t1_1,,success
Status,1015,16537345643,/g3t1_3,,running
Status,1016,16537535224,/g3t1_3,,success
Status,1017,16576906945,/g3t1_2,,running
Status,1018,16577026456,/g3t1_2,,success
Status,1019,16577466617,/g3t1_1,,running
Status,1020,16577487212,/g3t1_1,,success
Status,1021,16587429789,/g3t1_3,,running
Status,1022,16587453939,/g3t1_3,,success
Status,1023,16610887704,/g4t1,,fail
Status,1024,16627392577,/g3t1_2,,running
Status,1025,16627424413,/g3t1_2,,success
Status,1026,16627523585,/g3t1_1,,running
Status,1027,16627729941,/g3t1_1,,success
Status,1028,16637582048,/g3t1_3,,running
Status,1029,16637608484,/g3t1_3,,success
Status,1030,16677122521,/g3t1_2,,running
Status,1031,16677146848,/g3t1_2,,success
Status,1032,16677485372,/g3t1_1,,running
Status,1033,16677618661,/g3t1_1,,success
Status,1034,16687868210,/g3t1_3,,running
Status,1035,16687898433,/g3t1_3,,success
Status,1036,16711868829,/g4t1,,fail
Status,1037,16727346903,/g3t1_2,,running
Status,1038,16727636669,/g3t1_2,,success
Status,1039,16727893020,/g3t1_1,,running
Status,1040,16727940609,/g3t1_1,,success
Status,1041,16738390091,/g3t1_3,,running
Status,1042,16739054594,/g3t1_3,,success
Status,1043,16777659602,/g3t1_2,,running
Status,1044,16778150290,/g3t1_2,,success
Status,1045,16778261048,/g3t1_1,,running
Status,1046,16778609214,/g3t1_1,,success
Status,1047,16788417318,/g3t1_3,,running
Status,1048,16788798810,/g3t1_3,,success
Status,1049,16811656842,/g4t1,,fail
Status,1050,16828358318,/g3t1_2,,running
Status,1051,16828582471,/g3t1_1,,running
Status,1052,16828696333,/g3t1_2,,success
Status,1053,16829126994,/g3t1_1,,success
Status,1054,16838356366,/g3t1_3,,running
Status,1055,16838606670,/g3t1_3,,success
Status,1056,16877914742,/g3t1_2,,running
Status,1057,16878474298,/g3t1_2,,success
Status,1058,16878541840,/g3t1_1,,running
Status,1059,16878900188,/g3t1_1,,success
Status,1060,16888453679,/g3t1_3,,running
Status,1061,16888969389,/g3t1_3,,success
Status,1062,16911687818,/g4t1,,fail
Status,1063,16928425399,/g3t1_2,,running
Status,1064,16928699800,/g3t1_1,,running
Status,1065,16928766336,/g3t1_2,,success
Status,1066,16929648483,/g3t1_1,,success
Status,1067,16938873113,/g3t1_3,,running
Status,1068,16939381910,/g3t1_3,,success
Status,1069,16978065777,/g3t1_2,,running
Status,1070,16978215758,/g3t1_1,,running
Status,1071,16978278911,/g3t1_2,,success
Status,1072,16978405601,/g3t1_1,,success
Status,1073,16988472672,/g3t1_3,,running
Status,1074,16988497078,/g3t1_3,,success
Status,1075,17011859250,/g4t1,,fail
Status,1076,17028070333,/g3t1_2,,running
Status,1077,17028100467,/g3t1_1,,running
Status,1078,17028136781,/g3t1_2,,success
Status,1079,17028267501,/g3t1_1,,success
Status,1080,17038756610,/g3t1_3,,running
Status,1081,17038786467,/g3t1_3,,success
Status,1082,17078756603,/g3t1_2,,running
Status,1083,17078804883,/g3t1_1,,running
Status,1084,17078983430,/g3t1_2,,success
Status,1085,17079226435,/g3t1_1,,success
Status,1086,17088677117,/g3t1_3,,running
Status,1087,17088706099,/g3t1_3,,success
Status,1088,17111448172,/g4t1,,fail
Status,1089,17128677297,/g3t1_2,,running
Status,1090,17128720111,/g3t1_1,,running
Status,1091,17128734935,/g3t1_2,,success
Status,1092,17128869435,/g3t1_1,,success
Status,1093,17138789351,/g3t1_3,,running
Status,1094,17138936129,/g3t1_3,,success
Status,1095,17179581323,/g3t1_2,,running
Status,1096,17179653518,/g3t1_1,,running
Status,1097,17179861022,/g3t1_2,,success
Status,1098,17179905989,/g3t1_1,,success
Status,1099,17189099325,/g3t1_3,,running
Status,1100,17189390787,/g3t1_3,,success
Status,1101,17212360173,/g4t1,,fail
Status,1102,17229052582,/g3t1_2,,running
Status,1103,17229111187,/g3t1_1,,running
Status,1104,17229282325,/g3t1_2,,success
Status,1105,17229361023,/g3t1_1,,success
Status,1106,17239193944,/g3t1_3,,running
Status,1107,17239480454,/g3t1_3,,success
Status,1108,17279704462,/g3t1_2,,running
Status,1109,17279799848,/g3t1_1,,running
Status,1110,17280311976,/g3t1_2,,success
Status,1111,17280379240,/g3t1_1,,success
Status,1112,17289270079,/g3t1_3,,running
Status,1113,17289855300,/g3t1_3,,success
Status,1114,17312455773,/g4t1,,fail
Status,1115,17329706216,/g3t1_2,,running
Status,1116,17329798270,/g3t1_1,,running
Status,1117,17329894463,/g3t1_2,,success
Status,1118,17330411823,/g3t1_1,,success
Status,1119,17339532451,/g3t1_3,,running
Status,1120,17339949562,/g3t1_3,,success
Status,1121,17379636259,/g3t1_2,,running
Status,1122,17380030863,/g3t1_1,,running
Status,1123,17380155783,/g3t1_1,,success
Status,1124,17380527747,/g3t1_2,,success
Status,1125,17389632702,/g3t1_3,,running
Status,1126,17389854736,/g3t1_3,,success
Status,1127,17412460339,/g4t1,,fail
Status,1128,17430160678,/g3t1_2,,running
Status,1129,17430336136,/g3t1_1,,running
Status,1130,17430439005,/g3t1_2,,success
Status,1131,17430773738,/g3t1_1,,success
Status,1132,17439838651,/g3t1_3,,running
Status,1133,17440210078,/g3t1_3,,success
Status,1134,17480024197,/g3t1_2,,running
Status,1135,17480116021,/g3t1_1,,running
Status,1136,17480431073,/g3t1_2,,success
Status,1137,17480492326,/g3t1_1,,success
Status,1138,17490126043,/g3t1_3,,running
Status,1139,17490506016,/g3t1_3,,success
Status,1140,17512698917,/g4t1,,fail
Status,1141,17531057717,/g3t1_1,,running
Status,1142,17531400021,/g3t1_2,,running
Status,1143,17531453827,/g3t1_1,,success
Status,1144,17531506127,/g3t1_2,,success
Status,1145,17540089024,/g3t1_3,,running
Status,1146,17540476379,/g3t1_3,,success
Status,1147,17580740915,/g3t1_1,,running
Status,1148,17580806657,/g3t1_2,,running
Status,1149,17581375113,/g3t1_1,,success
Status,1150,17582038817,/g3t1_2,,success
Status,1151,17590407598,/g3t1_3,,running
Status,1152,17590950522,/g3t1_3,,success
Status,1153,17611935136,/g4t1,,fail
Status,1154,17629845155,/g3t1_2,,running
Status,1155,17629917720,/g3t1_1,,running
Status,1156,17630364548,/g3t1_2,,success
Status,1157,17630409865,/g3t1_1,,success
Status,1158,17640071040,/g3t1_3,,running
Status,1159,17640098620,/g3t1_3,,success
Status,1160,17680228578,/g3t1_2,,running
Status,1161,17680287288,/g3t1_1,,running
Status,1162,17680300345,/g3t1_1,,success
Status,1163,17680312979,/g3t1_2,,success
Status,1164,17690458430,/g3t1_3,,running
Status,1165,17690532468,/g3t1_3,,success
Status,1166,17712121758,/g4t1,,fail
Status,1167,17730603240,/g3t1_1,,running
Status,1168,17730666138,/g3t1_2,,running
Status,1169,17730800269,/g3t1_1,,success
Status,1170,17730847419,/g3t1_2,,success
Status,1171,17740053520,/g3t1_3,,running
Status,1172,17740081644,/g3t1_3,,success
Status,1173,17781140917,/g3t1_2,,running
Status,1174,17781303257,/g3t1_1,,running
Status,1175,17782028782,/g3t1_2,,success
Status,1176,17782558237,/g3t1_1,,success
Status,1177,17790431135,/g3t1_3,,running
Status,1178,17790717800,/g3t1_3,,success
Status,1179,17812232835,/g4t1,,fail
Status,1180,17830554936,/g3t1_2,,running
Status,1181,17830584716,/g3t1_1,,running
Status,1182,17830741011,/g3t1_2,,success
Status,1183,17830763890,/g3t1_1,,success
Status,1184,17840175350,/g3t1_3,,running
Status,1185,17840356416,/g3t1_3,,success
Status,1186,17880773943,/g3t1_1,,running
Status,1187,17880810229,/g3t1_2,,running
Status,1188,17880912547,/g3t1_2,,success
Status,1189,17880956061,/g3t1_1,,success
Status,1190,17891017035,/g3t1_3,,running
Status,1191,17891058398,/g3t1_3,,success
Status,1192,17912733301,/g4t1,,fail
Status,1193,17931112130,/g3t1_1,,running
Status,1194,17931256196,/g3t1_2,,running
Status,1195,17931751856,/g3t1_1,,success
Status,1196,17932119317,/g3t1_2,,success
Status,1197,17941001713,/g3t1_3,,running
Status,1198,17941475502,/g3t1_3,,success
Status,1199,17981330231,/g3t1_2,,running
Status,1200,17981410484,/g3t1_1,,running
Status,1201,17981828916,/g3t1_1,,success
Status,1202,17981895323,/g3t1_2,,success
Status,1203,17990936144,/g3t1_3,,running
Status,1204,17991283626,/g3t1_3,,success
Status,1205,18012875769,/g4t1,,fail
Status,1206,18031477558,/g3t1_1,,running
Status,1207,18031575636,/g3t1_2,,running
Status,1208,18031678866,/g3t1_2,,success
Status,1209,18031899230,/g3t1_1,,success
Status,1210,18040884825,/g3t1_3,,running
Status,1211,18041203851,/g3t1_3,,success
Status,1212,18081249458,/g3t1_1,,running
Status,1213,18081318161,/g3t1_2,,running
Status,1214,18081713269,/g3t1_2,,success
Status,1215,18082135749,/g3t1_1,,success
Status,1216,18091071368,/g3t1_3,,running
Status,1217,18091275606,/g3t1_3,,success
Status,1218,18112867833,/g4t1,,fail
Status,1219,18131467790,/g3t1_2,,running
Status,1220,18131540739,/g3t1_1,,running
Status,1221,18131669319,/g3t1_2,,success
Status,1222,18132208264,/g3t1_1,,success
Status,1223,18141013875,/g3t1_3,,running
Status,1224,18141049707,/g3t1_3,,success
Status,1225,18181037069,/g3t1_2,,running
Status,1226,18181068324,/g3t1_1,,running
Status,1227,18181080105,/g3t1_1,,success
Status,1228,18181091026,/g3t1_2,,success
Status,1229,18191479148,/g3t1_3,,running
Status,1230,18191543517,/g3t1_3,,success
Status,1231,18212656652,/g4t1,,fail
Status,1232,18231286193,/g3t1_2,,running
Status,1233,18231317522,/g3t1_1,,running
Status,1234,18231329840,/g3t1_1,,success
Status,1235,18231340781,/g3t1_2,,success
Status,1236,18241600843,/g3t1_3,,running
Status,1237,18241945908,/g3t1_3,,success
Status,1238,18281176012,/g3t1_2,,running
Status,1239,18281367327,/g3t1_1,,running
Status,1240,18281394177,/g3t1_2,,success
Status,1241,18281426896,/g3t1_1,,success
Status,1242,18291803492,/g3t1_3,,running
Status,1243,18291855230,/g3t1_3,,success
Status,1244,18312669149,/g4t1,,fail
Status,1245,18331274678,/g3t1_2,,running
Status,1246,18331295802,/g3t1_1,,running
Status,1247,18331392230,/g3t1_1,,success
Status,1248,18331409289,/g3t1_2,,success
Status,1249,18341301392,/g3t1_3,,running
Status,1250,18341322969,/g3t1_3,,success
Status,1251,18381433082,/g3t1_2,,running
Status,1252,18381462352,/g3t1_1,,running
Status,1253,18381491247,/g3t1_2,,success
Status,1254,18381503969,/g3t1_1,,success
Status,1255,18391409685,/g3t1_3,,running
Status,1256,18391519376,/g3t1_3,,success
Status,1257,18413364083,/g4t1,,fail
Status,1258,18432297763,/g3t1_2,,running
Status,1259,18432392862,/g3t1_1,,running
Status,1260,18432473825,/g3t1_2,,success
Status,1261,18432505323,/g3t1_1,,success
Status,1262,18441865613,/g3t1_3,,running
Status,1263,18441921201,/g3t1_3,,success
Status,1264,18482556609,/g3t1_1,,running
Status,1265,18482655388,/g3t1_2,,running
Status,1266,18482953247,/g3t1_2,,success
Status,1267,18483003660,/g3t1_1,,success
Status,1268,18492042664,/g3t1_3,,running
Status,1269,18492107865,/g3t1_3,,success
Status,1270,18513819107,/g4t1,,fail
Status,1271,18531666330,/g3t1_2,,running
Status,1272,18531694718,/g3t1_1,,running
Status,1273,18531732582,/g3t1_1,,success
Status,1274,18532028718,/g3t1_2,,success
Status,1275,18541759398,/g3t1_3,,running
Status,1276,18541784059,/g3t1_3,,success
Status,1277,18581843259,/g3t1_2,,running
Status,1278,18581876878,/g3t1_1,,running
Status,1279,18581971083,/g3t1_2,,success
Status,1280,18582063954,/g3t1_1,,success
Status,1281,18591833985,/g3t1_3,,running
Status,1282,18592122492,/g3t1_3,,success
Status,1283,18613189404,/g4t1,,fail
Status,1284,18632044382,/g3t1_2,,running
Status,1285,18632110104,/g3t1_1,,running
Status,1286,18632131729,/g3t1_2,,success
Status,1287,18632160176,/g3t1_1,,success
Status,1288,18642004333,/g3t1_3,,running
Status,1289,18642093604,/g3t1_3,,success
Status,1290,18682550326,/g3t1_2,,running
Status,1291,18682713932,/g3t1_1,,running
Status,1292,18682759559,/g3t1_2,,success
Status,1293,18682832805,/g3t1_1,,success
Status,1294,18693007257,/g3t1_3,,running
Status,1295,18693087975,/g3t1_3,,success
Status,1296,18713890091,/g4t1,,fail
Status,1297,18733059707,/g3t1_2,,running
Status,1298,18733125987,/g3t1_1,,running
Status,1299,18733224909,/g3t1_2,,success
Status,1300,18733344587,/g3t1_1,,success
Status,1301,18742844214,/g3t1_3,,running
Status,1302,18742928881,/g3t1_3,,success
Status,1303,18782989417,/g3t1_2,,running
Status,1304,18783075643,/g3t1_1,,running
Status,1305,18783383912,/g3t1_2,,success
Status,1306,18783456214,/g3t1_1,,success
Status,1307,18793056045,/g3t1_3,,running
Status,1308,18793432321,/g3t1_3,,success
Status,1309,18813914639,/g4t1,,fail
Status,1310,18833295804,/g3t1_1,,running
Status,1311,18833420832,/g3t1_2,,running
Status,1312,18833463018,/g3t1_1,,success
Status,1313,18833539876,/g3t1_2,,success
Status,1314,18843047227,/g3t1_3,,running
Status,1315,18843657468,/g3t1_3,,success
Status,1316,18883324593,/g3t1_2,,running
Status,1317,18883410192,/g3t1_1,,running
Status,1318,18883814981,/g3t1_1,,success
Status,1319,18884149883,/g3t1_2,,success
Status,1320,18893389807,/g3t1_3,,running
Status,1321,18893633956,/g3t1_3,,success
Status,1322,18914110827,/g4t1,,fail
Status,1323,18933889147,/g3t1_2,,running
Status,1324,18934223777,/g3t1_1,,running
Status,1325,18934278793,/g3t1_1,,success
Status,1326,18934341096,/g3t1_2,,success
Status,1327,18943262830,/g3t1_3,,running
Status,1328,18943806470,/g3t1_3,,success
Status,1329,18983621346,/g3t1_2,,running
Status,1330,18983716494,/g3t1_1,,running
Status,1331,18984174478,/g3t1_1,,success
Status,1332,18984228020,/g3t1_2,,success
Status,1333,18993540214,/g3t1_3,,running
Status,1334,18993962845,/g3t1_3,,success
Status,1335,19014360561,/g4t1,,fail
Status,1336,19033570273,/g3t1_1,,running
Status,1337,19033764804,/g3t1_2,,running
Status,1338,19033866417,/g3t1_2,,success
Status,1339,19034674044,/g3t1_1,,success
Status,1340,19043371766,/g3t1_3,,running
Status,1341,19043668019,/g3t1_3,,success
Status,1342,19083175722,/g3t1_1,,running
Status,1343,19083226020,/g3t1_1,,success
Status,1344,19083338520,/g3t1_2,,running
Status,1345,19083456506,/g3t1_2,,success
Status,1346,19093539742,/g3t1_3,,running
Status,1347,19093581009,/g3t1_3,,success
Status,1348,19113702963,/g4t1,,fail
Status,1349,19133511831,/g3t1_1,,running
Status,1350,19133574063,/g3t1_2,,running
Status,1351,19133719939,/g3t1_2,,success
Status,1352,19134219645,/g3t1_1,,success
Status,1353,19143903953,/g3t1_3,,running
Status,1354,19143964326,/g3t1_3,,success
Status,1355,19183455954,/g3t1_1,,running
Status,1356,19183780515,/g3t1_2,,running
Status,1357,19183831633,/g3t1_2,,success
Status,1358,19183894111,/g3t1_1,,success
Status,1359,19194131714,/g3t1_3,,running
Status,1360,19194325841,/g3t1_3,,success
Status,1361,19214372604,/g4t1,,fail
Status,1362,19233714881,/g3t1_2,,running
Status,1363,19233838633,/g3t1_1,,running
Status,1364,19234250754,/g3t1_2,,success
Status,1365,19234316064,/g3t1_1,,success
Status,1366,19244242117,/g3t1_3,,running
Status,1367,19244312018,/g3t1_3,,success
Status,1368,19284207272,/g3t1_2,,running
Status,1369,19284693052,/g3t1_1,,running
Status,1370,19284765282,/g3t1_1,,success
Status,1371,19284791432,/g3t1_2,,success
Status,1372,19294286871,/g3t1_3,,running
Status,1373,19294942897,/g3t1_3,,success
Status,1374,19314854642,/g4t1,,fail
Status,1375,19334218436,/g3t1_2,,running
Status,1376,19334323888,/g3t1_1,,running
Status,1377,19334823216,/g3t1_1,,success
Status,1378,19334944640,/g3t1_2,,success
Status,1379,19344550457,/g3t1_3,,running
Status,1380,19344624719,/g3t1_3,,success
Status,1381,19384274812,/g3t1_2,,running
Status,1382,19384383280,/g3t1_1,,running
Status,1383,19384740730,/g3t1_1,,success
Status,1384,19384803555,/g3t1_2,,success
Status,1385,19394437448,/g3t1_3,,running
Status,1386,19394817144,/g3t1_3,,success
Status,1387,19415092715,/g4t1,,fail
Status,1388,19434475029,/g3t1_2,,running
Status,1389,19434606598,/g3t1_1,,running
Status,1390,19434760349,/g3t1_2,,success
Status,1391,19434806496,/g3t1_1,,success
Status,1392,19444896270,/g3t1_3,,running
Status,1393,19445609620,/g3t1_3,,success
Status,1394,19484576346,/g3t1_1,,running
Status,1395,19484660240,/g3t1_2,,running
Status,1396,19484693046,/g3t1_2,,success
Status,1397,19485049644,/g3t1_1,,success
Status,1398,19494919138,/g3t1_3,,running
Status,1399,19495484733,/g3t1_3,,success
Status,1400,19515128643,/g4t1,,fail
Status,1401,19534728716,/g3t1_2,,running
Status,1402,19534798284,/g3t1_1,,running
Status,1403,19534824697,/g3t1_1,,success
Status,1404,19535303145,/g3t1_2,,success
Status,1405,19544936268,/g3t1_3,,running
Status,1406,19545384954,/g3t1_3,,success
Status,1407,19585032336,/g3t1_1,,running
Status,1408,19585111489,/g3t1_2,,running
Status,1409,19585306456,/g3t1_1,,success
Status,1410,19585505140,/g3t1_2,,success
Status,1411,19594789581,/g3t1_3,,running
Status,1412,19595440355,/g3t1_3,,success
Status,1413,19615328234,/g4t1,,fail
Status,1414,19634981465,/g3t1_1,,running
Status,1415,19635230967,/g3t1_2,,running
Status,1416,19635267287,/g3t1_1,,success
Status,1417,19635554983,/g3t1_2,,success
Status,1418,19645262295,/g3t1_3,,running
Status,1419,19645545120,/g3t1_3,,success
Status,1420,19684977878,/g3t1_1,,running
Status,1421,19685022059,/g3t1_1,,success
Status,1422,19685039197,/g3t1_2,,running
Status,1423,19685054032,/g3t1_2,,success
Status,1424,19694820684,/g3t1_3,,running
Status,1425,19695117266,/g3t1_3,,success
Status,1426,19714868236,/g4t1,,fail
Status,1427,19734589911,/g3t1_1,,running
Status,1428,19734614276,/g3t1_2,,running
Status,1429,19734629880,/g3t1_1,,success
Status,1430,19734653389,/g3t1_2,,success
Status,1431,19745204159,/g3t1_3,,running
Status,1432,19745334822,/g3t1_3,,success
Status,1433,19784417747,/g3t1_1,,running
Status,1434,19784473173,/g3t1_2,,running
Status,1435,19784788161,/g3t1_2,,success
Status,1436,19784809856,/g3t1_1,,success
Status,1437,19794966340,/g3t1_3,,running
Status,1438,19795011115,/g3t1_3,,success
Status,1439,19814581386,/g4t1,,fail
Status,1440,19834658792,/g3t1_2,,running
Status,1441,19834686123,/g3t1_1,,running
Status,1442,19834720123,/g3t1_2,,success
Status,1443,19834730117,/g3t1_1,,success
Status,1444,19845030452,/g3t1_3,,running
Status,1445,19845055741,/g3t1_3,,success
Status,1446,19884655831,/g3t1_2,,running
Status,1447,19884696037,/g3t1_1,,running
Status,1448,19884782152,/g3t1_1,,success
Status,1449,19884800388,/g3t1_2,,success
Status,1450,19895032408,/g3t1_3,,running
Status,1451,19895142591,/g3t1_3,,success
Status,1452,19914900259,/g4t1,,fail
Status,1453,19935228267,/g3t1_2,,running
Status,1454,19935273505,/g3t1_1,,running
Status,1455,19935506984,/g3t1_1,,success
Status,1456,19935533840,/g3t1_2,,success
Status,1457,19945185236,/g3t1_3,,running
Status,1458,19945308591,/g3t1_3,,success
Status,1459,19985205232,/g3t1_1,,running
Status,1460,19985255858,/g3t1_2,,running
Status,1461,19985361945,/g3t1_1,,success
Status,1462,19985383204,/g3t1_2,,success
Status,1463,19995706780,/g3t1_3,,running
Status,1464,19995768809,/g3t1_3,,success
Status,1465,20015357291,/g4t1,,fail
Status,1466,20035371512,/g3t1_1,,running
Status,1467,20035489741,/g3t1_2,,running
Status,1468,20035775967,/g3t1_2,,success
Status,1469,20035838694,/g3t1_1,,success
Status,1470,20045755651,/g3t1_3,,running
Status,1471,20046046305,/g3t1_3,,success
Status,1472,20085473550,/g3t1_2,,running
Status,1473,20085547482,/g3t1_1,,running
Status,1474,20085880178,/g3t1_1,,success
Status,1475,20085919852,/g3t1_2,,success
Status,1476,20095728287,/g3t1_3,,running
Status,1477,20096038546,/g3t1_3,,success
Status,1478,20115449290,/g4t1,,fail
Status,1479,20135927325,/g3t1_1,,running
Status,1480,20136028226,/g3t1_2,,running
Status,1481,20136510167,/g3t1_2,,success
Status,1482,20136860071,/g3t1_1,,success
Status,1483,20146303435,/g3t1_3,,running
Status,1484,20146392305,/g3t1_3,,success
Status,1485,20186405625,/g3t1_1,,running
Status,1486,20186535571,/g3t1_2,,running
Status,1487,20186565235,/g3t1_2,,success
Status,1488,20187096039,/g3t1_1,,success
Status,1489,20196227803,/g3t1_3,,running
Status,1490,20196674224,/g3t1_3,,success
Status,1491,20215672633,/g4t1,,fail
Status,1492,20236156180,/g3t1_1,,running
Status,1493,20236250236,/g3t1_2,,running
Status,1494,20236371911,/g3t1_2,,success
Status,1495,20236668385,/g3t1_1,,success
Status,1496,20246579228,/g3t1_3,,running
Status,1497,20246648075,/g3t1_3,,success
Status,1498,20286827510,/g3t1_1,,running
Status,1499,20286917621,/g3t1_2,,running
Status,1500,20287120592,/g3t1_2,,success
Status,1501,20287151471,/g3t1_1,,success
Status,1502,20296428062,/g3t1_3,,running
Status,1503,20296715230,/g3t1_3,,success
Status,1504,20315806376,/g4t1,,fail
Status,1505,20336467265,/g3t1_2,,running
Status,1506,20336529536,/g3t1_1,,running
Status,1507,20336690932,/g3t1_2,,success
Status,1508,20337092261,/g3t1_1,,success
Status,1509,20346493847,/g3t1_3,,running
Status,1510,20347061760,/g3t1_3,,success
Status,1511,20386952885,/g3t1_2,,running
Status,1512,20387024148,/g3t1_1,,running
