
Status,1,20611920664,/g4t1,,init
Status,4,25622860018,/g3t1_2,,init
Status,5,25630084029,/g3t1_2,,init
Status,6,25630099714,/g3t1_2,,running
Status,7,25630436820,/g3t1_2,,success
Status,8,25830490179,/g3t1_2,,running
Status,9,25830627419,/g3t1_2,,success
Status,10,26030860590,/g3t1_2,,running
Status,11,26031645372,/g3t1_2,,success
Status,12,26230915392,/g3t1_2,,running
Status,13,26231179659,/g3t1_2,,success
Status,14,26431206247,/g3t1_2,,running
Status,15,26431790259,/g3t1_2,,success
Status,16,26622782482,/g4t1,,success
Status,17,26631212986,/g3t1_2,,running
Status,18,26631609473,/g3t1_2,,success
Status,19,26831580978,/g3t1_2,,running
Status,20,26832027396,/g3t1_2,,success
Status,21,27031756188,/g3t1_2,,running
Status,22,27032239927,/g3t1_2,,success
Status,23,27231928829,/g3t1_2,,running
Status,24,27232407568,/g3t1_2,,success
Status,25,27431922448,/g3t1_2,,running
Status,26,27432415887,/g3t1_2,,success
Status,27,27622902048,/g4t1,,success
Status,28,27632058392,/g3t1_2,,running
Status,29,27632329928,/g3t1_2,,success
Status,30,27832294429,/g3t1_2,,running
Status,31,27832661547,/g3t1_2,,success
Status,32,28032575310,/g3t1_2,,running
Status,33,28032660627,/g3t1_2,,success
Status,34,28232293956,/g3t1_2,,running
Status,35,28232521154,/g3t1_2,,success
Status,36,28432673523,/g3t1_2,,running
Status,37,28433129290,/g3t1_2,,success
Status,38,28623089989,/g4t1,,success
Status,39,28632693820,/g3t1_2,,running
Status,40,28633010477,/g3t1_2,,success
Status,41,28833231819,/g3t1_2,,running
Status,42,28833778274,/g3t1_2,,success
Status,43,29033327973,/g3t1_2,,running
Status,44,29034339765,/g3t1_2,,success
Status,45,29233601426,/g3t1_2,,running
Status,46,29234240113,/g3t1_2,,success
Status,47,29433799652,/g3t1_2,,running
Status,48,29434769992,/g3t1_2,,success
Status,49,29623359216,/g4t1,,success
Status,50,29633529570,/g3t1_2,,running
Status,51,29634013976,/g3t1_2,,success
Status,52,29833378100,/g3t1_2,,running
Status,53,29833665570,/g3t1_2,,success
Status,54,30033853699,/g3t1_2,,running
Status,55,30034216820,/g3t1_2,,success
Status,56,30234412814,/g3t1_2,,running
Status,57,30234989210,/g3t1_2,,success
Status,58,30434327877,/g3t1_2,,running
Status,59,30434805075,/g3t1_2,,success
Status,60,30623750923,/g4t1,,success
Status,61,30634145822,/g3t1_2,,running
Status,62,30634387142,/g3t1_2,,success
Status,63,30834696927,/g3t1_2,,running
Status,64,30835304768,/g3t1_2,,success
Status,65,31034952299,/g3t1_2,,running
Status,66,31035436904,/g3t1_2,,success
Status,67,31235155756,/g3t1_2,,running
Status,68,31235693199,/g3t1_2,,success
Status,69,31435327797,/g3t1_2,,running
Status,70,31436214297,/g3t1_2,,success
Status,71,31623932526,/g4t1,,success
Status,72,31634799040,/g3t1_2,,running
Status,73,31635412439,/g3t1_2,,success
Status,74,31835536615,/g3t1_2,,running
Status,75,31835937370,/g3t1_2,,success
Status,76,32035735846,/g3t1_2,,running
Status,77,32036316774,/g3t1_2,,success
Status,78,32235887040,/g3t1_2,,running
Status,79,32236328026,/g3t1_2,,success
Status,80,32435625008,/g3t1_2,,running
Status,81,32435967877,/g3t1_2,,success
Status,82,32623881370,/g4t1,,success
Status,83,32635546399,/g3t1_2,,running
Status,84,32636010573,/g3t1_2,,success
Status,85,32836601765,/g3t1_2,,running
Status,86,32836743942,/g3t1_2,,success
Status,87,33036467295,/g3t1_2,,running
Status,88,33036731874,/g3t1_2,,success
Status,89,33236762316,/g3t1_2,,running
Status,90,33237477909,/g3t1_2,,success
Status,91,33436905707,/g3t1_2,,running
Status,92,33437667048,/g3t1_2,,success
Status,93,33624353738,/g4t1,,success
Status,94,33636497200,/g3t1_2,,running
Status,95,33636883189,/g3t1_2,,success
Status,96,33837148106,/g3t1_2,,running
Status,97,33837437410,/g3t1_2,,success
Status,98,34037616359,/g3t1_2,,running
Status,99,34037797572,/g3t1_2,,success
Status,100,34237531845,/g3t1_2,,running
Status,101,34238457297,/g3t1_2,,success
Status,102,34438073150,/g3t1_2,,running
Status,103,34438155869,/g3t1_2,,success
Status,104,34624121402,/g4t1,,success
Status,105,34637414806,/g3t1_2,,running
Status,106,34638279943,/g3t1_2,,success
Status,107,34838051475,/g3t1_2,,running
Status,108,34838566506,/g3t1_2,,success
Status,109,35038360393,/g3t1_2,,running
Status,110,35038895469,/g3t1_2,,success
Status,111,35239112526,/g3t1_2,,running
Status,112,35239192843,/g3t1_2,,success
Status,113,35439030817,/g3t1_2,,running
Status,114,35439354375,/g3t1_2,,success
Status,115,35624520690,/g4t1,,success
Status,116,35638413320,/g3t1_2,,running
Status,117,35638758445,/g3t1_2,,success
Status,118,35839335091,/g3t1_2,,running
Status,119,35839447110,/g3t1_2,,success
Status,120,36039212133,/g3t1_2,,running
Status,121,36039799510,/g3t1_2,,success
Status,122,36239309794,/g3t1_2,,running
Status,123,36240159755,/g3t1_2,,success
Status,124,36439421765,/g3t1_2,,running
Status,125,36439981633,/g3t1_2,,success
Status,126,36624719720,/g4t1,,success
Status,127,36639371432,/g3t1_2,,running
Status,128,36639710498,/g3t1_2,,success
Status,129,36839887729,/g3t1_2,,running
Status,130,36839963218,/g3t1_2,,success
Status,131,37040215923,/g3t1_2,,running
Status,132,37040300305,/g3t1_2,,success
Status,133,37240182970,/g3t1_2,,running
Status,134,37240757852,/g3t1_2,,success
Status,135,37440197552,/g3t1_2,,running
Status,136,37440608058,/g3t1_2,,success
Status,137,37624592719,/g4t1,,success
Status,138,37640205104,/g3t1_2,,running
Status,139,37640585882,/g3t1_2,,success
Status,140,37840093462,/g3t1_2,,running
Status,141,37840141424,/g3t1_2,,success
Status,142,38040618536,/g3t1_2,,running
Status,143,38041037110,/g3t1_2,,success
Status,144,38241434882,/g3t1_2,,running
Status,145,38241542643,/g3t1_2,,success
Status,146,38441313894,/g3t1_2,,running
Status,147,38442230319,/g3t1_2,,success
Status,148,38625070458,/g4t1,,success
Status,149,38640934543,/g3t1_2,,running
Status,150,38641607898,/g3t1_2,,success
Status,151,38841761553,/g3t1_2,,running
Status,152,38842278698,/g3t1_2,,success
Status,153,39041828572,/g3t1_2,,running
Status,154,39042108677,/g3t1_2,,success
Status,155,39242157068,/g3t1_2,,running
Status,156,39242244513,/g3t1_2,,success
Status,157,39442329518,/g3t1_2,,running
Status,158,39442836836,/g3t1_2,,success
Status,159,39624933261,/g4t1,,success
Status,160,39642058014,/g3t1_2,,running
Status,161,39642496253,/g3t1_2,,success
Status,162,39842484786,/g3t1_2,,running
Status,163,39842993141,/g3t1_2,,success
Status,164,40042547254,/g3t1_2,,running
Status,165,40043092993,/g3t1_2,,success
Status,166,40242585889,/g3t1_2,,running
Status,167,40243391242,/g3t1_2,,success
Status,168,40443239890,/g3t1_2,,running
Status,169,40443785080,/g3t1_2,,success
Status,170,40624770530,/g4t1,,success
Status,171,40642808464,/g3t1_2,,running
Status,172,40642852962,/g3t1_2,,success
Status,173,40843256368,/g3t1_2,,running
Status,174,40844189514,/g3t1_2,,success
Status,175,41042778282,/g3t1_2,,running
Status,176,41042805821,/g3t1_2,,success
Status,177,41243502246,/g3t1_2,,running
Status,178,41243576955,/g3t1_2,,success
Status,179,41443412507,/g3t1_2,,running
Status,180,41443814860,/g3t1_2,,success
Status,181,41624483328,/g4t1,,success
Status,182,41643126571,/g3t1_2,,running
Status,183,41643300917,/g3t1_2,,success
Status,184,41843993452,/g3t1_2,,running
Status,185,41844302142,/g3t1_2,,success
Status,186,42044387936,/g3t1_2,,running
Status,187,42044780808,/g3t1_2,,success
Status,188,42244355445,/g3t1_2,,running
Status,189,42244706272,/g3t1_2,,success
Status,190,42444466124,/g3t1_2,,running
Status,191,42444760896,/g3t1_2,,success
Status,192,42625295259,/g4t1,,success
Status,193,42644147441,/g3t1_2,,running
Status,194,42644196670,/g3t1_2,,success
Status,195,42844429480,/g3t1_2,,running
Status,196,42845238365,/g3t1_2,,success
Status,197,43044750832,/g3t1_2,,running
Status,198,43045201427,/g3t1_2,,success
Status,199,43245091754,/g3t1_2,,running
Status,200,43246172716,/g3t1_2,,success
Status,201,43445328076,/g3t1_2,,running
Status,202,43445878384,/g3t1_2,,success
Status,203,43625751247,/g4t1,,success
Status,204,43645217609,/g3t1_2,,running
Status,205,43645753920,/g3t1_2,,success
Status,206,43845325804,/g3t1_2,,running
Status,207,43845390642,/g3t1_2,,success
Status,208,44045307229,/g3t1_2,,running
Status,209,44045767587,/g3t1_2,,success
Status,210,44245888898,/g3t1_2,,running
Status,211,44246796259,/g3t1_2,,success
Status,212,44445990443,/g3t1_2,,running
Status,213,44446721048,/g3t1_2,,success
Status,214,44625825556,/g4t1,,success
Status,215,44645851844,/g3t1_2,,running
Status,216,44646350590,/g3t1_2,,success
Status,217,44846323143,/g3t1_2,,running
Status,218,44846855136,/g3t1_2,,success
Status,219,45046542054,/g3t1_2,,running
Status,220,45047137117,/g3t1_2,,success
Status,221,45246650613,/g3t1_2,,running
Status,222,45246730417,/g3t1_2,,success
Status,223,45446091933,/g3t1_2,,running
Status,224,45446277807,/g3t1_2,,success
Status,225,45625765805,/g4t1,,success
Status,226,45645984263,/g3t1_2,,running
Status,227,45646204670,/g3t1_2,,success
Status,228,45846976160,/g3t1_2,,running
Status,229,45847662008,/g3t1_2,,success
Status,230,46047299388,/g3t1_2,,running
Status,231,46047989106,/g3t1_2,,success
Status,232,46247517849,/g3t1_2,,running
Status,233,46247961402,/g3t1_2,,success
Status,234,46447639790,/g3t1_2,,running
Status,235,46448197491,/g3t1_2,,success
Status,236,46626178591,/g4t1,,success
Status,237,46647367172,/g3t1_2,,running
Status,238,46647674917,/g3t1_2,,success
Status,239,46846974740,/g3t1_2,,running
Status,240,46847018052,/g3t1_2,,success
Status,241,47047334361,/g3t1_2,,running
Status,242,47047546043,/g3t1_2,,success
Status,243,47247514239,/g3t1_2,,running
Status,244,47247757419,/g3t1_2,,success
Status,245,47447871778,/g3t1_2,,running
Status,246,47448303797,/g3t1_2,,success
Status,247,47625848053,/g4t1,,success
Status,248,47647800900,/g3t1_2,,running
Status,249,47648136380,/g3t1_2,,success
Status,250,47847671019,/g3t1_2,,running
Status,251,47847700185,/g3t1_2,,success
Status,252,48048300207,/g3t1_2,,running
Status,253,48048616189,/g3t1_2,,success
Status,254,48249009555,/g3t1_2,,running
Status,255,48249467638,/g3t1_2,,success
Status,256,48449055640,/g3t1_2,,running
Status,257,48449614193,/g3t1_2,,success
Status,258,48626286774,/g4t1,,success
Status,259,48648939003,/g3t1_2,,running
Status,260,48649018020,/g3t1_2,,success
Status,261,48849527282,/g3t1_2,,running
Status,262,48850557528,/g3t1_2,,success
Status,263,49049800448,/g3t1_2,,running
Status,264,49049887292,/g3t1_2,,success
Status,265,49249090867,/g3t1_2,,running
Status,266,49249331524,/g3t1_2,,success
Status,267,49450287295,/g3t1_2,,running
Status,268,49450661206,/g3t1_2,,success
Status,269,49626827327,/g4t1,,success
Status,270,49650084088,/g3t1_2,,running
Status,271,49650150135,/g3t1_2,,success
Status,272,49850648447,/g3t1_2,,running
Status,273,49851040450,/g3t1_2,,success
Status,274,50050979431,/g3t1_2,,running
Status,275,50051949076,/g3t1_2,,success
Status,276,50251041208,/g3t1_2,,running
Status,277,50251163499,/g3t1_2,,success
Status,278,50451109204,/g3t1_2,,running
Status,279,50451389638,/g3t1_2,,success
Status,280,50626709898,/g4t1,,success
Status,281,50650954443,/g3t1_2,,running
Status,282,50651258365,/g3t1_2,,success
Status,283,50851451597,/g3t1_2,,running
Status,284,50851694659,/g3t1_2,,success
Status,285,51051648548,/g3t1_2,,running
Status,286,51052180603,/g3t1_2,,success
Status,287,51251817786,/g3t1_2,,running
Status,288,51252645697,/g3t1_2,,success
Status,289,51452246487,/g3t1_2,,running
Status,290,51452744626,/g3t1_2,,success
Status,291,51627150738,/g4t1,,success
Status,292,51651764187,/g3t1_2,,running
Status,293,51652283166,/g3t1_2,,success
Status,294,51852345103,/g3t1_2,,running
Status,295,51852836076,/g3t1_2,,success
Status,296,52052029955,/g3t1_2,,running
Status,297,52052563820,/g3t1_2,,success
Status,298,52252475436,/g3t1_2,,running
Status,299,52252936115,/g3t1_2,,success
Status,300,52452371165,/g3t1_2,,running
Status,301,52452826513,/g3t1_2,,success
Status,302,52627144290,/g4t1,,success
Status,303,52652660690,/g3t1_2,,running
Status,304,52652735639,/g3t1_2,,success
Status,305,52852994881,/g3t1_2,,running
Status,306,52853081958,/g3t1_2,,success
Status,307,53052970842,/g3t1_2,,running
Status,308,53053586230,/g3t1_2,,success
Status,309,53253076905,/g3t1_2,,running
Status,310,53253623598,/g3t1_2,,success
Status,311,53452733523,/g3t1_2,,running
Status,312,53452883120,/g3t1_2,,success
Status,313,53626271372,/g4t1,,success
Status,314,53653501952,/g3t1_2,,running
Status,315,53653580661,/g3t1_2,,success
Status,316,53853344448,/g3t1_2,,running
Status,317,53853968706,/g3t1_2,,success
Status,318,54054089770,/g3t1_2,,running
Status,319,54054174815,/g3t1_2,,success
Status,320,54254208514,/g3t1_2,,running
Status,321,54254295152,/g3t1_2,,success
Status,322,54454510161,/g3t1_2,,running
Status,323,54455467507,/g3t1_2,,success
Status,324,54626407591,/g4t1,,success
Status,325,54653464305,/g3t1_2,,running
Status,326,54653488869,/g3t1_2,,success
Status,327,54854654498,/g3t1_2,,running
Status,328,54855014161,/g3t1_2,,success
Status,329,55053699389,/g3t1_2,,running
Status,330,55054035073,/g3t1_2,,success
Status,332,55254773517,/g3t1_2,,running
Status,333,55255333385,/g3t1_2,,fail
Status,336,55455180444,/g3t1_2,,running
Status,337,55455905572,/g3t1_2,,success
Status,339,55627251791,/g4t1,,success
Status,340,55655085064,/g3t1_2,,running
Status,341,55655150726,/g3t1_2,,success
Status,343,55855365949,/g3t1_2,,running
Status,344,55855811998,/g3t1_2,,success
Status,346,56055181783,/g3t1_2,,running
Status,347,56055585592,/g3t1_2,,success
Status,349,56255322221,/g3t1_2,,running
Status,350,56255390317,/g3t1_2,,fail
Status,352,56455905727,/g3t1_2,,running
Status,353,56455999007,/g3t1_2,,fail
Status,355,56627283036,/g4t1,,success
Status,356,56655691646,/g3t1_2,,running
Status,357,56656070456,/g3t1_2,,success
Status,359,56856480039,/g3t1_2,,running
Status,360,56856614549,/g3t1_2,,success
Status,362,57056355327,/g3t1_2,,running
Status,363,57056460871,/g3t1_2,,success
Status,365,57255703463,/g3t1_2,,running
Status,366,57255734410,/g3t1_2,,success
Status,368,57455721530,/g3t1_2,,running
Status,369,57455746488,/g3t1_2,,fail
Status,372,57626767745,/g4t1,,success
Status,373,57656207730,/g3t1_2,,running
Status,374,57656421341,/g3t1_2,,success
Status,376,57857000385,/g3t1_2,,running
Status,377,57857914345,/g3t1_2,,success
Status,379,58056476276,/g3t1_2,,running
Status,380,58056848718,/g3t1_2,,success
Status,382,58257075985,/g3t1_2,,running
Status,383,58257498133,/g3t1_2,,success
Status,385,58457276819,/g3t1_2,,running
Status,386,58457914642,/g3t1_2,,success
Status,388,58626736508,/g4t1,,success
Status,389,58656571354,/g3t1_2,,running
Status,390,58656598951,/g3t1_2,,success
Status,392,58857184630,/g3t1_2,,running
Status,393,58857241881,/g3t1_2,,success
Status,395,59057490946,/g3t1_2,,running
Status,396,59058480168,/g3t1_2,,success
Status,398,59257559944,/g3t1_2,,running
Status,399,59257967634,/g3t1_2,,success
Status,401,59458019522,/g3t1_2,,running
Status,402,59458478054,/g3t1_2,,success
Status,404,59627267803,/g4t1,,success
Status,405,59657709403,/g3t1_2,,running
Status,406,59658004557,/g3t1_2,,success
Status,409,59857667598,/g3t1_2,,running
Status,410,59857936512,/g3t1_2,,fail
Status,412,60058609783,/g3t1_2,,running
Status,413,60059269013,/g3t1_2,,success
Status,415,60258841011,/g3t1_2,,running
Status,416,60259339545,/g3t1_2,,success
Status,418,60458363164,/g3t1_2,,running
Status,419,60458808479,/g3t1_2,,success
Status,421,60627392609,/g4t1,,success
Status,422,60658361272,/g3t1_2,,running
Status,423,60658671027,/g3t1_2,,success
Status,425,60858981661,/g3t1_2,,running
Status,426,60859393082,/g3t1_2,,success
Status,428,61059065645,/g3t1_2,,running
Status,429,61059335385,/g3t1_2,,success
Status,431,61259523035,/g3t1_2,,running
Status,432,61260106830,/g3t1_2,,success
Status,434,61459796476,/g3t1_2,,running
Status,435,61460525402,/g3t1_2,,success
Status,437,61627860600,/g4t1,,success
Status,438,61659473785,/g3t1_2,,running
Status,439,61659890321,/g3t1_2,,success
Status,441,61859706865,/g3t1_2,,running
Status,442,61860052131,/g3t1_2,,success
Status,445,62060102579,/g3t1_2,,running
Status,446,62060605951,/g3t1_2,,success
Status,448,62259997963,/g3t1_2,,running
Status,449,62260389533,/g3t1_2,,success
Status,451,62459464727,/g3t1_2,,running
Status,452,62459617324,/g3t1_2,,success
Status,454,62628084424,/g4t1,,success
Status,455,62660239150,/g3t1_2,,running
Status,456,62660815756,/g3t1_2,,success
Status,458,62860708432,/g3t1_2,,running
Status,459,62861343210,/g3t1_2,,success
Status,461,63060017485,/g3t1_2,,running
Status,462,63060182845,/g3t1_2,,success
Status,464,63260613024,/g3t1_2,,running
Status,465,63261030130,/g3t1_2,,success
Status,467,63460970981,/g3t1_2,,running
Status,468,63461440040,/g3t1_2,,success
Status,470,63627755006,/g4t1,,success
Status,471,63660622906,/g3t1_2,,running
Status,472,63660671002,/g3t1_2,,fail
Status,474,63861203096,/g3t1_2,,running
Status,475,63861907846,/g3t1_2,,success
Status,477,64061621045,/g3t1_2,,running
Status,478,64062250258,/g3t1_2,,success
Status,481,64262057512,/g3t1_2,,running
Status,482,64262456201,/g3t1_2,,success
Status,484,64462078796,/g3t1_2,,running
Status,485,64462694405,/g3t1_2,,success
Status,487,64627686803,/g4t1,,success
Status,488,64661638069,/g3t1_2,,running
Status,489,64661732371,/g3t1_2,,success
Status,491,64862618553,/g3t1_2,,running
Status,492,64863423320,/g3t1_2,,success
Status,494,65062507362,/g3t1_2,,running
Status,495,65062850122,/g3t1_2,,success
Status,497,65261917441,/g3t1_2,,running
Status,498,65262028113,/g3t1_2,,success
Status,500,65462913928,/g3t1_2,,running
Status,501,65463574728,/g3t1_2,,success
Status,503,65628448051,/g4t1,,success
Status,504,65662990480,/g3t1_2,,running
Status,505,65663445707,/g3t1_2,,success
Status,507,65863158351,/g3t1_2,,running
Status,508,65863511285,/g3t1_2,,success
Status,510,66063007162,/g3t1_2,,running
Status,511,66063413061,/g3t1_2,,success
Status,513,66263255746,/g3t1_2,,running
Status,514,66263956284,/g3t1_2,,success
Status,517,66463374825,/g3t1_2,,running
Status,518,66463655257,/g3t1_2,,fail
Status,520,66628473842,/g4t1,,success
Status,521,66663342711,/g3t1_2,,running
Status,522,66663639884,/g3t1_2,,success
Status,524,66863076680,/g3t1_2,,running
Status,525,66863108701,/g3t1_2,,fail
Status,527,67063906372,/g3t1_2,,running
Status,528,67064630089,/g3t1_2,,success
Status,530,67264057203,/g3t1_2,,running
Status,531,67264854108,/g3t1_2,,fail
Status,533,67464197681,/g3t1_2,,running
Status,534,67464554514,/g3t1_2,,success
Status,536,67628805306,/g4t1,,success
Status,537,67664128681,/g3t1_2,,running
Status,538,67664662048,/g3t1_2,,success
Status,540,67864446531,/g3t1_2,,running
Status,541,67864669083,/g3t1_2,,success
Status,543,68064978899,/g3t1_2,,running
Status,544,68065533963,/g3t1_2,,success
Status,546,68265033483,/g3t1_2,,running
Status,547,68266317501,/g3t1_2,,success
Status,549,68465643494,/g3t1_2,,running
Status,550,68466021764,/g3t1_2,,success
Status,553,68628938467,/g4t1,,success
Status,554,68665256797,/g3t1_2,,running
Status,555,68665623588,/g3t1_2,,success
Status,557,68865599039,/g3t1_2,,running
Status,558,68866107481,/g3t1_2,,success
Status,560,69065876736,/g3t1_2,,running
Status,561,69066177914,/g3t1_2,,success
Status,563,69266001431,/g3t1_2,,running
Status,564,69266555963,/g3t1_2,,success
Status,566,69466151371,/g3t1_2,,running
Status,567,69466432691,/g3t1_2,,success
Status,569,69629085503,/g4t1,,success
Status,570,69666436904,/g3t1_2,,running
Status,571,69666546399,/g3t1_2,,success
Status,573,69866426437,/g3t1_2,,running
Status,574,69866915025,/g3t1_2,,success
Status,576,70066632944,/g3t1_2,,running
Status,577,70066983994,/g3t1_2,,success
Status,579,70266851780,/g3t1_2,,running
Status,580,70267825452,/g3t1_2,,success
Status,582,70467013295,/g3t1_2,,running
Status,583,70467885212,/g3t1_2,,success
Status,585,70629174013,/g4t1,,success
Status,586,70666425886,/g3t1_2,,running
Status,587,70666509090,/g3t1_2,,success
Status,590,70867763939,/g3t1_2,,running
Status,591,70867864454,/g3t1_2,,success
Status,593,71067482459,/g3t1_2,,running
Status,594,71068001969,/g3t1_2,,success
Status,596,71267314665,/g3t1_2,,running
Status,597,71267750938,/g3t1_2,,success
Status,599,71467595984,/g3t1_2,,running
Status,600,71467686205,/g3t1_2,,success
Status,602,71629230362,/g4t1,,success
Status,603,71667522090,/g3t1_2,,running
Status,604,71668038148,/g3t1_2,,success
Status,606,71867598467,/g3t1_2,,running
Status,607,71867788301,/g3t1_2,,success
Status,609,72067921521,/g3t1_2,,running
Status,610,72068210726,/g3t1_2,,success
Status,612,72267904107,/g3t1_2,,running
Status,613,72268387716,/g3t1_2,,success
Status,615,72468022097,/g3t1_2,,running
Status,616,72468324485,/g3t1_2,,success
Status,618,72629492760,/g4t1,,success
Status,619,72668219300,/g3t1_2,,running
Status,620,72668646371,/g3t1_2,,success
Status,622,72868335377,/g3t1_2,,running
Status,623,72868554538,/g3t1_2,,success
Status,626,73068433103,/g3t1_2,,running
Status,627,73068503942,/g3t1_2,,success
Status,629,73268421594,/g3t1_2,,running
Status,630,73268722121,/g3t1_2,,success
Status,632,73468737640,/g3t1_2,,running
Status,633,73469159094,/g3t1_2,,success
Status,635,73629605117,/g4t1,,success
Status,636,73668873309,/g3t1_2,,running
Status,637,73669889645,/g3t1_2,,success
Status,639,73868261267,/g3t1_2,,running
Status,640,73868402736,/g3t1_2,,success
Status,642,74068378276,/g3t1_2,,running
Status,643,74068406607,/g3t1_2,,success
Status,645,74268392783,/g3t1_2,,running
Status,646,74268592156,/g3t1_2,,success
Status,648,74469007998,/g3t1_2,,running
Status,649,74469127005,/g3t1_2,,success
Status,651,74629048593,/g4t1,,success
Status,652,74668697746,/g3t1_2,,running
Status,653,74668880212,/g3t1_2,,success
Status,655,74868868109,/g3t1_2,,running
Status,656,74868894428,/g3t1_2,,success
Status,658,75069628470,/g3t1_2,,running
Status,659,75070265334,/g3t1_2,,success
Status,662,75269167610,/g3t1_2,,running
Status,663,75269193349,/g3t1_2,,success
Status,665,75469114276,/g3t1_2,,running
Status,666,75469141966,/g3t1_2,,success
Status,668,75629917041,/g4t1,,success
Status,669,75669978171,/g3t1_2,,running
Status,670,75670597733,/g3t1_2,,success
Status,672,75869637241,/g3t1_2,,running
Status,673,75870172979,/g3t1_2,,success
Status,675,76070570031,/g3t1_2,,running
Status,676,76071094288,/g3t1_2,,success
Status,678,76270400818,/g3t1_2,,running
Status,679,76270836485,/g3t1_2,,success
Status,681,76470899368,/g3t1_2,,running
Status,682,76471362428,/g3t1_2,,success
Status,684,76630043604,/g4t1,,success
Status,685,76670787136,/g3t1_2,,running
Status,686,76671027256,/g3t1_2,,fail
Status,688,76870837662,/g3t1_2,,running
Status,689,76870921657,/g3t1_2,,fail
Status,691,77070892409,/g3t1_2,,running
Status,692,77071218687,/g3t1_2,,success
Status,694,77271026847,/g3t1_2,,running
Status,695,77271502366,/g3t1_2,,success
Status,698,77471435451,/g3t1_2,,running
Status,699,77472533348,/g3t1_2,,success
Status,701,77630068083,/g4t1,,success
Status,702,77671554207,/g3t1_2,,running
Status,703,77671648515,/g3t1_2,,success
Status,705,77870929708,/g3t1_2,,running
Status,706,77871032955,/g3t1_2,,success
Status,708,78072014472,/g3t1_2,,running
Status,709,78072536596,/g3t1_2,,fail
Status,711,78272143869,/g3t1_2,,running
Status,712,78272762738,/g3t1_2,,success
Status,714,78472046134,/g3t1_2,,running
Status,715,78472632784,/g3t1_2,,success
Status,717,78630437032,/g4t1,,success
Status,718,78672238177,/g3t1_2,,running
Status,719,78672481998,/g3t1_2,,fail
Status,721,78873472970,/g3t1_2,,running
Status,722,78873555230,/g3t1_2,,fail
Status,724,79072844189,/g3t1_2,,running
Status,725,79073393690,/g3t1_2,,success
Status,727,79273074712,/g3t1_2,,running
Status,728,79273555899,/g3t1_2,,success
Status,730,79473439830,/g3t1_2,,running
Status,731,79473632966,/g3t1_2,,success
Status,734,79630432632,/g4t1,,success
Status,735,79673321913,/g3t1_2,,running
Status,736,79673746419,/g3t1_2,,success
Status,738,79873548504,/g3t1_2,,running
Status,739,79873636184,/g3t1_2,,fail
Status,741,80074281058,/g3t1_2,,running
Status,742,80074380582,/g3t1_2,,success
Status,744,80273394700,/g3t1_2,,running
Status,745,80273528100,/g3t1_2,,success
Status,747,80474122637,/g3t1_2,,running
Status,748,80474212356,/g3t1_2,,success
Status,750,80630632001,/g4t1,,success
Status,751,80674162198,/g3t1_2,,running
Status,752,80674557810,/g3t1_2,,success
Status,754,80875051752,/g3t1_2,,running
Status,755,80875466447,/g3t1_2,,success
Status,757,81074533146,/g3t1_2,,running
Status,758,81074885805,/g3t1_2,,success
Status,760,81275008061,/g3t1_2,,running
Status,761,81275468382,/g3t1_2,,success
Status,763,81475005766,/g3t1_2,,running
Status,764,81475747899,/g3t1_2,,success
Status,766,81630776869,/g4t1,,success
Status,767,81675014607,/g3t1_2,,running
Status,768,81675157797,/g3t1_2,,success
Status,771,81875356567,/g3t1_2,,running
Status,772,81875866030,/g3t1_2,,success
Status,774,82075217207,/g3t1_2,,running
Status,775,82075296676,/g3t1_2,,fail
Status,777,82275639470,/g3t1_2,,running
Status,778,82276661471,/g3t1_2,,success
Status,780,82475821500,/g3t1_2,,running
Status,781,82476195697,/g3t1_2,,success
Status,783,82630950268,/g4t1,,success
Status,784,82675539089,/g3t1_2,,running
Status,785,82676034400,/g3t1_2,,success
Status,787,82875941522,/g3t1_2,,running
Status,788,82876434530,/g3t1_2,,success
Status,790,83076260110,/g3t1_2,,running
Status,791,83077187075,/g3t1_2,,success
Status,793,83276385338,/g3t1_2,,running
Status,794,83276468442,/g3t1_2,,fail
Status,796,83476502931,/g3t1_2,,running
Status,797,83477409012,/g3t1_2,,success
Status,799,83630975165,/g4t1,,success
Status,800,83676412871,/g3t1_2,,running
Status,801,83676662792,/g3t1_2,,fail
Status,803,83876808057,/g3t1_2,,running
Status,804,83877592720,/g3t1_2,,success
Status,807,84077086942,/g3t1_2,,running
Status,808,84077185080,/g3t1_2,,success
Status,810,84277319862,/g3t1_2,,running
Status,811,84277419554,/g3t1_2,,success
Status,813,84477410066,/g3t1_2,,running
Status,814,84478109174,/g3t1_2,,success
Status,816,84631123497,/g4t1,,success
Status,817,84677215851,/g3t1_2,,running
Status,818,84677503471,/g3t1_2,,fail
Status,820,84877857573,/g3t1_2,,running
Status,821,84878538072,/g3t1_2,,success
Status,823,85078230027,/g3t1_2,,running
Status,824,85078596484,/g3t1_2,,success
Status,826,85278520426,/g3t1_2,,running
Status,827,85278990478,/g3t1_2,,fail
Status,829,85477882321,/g3t1_2,,running
Status,830,85477933440,/g3t1_2,,fail
Status,832,85631304230,/g4t1,,success
Status,833,85678209986,/g3t1_2,,running
Status,834,85678511340,/g3t1_2,,success
Status,836,85877946818,/g3t1_2,,running
Status,837,85878098191,/g3t1_2,,fail
Status,839,86078201980,/g3t1_2,,running
Status,840,86078255836,/g3t1_2,,success
Status,843,86278769973,/g3t1_2,,running
Status,844,86279191065,/g3t1_2,,success
Status,846,86479062861,/g3t1_2,,running
Status,847,86479394075,/g3t1_2,,success
Status,849,86631373388,/g4t1,,success
Status,850,86679039035,/g3t1_2,,running
Status,851,86679379984,/g3t1_2,,success
Status,853,86879174880,/g3t1_2,,running
Status,854,86879513821,/g3t1_2,,success
Status,856,87079759408,/g3t1_2,,running
Status,857,87080268002,/g3t1_2,,success
Status,859,87279754162,/g3t1_2,,running
Status,860,87279830167,/g3t1_2,,fail
Status,862,87479950223,/g3t1_2,,running
Status,863,87480348762,/g3t1_2,,success
Status,865,87631538572,/g4t1,,success
Status,866,87680041125,/g3t1_2,,running
Status,867,87680511163,/g3t1_2,,success
Status,869,87880247893,/g3t1_2,,running
Status,870,87880327232,/g3t1_2,,success
Status,872,88080551377,/g3t1_2,,running
Status,873,88081096261,/g3t1_2,,success
Status,875,88280751626,/g3t1_2,,running
Status,876,88281268910,/g3t1_2,,success
Status,879,88480880158,/g3t1_2,,running
Status,880,88481356128,/g3t1_2,,success
Status,882,88631531718,/g4t1,,success
Status,883,88680778073,/g3t1_2,,running
Status,884,88681227830,/g3t1_2,,success
Status,886,88881582524,/g3t1_2,,running
Status,887,88882462866,/g3t1_2,,success
Status,889,89081411133,/g3t1_2,,running
Status,890,89082102523,/g3t1_2,,success
Status,892,89281814492,/g3t1_2,,running
Status,893,89282264346,/g3t1_2,,success
Status,895,89482192341,/g3t1_2,,running
Status,896,89482260122,/g3t1_2,,success
Status,898,89631768313,/g4t1,,success
Status,899,89681603937,/g3t1_2,,running
Status,900,89682346247,/g3t1_2,,success
Status,902,89881933425,/g3t1_2,,running
Status,903,89882608267,/g3t1_2,,success
Status,905,90082648835,/g3t1_2,,running
Status,906,90082791362,/g3t1_2,,success
Status,908,90282745602,/g3t1_2,,running
Status,909,90283057786,/g3t1_2,,success
Status,911,90483055815,/g3t1_2,,running
Status,912,90483776506,/g3t1_2,,success
Status,915,90631177434,/g4t1,,success
Status,916,90682487805,/g3t1_2,,running
Status,917,90682629756,/g3t1_2,,success
Status,919,90882971587,/g3t1_2,,running
Status,920,90883331918,/g3t1_2,,success
Status,922,91083274236,/g3t1_2,,running
Status,923,91083749045,/g3t1_2,,success
Status,925,91283443808,/g3t1_2,,running
Status,926,91283514748,/g3t1_2,,success
Status,928,91483823204,/g3t1_2,,running
Status,929,91484662913,/g3t1_2,,success
Status,931,91632101275,/g4t1,,success
Status,932,91683659815,/g3t1_2,,running
Status,933,91684366563,/g3t1_2,,success
Status,935,91884300481,/g3t1_2,,running
Status,936,91884620294,/g3t1_2,,success
Status,938,92084032327,/g3t1_2,,running
Status,939,92084349252,/g3t1_2,,success
Status,941,92284466070,/g3t1_2,,running
Status,942,92285065086,/g3t1_2,,success
Status,944,92484639023,/g3t1_2,,running
Status,945,92485346517,/g3t1_2,,success
Status,947,92632176319,/g4t1,,success
Status,948,92684696035,/g3t1_2,,running
Status,949,92685301567,/g3t1_2,,success
Status,952,92884908379,/g3t1_2,,running
Status,953,92884975908,/g3t1_2,,success
Status,955,93085302870,/g3t1_2,,running
Status,956,93085556347,/g3t1_2,,success
Status,958,93285278361,/g3t1_2,,running
Status,959,93286002295,/g3t1_2,,success
Status,961,93485336186,/g3t1_2,,running
Status,962,93485796084,/g3t1_2,,success
Status,964,93632384059,/g4t1,,success
Status,965,93685483688,/g3t1_2,,running
Status,966,93685997256,/g3t1_2,,success
Status,968,93885805374,/g3t1_2,,running
Status,969,93886256077,/g3t1_2,,success
Status,971,94086248095,/g3t1_2,,running
Status,972,94086543692,/g3t1_2,,success
Status,974,94286407490,/g3t1_2,,running
Status,975,94286746217,/g3t1_2,,success
Status,977,94486523219,/g3t1_2,,running
Status,978,94487005505,/g3t1_2,,success
Status,980,94632360251,/g4t1,,success
Status,981,94686334911,/g3t1_2,,running
Status,982,94686844449,/g3t1_2,,success
Status,984,94886860750,/g3t1_2,,running
Status,985,94887616298,/g3t1_2,,success
Status,988,95086936303,/g3t1_2,,running
Status,989,95087362404,/g3t1_2,,success
Status,991,95287109167,/g3t1_2,,running
Status,992,95288157052,/g3t1_2,,success
Status,994,95487117362,/g3t1_2,,running
Status,995,95488060644,/g3t1_2,,success
Status,997,95631771219,/g4t1,,success
Status,998,95686356801,/g3t1_2,,running
Status,999,95686500874,/g3t1_2,,success
Status,1001,95887291524,/g3t1_2,,running
Status,1002,95887358349,/g3t1_2,,fail
Status,1004,96087712117,/g3t1_2,,running
Status,1005,96087804838,/g3t1_2,,success
Status,1007,96287768116,/g3t1_2,,running
Status,1008,96288304497,/g3t1_2,,success
Status,1010,96487747342,/g3t1_2,,running
Status,1011,96488109781,/g3t1_2,,success
Status,1013,96632639877,/g4t1,,success
Status,1014,96687290417,/g3t1_2,,running
Status,1015,96687402341,/g3t1_2,,success
Status,1017,96888242508,/g3t1_2,,running
Status,1018,96889212161,/g3t1_2,,success
Status,1020,97088212144,/g3t1_2,,running
Status,1021,97088496138,/g3t1_2,,success
Status,1024,97287840654,/g3t1_2,,running
Status,1025,97288080652,/g3t1_2,,success
Status,1027,97488482895,/g3t1_2,,running
Status,1028,97488555787,/g3t1_2,,success
Status,1030,97632790429,/g4t1,,success
Status,1031,97688593724,/g3t1_2,,running
Status,1032,97689054980,/g3t1_2,,success
Status,1034,97888165004,/g3t1_2,,running
Status,1035,97888509231,/g3t1_2,,success
Status,1037,98089231346,/g3t1_2,,running
Status,1038,98089319559,/g3t1_2,,success
Status,1040,98289204761,/g3t1_2,,running
Status,1041,98289529448,/g3t1_2,,success
Status,1043,98489079612,/g3t1_2,,running
Status,1044,98489446608,/g3t1_2,,success
Status,1046,98633129590,/g4t1,,success
Status,1047,98689250097,/g3t1_2,,running
Status,1048,98689395775,/g3t1_2,,success
Status,1050,98888638360,/g3t1_2,,running
Status,1051,98888921895,/g3t1_2,,success
Status,1053,99089412456,/g3t1_2,,running
Status,1054,99089789660,/g3t1_2,,fail
Status,1056,99289761566,/g3t1_2,,running
Status,1057,99290521731,/g3t1_2,,success
Status,1060,99490398591,/g3t1_2,,running
Status,1061,99490483893,/g3t1_2,,success
Status,1063,99632860779,/g4t1,,success
Status,1064,99689361267,/g3t1_2,,running
Status,1065,99689452455,/g3t1_2,,success
Status,1067,99889945262,/g3t1_2,,running
Status,1068,99890338916,/g3t1_2,,success
Status,1070,100090250900,/g3t1_2,,running
Status,1071,100090804001,/g3t1_2,,success
Status,1073,100289867010,/g3t1_2,,running
Status,1074,100289911221,/g3t1_2,,success
Status,1076,100489797956,/g3t1_2,,running
Status,1077,100489846420,/g3t1_2,,success
Status,1079,100632959868,/g4t1,,success
Status,1080,100690233854,/g3t1_2,,running
Status,1081,100690514394,/g3t1_2,,success
Status,1083,100890120091,/g3t1_2,,running
Status,1084,100890146562,/g3t1_2,,success
Status,1086,101090056497,/g3t1_2,,running
Status,1087,101090092573,/g3t1_2,,success
Status,1089,101291232761,/g3t1_2,,running
Status,1090,101291311268,/g3t1_2,,success
Status,1092,101491129809,/g3t1_2,,running
Status,1093,101491377547,/g3t1_2,,success
Status,1096,101633275600,/g4t1,,success
Status,1097,101691104680,/g3t1_2,,running
Status,1098,101691315757,/g3t1_2,,success
Status,1100,101891602023,/g3t1_2,,running
Status,1101,101892006803,/g3t1_2,,success
Status,1103,102091570436,/g3t1_2,,running
Status,1104,102091785481,/g3t1_2,,success
Status,1106,102292189936,/g3t1_2,,running
Status,1107,102292281890,/g3t1_2,,success
Status,1109,102492311555,/g3t1_2,,running
Status,1110,102492774268,/g3t1_2,,success
Status,1112,102633367725,/g4t1,,success
Status,1113,102692073893,/g3t1_2,,running
Status,1114,102692524185,/g3t1_2,,success
Status,1116,102892145160,/g3t1_2,,running
Status,1117,102892513394,/g3t1_2,,success
Status,1119,103092447547,/g3t1_2,,running
Status,1120,103092722846,/g3t1_2,,success
Status,1122,103292667949,/g3t1_2,,running
Status,1123,103293339571,/g3t1_2,,success
Status,1125,103492949895,/g3t1_2,,running
Status,1126,103493240827,/g3t1_2,,success
Status,1128,103633399810,/g4t1,,success
Status,1129,103692834627,/g3t1_2,,running
Status,1130,103693193276,/g3t1_2,,success
Status,1133,103893321686,/g3t1_2,,running
Status,1134,103893414305,/g3t1_2,,success
Status,1136,104093407371,/g3t1_2,,running
Status,1137,104093615680,/g3t1_2,,success
Status,1139,104293950872,/g3t1_2,,running
Status,1140,104294832494,/g3t1_2,,success
Status,1142,104494076772,/g3t1_2,,running
Status,1143,104494432305,/g3t1_2,,success
Status,1145,104633653842,/g4t1,,success
Status,1146,104693882811,/g3t1_2,,running
Status,1147,104694243530,/g3t1_2,,success
Status,1149,104894284396,/g3t1_2,,running
Status,1150,104894815441,/g3t1_2,,success
Status,1152,105094612914,/g3t1_2,,running
Status,1153,105094995378,/g3t1_2,,success
Status,1155,105294939655,/g3t1_2,,running
Status,1156,105295009098,/g3t1_2,,success
Status,1158,105494970788,/g3t1_2,,running
Status,1159,105495339637,/g3t1_2,,success
Status,1161,105633772210,/g4t1,,success
Status,1162,105694916916,/g3t1_2,,running
Status,1163,105695554595,/g3t1_2,,success
Status,1165,105895102670,/g3t1_2,,running
Status,1166,105895477562,/g3t1_2,,success
Status,1169,106095247476,/g3t1_2,,running
Status,1170,106095602669,/g3t1_2,,success
Status,1172,106295886249,/g3t1_2,,running
Status,1173,106295982014,/g3t1_2,,success
Status,1175,106495557566,/g3t1_2,,running
Status,1176,106495891641,/g3t1_2,,success
Status,1178,106633797294,/g4t1,,success
Status,1179,106695617065,/g3t1_2,,running
Status,1180,106696274040,/g3t1_2,,success
Status,1182,106895953755,/g3t1_2,,running
Status,1183,106896456204,/g3t1_2,,success
Status,1185,107096434462,/g3t1_2,,running
Status,1186,107097222457,/g3t1_2,,success
Status,1188,107296730736,/g3t1_2,,running
Status,1189,107297601498,/g3t1_2,,success
Status,1191,107496996010,/g3t1_2,,running
Status,1192,107497960471,/g3t1_2,,success
Status,1194,107633976230,/g4t1,,success
Status,1195,107697043233,/g3t1_2,,running
Status,1196,107697115175,/g3t1_2,,success
Status,1198,107896325297,/g3t1_2,,running
Status,1199,107896350096,/g3t1_2,,fail
Status,1201,108096899689,/g3t1_2,,running
Status,1202,108097341544,/g3t1_2,,success
Status,1205,108297174362,/g3t1_2,,running
Status,1206,108297415124,/g3t1_2,,success
Status,1208,108497337480,/g3t1_2,,running
Status,1209,108497861440,/g3t1_2,,success
Status,1211,108634101897,/g4t1,,success
Status,1212,108698032298,/g3t1_2,,running
Status,1213,108698107280,/g3t1_2,,success
Status,1215,108897650737,/g3t1_2,,running
Status,1216,108898052684,/g3t1_2,,success
Status,1218,109098317124,/g3t1_2,,running
Status,1219,109098991590,/g3t1_2,,success
Status,1221,109298043414,/g3t1_2,,running
Status,1222,109298458156,/g3t1_2,,success
Status,1224,109498229133,/g3t1_2,,running
Status,1225,109499041151,/g3t1_2,,success
Status,1227,109634542407,/g4t1,,success
Status,1228,109698655700,/g3t1_2,,running
Status,1229,109698729183,/g3t1_2,,success
Status,1231,109898607453,/g3t1_2,,running
Status,1232,109899005273,/g3t1_2,,success
Status,1234,110098112004,/g3t1_2,,running
Status,1235,110098134601,/g3t1_2,,success
Status,1237,110298079174,/g3t1_2,,running
Status,1238,110298102056,/g3t1_2,,success
Status,1241,110498189606,/g3t1_2,,running
Status,1242,110498311422,/g3t1_2,,success
Status,1244,110633657732,/g4t1,,success
Status,1245,110698649708,/g3t1_2,,running
Status,1246,110698831186,/g3t1_2,,success
Status,1248,110898496681,/g3t1_2,,running
Status,1249,110898542818,/g3t1_2,,success
Status,1251,111098532546,/g3t1_2,,running
Status,1252,111098600999,/g3t1_2,,success
Status,1254,111298573486,/g3t1_2,,running
Status,1255,111298923507,/g3t1_2,,success
Status,1257,111499200268,/g3t1_2,,running
Status,1258,111499622344,/g3t1_2,,success
Status,1260,111634575070,/g4t1,,success
Status,1261,111699317216,/g3t1_2,,running
Status,1262,111699668736,/g3t1_2,,success
Status,1264,111898782353,/g3t1_2,,running
Status,1265,111898812847,/g3t1_2,,fail
Status,1267,112099517984,/g3t1_2,,running
Status,1268,112099925378,/g3t1_2,,success
Status,1270,112300082365,/g3t1_2,,running
Status,1271,112300304666,/g3t1_2,,success
Status,1273,112499262161,/g3t1_2,,running
Status,1274,112499417220,/g3t1_2,,success
Status,1277,112634596493,/g4t1,,success
Status,1278,112700028749,/g3t1_2,,running
Status,1279,112700431633,/g3t1_2,,success
Status,1281,112900242486,/g3t1_2,,running
Status,1282,112900514198,/g3t1_2,,success
Status,1284,113100114876,/g3t1_2,,running
Status,1285,113100394143,/g3t1_2,,success
Status,1287,113300642353,/g3t1_2,,running
Status,1288,113301231674,/g3t1_2,,success
Status,1290,113500825771,/g3t1_2,,running
Status,1291,113500897442,/g3t1_2,,success
Status,1293,113634790115,/g4t1,,success
Status,1294,113700247929,/g3t1_2,,running
Status,1295,113700304651,/g3t1_2,,success
Status,1297,113900920188,/g3t1_2,,running
Status,1298,113901305009,/g3t1_2,,success
Status,1300,114101395265,/g3t1_2,,running
Status,1301,114101476503,/g3t1_2,,success
Status,1303,114301222057,/g3t1_2,,running
Status,1304,114301972811,/g3t1_2,,success
Status,1306,114501548618,/g3t1_2,,running
Status,1307,114501633444,/g3t1_2,,success
Status,1309,114634969890,/g4t1,,success
Status,1310,114700884114,/g3t1_2,,running
Status,1311,114701050427,/g3t1_2,,success
Status,1314,114900963533,/g3t1_2,,running
Status,1315,114901256488,/g3t1_2,,success
Status,1317,115102044566,/g3t1_2,,running
Status,1318,115102339164,/g3t1_2,,success
Status,1320,115302119646,/g3t1_2,,running
Status,1321,115302429393,/g3t1_2,,success
Status,1323,115502423762,/g3t1_2,,running
Status,1324,115503213276,/g3t1_2,,success
Status,1326,115634799549,/g4t1,,success
Status,1327,115702201318,/g3t1_2,,running
Status,1328,115702262491,/g3t1_2,,success
Status,1330,115902624174,/g3t1_2,,running
Status,1331,115902720964,/g3t1_2,,success
Status,1333,116102702197,/g3t1_2,,running
Status,1334,116103105265,/g3t1_2,,success
Status,1336,116303003358,/g3t1_2,,running
Status,1337,116303095253,/g3t1_2,,success
Status,1339,116502969756,/g3t1_2,,running
Status,1340,116503594847,/g3t1_2,,success
Status,1342,116634489417,/g4t1,,success
Status,1343,116702593001,/g3t1_2,,running
Status,1344,116702740579,/g3t1_2,,success
Status,1346,116903304282,/g3t1_2,,running
Status,1347,116903542936,/g3t1_2,,success
Status,1350,117103251013,/g3t1_2,,running
Status,1351,117103978164,/g3t1_2,,success
Status,1353,117303462353,/g3t1_2,,running
Status,1354,117303804044,/g3t1_2,,success
Status,1356,117503608717,/g3t1_2,,running
Status,1357,117503984363,/g3t1_2,,success
Status,1359,117635399025,/g4t1,,success
Status,1360,117703473046,/g3t1_2,,running
Status,1361,117703590249,/g3t1_2,,success
Status,1363,117903210518,/g3t1_2,,running
Status,1364,117903461744,/g3t1_2,,success
Status,1366,118104155885,/g3t1_2,,running
Status,1367,118104957316,/g3t1_2,,success
Status,1369,118304020183,/g3t1_2,,running
Status,1370,118304269243,/g3t1_2,,success
Status,1372,118504565976,/g3t1_2,,running
Status,1373,118504789392,/g3t1_2,,success
Status,1375,118635527064,/g4t1,,success
Status,1376,118703998390,/g3t1_2,,running
Status,1377,118704628852,/g3t1_2,,success
Status,1379,118904461352,/g3t1_2,,running
Status,1380,118904895170,/g3t1_2,,success
Status,1382,119104716072,/g3t1_2,,running
Status,1383,119105162824,/g3t1_2,,success
Status,1386,119304970382,/g3t1_2,,running
Status,1387,119305486945,/g3t1_2,,success
Status,1389,119505309929,/g3t1_2,,running
Status,1390,119505388088,/g3t1_2,,success
Status,1392,119635607194,/g4t1,,success
Status,1393,119704942842,/g3t1_2,,running
Status,1394,119705305568,/g3t1_2,,success
Status,1396,119905449245,/g3t1_2,,running
Status,1397,119905971162,/g3t1_2,,success
Status,1399,120105547832,/g3t1_2,,running
Status,1400,120105972663,/g3t1_2,,success
Status,1402,120305587996,/g3t1_2,,running
Status,1403,120306354253,/g3t1_2,,success
Status,1405,120505941089,/g3t1_2,,running
Status,1406,120506596786,/g3t1_2,,success
Status,1408,120635633770,/g4t1,,success
Status,1409,120706129141,/g3t1_2,,running
Status,1410,120706748769,/g3t1_2,,success
Status,1412,120905515292,/g3t1_2,,running
Status,1413,120905549852,/g3t1_2,,fail
Status,1415,121106396893,/g3t1_2,,running
Status,1416,121106908812,/g3t1_2,,success
Status,1418,121305944806,/g3t1_2,,running
Status,1419,121306340213,/g3t1_2,,success
Status,1422,121505771165,/g3t1_2,,running
Status,1423,121505874137,/g3t1_2,,success
Status,1425,121634888625,/g4t1,,success
Status,1426,121706241919,/g3t1_2,,running
Status,1427,121706562534,/g3t1_2,,success
Status,1429,121906031018,/g3t1_2,,running
Status,1430,121906111940,/g3t1_2,,success
Status,1432,122106896814,/g3t1_2,,running
Status,1433,122107329030,/g3t1_2,,success
Status,1435,122307064475,/g3t1_2,,running
Status,1436,122307181425,/g3t1_2,,success
Status,1438,122507013219,/g3t1_2,,running
Status,1439,122507402078,/g3t1_2,,success
Status,1441,122635242452,/g4t1,,success
Status,1442,122706562663,/g3t1_2,,running
Status,1443,122706795153,/g3t1_2,,success
Status,1445,122907059779,/g3t1_2,,running
Status,1446,122907364641,/g3t1_2,,success
Status,1448,123106869236,/g3t1_2,,running
Status,1449,123107433212,/g3t1_2,,success
Status,1451,123307405177,/g3t1_2,,running
Status,1452,123307947771,/g3t1_2,,success
Status,1454,123507614345,/g3t1_2,,running
Status,1455,123507694871,/g3t1_2,,success
Status,1458,123635988455,/g4t1,,success
Status,1459,123707314526,/g3t1_2,,running
Status,1460,123707621158,/g3t1_2,,success
Status,1462,123908043492,/g3t1_2,,running
Status,1463,123908482863,/g3t1_2,,success
Status,1465,124108467454,/g3t1_2,,running
Status,1466,124108566505,/g3t1_2,,success
Status,1468,124308388599,/g3t1_2,,running
Status,1469,124308555409,/g3t1_2,,success
Status,1471,124508337058,/g3t1_2,,running
Status,1472,124508539135,/g3t1_2,,success
Status,1474,124636123666,/g4t1,,success
Status,1475,124708455050,/g3t1_2,,running
Status,1476,124708802756,/g3t1_2,,success
Status,1478,124908571615,/g3t1_2,,running
Status,1479,124908861615,/g3t1_2,,success
Status,1481,125108877252,/g3t1_2,,running
Status,1482,125109392250,/g3t1_2,,success
Status,1484,125309318115,/g3t1_2,,running
Status,1485,125309903561,/g3t1_2,,success
Status,1487,125509355615,/g3t1_2,,running
Status,1488,125509780118,/g3t1_2,,success
Status,1490,125636577212,/g4t1,,success
Status,1491,125709792958,/g3t1_2,,running
Status,1492,125710260710,/g3t1_2,,success
Status,1495,125910143749,/g3t1_2,,running
Status,1496,125910224918,/g3t1_2,,success
Status,1498,126109175404,/g3t1_2,,running
Status,1499,126109285417,/g3t1_2,,success
Status,1501,126309855963,/g3t1_2,,running
Status,1502,126310428705,/g3t1_2,,success
Status,1504,126509450881,/g3t1_2,,running
Status,1505,126509479681,/g3t1_2,,success
Status,1507,126636377356,/g4t1,,success
Status,1508,126709587069,/g3t1_2,,running
Status,1509,126709627893,/g3t1_2,,success
Status,1511,126910717973,/g3t1_2,,running
Status,1512,126911129572,/g3t1_2,,success
Status,1514,127110738205,/g3t1_2,,running
Status,1515,127111063251,/g3t1_2,,success
Status,1517,127310367248,/g3t1_2,,running
Status,1518,127310408568,/g3t1_2,,success
Status,1520,127510740825,/g3t1_2,,running
Status,1521,127511260060,/g3t1_2,,success
Status,1523,127636555010,/g4t1,,success
Status,1524,127710929474,/g3t1_2,,running
Status,1525,127711002368,/g3t1_2,,fail
Status,1527,127911104711,/g3t1_2,,running
Status,1528,127911176611,/g3t1_2,,fail
Status,1531,128111295883,/g3t1_2,,running
Status,1532,128111367508,/g3t1_2,,success
Status,1534,128311204822,/g3t1_2,,running
Status,1535,128311731276,/g3t1_2,,success
Status,1537,128510941943,/g3t1_2,,running
Status,1538,128510976453,/g3t1_2,,success
Status,1540,128636662952,/g4t1,,success
Status,1541,128711553988,/g3t1_2,,running
Status,1542,128711638127,/g3t1_2,,success
Status,1544,128911658876,/g3t1_2,,running
Status,1545,128912150293,/g3t1_2,,success
Status,1547,129111771406,/g3t1_2,,running
Status,1548,129112202682,/g3t1_2,,success
Status,1550,129311955419,/g3t1_2,,running
Status,1551,129312932164,/g3t1_2,,success
Status,1553,129511784581,/g3t1_2,,running
Status,1554,129512343238,/g3t1_2,,success
Status,1556,129636639265,/g4t1,,success
Status,1557,129711938950,/g3t1_2,,running
Status,1558,129712065650,/g3t1_2,,success
Status,1560,129911765326,/g3t1_2,,running
Status,1561,129911974207,/g3t1_2,,success
Status,1563,130111813940,/g3t1_2,,running
Status,1564,130111842656,/g3t1_2,,fail
Status,1567,130311928247,/g3t1_2,,running
Status,1568,130311955525,/g3t1_2,,success
Status,1570,130512920029,/g3t1_2,,running
Status,1571,130513780595,/g3t1_2,,success
Status,1573,130637072136,/g4t1,,success
Status,1574,130712909305,/g3t1_2,,running
Status,1575,130713316315,/g3t1_2,,success
Status,1577,130913057940,/g3t1_2,,running
Status,1578,130913837610,/g3t1_2,,success
Status,1580,131113345574,/g3t1_2,,running
Status,1581,131114227615,/g3t1_2,,success
Status,1583,131312691612,/g3t1_2,,running
Status,1584,131312781145,/g3t1_2,,success
Status,1586,131513581008,/g3t1_2,,running
Status,1587,131513893777,/g3t1_2,,success
Status,1589,131636265325,/g4t1,,success
Status,1590,131713555179,/g3t1_2,,running
Status,1591,131714044076,/g3t1_2,,success
Status,1593,131913100202,/g3t1_2,,running
Status,1594,131913123631,/g3t1_2,,success
Status,1596,132113365861,/g3t1_2,,running
Status,1597,132113402537,/g3t1_2,,fail
Status,1599,132314653859,/g3t1_2,,running
Status,1600,132314727590,/g3t1_2,,success
Status,1603,132514517518,/g3t1_2,,running
Status,1604,132514839457,/g3t1_2,,success
Status,1606,132637260145,/g4t1,,success
Status,1607,132714507797,/g3t1_2,,running
Status,1608,132715157102,/g3t1_2,,success
Status,1610,132914603424,/g3t1_2,,running
Status,1611,132915016601,/g3t1_2,,fail
Status,1613,133114911522,/g3t1_2,,running
Status,1614,133114992197,/g3t1_2,,success
Status,1616,133315109318,/g3t1_2,,running
Status,1617,133315590070,/g3t1_2,,fail
Status,1619,133514633168,/g3t1_2,,running
Status,1620,133514993700,/g3t1_2,,success
Status,1622,133637177734,/g4t1,,success
Status,1623,133714641703,/g3t1_2,,running
Status,1624,133714673866,/g3t1_2,,success
Status,1626,133915550002,/g3t1_2,,running
Status,1627,133916010732,/g3t1_2,,success
Status,1629,134115645326,/g3t1_2,,running
Status,1630,134116083918,/g3t1_2,,success
Status,1632,134314959021,/g3t1_2,,running
Status,1633,134315067043,/g3t1_2,,success
Status,1635,134515021839,/g3t1_2,,running
Status,1636,134515068860,/g3t1_2,,fail
Status,1639,134637404991,/g4t1,,success
Status,1640,134715083751,/g3t1_2,,running
Status,1641,134715285755,/g3t1_2,,success
Status,1643,134915782075,/g3t1_2,,running
Status,1644,134916492437,/g3t1_2,,success
Status,1646,135115978596,/g3t1_2,,running
Status,1647,135116296053,/g3t1_2,,success
Status,1649,135316193777,/g3t1_2,,running
Status,1650,135316516469,/g3t1_2,,success
Status,1652,135516521939,/g3t1_2,,running
Status,1653,135516995672,/g3t1_2,,success
Status,1655,135637799190,/g4t1,,success
Status,1656,135716576423,/g3t1_2,,running
Status,1657,135716667986,/g3t1_2,,fail
Status,1659,135916191603,/g3t1_2,,running
Status,1660,135916498936,/g3t1_2,,fail
Status,1662,136117181188,/g3t1_2,,running
Status,1663,136118395255,/g3t1_2,,success
Status,1665,136317442285,/g3t1_2,,running
Status,1666,136317807554,/g3t1_2,,success
Status,1668,136517370282,/g3t1_2,,running
Status,1669,136518082001,/g3t1_2,,success
Status,1671,136638026234,/g4t1,,success
Status,1672,136717102242,/g3t1_2,,running
Status,1673,136717206740,/g3t1_2,,success
Status,1676,136917270742,/g3t1_2,,running
Status,1677,136917300322,/g3t1_2,,success
Status,1679,137117829951,/g3t1_2,,running
Status,1680,137118167433,/g3t1_2,,fail
Status,1682,137318014365,/g3t1_2,,running
Status,1683,137319011967,/g3t1_2,,success
Status,1685,137518562321,/g3t1_2,,running
Status,1686,137519063948,/g3t1_2,,success
Status,1688,137637917864,/g4t1,,success
Status,1689,137718437697,/g3t1_2,,running
Status,1690,137718515060,/g3t1_2,,fail
Status,1692,137918032836,/g3t1_2,,running
Status,1693,137918274895,/g3t1_2,,success
Status,1695,138118907407,/g3t1_2,,running
Status,1696,138119410250,/g3t1_2,,success
Status,1698,138318370686,/g3t1_2,,running
Status,1699,138318401156,/g3t1_2,,fail
Status,1701,138518230314,/g3t1_2,,running
Status,1702,138518306441,/g3t1_2,,success
Status,1704,138637232054,/g4t1,,success
Status,1705,138718283433,/g3t1_2,,running
Status,1706,138718311830,/g3t1_2,,success
Status,1708,138918886077,/g3t1_2,,running
Status,1709,138919279821,/g3t1_2,,success
Status,1712,139119051948,/g3t1_2,,running
Status,1713,139119316487,/g3t1_2,,success
Status,1715,139318808626,/g3t1_2,,running
Status,1716,139318848995,/g3t1_2,,success
Status,1718,139518804338,/g3t1_2,,running
Status,1719,139518829096,/g3t1_2,,success
Status,1721,139637274117,/g4t1,,success
Status,1722,139719593520,/g3t1_2,,running
Status,1723,139719932135,/g3t1_2,,success
Status,1725,139919530876,/g3t1_2,,running
Status,1726,139919599957,/g3t1_2,,success
Status,1728,140119066683,/g3t1_2,,running
Status,1729,140119182136,/g3t1_2,,success
Status,1731,140320026775,/g3t1_2,,running
Status,1732,140320851503,/g3t1_2,,success
Status,1734,140520146910,/g3t1_2,,running
Status,1735,140520255853,/g3t1_2,,success
Status,1737,140638330049,/g4t1,,success
Status,1738,140719682408,/g3t1_2,,running
Status,1739,140719906435,/g3t1_2,,success
Status,1741,140919775552,/g3t1_2,,running
Status,1742,140920003458,/g3t1_2,,success
Status,1744,141119806822,/g3t1_2,,running
Status,1745,141119835282,/g3t1_2,,success
Status,1748,141319886039,/g3t1_2,,running
Status,1749,141319910517,/g3t1_2,,success
Status,1751,141520489346,/g3t1_2,,running
Status,1752,141520728161,/g3t1_2,,success
Status,1754,141638397177,/g4t1,,success
Status,1755,141720619577,/g3t1_2,,running
Status,1756,141721328026,/g3t1_2,,success
Status,1758,141920194778,/g3t1_2,,running
Status,1759,141920376386,/g3t1_2,,success
Status,1761,142120855446,/g3t1_2,,running
Status,1762,142120944456,/g3t1_2,,fail
Status,1764,142320346407,/g3t1_2,,running
Status,1765,142320473426,/g3t1_2,,success
Status,1767,142520602065,/g3t1_2,,running
Status,1768,142521050222,/g3t1_2,,success
Status,1770,142637863304,/g4t1,,success
Status,1771,142720733332,/g3t1_2,,running
Status,1772,142720915077,/g3t1_2,,success
Status,1774,142920492446,/g3t1_2,,running
Status,1775,142920619080,/g3t1_2,,success
Status,1777,143121321701,/g3t1_2,,running
Status,1778,143121543827,/g3t1_2,,success
Status,1780,143321643292,/g3t1_2,,running
Status,1781,143322036310,/g3t1_2,,success
Status,1784,143521944793,/g3t1_2,,running
Status,1785,143522176801,/g3t1_2,,success
Status,1787,143638896000,/g4t1,,success
Status,1788,143721897922,/g3t1_2,,running
Status,1789,143722300399,/g3t1_2,,success
Status,1791,143921506920,/g3t1_2,,running
Status,1792,143921626845,/g3t1_2,,success
Status,1794,144121879465,/g3t1_2,,running
Status,1795,144122358848,/g3t1_2,,success
Status,1797,144321516006,/g3t1_2,,running
Status,1798,144321538480,/g3t1_2,,fail
Status,1800,144522434242,/g3t1_2,,running
Status,1801,144523314890,/g3t1_2,,success
Status,1803,144638835817,/g4t1,,success
Status,1804,144722333374,/g3t1_2,,running
Status,1805,144722732588,/g3t1_2,,success
Status,1807,144922500019,/g3t1_2,,running
Status,1808,144923267788,/g3t1_2,,success
Status,1810,145122931471,/g3t1_2,,running
Status,1811,145123166340,/g3t1_2,,success
Status,1813,145323311734,/g3t1_2,,running
Status,1814,145323872950,/g3t1_2,,success
Status,1816,145523209109,/g3t1_2,,running
Status,1817,145523807965,/g3t1_2,,success
Status,1820,145639003923,/g4t1,,success
Status,1821,145723305687,/g3t1_2,,running
Status,1822,145723633854,/g3t1_2,,success
Status,1824,145923380611,/g3t1_2,,running
Status,1825,145923869837,/g3t1_2,,success
Status,1827,146122936312,/g3t1_2,,running
Status,1828,146122966544,/g3t1_2,,success
Status,1830,146323614979,/g3t1_2,,running
Status,1831,146324105172,/g3t1_2,,success
Status,1833,146523028984,/g3t1_2,,running
Status,1834,146523253257,/g3t1_2,,success
Status,1836,146638271603,/g4t1,,success
Status,1837,146723064799,/g3t1_2,,running
Status,1838,146723227373,/g3t1_2,,success
Status,1840,146924035402,/g3t1_2,,running
Status,1841,146924439532,/g3t1_2,,success
Status,1843,147123906745,/g3t1_2,,running
Status,1844,147124424508,/g3t1_2,,success
Status,1846,147324323835,/g3t1_2,,running
Status,1847,147325002659,/g3t1_2,,success
Status,1849,147524390158,/g3t1_2,,running
Status,1850,147524903502,/g3t1_2,,success
Status,1852,147638416686,/g4t1,,success
Status,1853,147724602260,/g3t1_2,,running
Status,1854,147724673164,/g3t1_2,,success
Status,1857,147924654457,/g3t1_2,,running
Status,1858,147925315128,/g3t1_2,,success
Status,1860,148124986164,/g3t1_2,,running
Status,1861,148125554112,/g3t1_2,,success
Status,1863,148325178838,/g3t1_2,,running
Status,1864,148325596909,/g3t1_2,,success
Status,1866,148525316827,/g3t1_2,,running
Status,1867,148525652739,/g3t1_2,,success
Status,1869,148639266810,/g4t1,,success
Status,1870,148725471023,/g3t1_2,,running
Status,1871,148725976542,/g3t1_2,,success
Status,1873,148925736050,/g3t1_2,,running
Status,1874,148926194532,/g3t1_2,,success
Status,1876,149125847645,/g3t1_2,,running
Status,1877,149126162566,/g3t1_2,,success
Status,1879,149326200006,/g3t1_2,,running
Status,1880,149326271778,/g3t1_2,,fail
Status,1882,149526158737,/g3t1_2,,running
Status,1883,149526239275,/g3t1_2,,fail
Status,1885,149639860486,/g4t1,,success
Status,1886,149726233979,/g3t1_2,,running
Status,1887,149726975959,/g3t1_2,,success
Status,1889,149926986385,/g3t1_2,,running
Status,1890,149927550073,/g3t1_2,,success
Status,1893,150127103266,/g3t1_2,,running
Status,1894,150127608670,/g3t1_2,,success
Status,1896,150326895554,/g3t1_2,,running
Status,1897,150327692010,/g3t1_2,,success
Status,1899,150527136795,/g3t1_2,,running
Status,1900,150527806660,/g3t1_2,,success
Status,1902,150639640863,/g4t1,,success
Status,1903,150727092789,/g3t1_2,,running
Status,1904,150727616119,/g3t1_2,,success
Status,1906,150927548073,/g3t1_2,,running
Status,1907,150927897188,/g3t1_2,,success
Status,1909,151127734365,/g3t1_2,,running
Status,1910,151128114772,/g3t1_2,,success
Status,1912,151327574976,/g3t1_2,,running
Status,1913,151327911895,/g3t1_2,,success
Status,1915,151528044031,/g3t1_2,,running
Status,1916,151528539423,/g3t1_2,,success
Status,1918,151639897985,/g4t1,,success
Status,1919,151727862289,/g3t1_2,,running
Status,1920,151728201438,/g3t1_2,,success
Status,1922,151928103645,/g3t1_2,,running
Status,1923,151928560173,/g3t1_2,,success
Status,1925,152127985845,/g3t1_2,,running
Status,1926,152128031007,/g3t1_2,,success
Status,1929,152328716384,/g3t1_2,,running
Status,1930,152328791939,/g3t1_2,,success
Status,1932,152528921911,/g3t1_2,,running
Status,1933,152529009317,/g3t1_2,,fail
Status,1935,152640147710,/g4t1,,success
Status,1936,152728634265,/g3t1_2,,running
Status,1937,152729634712,/g3t1_2,,success
Status,1939,152928754115,/g3t1_2,,running
Status,1940,152929459087,/g3t1_2,,success
Status,1942,153128811676,/g3t1_2,,running
Status,1943,153129045579,/g3t1_2,,success
Status,1945,153328707208,/g3t1_2,,running
Status,1946,153328895898,/g3t1_2,,success
Status,1948,153529616784,/g3t1_2,,running
Status,1949,153530100078,/g3t1_2,,success
Status,1951,153639884240,/g4t1,,success
Status,1952,153729395912,/g3t1_2,,running
Status,1953,153729752425,/g3t1_2,,success
Status,1955,153929768738,/g3t1_2,,running
Status,1956,153930185911,/g3t1_2,,success
Status,1958,154129175051,/g3t1_2,,running
Status,1959,154129202015,/g3t1_2,,success
Status,1961,154329206037,/g3t1_2,,running
Status,1962,154329227347,/g3t1_2,,success
Status,1965,154529284198,/g3t1_2,,running
Status,1966,154529303062,/g3t1_2,,success
Status,1968,154640144011,/g4t1,,success
Status,1969,154729511524,/g3t1_2,,running
Status,1970,154729660229,/g3t1_2,,success
Status,1972,154929924106,/g3t1_2,,running
Status,1973,154930133913,/g3t1_2,,success
Status,1975,155130425424,/g3t1_2,,running
Status,1976,155130941422,/g3t1_2,,success
Status,1978,155330051875,/g3t1_2,,running
Status,1979,155330242236,/g3t1_2,,success
Status,1981,155530095418,/g3t1_2,,running
Status,1982,155530218033,/g3t1_2,,success
Status,1984,155640360997,/g4t1,,success
Status,1985,155730735940,/g3t1_2,,running
Status,1986,155731665188,/g3t1_2,,success
Status,1988,155930348960,/g3t1_2,,running
Status,1989,155930594169,/g3t1_2,,success
Status,1991,156130691783,/g3t1_2,,running
Status,1992,156131002744,/g3t1_2,,success
Status,1994,156331268045,/g3t1_2,,running
Status,1995,156331622243,/g3t1_2,,success
Status,1997,156530587890,/g3t1_2,,running
Status,1998,156530619400,/g3t1_2,,success
Status,2001,156639622659,/g4t1,,success
Status,2002,156730737908,/g3t1_2,,running
Status,2003,156730819677,/g3t1_2,,success
Status,2005,156931659780,/g3t1_2,,running
Status,2006,156932052320,/g3t1_2,,success
Status,2008,157131747731,/g3t1_2,,running
Status,2009,157131818423,/g3t1_2,,fail
Status,2011,157331183846,/g3t1_2,,running
Status,2012,157331208834,/g3t1_2,,fail
Status,2014,157531783457,/g3t1_2,,running
Status,2015,157532237298,/g3t1_2,,success
Status,2017,157640756579,/g4t1,,success
Status,2018,157731779233,/g3t1_2,,running
Status,2019,157732142458,/g3t1_2,,success
Status,2021,157932350372,/g3t1_2,,running
Status,2022,157932564250,/g3t1_2,,success
Status,2024,158132364152,/g3t1_2,,running
Status,2025,158132857994,/g3t1_2,,success
Status,2027,158331719487,/g3t1_2,,running
Status,2028,158331742214,/g3t1_2,,success
Status,2030,158532838030,/g3t1_2,,running
Status,2031,158533205999,/g3t1_2,,success
Status,2033,158641089556,/g4t1,,success
Status,2034,158732927564,/g3t1_2,,running
Status,2035,158733010480,/g3t1_2,,success
Status,2038,158933302464,/g3t1_2,,running
Status,2039,158933365154,/g3t1_2,,success
Status,2041,159133547643,/g3t1_2,,running
Status,2042,159133634387,/g3t1_2,,success
Status,2044,159333544136,/g3t1_2,,running
Status,2045,159333642520,/g3t1_2,,fail
Status,2047,159533805751,/g3t1_2,,running
Status,2048,159534123240,/g3t1_2,,success
Status,2050,159640277018,/g4t1,,success
Status,2051,159732981291,/g3t1_2,,running
Status,2052,159733005509,/g3t1_2,,success
