
Status,2,3568433353,/g4t1,,init
Status,3,8581556532,/g3t1_1,,init
Status,5,8599728660,/g3t1_1,,init
Status,6,8600033474,/g3t1_1,,running
Status,7,8600788673,/g3t1_1,,success
Status,8,8699845052,/g3t1_1,,running
Status,9,8700009194,/g3t1_1,,success
Status,10,8783465709,/g3t1_2,,init
Status,12,8800357209,/g3t1_1,,running
Status,13,8800390315,/g3t1_2,,init
Status,14,8800446747,/g3t1_2,,running
Status,15,8800481883,/g3t1_1,,success
Status,16,8801701952,/g3t1_2,,success
Status,17,8900089578,/g3t1_1,,running
Status,18,8900366801,/g3t1_2,,running
Status,19,8900392413,/g3t1_1,,success
Status,20,8900432593,/g3t1_2,,success
Status,21,8916075108,/g4t1,,success
Status,22,9000141353,/g3t1_1,,running
Status,23,9000171587,/g3t1_1,,success
Status,24,9000200715,/g3t1_2,,running
Status,25,9000326697,/g3t1_2,,success
Status,26,9016536292,/g4t1,,success
Status,27,9036768960,/g4t1,,success
Status,28,9083922483,/g3t1_3,,init
Status,30,9099400115,/g3t1_3,,init
Status,31,9099433435,/g3t1_3,,running
Status,32,9100368858,/g3t1_1,,running
Status,33,9100395747,/g3t1_1,,success
Status,34,9100526891,/g3t1_2,,running
Status,35,9100558384,/g3t1_2,,success
Status,36,9100618702,/g3t1_3,,success
Status,37,9117050686,/g4t1,,success
Status,38,9137347874,/g4t1,,success
Status,39,9157400184,/g4t1,,success
Status,40,9177494966,/g4t1,,success
Status,41,9199549269,/g3t1_3,,running
Status,42,9199844326,/g3t1_3,,success
Status,43,9200128810,/g3t1_1,,running
Status,44,9200344769,/g3t1_1,,success
Status,45,9200367211,/g3t1_2,,running
Status,46,9200622541,/g3t1_2,,success
Status,47,9217647762,/g4t1,,success
Status,48,9237811199,/g4t1,,success
Status,49,9257793608,/g4t1,,success
Status,50,9277894970,/g4t1,,success
Status,51,9297811630,/g4t1,,success
Status,52,9299520680,/g3t1_3,,running
Status,53,9299625419,/g3t1_3,,success
Status,54,9300113121,/g3t1_1,,running
Status,55,9300388476,/g3t1_1,,success
Status,56,9300415909,/g3t1_2,,running
Status,57,9300488876,/g3t1_2,,success
Status,58,9318051339,/g4t1,,fail
Status,59,9337971356,/g4t1,,success
Status,60,9358151172,/g4t1,,success
Status,61,9378274584,/g4t1,,success
Status,62,9398283086,/g4t1,,success
Status,63,9399616289,/g3t1_3,,running
Status,64,9399859555,/g3t1_3,,success
Status,65,9400169924,/g3t1_1,,running
Status,66,9400469285,/g3t1_1,,success
Status,67,9400499361,/g3t1_2,,running
Status,68,9400644571,/g3t1_2,,success
Status,69,9418421177,/g4t1,,fail
Status,70,9438511358,/g4t1,,success
Status,71,9458627977,/g4t1,,success
Status,72,9478687378,/g4t1,,success
Status,73,9498663567,/g4t1,,success
Status,74,9499744917,/g3t1_3,,running
Status,75,9499852439,/g3t1_3,,success
Status,76,9500257048,/g3t1_1,,running
Status,77,9500564303,/g3t1_1,,success
Status,78,9500593252,/g3t1_2,,running
Status,79,9500828801,/g3t1_2,,success
Status,80,9518912622,/g4t1,,fail
Status,81,9539028948,/g4t1,,success
Status,82,9559124522,/g4t1,,success
Status,83,9579231107,/g4t1,,success
Status,84,9599318220,/g4t1,,success
Status,85,9599748141,/g3t1_3,,running
Status,86,9600151210,/g3t1_3,,success
Status,87,9600425031,/g3t1_1,,running
Status,88,9600617964,/g3t1_1,,success
Status,89,9600774929,/g3t1_2,,running
Status,90,9600952132,/g3t1_2,,success
Status,91,9619405812,/g4t1,,fail
Status,92,9639484307,/g4t1,,success
Status,93,9659578690,/g4t1,,success
Status,94,9679682446,/g4t1,,success
Status,95,9699828587,/g4t1,,success
Status,96,9699864547,/g3t1_3,,running
Status,97,9700153672,/g3t1_3,,success
Status,98,9700727469,/g3t1_1,,running
Status,99,9700876351,/g3t1_1,,success
Status,100,9700894707,/g3t1_2,,running
Status,101,9700974385,/g3t1_2,,success
Status,102,9719899726,/g4t1,,fail
Status,103,9740016769,/g4t1,,success
Status,104,9760174925,/g4t1,,success
Status,105,9780210977,/g4t1,,success
Status,106,9800115343,/g3t1_3,,running
Status,107,9800145033,/g4t1,,success
Status,108,9800158073,/g3t1_3,,success
Status,109,9800764505,/g3t1_1,,running
Status,110,9800826881,/g3t1_1,,success
Status,111,9800991619,/g3t1_2,,running
Status,112,9801265523,/g3t1_2,,success
Status,113,9820370778,/g4t1,,fail
Status,114,9840501072,/g4t1,,success
Status,115,9860596683,/g4t1,,success
Status,116,9880718499,/g4t1,,success
Status,117,9900143414,/g3t1_3,,running
Status,118,9900169665,/g3t1_3,,success
Status,119,9900490909,/g3t1_1,,running
Status,120,9900521251,/g4t1,,fail
Status,121,9900978316,/g3t1_1,,success
Status,122,9901031645,/g3t1_2,,running
Status,123,9901200904,/g3t1_2,,success
Status,124,9920926668,/g4t1,,fail
Status,125,9940926381,/g4t1,,success
Status,126,9961057559,/g4t1,,success
Status,127,9981159243,/g4t1,,success
Status,128,10000198404,/g3t1_3,,running
Status,129,10000257270,/g3t1_3,,success
Status,130,10000640550,/g3t1_1,,running
Status,131,10000963730,/g3t1_1,,success
Status,132,10001191149,/g3t1_2,,running
Status,133,10001213863,/g4t1,,fail
Status,134,10001245734,/g3t1_2,,success
Status,135,10021496382,/g4t1,,fail
Status,136,10041447677,/g4t1,,success
Status,137,10061554307,/g4t1,,success
Status,138,10081597880,/g4t1,,success
Status,139,10100343426,/g3t1_3,,running
Status,140,10100685492,/g3t1_3,,success
Status,141,10100708936,/g3t1_1,,running
Status,142,10100788673,/g3t1_1,,success
Status,143,10101308553,/g3t1_2,,running
Status,144,10101332435,/g3t1_2,,success
Status,145,10101438541,/g4t1,,fail
Status,146,10121863904,/g4t1,,fail
Status,147,10141864516,/g4t1,,success
Status,148,10161969969,/g4t1,,success
Status,149,10182049158,/g4t1,,success
Status,150,10200430084,/g3t1_3,,running
Status,151,10200633596,/g3t1_3,,success
Status,152,10201055015,/g3t1_1,,running
Status,153,10201076528,/g3t1_1,,success
Status,154,10201138706,/g3t1_2,,running
Status,155,10201459089,/g3t1_2,,success
Status,156,10201900982,/g4t1,,fail
Status,157,10222209971,/g4t1,,success
Status,158,10242304111,/g4t1,,success
Status,159,10262413636,/g4t1,,success
Status,160,10282525908,/g4t1,,success
Status,161,10300510951,/g3t1_3,,running
Status,162,10300750598,/g3t1_3,,success
Status,163,10300803321,/g3t1_1,,running
Status,164,10301300347,/g3t1_1,,success
Status,165,10301322911,/g3t1_2,,running
Status,166,10301599554,/g3t1_2,,success
Status,167,10302306412,/g4t1,,fail
Status,168,10322788729,/g4t1,,success
Status,169,10342858466,/g4t1,,success
Status,170,10362955006,/g4t1,,success
Status,171,10383030990,/g4t1,,success
Status,172,10400634758,/g3t1_3,,running
Status,173,10401040201,/g3t1_3,,success
Status,174,10401072767,/g3t1_1,,running
Status,175,10401161539,/g3t1_1,,success
Status,176,10401308286,/g3t1_2,,running
Status,177,10401690708,/g3t1_2,,success
Status,178,10402865549,/g4t1,,fail
Status,179,10423115788,/g4t1,,success
Status,180,10443138039,/g4t1,,success
Status,181,10463213526,/g4t1,,success
Status,182,10483447375,/g4t1,,success
Status,183,10500740417,/g3t1_3,,running
Status,184,10501134296,/g3t1_3,,success
Status,185,10501166990,/g3t1_1,,running
Status,186,10501599238,/g3t1_1,,success
Status,187,10501632621,/g3t1_2,,running
Status,188,10501642002,/g3t1_2,,success
Status,189,10503298520,/g4t1,,fail
Status,190,10523597837,/g4t1,,success
Status,191,10543715718,/g4t1,,success
Status,192,10563736786,/g4t1,,success
Status,193,10583878896,/g4t1,,success
Status,194,10601230932,/g3t1_3,,running
Status,195,10601284971,/g3t1_3,,success
Status,196,10601296734,/g3t1_1,,running
Status,197,10601305066,/g3t1_1,,success
Status,198,10601420732,/g3t1_2,,running
Status,199,10601617964,/g3t1_2,,success
Status,200,10603777700,/g4t1,,fail
Status,201,10623999720,/g4t1,,success
Status,202,10644264887,/g4t1,,success
Status,203,10664213506,/g4t1,,success
Status,204,10684272964,/g4t1,,success
Status,205,10701204005,/g3t1_3,,running
Status,206,10701238084,/g3t1_3,,success
Status,207,10701446503,/g3t1_1,,running
Status,208,10701465562,/g3t1_1,,success
Status,209,10701475000,/g3t1_2,,running
Status,210,10701676182,/g3t1_2,,success
Status,211,10704248119,/g4t1,,fail
Status,212,10724459705,/g4t1,,success
Status,213,10744579020,/g4t1,,success
Status,214,10764691106,/g4t1,,success
Status,215,10784761822,/g4t1,,success
Status,216,10801160165,/g3t1_3,,running
Status,217,10801189068,/g3t1_3,,success
Status,218,10801202697,/g3t1_1,,running
Status,219,10801707247,/g3t1_1,,success
Status,220,10801746997,/g3t1_2,,running
Status,221,10801955223,/g3t1_2,,success
Status,222,10804730541,/g4t1,,fail
Status,223,10824838540,/g4t1,,success
Status,224,10845001464,/g4t1,,success
Status,225,10865056741,/g4t1,,success
Status,226,10885133022,/g4t1,,success
Status,227,10901160592,/g3t1_3,,running
Status,228,10901332813,/g3t1_1,,running
Status,229,10901366578,/g3t1_3,,success
Status,230,10901570298,/g3t1_1,,success
Status,231,10901917144,/g3t1_2,,running
Status,232,10901967578,/g3t1_2,,success
Status,233,10905221617,/g4t1,,fail
Status,234,10925321749,/g4t1,,success
Status,235,10945380608,/g4t1,,success
Status,236,10965555186,/g4t1,,success
Status,237,10985782881,/g4t1,,success
Status,238,11001254162,/g3t1_3,,running
Status,239,11001372342,/g3t1_1,,running
Status,240,11001385312,/g3t1_3,,success
Status,241,11001564042,/g3t1_1,,success
Status,242,11001674849,/g3t1_2,,running
Status,243,11001904278,/g3t1_2,,success
Status,244,11005530048,/g4t1,,fail
Status,245,11025850046,/g4t1,,success
Status,246,11045931789,/g4t1,,success
Status,247,11066005301,/g4t1,,success
Status,248,11086098146,/g4t1,,success
Status,249,11101344992,/g3t1_3,,running
Status,250,11101460600,/g3t1_3,,success
Status,251,11101490659,/g3t1_1,,running
Status,252,11101702246,/g3t1_1,,success
Status,253,11101809630,/g3t1_2,,running
Status,254,11102123227,/g3t1_2,,success
Status,255,11106052316,/g4t1,,fail
Status,256,11126166372,/g4t1,,success
Status,257,11146263305,/g4t1,,success
Status,258,11166346546,/g4t1,,success
Status,259,11186561848,/g4t1,,success
Status,260,11201601269,/g3t1_3,,running
Status,261,11201872587,/g3t1_1,,running
Status,262,11201895528,/g3t1_1,,success
Status,263,11201957140,/g3t1_3,,success
Status,264,11201969789,/g3t1_2,,running
Status,265,11202145388,/g3t1_2,,success
Status,266,11206414741,/g4t1,,fail
Status,267,11226663342,/g4t1,,success
Status,268,11246750770,/g4t1,,success
Status,269,11266823128,/g4t1,,success
Status,270,11286914321,/g4t1,,success
Status,271,11301708558,/g3t1_3,,running
Status,272,11301764669,/g3t1_1,,running
Status,273,11301781696,/g3t1_3,,success
Status,274,11301904877,/g3t1_1,,success
Status,275,11302048085,/g3t1_2,,running
Status,276,11302172048,/g3t1_2,,success
Status,277,11306885451,/g4t1,,fail
Status,278,11327042661,/g4t1,,success
Status,279,11347049952,/g4t1,,success
Status,280,11367254659,/g4t1,,success
Status,281,11387299856,/g4t1,,success
Status,282,11401536220,/g3t1_3,,running
Status,283,11401792521,/g3t1_3,,success
Status,284,11401813566,/g3t1_1,,running
Status,285,11401849719,/g3t1_1,,success
Status,286,11402044002,/g3t1_2,,running
Status,287,11402321389,/g3t1_2,,success
Status,288,11407282349,/g4t1,,fail
Status,289,11427451088,/g4t1,,success
Status,290,11447517426,/g4t1,,success
Status,291,11467685366,/g4t1,,success
Status,292,11487729184,/g4t1,,success
Status,293,11501561441,/g3t1_3,,running
Status,294,11501587945,/g3t1_3,,success
Status,295,11502068004,/g3t1_1,,running
Status,296,11502084787,/g3t1_1,,success
Status,297,11502200709,/g3t1_2,,running
Status,298,11502381566,/g3t1_2,,success
Status,299,11507691663,/g4t1,,fail
Status,300,11527866370,/g4t1,,success
Status,301,11547985662,/g4t1,,success
Status,302,11568043504,/g4t1,,success
Status,303,11588158269,/g4t1,,success
Status,304,11601752321,/g3t1_3,,running
Status,305,11601779218,/g3t1_3,,success
Status,306,11601865485,/g3t1_1,,running
Status,307,11602102353,/g3t1_1,,success
Status,308,11602186322,/g3t1_2,,running
Status,309,11602366595,/g3t1_2,,success
Status,310,11608066976,/g4t1,,fail
Status,311,11628315819,/g4t1,,success
Status,312,11648406259,/g4t1,,success
Status,313,11669302341,/g4t1,,success
Status,314,11688405630,/g4t1,,success
Status,315,11701715098,/g3t1_3,,running
Status,316,11701856707,/g3t1_3,,success
Status,317,11701880393,/g3t1_1,,running
Status,318,11702164441,/g3t1_1,,success
Status,319,11702442239,/g3t1_2,,running
Status,320,11702457685,/g3t1_2,,success
Status,321,11708555610,/g4t1,,fail
Status,322,11728686174,/g4t1,,success
Status,323,11748795672,/g4t1,,success
Status,324,11768817342,/g4t1,,success
Status,325,11788869221,/g4t1,,success
Status,326,11801888750,/g3t1_3,,running
Status,327,11801921394,/g3t1_3,,success
Status,328,11802047642,/g3t1_1,,running
Status,329,11802185121,/g3t1_1,,success
Status,330,11802374430,/g3t1_2,,running
Status,331,11802587527,/g3t1_2,,success
Status,332,11808873585,/g4t1,,fail
Status,333,11828970690,/g4t1,,success
Status,334,11849123585,/g4t1,,success
Status,335,11869445340,/g4t1,,success
Status,336,11889244535,/g4t1,,success
Status,337,11902127220,/g3t1_3,,running
Status,338,11902152978,/g3t1_3,,success
Status,339,11902185164,/g3t1_1,,running
Status,340,11902282242,/g3t1_1,,success
Status,341,11902440615,/g3t1_2,,running
Status,342,11902638685,/g3t1_2,,success
Status,343,11909355655,/g4t1,,fail
Status,344,11929557205,/g4t1,,success
Status,345,11949574638,/g4t1,,success
Status,346,11969800428,/g4t1,,success
Status,347,11989680613,/g4t1,,success
Status,348,12002238896,/g3t1_3,,running
Status,349,12002277454,/g3t1_3,,success
Status,350,12002332537,/g3t1_1,,running
Status,351,12002346114,/g3t1_1,,success
Status,352,12002479135,/g3t1_2,,running
Status,353,12002757531,/g3t1_2,,success
Status,354,12009731375,/g4t1,,fail
Status,355,12029913741,/g4t1,,success
Status,356,12050053207,/g4t1,,success
Status,357,12070144403,/g4t1,,success
Status,358,12090113505,/g4t1,,success
Status,359,12102112717,/g3t1_3,,running
Status,360,12102300899,/g3t1_3,,success
Status,361,12102389201,/g3t1_1,,running
Status,362,12102456060,/g3t1_1,,success
Status,363,12102556248,/g3t1_2,,running
Status,364,12102739940,/g3t1_2,,success
Status,365,12110344875,/g4t1,,fail
Status,366,12130360550,/g4t1,,success
Status,367,12150506970,/g4t1,,success
Status,368,12170586514,/g4t1,,success
Status,369,12190657365,/g4t1,,success
Status,370,12202319407,/g3t1_3,,running
Status,371,12202346641,/g3t1_1,,running
Status,372,12202366873,/g3t1_3,,success
Status,373,12202603158,/g3t1_1,,success
Status,374,12202806478,/g3t1_2,,running
Status,375,12202840040,/g3t1_2,,success
Status,376,12210752305,/g4t1,,fail
Status,377,12230810391,/g4t1,,success
Status,378,12250953293,/g4t1,,success
Status,379,12271056719,/g4t1,,success
Status,380,12291114733,/g4t1,,success
Status,381,12302447906,/g3t1_3,,running
Status,382,12302478639,/g3t1_1,,running
Status,383,12302512451,/g3t1_3,,success
Status,384,12302679481,/g3t1_1,,success
Status,385,12302716049,/g3t1_2,,running
Status,386,12303048980,/g3t1_2,,success
Status,387,12311245167,/g4t1,,fail
Status,388,12331378246,/g4t1,,success
Status,389,12351525333,/g4t1,,success
Status,390,12371552049,/g4t1,,success
Status,391,12391613685,/g4t1,,success
Status,392,12402605664,/g3t1_3,,running
Status,393,12402645169,/g3t1_1,,running
Status,394,12402728489,/g3t1_3,,success
Status,395,12403059023,/g3t1_1,,success
Status,396,12403094163,/g3t1_2,,running
Status,397,12403102584,/g3t1_2,,success
Status,398,12411692622,/g4t1,,fail
Status,399,12431872496,/g4t1,,success
Status,400,12451935092,/g4t1,,success
Status,401,12472039739,/g4t1,,success
Status,402,12492106254,/g4t1,,success
Status,403,12503008159,/g3t1_3,,running
Status,404,12503034240,/g3t1_1,,running
Status,405,12503042608,/g3t1_1,,success
Status,406,12503073467,/g3t1_3,,success
Status,407,12503085230,/g3t1_2,,running
Status,408,12503113125,/g3t1_2,,success
Status,409,12512224946,/g4t1,,fail
Status,410,12532269822,/g4t1,,success
Status,411,12552400305,/g4t1,,success
Status,412,12572517790,/g4t1,,success
Status,413,12592616652,/g4t1,,success
Status,414,12602672805,/g3t1_3,,running
Status,415,12602700998,/g3t1_3,,success
Status,416,12602712988,/g3t1_1,,running
Status,417,12602918645,/g3t1_1,,success
Status,418,12602938295,/g3t1_2,,running
Status,419,12603146517,/g3t1_2,,success
Status,420,12612715520,/g4t1,,fail
Status,421,12632789815,/g4t1,,success
Status,422,12653012722,/g4t1,,success
Status,423,12672979504,/g4t1,,success
Status,424,12693007425,/g4t1,,success
Status,425,12702786463,/g3t1_3,,running
Status,426,12702807091,/g3t1_3,,success
Status,427,12702832081,/g3t1_1,,running
Status,428,12702842297,/g3t1_1,,success
Status,429,12702972694,/g3t1_2,,running
Status,430,12703209870,/g3t1_2,,success
Status,431,12713258723,/g4t1,,fail
Status,432,12733292372,/g4t1,,success
Status,433,12753657348,/g4t1,,success
Status,434,12773555613,/g4t1,,success
Status,435,12793450621,/g4t1,,success
Status,436,12803051059,/g3t1_3,,running
Status,437,12803083670,/g3t1_1,,running
Status,438,12803097050,/g3t1_3,,success
Status,439,12803194147,/g3t1_2,,running
Status,440,12803251963,/g3t1_1,,success
Status,441,12803456684,/g3t1_2,,success
Status,442,12813644248,/g4t1,,fail
Status,443,12833630616,/g4t1,,success
Status,444,12853749944,/g4t1,,success
Status,445,12873853631,/g4t1,,success
Status,446,12893927860,/g4t1,,success
Status,447,12903035790,/g3t1_3,,running
Status,448,12903237393,/g3t1_1,,running
Status,449,12903256971,/g3t1_3,,success
Status,450,12903277282,/g3t1_2,,running
Status,451,12903285780,/g3t1_1,,success
Status,452,12903424059,/g3t1_2,,success
Status,453,12914099101,/g4t1,,fail
Status,454,12934177950,/g4t1,,success
Status,455,12954213961,/g4t1,,success
Status,456,12974341537,/g4t1,,success
Status,457,12994295504,/g4t1,,success
Status,458,13003471877,/g3t1_3,,running
Status,459,13003493143,/g3t1_1,,running
Status,460,13003515927,/g3t1_1,,success
Status,461,13003526675,/g3t1_2,,running
Status,462,13003533725,/g3t1_2,,success
Status,463,13003647556,/g3t1_3,,success
Status,464,13014382921,/g4t1,,fail
Status,465,13034579069,/g4t1,,success
Status,466,13054654019,/g4t1,,success
Status,467,13074751947,/g4t1,,success
Status,468,13094892371,/g4t1,,success
Status,469,13103142742,/g3t1_3,,running
Status,470,13103187086,/g3t1_1,,running
Status,471,13103199157,/g3t1_3,,success
Status,472,13103206942,/g3t1_1,,success
Status,473,13103347102,/g3t1_2,,running
Status,474,13103520016,/g3t1_2,,success
Status,475,13114972023,/g4t1,,fail
Status,476,13135065145,/g4t1,,success
Status,477,13155144292,/g4t1,,success
Status,478,13175242347,/g4t1,,success
Status,479,13195259372,/g4t1,,success
Status,480,13203178914,/g3t1_1,,running
Status,481,13203222598,/g3t1_3,,running
Status,482,13203233456,/g3t1_3,,success
Status,483,13203448523,/g3t1_2,,running
Status,484,13203762581,/g3t1_2,,success
Status,485,13204010954,/g3t1_1,,success
Status,486,13215463174,/g4t1,,fail
Status,487,13235582362,/g4t1,,success
Status,488,13255615525,/g4t1,,success
Status,489,13275746415,/g4t1,,success
Status,490,13295775946,/g4t1,,success
Status,491,13303422068,/g3t1_3,,running
Status,492,13303449818,/g3t1_1,,running
Status,493,13303592557,/g3t1_1,,success
Status,494,13303615145,/g3t1_2,,running
Status,495,13303626303,/g3t1_3,,success
Status,496,13303774205,/g3t1_2,,success
Status,497,13315906404,/g4t1,,fail
Status,498,13336179127,/g4t1,,success
Status,499,13356256918,/g4t1,,success
Status,500,13376241170,/g4t1,,success
Status,501,13396328809,/g4t1,,success
Status,502,13403528181,/g3t1_3,,running
Status,503,13403567493,/g3t1_1,,running
Status,504,13403837081,/g3t1_1,,success
Status,505,13403867141,/g3t1_2,,running
Status,506,13403891049,/g3t1_3,,success
Status,507,13403899496,/g3t1_2,,success
Status,508,13416373075,/g4t1,,fail
Status,509,13436605092,/g4t1,,success
Status,510,13456561113,/g4t1,,success
Status,511,13476703115,/g4t1,,success
Status,512,13496787502,/g4t1,,success
Status,513,13503783893,/g3t1_3,,running
Status,514,13503811080,/g3t1_1,,running
Status,515,13503823616,/g3t1_2,,running
Status,516,13503864184,/g3t1_3,,success
Status,517,13504052091,/g3t1_1,,success
Status,518,13504070790,/g3t1_2,,success
Status,519,13516983146,/g4t1,,fail
Status,520,13537176975,/g4t1,,success
Status,521,13557142971,/g4t1,,success
Status,522,13577250500,/g4t1,,success
Status,523,13597329815,/g4t1,,success
Status,524,13603509332,/g3t1_3,,running
Status,525,13603713368,/g3t1_1,,running
Status,526,13603747891,/g3t1_1,,success
Status,527,13603756095,/g3t1_3,,success
Status,528,13603818475,/g3t1_2,,running
Status,529,13603907881,/g3t1_2,,success
Status,530,13617411104,/g4t1,,fail
Status,531,13637446226,/g4t1,,success
Status,532,13657546231,/g4t1,,success
Status,533,13677648159,/g4t1,,success
Status,534,13697651223,/g4t1,,success
Status,535,13703630283,/g3t1_3,,running
Status,536,13703734090,/g3t1_1,,running
Status,537,13703754776,/g3t1_3,,success
Status,538,13703869277,/g3t1_2,,running
Status,539,13703893384,/g3t1_1,,success
Status,540,13704033101,/g3t1_2,,success
Status,541,13717803761,/g4t1,,fail
Status,542,13737886107,/g4t1,,success
Status,543,13757928418,/g4t1,,success
Status,544,13778074972,/g4t1,,success
Status,545,13798108190,/g4t1,,success
Status,546,13803662191,/g3t1_3,,running
Status,547,13803692188,/g3t1_1,,running
Status,548,13803727452,/g3t1_1,,success
Status,549,13804052915,/g3t1_2,,running
Status,550,13804070753,/g3t1_3,,success
Status,551,13804094678,/g3t1_2,,success
Status,552,13818324313,/g4t1,,fail
Status,553,13838340267,/g4t1,,success
Status,554,13858430579,/g4t1,,success
Status,555,13878495046,/g4t1,,success
Status,556,13898577771,/g4t1,,success
Status,557,13903878682,/g3t1_3,,running
Status,558,13903902642,/g3t1_3,,success
Status,559,13903913952,/g3t1_1,,running
Status,560,13904008172,/g3t1_1,,success
Status,561,13904161405,/g3t1_2,,running
Status,562,13904258760,/g3t1_2,,success
Status,563,13918626644,/g4t1,,fail
Status,564,13938703934,/g4t1,,success
Status,565,13958843973,/g4t1,,success
Status,566,13978913367,/g4t1,,success
Status,567,13999017383,/g4t1,,success
Status,568,14003825651,/g3t1_3,,running
Status,569,14003851133,/g3t1_1,,running
Status,570,14004038373,/g3t1_1,,success
Status,571,14004162315,/g3t1_3,,success
Status,572,14004180337,/g3t1_2,,running
Status,573,14004682694,/g3t1_2,,success
Status,574,14019080477,/g4t1,,fail
Status,575,14039194602,/g4t1,,success
Status,576,14059358717,/g4t1,,success
Status,577,14079447107,/g4t1,,success
Status,578,14099530566,/g4t1,,success
Status,579,14104006393,/g3t1_3,,running
Status,580,14104030405,/g3t1_1,,running
Status,581,14104062232,/g3t1_1,,success
Status,582,14104070625,/g3t1_3,,success
Status,583,14104193889,/g3t1_2,,running
Status,584,14104410247,/g3t1_2,,success
Status,585,14119582142,/g4t1,,fail
Status,586,14139648809,/g4t1,,success
Status,587,14159837662,/g4t1,,success
Status,588,14179836972,/g4t1,,success
Status,589,14199936299,/g4t1,,success
Status,590,14203939804,/g3t1_1,,running
Status,591,14204070229,/g3t1_3,,running
Status,592,14204359462,/g3t1_1,,success
Status,593,14204389442,/g3t1_3,,success
Status,594,14204475593,/g3t1_2,,running
Status,595,14204526063,/g3t1_2,,success
Status,596,14220227287,/g4t1,,fail
Status,597,14240164304,/g4t1,,success
Status,598,14260349830,/g4t1,,success
Status,599,14280451401,/g4t1,,success
Status,600,14300481508,/g4t1,,success
Status,601,14304112134,/g3t1_1,,running
Status,602,14304141036,/g3t1_3,,running
Status,603,14304243811,/g3t1_3,,success
Status,604,14304318894,/g3t1_1,,success
Status,605,14304526140,/g3t1_2,,running
Status,606,14304619193,/g3t1_2,,success
Status,607,14320601499,/g4t1,,fail
Status,608,14340722103,/g4t1,,success
Status,609,14360809653,/g4t1,,success
Status,610,14380908769,/g4t1,,success
Status,611,14401118646,/g4t1,,success
Status,612,14404143792,/g3t1_1,,running
Status,613,14404172310,/g3t1_3,,running
Status,614,14404347450,/g3t1_1,,success
Status,615,14404369149,/g3t1_3,,success
Status,616,14404402576,/g3t1_2,,running
Status,617,14404646540,/g3t1_2,,success
Status,618,14421129723,/g4t1,,fail
Status,619,14441293553,/g4t1,,success
Status,620,14461364108,/g4t1,,success
Status,621,14481416173,/g4t1,,success
Status,622,14501772484,/g4t1,,success
Status,623,14504244679,/g3t1_3,,running
Status,624,14504293969,/g3t1_1,,running
Status,625,14504305813,/g3t1_3,,success
Status,626,14504369393,/g3t1_1,,success
Status,627,14504461885,/g3t1_2,,running
Status,628,14504755453,/g3t1_2,,success
Status,629,14521530682,/g4t1,,fail
Status,630,14541595724,/g4t1,,success
Status,631,14561630148,/g4t1,,success
Status,632,14581738817,/g4t1,,success
Status,633,14601938511,/g4t1,,success
Status,634,14604277796,/g3t1_3,,running
Status,635,14604303775,/g3t1_1,,running
Status,636,14604620542,/g3t1_1,,success
Status,637,14604638941,/g3t1_3,,success
Status,638,14604731129,/g3t1_2,,running
Status,639,14604749481,/g3t1_2,,success
Status,640,14621953447,/g4t1,,fail
Status,641,14642046888,/g4t1,,success
Status,642,14662088361,/g4t1,,success
Status,643,14682258105,/g4t1,,success
Status,644,14702236580,/g4t1,,success
Status,645,14704331271,/g3t1_3,,running
Status,646,14704346399,/g3t1_1,,running
Status,647,14704360721,/g3t1_3,,success
Status,648,14704453882,/g3t1_1,,success
Status,649,14704732704,/g3t1_2,,running
Status,650,14704822557,/g3t1_2,,success
Status,651,14722318299,/g4t1,,fail
Status,652,14742417022,/g4t1,,success
Status,653,14762461446,/g4t1,,success
Status,654,14782644762,/g4t1,,success
Status,655,14802733335,/g4t1,,success
Status,656,14804459818,/g3t1_3,,running
Status,657,14804481750,/g3t1_1,,running
Status,658,14804508059,/g3t1_1,,success
Status,659,14804762550,/g3t1_3,,success
Status,660,14804787641,/g3t1_2,,running
Status,661,14804866702,/g3t1_2,,success
Status,662,14822842264,/g4t1,,fail
Status,663,14842944173,/g4t1,,success
Status,664,14863044072,/g4t1,,success
Status,665,14883125043,/g4t1,,success
Status,666,14903334381,/g4t1,,success
Status,667,14904447722,/g3t1_3,,running
Status,668,14904489552,/g3t1_1,,running
Status,669,14904630194,/g3t1_3,,success
Status,670,14904665340,/g3t1_1,,success
Status,671,14904792522,/g3t1_2,,running
Status,672,14905010135,/g3t1_2,,success
Status,673,14923346343,/g4t1,,fail
Status,674,14943443446,/g4t1,,success
Status,675,14963542976,/g4t1,,success
Status,676,14983647270,/g4t1,,success
Status,677,15003777242,/g4t1,,success
Status,678,15004482942,/g3t1_3,,running
Status,679,15004572945,/g3t1_1,,running
Status,680,15004676189,/g3t1_3,,success
Status,681,15004697462,/g3t1_1,,success
Status,682,15005011583,/g3t1_2,,running
Status,683,15005053789,/g3t1_2,,success
Status,684,15023769285,/g4t1,,fail
Status,685,15043849925,/g4t1,,success
Status,686,15064039284,/g4t1,,success
Status,687,15083982964,/g4t1,,success
Status,688,15104191599,/g4t1,,success
Status,689,15104602218,/g3t1_3,,running
Status,690,15104624116,/g3t1_1,,running
Status,691,15104917554,/g3t1_1,,success
Status,692,15104938620,/g3t1_3,,success
Status,693,15104954147,/g3t1_2,,running
Status,694,15105077027,/g3t1_2,,success
Status,695,15124293143,/g4t1,,fail
Status,696,15144335288,/g4t1,,success
Status,697,15164453070,/g4t1,,success
Status,698,15184654341,/g4t1,,success
Status,699,15204750664,/g4t1,,success
Status,700,15204774048,/g3t1_1,,running
Status,701,15204800201,/g3t1_3,,running
Status,702,15204808772,/g3t1_1,,success
Status,703,15204833547,/g3t1_3,,success
Status,704,15205052349,/g3t1_2,,running
Status,705,15205214287,/g3t1_2,,success
Status,706,15224677772,/g4t1,,fail
Status,707,15244785096,/g4t1,,success
Status,708,15264848241,/g4t1,,success
Status,709,15285154362,/g4t1,,success
Status,710,15304954188,/g3t1_1,,running
Status,711,15305006133,/g3t1_3,,running
Status,712,15305038329,/g3t1_3,,success
Status,713,15305048807,/g4t1,,success
Status,714,15305058966,/g3t1_1,,success
Status,715,15305068450,/g3t1_2,,running
Status,716,15305459342,/g3t1_2,,success
Status,717,15325096363,/g4t1,,fail
Status,718,15345188491,/g4t1,,success
Status,719,15365279100,/g4t1,,success
Status,720,15385690587,/g4t1,,success
Status,721,15405003254,/g3t1_3,,running
Status,722,15405046204,/g3t1_3,,success
Status,723,15405122859,/g3t1_1,,running
Status,724,15405133927,/g3t1_1,,success
Status,725,15405319025,/g3t1_2,,running
Status,726,15405337487,/g3t1_2,,success
Status,727,15405347884,/g4t1,,fail
Status,728,15425547162,/g4t1,,fail
Status,729,15445654573,/g4t1,,success
Status,730,15465706295,/g4t1,,success
Status,731,15485738595,/g4t1,,success
Status,732,15505131573,/g3t1_1,,running
Status,733,15505157887,/g3t1_3,,running
Status,734,15505170232,/g3t1_3,,success
Status,735,15505276690,/g3t1_2,,running
Status,736,15505394458,/g3t1_1,,success
Status,737,15505642732,/g3t1_2,,success
Status,738,15505804129,/g4t1,,fail
Status,739,15526005203,/g4t1,,success
Status,740,15546058225,/g4t1,,success
Status,741,15566108357,/g4t1,,success
Status,742,15586187289,/g4t1,,success
Status,743,15605295193,/g3t1_1,,running
Status,744,15605347974,/g3t1_3,,running
Status,745,15605475063,/g3t1_1,,success
Status,746,15605496683,/g3t1_2,,running
Status,747,15605528975,/g3t1_3,,success
Status,748,15605605351,/g3t1_2,,success
Status,749,15605941621,/g4t1,,fail
Status,750,15626307513,/g4t1,,success
Status,751,15646433158,/g4t1,,success
Status,752,15666495763,/g4t1,,success
Status,753,15686736635,/g4t1,,success
Status,754,15705456090,/g3t1_1,,running
Status,755,15705492639,/g3t1_3,,running
Status,756,15705514492,/g3t1_1,,success
Status,757,15705522701,/g3t1_2,,running
Status,758,15705530126,/g3t1_3,,success
Status,759,15705538392,/g3t1_2,,success
Status,760,15706409950,/g4t1,,fail
Status,761,15726745021,/g4t1,,success
Status,762,15746837555,/g4t1,,success
Status,763,15766906197,/g4t1,,success
Status,764,15787091877,/g4t1,,success
Status,765,15805613531,/g3t1_1,,running
Status,766,15805707355,/g3t1_1,,success
Status,767,15805803854,/g3t1_2,,running
Status,768,15805815233,/g3t1_3,,running
Status,769,15805829381,/g3t1_3,,success
Status,770,15805852226,/g3t1_2,,success
Status,771,15806976706,/g4t1,,fail
Status,772,15827157262,/g4t1,,success
Status,773,15847271194,/g4t1,,success
Status,774,15867328116,/g4t1,,success
Status,775,15887454487,/g4t1,,success
Status,776,15905570695,/g3t1_1,,running
Status,777,15905665326,/g3t1_1,,success
Status,778,15905685858,/g3t1_3,,running
Status,779,15905714109,/g3t1_3,,success
Status,780,15905721368,/g3t1_2,,running
Status,781,15905911086,/g3t1_2,,success
Status,782,15907436441,/g4t1,,fail
Status,783,15927687470,/g4t1,,success
Status,784,15947816398,/g4t1,,success
Status,785,15967923950,/g4t1,,success
Status,786,15988006016,/g4t1,,success
Status,787,16005571218,/g3t1_1,,running
Status,788,16005628053,/g3t1_3,,running
Status,789,16005841866,/g3t1_3,,success
Status,790,16005864784,/g3t1_1,,success
Status,791,16005876332,/g3t1_2,,running
Status,792,16006023532,/g3t1_2,,success
Status,793,16007780821,/g4t1,,fail
Status,794,16028126728,/g4t1,,success
Status,795,16048204081,/g4t1,,success
Status,796,16068460924,/g4t1,,success
Status,797,16088466506,/g4t1,,success
Status,798,16105841729,/g3t1_1,,running
Status,799,16105862605,/g3t1_3,,running
Status,800,16105888696,/g3t1_3,,success
Status,801,16105898546,/g3t1_2,,running
Status,802,16105911840,/g3t1_1,,success
Status,803,16105962596,/g3t1_2,,success
Status,804,16108249436,/g4t1,,fail
Status,805,16128649106,/g4t1,,success
Status,806,16148678436,/g4t1,,success
Status,807,16168917779,/g4t1,,success
Status,808,16188886133,/g4t1,,success
Status,809,16205716149,/g3t1_1,,running
Status,810,16205742402,/g3t1_3,,running
Status,811,16205753641,/g3t1_1,,success
Status,812,16205763740,/g3t1_3,,success
Status,813,16205885406,/g3t1_2,,running
Status,814,16206061759,/g3t1_2,,success
Status,815,16208758030,/g4t1,,fail
Status,816,16228986580,/g4t1,,success
Status,817,16249125161,/g4t1,,success
Status,818,16269284219,/g4t1,,success
Status,819,16289364668,/g4t1,,success
Status,820,16305762482,/g3t1_3,,running
Status,821,16305794890,/g3t1_1,,running
Status,822,16305943010,/g3t1_1,,success
Status,823,16305958808,/g3t1_3,,success
Status,824,16306146448,/g3t1_2,,running
Status,825,16306192392,/g3t1_2,,success
Status,826,16309301367,/g4t1,,fail
Status,827,16329531179,/g4t1,,success
Status,828,16349522261,/g4t1,,success
Status,829,16369642459,/g4t1,,success
Status,830,16389702548,/g4t1,,success
Status,831,16405973935,/g3t1_3,,running
Status,832,16406031777,/g3t1_1,,running
Status,833,16406046563,/g3t1_1,,success
Status,834,16406078045,/g3t1_3,,success
Status,835,16406148106,/g3t1_2,,running
Status,836,16406200753,/g3t1_2,,success
Status,837,16409566279,/g4t1,,fail
Status,838,16429764176,/g4t1,,success
Status,839,16449836597,/g4t1,,success
Status,840,16470038026,/g4t1,,success
Status,841,16490085117,/g4t1,,success
Status,842,16505910047,/g3t1_1,,running
Status,843,16505935006,/g3t1_3,,running
Status,844,16506034098,/g3t1_1,,success
Status,845,16506047784,/g3t1_3,,success
Status,846,16506104959,/g3t1_2,,running
Status,847,16506336509,/g3t1_2,,success
Status,848,16510025530,/g4t1,,fail
Status,849,16530209158,/g4t1,,success
Status,850,16550281189,/g4t1,,success
Status,851,16570423665,/g4t1,,success
Status,852,16590506587,/g4t1,,success
Status,853,16605975574,/g3t1_1,,running
Status,854,16605999096,/g3t1_3,,running
Status,855,16606372463,/g3t1_1,,success
Status,856,16606387542,/g3t1_3,,success
Status,857,16606410871,/g3t1_2,,running
Status,858,16606416839,/g3t1_2,,success
Status,859,16610363433,/g4t1,,fail
Status,860,16630695739,/g4t1,,success
Status,861,16650795514,/g4t1,,success
Status,862,16670839880,/g4t1,,success
Status,863,16690935929,/g4t1,,success
Status,864,16706117244,/g3t1_1,,running
Status,865,16706190124,/g3t1_3,,running
Status,866,16706207581,/g3t1_3,,success
Status,867,16706475963,/g3t1_2,,running
Status,868,16706639853,/g3t1_1,,success
Status,869,16706663226,/g3t1_2,,success
Status,870,16710947018,/g4t1,,fail
Status,871,16731115481,/g4t1,,success
Status,872,16751417293,/g4t1,,success
Status,873,16771343411,/g4t1,,success
Status,874,16791470828,/g4t1,,success
Status,875,16806285041,/g3t1_1,,running
Status,876,16806312207,/g3t1_3,,running
Status,877,16806345944,/g3t1_1,,success
Status,878,16806355917,/g3t1_3,,success
Status,879,16806371136,/g3t1_2,,running
Status,880,16806537606,/g3t1_2,,success
Status,881,16811336196,/g4t1,,fail
Status,882,16831552316,/g4t1,,success
Status,883,16851791963,/g4t1,,success
Status,884,16871773040,/g4t1,,success
Status,885,16891847000,/g4t1,,success
Status,886,16906334002,/g3t1_1,,running
Status,887,16906409522,/g3t1_1,,success
Status,888,16906445272,/g3t1_3,,running
Status,889,16906453143,/g3t1_3,,success
Status,890,16906537130,/g3t1_2,,running
Status,891,16906760846,/g3t1_2,,success
Status,892,16911776533,/g4t1,,fail
Status,893,16932081339,/g4t1,,success
Status,894,16952332749,/g4t1,,success
Status,895,16972305771,/g4t1,,success
Status,896,16992385177,/g4t1,,success
Status,897,17006463053,/g3t1_1,,running
Status,898,17006487163,/g3t1_3,,running
Status,899,17006609962,/g3t1_1,,success
Status,900,17006661618,/g3t1_2,,running
Status,901,17006683439,/g3t1_3,,success
Status,902,17006730265,/g3t1_2,,success
Status,903,17012347270,/g4t1,,fail
Status,904,17032481485,/g4t1,,success
Status,905,17052627730,/g4t1,,success
Status,906,17072808611,/g4t1,,success
Status,907,17092897807,/g4t1,,success
Status,908,17106674367,/g3t1_1,,running
Status,909,17106811816,/g3t1_3,,running
Status,910,17106835421,/g3t1_3,,success
Status,911,17106853284,/g3t1_1,,success
Status,912,17106861397,/g3t1_2,,running
Status,913,17106880857,/g3t1_2,,success
Status,914,17112813131,/g4t1,,fail
Status,915,17133071699,/g4t1,,success
Status,916,17153078329,/g4t1,,success
Status,917,17173279401,/g4t1,,success
Status,918,17193285908,/g4t1,,success
Status,919,17206706434,/g3t1_1,,running
Status,920,17206730783,/g3t1_3,,running
Status,921,17206767183,/g3t1_1,,success
Status,922,17206847265,/g3t1_2,,running
Status,923,17206861070,/g3t1_3,,success
Status,924,17206945035,/g3t1_2,,success
Status,925,17213441849,/g4t1,,fail
Status,926,17233527443,/g4t1,,success
Status,927,17253472393,/g4t1,,success
Status,928,17273659816,/g4t1,,success
Status,929,17293796850,/g4t1,,success
Status,930,17306792493,/g3t1_1,,running
Status,931,17306816579,/g3t1_3,,running
Status,932,17306827884,/g3t1_1,,success
Status,933,17306837357,/g3t1_3,,success
Status,934,17306886591,/g3t1_2,,running
Status,935,17306985376,/g3t1_2,,success
Status,936,17313725899,/g4t1,,fail
Status,937,17333890225,/g4t1,,success
Status,938,17353898536,/g4t1,,success
Status,939,17374161672,/g4t1,,success
Status,940,17394168720,/g4t1,,success
Status,941,17406843128,/g3t1_1,,running
Status,942,17406868317,/g3t1_3,,running
Status,943,17406910741,/g3t1_3,,success
Status,944,17406925713,/g3t1_1,,success
Status,945,17406934966,/g3t1_2,,running
Status,946,17407000627,/g3t1_2,,success
Status,947,17414138775,/g4t1,,fail
Status,948,17434364255,/g4t1,,success
Status,949,17454420755,/g4t1,,success
Status,950,17474516762,/g4t1,,success
Status,951,17494623739,/g4t1,,success
Status,952,17506793221,/g3t1_1,,running
Status,953,17506954658,/g3t1_3,,running
Status,954,17507103706,/g3t1_1,,success
Status,955,17507116957,/g3t1_3,,success
Status,956,17507125405,/g3t1_2,,running
Status,957,17507158437,/g3t1_2,,success
Status,958,17514652942,/g4t1,,fail
Status,959,17534789185,/g4t1,,success
Status,960,17554886760,/g4t1,,success
Status,961,17574982802,/g4t1,,success
Status,962,17595090699,/g4t1,,success
Status,963,17606900363,/g3t1_1,,running
Status,964,17606927579,/g3t1_3,,running
Status,965,17607066141,/g3t1_1,,success
Status,966,17607209701,/g3t1_3,,success
Status,967,17607287942,/g3t1_2,,running
Status,968,17607302730,/g3t1_2,,success
Status,969,17615094056,/g4t1,,fail
Status,970,17635278073,/g4t1,,success
Status,971,17655339686,/g4t1,,success
Status,972,17675339074,/g4t1,,success
Status,973,17695449677,/g4t1,,success
Status,974,17706979742,/g3t1_1,,running
Status,975,17707047172,/g3t1_3,,running
Status,976,17707155469,/g3t1_3,,success
Status,977,17707340504,/g3t1_1,,success
Status,978,17707360021,/g3t1_2,,running
Status,979,17707374115,/g3t1_2,,success
Status,980,17715560929,/g4t1,,fail
Status,981,17735773263,/g4t1,,success
Status,982,17755797619,/g4t1,,success
Status,983,17775902157,/g4t1,,success
Status,984,17795959613,/g4t1,,success
Status,985,17807273860,/g3t1_1,,running
Status,986,17807334090,/g3t1_3,,running
Status,987,17807345989,/g3t1_1,,success
Status,988,17807356375,/g3t1_2,,running
Status,989,17807364340,/g3t1_3,,success
Status,990,17807534151,/g3t1_2,,success
Status,991,17816116162,/g4t1,,fail
Status,992,17836094597,/g4t1,,success
Status,993,17856221044,/g4t1,,success
Status,994,17876338045,/g4t1,,success
Status,995,17896417198,/g4t1,,success
Status,996,17907454094,/g3t1_1,,running
Status,997,17907480566,/g3t1_3,,running
Status,998,17907505525,/g3t1_3,,success
Status,999,17907514499,/g3t1_1,,success
Status,1000,17907523033,/g3t1_2,,running
Status,1001,17907549048,/g3t1_2,,success
Status,1002,17916531413,/g4t1,,fail
Status,1003,17936686449,/g4t1,,success
Status,1004,17956769311,/g4t1,,success
Status,1005,17976846244,/g4t1,,success
Status,1006,17996978843,/g4t1,,success
Status,1007,18007331572,/g3t1_1,,running
Status,1008,18007363055,/g3t1_3,,running
Status,1009,18007503728,/g3t1_3,,success
Status,1010,18007522131,/g3t1_2,,running
Status,1011,18007553472,/g3t1_1,,success
Status,1012,18007746639,/g3t1_2,,success
Status,1013,18017049701,/g4t1,,fail
Status,1014,18037156780,/g4t1,,success
Status,1015,18057277111,/g4t1,,success
Status,1016,18077153675,/g4t1,,success
Status,1017,18097425637,/g4t1,,success
Status,1018,18107499789,/g3t1_1,,running
Status,1019,18107525412,/g3t1_3,,running
Status,1020,18107550927,/g3t1_1,,success
Status,1021,18107558508,/g3t1_3,,success
Status,1022,18107565300,/g3t1_2,,running
Status,1023,18107726746,/g3t1_2,,success
Status,1024,18117441389,/g4t1,,fail
Status,1025,18137614507,/g4t1,,success
Status,1026,18157681478,/g4t1,,success
Status,1027,18177730444,/g4t1,,success
Status,1028,18197773623,/g4t1,,success
Status,1029,18207462442,/g3t1_1,,running
Status,1030,18207488911,/g3t1_3,,running
Status,1031,18207722878,/g3t1_1,,success
Status,1032,18207742722,/g3t1_2,,running
Status,1033,18207763551,/g3t1_3,,success
Status,1034,18207879837,/g3t1_2,,success
Status,1035,18217915948,/g4t1,,fail
Status,1036,18237994714,/g4t1,,success
Status,1037,18258083832,/g4t1,,success
Status,1038,18278017585,/g4t1,,success
Status,1039,18298281543,/g4t1,,success
Status,1040,18307801729,/g3t1_1,,running
Status,1041,18307827045,/g3t1_1,,success
Status,1042,18307861817,/g3t1_3,,running
Status,1043,18307870703,/g3t1_3,,success
Status,1044,18307887254,/g3t1_2,,running
Status,1045,18308124673,/g3t1_2,,success
Status,1046,18318381228,/g4t1,,fail
Status,1047,18338526880,/g4t1,,success
Status,1048,18358531546,/g4t1,,success
Status,1049,18378590421,/g4t1,,success
Status,1050,18398576843,/g4t1,,success
Status,1051,18407721823,/g3t1_1,,running
Status,1052,18407751114,/g3t1_3,,running
Status,1053,18407891319,/g3t1_2,,running
Status,1054,18407915817,/g3t1_1,,success
Status,1055,18408006872,/g3t1_3,,success
Status,1056,18408129135,/g3t1_2,,success
Status,1057,18418792688,/g4t1,,fail
Status,1058,18438927433,/g4t1,,success
Status,1059,18458978388,/g4t1,,success
Status,1060,18478889415,/g4t1,,success
Status,1061,18499174081,/g4t1,,success
Status,1062,18507889012,/g3t1_1,,running
Status,1063,18507913960,/g3t1_3,,running
Status,1064,18507925698,/g3t1_2,,running
Status,1065,18508014667,/g3t1_1,,success
Status,1066,18508031209,/g3t1_3,,success
Status,1067,18508073446,/g3t1_2,,success
Status,1068,18519173293,/g4t1,,fail
Status,1069,18539331081,/g4t1,,success
Status,1070,18559403838,/g4t1,,success
Status,1071,18579414407,/g4t1,,success
Status,1072,18599583825,/g4t1,,success
Status,1073,18607953593,/g3t1_1,,running
Status,1074,18607982085,/g3t1_3,,running
Status,1075,18608059786,/g3t1_2,,running
Status,1076,18608094874,/g3t1_3,,success
Status,1077,18608107074,/g3t1_1,,success
Status,1078,18608420595,/g3t1_2,,success
Status,1079,18619722758,/g4t1,,fail
Status,1081,18639739289,/g4t1,,success
Status,1082,18659899084,/g4t1,,success
Status,1083,18679813009,/g4t1,,success
Status,1084,18699974179,/g4t1,,success
Status,1085,18708088121,/g3t1_3,,running
Status,1086,18708113147,/g3t1_1,,running
Status,1087,18708127016,/g3t1_3,,success
Status,1088,18708135392,/g3t1_1,,fail
Status,1089,18708143651,/g3t1_2,,running
Status,1090,18708380642,/g3t1_2,,success
Status,1091,18720091718,/g4t1,,fail
Status,1092,18740127251,/g4t1,,success
Status,1093,18760284719,/g4t1,,success
Status,1094,18780334053,/g4t1,,success
Status,1095,18800430561,/g4t1,,success
Status,1096,18808072691,/g3t1_3,,running
Status,1097,18808105578,/g3t1_1,,running
Status,1098,18808219821,/g3t1_1,,fail
Status,1099,18808283353,/g3t1_2,,running
Status,1100,18808315266,/g3t1_3,,success
Status,1101,18808505605,/g3t1_2,,success
Status,1102,18820641372,/g4t1,,fail
Status,1104,18840767073,/g4t1,,success
Status,1105,18860862233,/g4t1,,success
Status,1106,18880908719,/g4t1,,success
Status,1107,18900992205,/g4t1,,success
Status,1108,18908184825,/g3t1_3,,running
Status,1109,18908234286,/g3t1_1,,running
Status,1110,18908254169,/g3t1_3,,success
Status,1111,18908265086,/g3t1_1,,fail
Status,1112,18908310303,/g3t1_2,,running
Status,1113,18908455930,/g3t1_2,,success
Status,1114,18921146266,/g4t1,,success
Status,1115,18941286063,/g4t1,,success
Status,1116,18961265779,/g4t1,,success
Status,1117,18981430657,/g4t1,,success
Status,1118,19001695748,/g4t1,,success
Status,1119,19008302030,/g3t1_3,,running
Status,1120,19008343983,/g3t1_3,,success
Status,1121,19008354639,/g3t1_1,,running
Status,1122,19008362308,/g3t1_1,,fail
Status,1123,19008432135,/g3t1_2,,running
Status,1124,19008572186,/g3t1_2,,success
Status,1125,19021533311,/g4t1,,success
Status,1127,19041689761,/g4t1,,success
Status,1128,19061756886,/g4t1,,success
Status,1129,19081832225,/g4t1,,success
Status,1130,19102027786,/g4t1,,success
Status,1131,19108290772,/g3t1_3,,running
Status,1132,19108315491,/g3t1_1,,running
Status,1133,19108400672,/g3t1_1,,fail
Status,1134,19108415976,/g3t1_3,,success
Status,1135,19108432832,/g3t1_2,,running
Status,1136,19108690202,/g3t1_2,,success
Status,1137,19122029148,/g4t1,,success
Status,1138,19142112796,/g4t1,,success
Status,1139,19162180932,/g4t1,,success
Status,1140,19182277470,/g4t1,,success
Status,1141,19202492134,/g4t1,,success
Status,1142,19208383147,/g3t1_1,,running
Status,1143,19208411169,/g3t1_3,,running
Status,1144,19208501284,/g3t1_3,,success
Status,1145,19208518227,/g3t1_1,,fail
Status,1146,19208539707,/g3t1_2,,running
Status,1147,19208759602,/g3t1_2,,success
Status,1148,19222503163,/g4t1,,success
Status,1150,19242593401,/g4t1,,success
Status,1151,19262671377,/g4t1,,success
Status,1152,19282745762,/g4t1,,success
Status,1153,19302819306,/g4t1,,success
Status,1154,19308513519,/g3t1_3,,running
Status,1155,19308699199,/g3t1_1,,running
Status,1156,19308715796,/g3t1_1,,fail
Status,1157,19308874791,/g3t1_2,,running
Status,1158,19308900438,/g3t1_3,,success
Status,1159,19308972552,/g3t1_2,,success
Status,1160,19322982814,/g4t1,,success
Status,1161,19343103671,/g4t1,,success
Status,1162,19363185194,/g4t1,,success
Status,1163,19383221669,/g4t1,,success
Status,1164,19403265153,/g4t1,,success
Status,1165,19408677013,/g3t1_3,,running
Status,1166,19408702404,/g3t1_1,,running
Status,1167,19408732108,/g3t1_1,,fail
Status,1168,19408743616,/g3t1_3,,success
Status,1169,19408768202,/g3t1_2,,running
Status,1170,19408812071,/g3t1_2,,success
Status,1171,19423283649,/g4t1,,success
Status,1173,19443337823,/g4t1,,success
Status,1174,19463560572,/g4t1,,success
Status,1175,19483693572,/g4t1,,success
Status,1176,19503650814,/g4t1,,success
Status,1177,19508645855,/g3t1_3,,running
Status,1178,19508797288,/g3t1_1,,running
Status,1179,19508813205,/g3t1_1,,fail
Status,1180,19508820340,/g3t1_2,,running
Status,1181,19508956096,/g3t1_2,,success
Status,1182,19509068118,/g3t1_3,,success
Status,1183,19523795221,/g4t1,,success
Status,1184,19543952047,/g4t1,,success
Status,1185,19564080508,/g4t1,,success
Status,1186,19584153251,/g4t1,,success
Status,1187,19604229468,/g4t1,,success
Status,1188,19608776862,/g3t1_1,,running
Status,1189,19608803734,/g3t1_3,,running
Status,1190,19608818381,/g3t1_1,,fail
Status,1191,19609098695,/g3t1_3,,success
Status,1192,19609117153,/g3t1_2,,running
Status,1193,19609133221,/g3t1_2,,success
Status,1194,19624336834,/g4t1,,success
Status,1196,19644384247,/g4t1,,success
Status,1197,19664498664,/g4t1,,success
Status,1198,19684658356,/g4t1,,success
Status,1199,19704733825,/g4t1,,success
Status,1200,19708981929,/g3t1_1,,running
Status,1201,19709004706,/g3t1_3,,running
Status,1202,19709045009,/g3t1_1,,fail
Status,1203,19709055270,/g3t1_3,,success
Status,1204,19709064562,/g3t1_2,,running
Status,1205,19709148971,/g3t1_2,,success
Status,1206,19724710463,/g4t1,,success
Status,1207,19744828857,/g4t1,,success
Status,1208,19764944700,/g4t1,,success
Status,1209,19785183643,/g4t1,,success
Status,1210,19805107354,/g4t1,,success
Status,1211,19809111879,/g3t1_1,,running
Status,1212,19809134365,/g3t1_3,,running
Status,1213,19809150178,/g3t1_1,,fail
Status,1214,19809174967,/g3t1_3,,success
Status,1215,19809351527,/g3t1_2,,running
Status,1216,19809368563,/g3t1_2,,success
Status,1217,19825340979,/g4t1,,success
Status,1219,19845435379,/g4t1,,success
Status,1220,19865492833,/g4t1,,success
Status,1221,19885691062,/g4t1,,success
Status,1222,19905647957,/g4t1,,success
Status,1223,19909056697,/g3t1_3,,running
Status,1224,19909080713,/g3t1_1,,running
Status,1225,19909111259,/g3t1_1,,fail
Status,1226,19909221696,/g3t1_2,,running
Status,1227,19909246813,/g3t1_3,,success
Status,1228,19909455743,/g3t1_2,,success
Status,1229,19925727856,/g4t1,,success
Status,1230,19945805393,/g4t1,,success
Status,1231,19966031407,/g4t1,,success
Status,1232,19985970931,/g4t1,,success
Status,1233,20006056744,/g4t1,,success
Status,1234,20009184668,/g3t1_1,,running
Status,1235,20009208331,/g3t1_3,,running
Status,1236,20009312725,/g3t1_1,,fail
Status,1237,20009344616,/g3t1_2,,running
Status,1238,20009355347,/g3t1_3,,success
Status,1239,20009418144,/g3t1_2,,success
Status,1240,20026107454,/g4t1,,success
Status,1242,20046221554,/g4t1,,success
Status,1243,20066326245,/g4t1,,success
Status,1244,20086356579,/g4t1,,success
Status,1245,20106489589,/g4t1,,success
Status,1246,20109248319,/g3t1_3,,running
Status,1247,20109270389,/g3t1_1,,running
Status,1248,20109440219,/g3t1_3,,success
Status,1249,20109464362,/g3t1_2,,running
Status,1250,20109487331,/g3t1_1,,fail
Status,1251,20109559134,/g3t1_2,,success
Status,1252,20126642044,/g4t1,,success
Status,1253,20146752662,/g4t1,,success
Status,1254,20166945198,/g4t1,,success
Status,1255,20186987013,/g4t1,,success
Status,1256,20206905116,/g4t1,,success
Status,1257,20209196548,/g3t1_3,,running
Status,1258,20209344347,/g3t1_1,,running
Status,1259,20209502933,/g3t1_3,,success
Status,1260,20209541943,/g3t1_2,,running
Status,1261,20209556425,/g3t1_1,,fail
Status,1262,20209583445,/g3t1_2,,success
Status,1263,20227100402,/g4t1,,success
Status,1265,20247214297,/g4t1,,success
Status,1266,20267276088,/g4t1,,success
Status,1267,20287309747,/g4t1,,success
Status,1268,20307375717,/g4t1,,success
Status,1269,20309413838,/g3t1_3,,running
Status,1270,20309436755,/g3t1_1,,running
Status,1271,20309530392,/g3t1_3,,success
Status,1272,20309549049,/g3t1_1,,fail
Status,1273,20309630641,/g3t1_2,,running
Status,1274,20309829137,/g3t1_2,,success
Status,1275,20327585709,/g4t1,,success
Status,1276,20347671226,/g4t1,,success
Status,1277,20367745095,/g4t1,,success
Status,1278,20387859638,/g4t1,,success
Status,1279,20407893208,/g4t1,,success
Status,1280,20409416001,/g3t1_3,,running
Status,1281,20409435501,/g3t1_1,,running
Status,1282,20409526233,/g3t1_1,,fail
Status,1283,20409564911,/g3t1_3,,success
Status,1284,20409667326,/g3t1_2,,running
Status,1285,20409835631,/g3t1_2,,success
Status,1286,20428084309,/g4t1,,success
Status,1288,20448159523,/g4t1,,success
Status,1289,20468312554,/g4t1,,success
Status,1290,20488387348,/g4t1,,success
Status,1291,20508279138,/g4t1,,success
Status,1292,20509555601,/g3t1_3,,running
Status,1293,20509602182,/g3t1_1,,running
Status,1294,20509616550,/g3t1_1,,fail
Status,1295,20509644320,/g3t1_3,,success
Status,1296,20509761010,/g3t1_2,,running
Status,1297,20509890064,/g3t1_2,,success
Status,1298,20528459067,/g4t1,,success
Status,1299,20548579718,/g4t1,,success
Status,1300,20568748616,/g4t1,,success
Status,1301,20588826777,/g4t1,,success
Status,1302,20608871485,/g4t1,,success
Status,1303,20609486048,/g3t1_3,,running
Status,1304,20609506645,/g3t1_1,,running
Status,1305,20609723901,/g3t1_1,,fail
Status,1306,20609746947,/g3t1_3,,success
Status,1307,20609885257,/g3t1_2,,running
Status,1308,20610143210,/g3t1_2,,success
Status,1309,20628980355,/g4t1,,success
Status,1311,20649010672,/g4t1,,success
Status,1312,20669318939,/g4t1,,success
Status,1313,20689359148,/g4t1,,success
Status,1314,20709294704,/g4t1,,success
Status,1315,20709642080,/g3t1_3,,running
Status,1316,20709728451,/g3t1_1,,running
Status,1317,20709746118,/g3t1_1,,fail
Status,1318,20709823617,/g3t1_3,,success
Status,1319,20709935420,/g3t1_2,,running
Status,1320,20710033151,/g3t1_2,,success
Status,1321,20729511597,/g4t1,,success
Status,1322,20749597024,/g4t1,,success
Status,1323,20769654912,/g4t1,,success
Status,1324,20789691281,/g4t1,,success
Status,1325,20809741986,/g4t1,,success
Status,1326,20809772465,/g3t1_3,,running
Status,1327,20809788006,/g3t1_1,,running
Status,1328,20809878302,/g3t1_1,,fail
Status,1329,20809901162,/g3t1_3,,success
Status,1330,20809982797,/g3t1_2,,running
Status,1331,20810269114,/g3t1_2,,success
Status,1332,20829896753,/g4t1,,success
Status,1334,20849946075,/g4t1,,success
Status,1335,20870028093,/g4t1,,success
Status,1336,20890160261,/g4t1,,success
Status,1337,20910032027,/g3t1_1,,running
Status,1338,20910057838,/g3t1_3,,running
Status,1339,20910095364,/g3t1_3,,success
Status,1340,20910105936,/g3t1_1,,fail
Status,1341,20910117113,/g3t1_2,,running
Status,1342,20910205409,/g4t1,,success
Status,1343,20910464557,/g3t1_2,,success
Status,1344,20930388982,/g4t1,,success
Status,1345,20950464037,/g4t1,,success
Status,1346,20970553480,/g4t1,,success
Status,1347,20990613910,/g4t1,,success
Status,1348,21010013783,/g3t1_3,,running
Status,1349,21010039820,/g3t1_1,,running
Status,1350,21010079209,/g3t1_1,,fail
Status,1351,21010089833,/g3t1_3,,success
Status,1352,21010143004,/g3t1_2,,running
Status,1353,21010544582,/g3t1_2,,success
Status,1354,21010564083,/g4t1,,success
Status,1356,21030729149,/g4t1,,success
Status,1357,21051028359,/g4t1,,success
Status,1358,21070934073,/g4t1,,success
Status,1359,21110103901,/g3t1_1,,running
Status,1360,21110250887,/g3t1_3,,running
Status,1361,21110271970,/g3t1_1,,fail
Status,1362,21110316434,/g3t1_3,,success
Status,1363,21110329129,/g3t1_2,,running
Status,1364,21110482062,/g3t1_2,,success
Status,1365,21210247191,/g3t1_1,,running
Status,1366,21210274548,/g3t1_3,,running
Status,1367,21210310211,/g3t1_1,,fail
Status,1368,21210429394,/g3t1_2,,running
Status,1369,21210571824,/g3t1_3,,success
Status,1370,21210593064,/g3t1_2,,success
Status,1372,21310382440,/g3t1_3,,running
Status,1373,21310405522,/g3t1_1,,running
Status,1374,21310446787,/g3t1_1,,fail
Status,1375,21310457926,/g3t1_2,,running
Status,1376,21310476789,/g3t1_3,,success
Status,1377,21310621442,/g3t1_2,,success
Status,1378,21410484251,/g3t1_3,,running
Status,1379,21410510815,/g3t1_1,,running
Status,1380,21410521192,/g3t1_1,,fail
Status,1381,21410529874,/g3t1_3,,success
Status,1382,21410538030,/g3t1_2,,running
Status,1383,21410688838,/g3t1_2,,success
Status,1385,21510564423,/g3t1_3,,running
Status,1386,21510586161,/g3t1_1,,running
Status,1387,21510598577,/g3t1_1,,fail
Status,1388,21510606694,/g3t1_2,,running
Status,1389,21510613752,/g3t1_3,,success
Status,1390,21510673185,/g3t1_2,,success
Status,1391,21610542806,/g3t1_1,,running
Status,1392,21610585679,/g3t1_3,,running
Status,1393,21610594387,/g3t1_1,,fail
Status,1394,21610700808,/g3t1_2,,running
Status,1395,21610821231,/g3t1_3,,success
Status,1396,21610841667,/g3t1_2,,success
Status,1398,21710698198,/g3t1_3,,running
Status,1399,21710731141,/g3t1_1,,running
Status,1400,21710778500,/g3t1_1,,fail
Status,1401,21710829358,/g3t1_2,,running
Status,1402,21710846759,/g3t1_3,,success
Status,1403,21711020292,/g3t1_2,,success
Status,1404,21810858745,/g3t1_1,,running
Status,1405,21810884932,/g3t1_3,,running
Status,1406,21810896287,/g3t1_1,,fail
Status,1407,21810906612,/g3t1_2,,running
Status,1408,21810970092,/g3t1_2,,success
Status,1409,21811063043,/g3t1_3,,success
Status,1411,21910966941,/g3t1_1,,running
Status,1412,21910991098,/g3t1_3,,running
Status,1413,21911011842,/g3t1_2,,running
Status,1414,21911018450,/g3t1_1,,fail
Status,1415,21911027887,/g3t1_3,,success
Status,1416,21911045695,/g3t1_2,,success
Status,1417,22011000947,/g3t1_1,,running
Status,1418,22011028970,/g3t1_3,,running
Status,1419,22011103555,/g3t1_2,,running
Status,1420,22011125341,/g3t1_1,,fail
Status,1421,22011137947,/g3t1_2,,success
Status,1422,22011191192,/g3t1_3,,success
Status,1424,22111273199,/g3t1_1,,running
Status,1425,22111294627,/g3t1_3,,running
Status,1426,22111300805,/g3t1_2,,running
Status,1427,22111306140,/g3t1_3,,success
Status,1428,22111311542,/g3t1_1,,fail
Status,1429,22111318290,/g3t1_2,,success
Status,1430,22211219819,/g3t1_1,,running
Status,1431,22211250416,/g3t1_3,,running
Status,1432,22211273953,/g3t1_1,,fail
Status,1433,22211284275,/g3t1_2,,running
Status,1434,22211297329,/g3t1_3,,success
Status,1435,22211361053,/g3t1_2,,success
Status,1437,22311361001,/g3t1_1,,running
Status,1438,22311379358,/g3t1_1,,fail
Status,1439,22311408699,/g3t1_3,,running
Status,1440,22311415425,/g3t1_2,,running
Status,1441,22311420885,/g3t1_2,,success
Status,1442,22311426415,/g3t1_3,,success
Status,1443,22411318981,/g3t1_1,,running
Status,1444,22411353340,/g3t1_3,,running
Status,1445,22411433570,/g3t1_3,,success
Status,1446,22411462462,/g3t1_2,,running
Status,1447,22411491322,/g3t1_2,,success
Status,1448,22411684095,/g3t1_1,,fail
Status,1450,22511479480,/g3t1_1,,running
Status,1451,22511503975,/g3t1_3,,running
Status,1452,22511569764,/g3t1_2,,running
Status,1453,22511584001,/g3t1_1,,fail
Status,1454,22511593188,/g3t1_2,,success
Status,1455,22511600897,/g3t1_3,,success
Status,1456,22611536339,/g3t1_1,,running
Status,1457,22611663476,/g3t1_3,,running
Status,1458,22611690581,/g3t1_2,,running
Status,1459,22611771381,/g3t1_1,,fail
Status,1460,22611786274,/g3t1_3,,success
Status,1461,22611805385,/g3t1_2,,success
Status,1463,22711702207,/g3t1_3,,running
Status,1464,22711720363,/g3t1_1,,running
Status,1465,22711743185,/g3t1_2,,running
Status,1466,22711749269,/g3t1_1,,fail
Status,1467,22711758431,/g3t1_2,,success
Status,1468,22711774330,/g3t1_3,,success
Status,1469,22811804356,/g3t1_1,,running
Status,1470,22811822841,/g3t1_2,,running
Status,1471,22811833452,/g3t1_1,,fail
Status,1472,22811859068,/g3t1_3,,running
Status,1473,22811864686,/g3t1_3,,success
Status,1474,22811871176,/g3t1_2,,success
Status,1476,22911944743,/g3t1_2,,running
Status,1477,22911968015,/g3t1_3,,running
Status,1478,22911991232,/g3t1_1,,running
Status,1479,22911997692,/g3t1_2,,success
Status,1480,22912019941,/g3t1_1,,fail
Status,1481,22912088936,/g3t1_3,,success
Status,1482,23012077877,/g3t1_1,,running
Status,1483,23012117034,/g3t1_3,,running
Status,1484,23012128338,/g3t1_2,,running
Status,1485,23012141612,/g3t1_2,,success
Status,1486,23012149796,/g3t1_1,,fail
Status,1487,23012157706,/g3t1_3,,success
Status,1489,23112050244,/g3t1_2,,running
Status,1490,23112188690,/g3t1_1,,running
Status,1491,23112199955,/g3t1_1,,fail
Status,1492,23112283036,/g3t1_3,,running
Status,1493,23112302124,/g3t1_3,,success
Status,1494,23112312610,/g3t1_2,,success
Status,1495,23212166588,/g3t1_1,,running
Status,1496,23212190285,/g3t1_2,,running
Status,1497,23212210758,/g3t1_3,,running
Status,1498,23212277202,/g3t1_1,,fail
Status,1499,23212294994,/g3t1_2,,success
Status,1500,23212304867,/g3t1_3,,success
Status,1502,23312401366,/g3t1_1,,running
Status,1503,23312425326,/g3t1_3,,running
Status,1504,23312439051,/g3t1_2,,running
Status,1505,23312462820,/g3t1_3,,success
Status,1506,23312470422,/g3t1_2,,success
Status,1507,23312481987,/g3t1_1,,fail
Status,1508,23412321935,/g3t1_1,,running
Status,1509,23412354708,/g3t1_3,,running
Status,1510,23412464787,/g3t1_1,,fail
Status,1511,23412488184,/g3t1_2,,running
Status,1512,23412498850,/g3t1_3,,success
Status,1513,23412506666,/g3t1_2,,success
Status,1515,23512430241,/g3t1_1,,running
Status,1516,23512456913,/g3t1_3,,running
Status,1517,23512481072,/g3t1_2,,running
Status,1518,23512491694,/g3t1_1,,fail
Status,1519,23512501136,/g3t1_3,,success
Status,1520,23512579256,/g3t1_2,,success
Status,1521,23612642283,/g3t1_2,,running
Status,1522,23612663379,/g3t1_2,,success
Status,1523,23612690663,/g3t1_1,,running
Status,1524,23612697001,/g3t1_1,,fail
Status,1525,23612706095,/g3t1_3,,running
Status,1526,23612724015,/g3t1_3,,success
Status,1530,23712685730,/g3t1_1,,running
Status,1531,23712707268,/g3t1_1,,fail
Status,1532,23712728634,/g3t1_3,,running
Status,1533,23712737094,/g3t1_2,,running
Status,1534,23712745471,/g3t1_2,,fail
Status,1535,23712762872,/g3t1_3,,fail
Status,1536,23812654575,/g3t1_2,,running
Status,1537,23812676812,/g3t1_2,,fail
Status,1538,23812706382,/g3t1_1,,running
Status,1539,23812712608,/g3t1_3,,running
Status,1540,23812758453,/g3t1_3,,fail
Status,1541,23812765899,/g3t1_1,,fail
Status,1545,23912747750,/g3t1_2,,running
Status,1546,23912859090,/g3t1_3,,running
Status,1547,23912879299,/g3t1_2,,fail
Status,1548,23912888968,/g3t1_1,,running
Status,1549,23912896565,/g3t1_3,,fail
Status,1550,23912913437,/g3t1_1,,fail
Status,1551,24012812394,/g3t1_2,,running
Status,1552,24012835116,/g3t1_2,,fail
Status,1553,24012880610,/g3t1_3,,running
Status,1554,24012893718,/g3t1_1,,running
Status,1555,24012902819,/g3t1_3,,fail
Status,1556,24012953791,/g3t1_1,,fail
Status,1560,24113008915,/g3t1_2,,running
Status,1561,24113053913,/g3t1_2,,fail
Status,1562,24113066389,/g3t1_1,,running
Status,1563,24113093576,/g3t1_3,,running
Status,1564,24113099446,/g3t1_1,,fail
Status,1565,24113109414,/g3t1_3,,fail
Status,1566,24212894185,/g3t1_2,,running
Status,1567,24212922276,/g3t1_2,,fail
Status,1568,24213035826,/g3t1_3,,running
Status,1569,24213062180,/g3t1_1,,running
Status,1570,24213091639,/g3t1_3,,fail
Status,1571,24213175926,/g3t1_1,,fail
Status,1575,24313087606,/g3t1_2,,running
Status,1576,24313122724,/g3t1_2,,fail
