
Status,2,3424200971,/g4t1,,init
Status,4,8537069980,/g3t1_1,,init
Status,5,8544204700,/g3t1_1,,init
Status,6,8544220629,/g3t1_1,,running
Status,7,8544636703,/g3t1_1,,success
Status,8,8594455303,/g3t1_1,,running
Status,9,8594476839,/g3t1_1,,success
Status,10,8639279270,/g3t1_2,,init
Status,12,8644555667,/g3t1_1,,running
Status,13,8644576966,/g3t1_1,,success
Status,14,8647680812,/g3t1_2,,init
Status,15,8647695795,/g3t1_2,,running
Status,16,8648286783,/g3t1_2,,success
Status,17,8694649719,/g3t1_1,,running
Status,18,8694696021,/g3t1_1,,success
Status,19,8697909488,/g3t1_2,,running
Status,20,8697990085,/g3t1_2,,success
Status,21,8739842358,/g3t1_3,,init
Status,23,8744779643,/g3t1_1,,running
Status,24,8744804177,/g3t1_1,,success
Status,25,8747917407,/g3t1_2,,running
Status,26,8747994399,/g3t1_2,,success
Status,27,8749338909,/g3t1_3,,init
Status,28,8749352288,/g3t1_3,,running
Status,29,8749801152,/g3t1_3,,success
Status,30,8794909200,/g3t1_1,,running
Status,31,8795072026,/g3t1_1,,success
Status,32,8798001835,/g3t1_2,,running
Status,33,8798180309,/g3t1_2,,success
Status,34,8799484228,/g3t1_3,,running
Status,35,8799607275,/g3t1_3,,success
Status,36,8845534135,/g3t1_1,,running
Status,37,8845944248,/g3t1_1,,success
Status,38,8848660409,/g3t1_2,,running
Status,39,8848906346,/g3t1_2,,success
Status,40,8849994476,/g3t1_3,,running
Status,41,8850375538,/g3t1_3,,success
Status,42,8895630035,/g3t1_1,,running
Status,43,8896425270,/g3t1_1,,success
Status,44,8898753770,/g3t1_2,,running
Status,45,8899710203,/g3t1_2,,success
Status,46,8900237252,/g3t1_3,,running
Status,47,8901034661,/g3t1_3,,success
Status,48,8942002720,/g4t1,,success
Status,49,8945631412,/g3t1_1,,running
Status,50,8945867784,/g3t1_1,,success
Status,51,8948756858,/g3t1_2,,running
Status,52,8949200454,/g3t1_2,,success
Status,53,8950235928,/g3t1_3,,running
Status,54,8950531094,/g3t1_3,,success
Status,55,8995281608,/g3t1_1,,running
Status,56,8995303181,/g3t1_1,,success
Status,57,8998738215,/g3t1_2,,running
Status,58,8998786566,/g3t1_2,,success
Status,59,9000077319,/g3t1_3,,running
Status,60,9000162053,/g3t1_3,,success
Status,61,9041277632,/g4t1,,success
Status,62,9045642566,/g3t1_1,,running
Status,63,9045788241,/g3t1_1,,success
Status,64,9048712274,/g3t1_2,,running
Status,65,9048732310,/g3t1_2,,success
Status,66,9049951761,/g3t1_3,,running
Status,67,9050079054,/g3t1_3,,success
Status,68,9095420371,/g3t1_1,,running
Status,69,9095443424,/g3t1_1,,success
Status,70,9098899588,/g3t1_2,,running
Status,71,9099042060,/g3t1_2,,success
Status,72,9100272549,/g3t1_3,,running
Status,73,9100300341,/g3t1_3,,success
Status,74,9141749215,/g4t1,,success
Status,75,9145497474,/g3t1_1,,running
Status,76,9145620668,/g3t1_1,,success
Status,77,9148894563,/g3t1_2,,running
Status,78,9149073073,/g3t1_2,,success
Status,79,9150150452,/g3t1_3,,running
Status,80,9150299553,/g3t1_3,,success
Status,81,9195979452,/g3t1_1,,running
Status,82,9196249226,/g3t1_1,,success
Status,83,9199036250,/g3t1_2,,running
Status,84,9199463312,/g3t1_2,,success
Status,85,9200399161,/g3t1_3,,running
Status,86,9200759472,/g3t1_3,,success
Status,87,9242928357,/g4t1,,fail
Status,88,9246546880,/g3t1_1,,running
Status,89,9246696601,/g3t1_1,,success
Status,90,9249291731,/g3t1_2,,running
Status,91,9249666134,/g3t1_2,,success
Status,92,9250896220,/g3t1_3,,running
Status,93,9251218947,/g3t1_3,,success
Status,94,9296282597,/g3t1_1,,running
Status,95,9296616918,/g3t1_1,,success
Status,96,9299458503,/g3t1_2,,running
Status,97,9299828704,/g3t1_2,,success
Status,98,9300603103,/g3t1_3,,running
Status,99,9301296166,/g3t1_3,,success
Status,100,9341907068,/g4t1,,fail
Status,101,9345935638,/g3t1_1,,running
Status,102,9346164997,/g3t1_1,,success
Status,103,9349156049,/g3t1_2,,running
Status,104,9349304338,/g3t1_2,,success
Status,105,9350449047,/g3t1_3,,running
Status,106,9350651237,/g3t1_3,,success
Status,107,9396142936,/g3t1_1,,running
Status,108,9396175049,/g3t1_1,,success
Status,109,9399370933,/g3t1_2,,running
Status,110,9399581636,/g3t1_2,,success
Status,111,9400576133,/g3t1_3,,running
Status,112,9400737427,/g3t1_3,,success
Status,113,9441926235,/g4t1,,fail
Status,114,9446178479,/g3t1_1,,running
Status,115,9446213311,/g3t1_1,,success
Status,116,9449368160,/g3t1_2,,running
Status,117,9449517771,/g3t1_2,,success
Status,118,9450662002,/g3t1_3,,running
Status,119,9450914314,/g3t1_3,,success
Status,120,9496474889,/g3t1_1,,running
Status,121,9496514697,/g3t1_1,,success
Status,122,9499539595,/g3t1_2,,running
Status,123,9499768218,/g3t1_2,,success
Status,124,9500801063,/g3t1_3,,running
Status,125,9500966807,/g3t1_3,,success
Status,126,9542194815,/g4t1,,fail
Status,127,9546489287,/g3t1_1,,running
Status,128,9546675332,/g3t1_1,,success
Status,129,9549803042,/g3t1_2,,running
Status,130,9550082608,/g3t1_2,,success
Status,131,9550901164,/g3t1_3,,running
Status,132,9551353644,/g3t1_3,,success
Status,133,9596738205,/g3t1_1,,running
Status,134,9597204385,/g3t1_1,,success
Status,135,9600090787,/g3t1_2,,running
Status,136,9600505606,/g3t1_2,,success
Status,137,9601271527,/g3t1_3,,running
Status,138,9601589290,/g3t1_3,,success
Status,139,9642600834,/g4t1,,fail
Status,140,9646817893,/g3t1_1,,running
Status,141,9647251886,/g3t1_1,,success
Status,142,9650173843,/g3t1_2,,running
Status,143,9650449523,/g3t1_2,,success
Status,144,9651407239,/g3t1_3,,running
Status,145,9651983646,/g3t1_3,,success
Status,146,9696899765,/g3t1_1,,running
Status,147,9697175163,/g3t1_1,,success
Status,148,9700366036,/g3t1_2,,running
Status,149,9700709439,/g3t1_2,,success
Status,150,9701461522,/g3t1_3,,running
Status,151,9701999530,/g3t1_3,,success
Status,152,9742832309,/g4t1,,fail
Status,153,9747496878,/g3t1_1,,running
Status,154,9747823691,/g3t1_1,,success
Status,155,9750396930,/g3t1_2,,running
Status,156,9750775402,/g3t1_2,,success
Status,157,9751576655,/g3t1_3,,running
Status,158,9752171309,/g3t1_3,,success
Status,159,9797419240,/g3t1_1,,running
Status,160,9797824871,/g3t1_1,,success
Status,161,9800558919,/g3t1_2,,running
Status,162,9800852130,/g3t1_2,,success
Status,163,9801598949,/g3t1_3,,running
Status,164,9802215617,/g3t1_3,,success
Status,165,9842604532,/g4t1,,fail
Status,166,9847011304,/g3t1_1,,running
Status,167,9847140456,/g3t1_1,,success
Status,168,9850394221,/g3t1_2,,running
Status,169,9850641641,/g3t1_2,,success
Status,170,9851507302,/g3t1_3,,running
Status,171,9851727920,/g3t1_3,,success
Status,172,9897369889,/g3t1_1,,running
Status,173,9897758293,/g3t1_1,,success
Status,174,9900594276,/g3t1_2,,running
Status,175,9900632720,/g3t1_2,,success
Status,176,9901592500,/g3t1_3,,running
Status,177,9901702108,/g3t1_3,,success
Status,178,9942762605,/g4t1,,fail
Status,179,9947348567,/g3t1_1,,running
Status,180,9947659220,/g3t1_1,,success
Status,181,9950719048,/g3t1_2,,running
Status,182,9950771988,/g3t1_2,,success
Status,183,9951753842,/g3t1_3,,running
Status,184,9951992029,/g3t1_3,,success
Status,185,9997438124,/g3t1_1,,running
Status,186,9997789687,/g3t1_1,,success
Status,187,10000765615,/g3t1_2,,running
Status,188,10001125884,/g3t1_2,,success
Status,189,10001738536,/g3t1_3,,running
Status,190,10001942396,/g3t1_3,,success
Status,191,10042886565,/g4t1,,fail
Status,192,10047462026,/g3t1_1,,running
Status,193,10047865824,/g3t1_1,,success
Status,194,10050882341,/g3t1_2,,running
Status,195,10051124293,/g3t1_2,,success
Status,196,10051883725,/g3t1_3,,running
Status,197,10052174563,/g3t1_3,,success
Status,198,10098278273,/g3t1_1,,running
Status,199,10098859968,/g3t1_1,,success
Status,200,10101301146,/g3t1_2,,running
Status,201,10101802968,/g3t1_2,,success
Status,202,10102987095,/g3t1_3,,running
Status,203,10103072099,/g3t1_3,,success
Status,204,10143348016,/g4t1,,fail
Status,205,10148049313,/g3t1_1,,running
Status,206,10148419783,/g3t1_1,,success
Status,207,10151682702,/g3t1_2,,running
Status,208,10152317347,/g3t1_2,,success
Status,209,10153102907,/g3t1_3,,running
Status,210,10153190796,/g3t1_3,,success
Status,211,10198336215,/g3t1_1,,running
Status,212,10198742576,/g3t1_1,,success
Status,213,10201388942,/g3t1_2,,running
Status,214,10201651911,/g3t1_2,,success
Status,215,10202284974,/g3t1_3,,running
Status,216,10202811931,/g3t1_3,,success
Status,217,10243725682,/g4t1,,fail
Status,218,10248374987,/g3t1_1,,running
Status,219,10249124171,/g3t1_1,,success
Status,220,10251550146,/g3t1_2,,running
Status,221,10252190364,/g3t1_2,,success
Status,222,10252597672,/g3t1_3,,running
Status,223,10253226682,/g3t1_3,,success
Status,224,10298227378,/g3t1_1,,running
Status,225,10298395177,/g3t1_1,,success
Status,226,10301162516,/g3t1_2,,running
Status,227,10301339008,/g3t1_2,,success
Status,228,10302143323,/g3t1_3,,running
Status,229,10302338958,/g3t1_3,,success
Status,230,10343722500,/g4t1,,fail
Status,231,10348726205,/g3t1_1,,running
Status,232,10349147461,/g3t1_1,,success
Status,233,10351977109,/g3t1_2,,running
Status,234,10352074500,/g3t1_2,,success
Status,235,10352774586,/g3t1_3,,running
Status,236,10353217373,/g3t1_3,,success
Status,237,10399093475,/g3t1_1,,running
Status,238,10399259124,/g3t1_1,,success
Status,239,10401856859,/g3t1_2,,running
Status,240,10402218705,/g3t1_2,,success
Status,241,10402739888,/g3t1_3,,running
Status,242,10404419685,/g3t1_3,,success
Status,243,10443901058,/g4t1,,fail
Status,244,10448943439,/g3t1_1,,running
Status,245,10449565831,/g3t1_1,,success
Status,246,10452146889,/g3t1_2,,running
Status,247,10452661318,/g3t1_2,,success
Status,248,10452743030,/g3t1_3,,running
Status,249,10453459304,/g3t1_3,,success
Status,250,10499655088,/g3t1_1,,running
Status,251,10499982685,/g3t1_1,,success
Status,252,10502192194,/g3t1_2,,running
Status,253,10502891976,/g3t1_2,,success
Status,254,10503080371,/g3t1_3,,running
Status,255,10503664828,/g3t1_3,,success
Status,256,10544208892,/g4t1,,fail
Status,257,10549383449,/g3t1_1,,running
Status,258,10549791226,/g3t1_1,,success
Status,259,10552516748,/g3t1_2,,running
Status,260,10552590871,/g3t1_2,,success
Status,261,10553235746,/g3t1_3,,running
Status,262,10553708371,/g3t1_3,,success
Status,263,10599846349,/g3t1_1,,running
Status,264,10600379304,/g3t1_1,,success
Status,265,10602421177,/g3t1_2,,running
Status,266,10603011844,/g3t1_2,,success
Status,267,10603717683,/g3t1_3,,running
Status,268,10603836346,/g3t1_3,,success
Status,269,10644088462,/g4t1,,fail
Status,270,10649694733,/g3t1_1,,running
Status,271,10650123917,/g3t1_1,,success
Status,272,10652562789,/g3t1_2,,running
Status,273,10653105537,/g3t1_2,,success
Status,274,10653238167,/g3t1_3,,running
Status,275,10654016851,/g3t1_3,,success
Status,276,10700059151,/g3t1_1,,running
Status,277,10700715052,/g3t1_1,,success
Status,278,10702599074,/g3t1_2,,running
Status,279,10703422599,/g3t1_2,,success
Status,280,10703539135,/g3t1_3,,running
Status,281,10704010905,/g3t1_3,,success
Status,282,10744099002,/g4t1,,fail
Status,283,10750008265,/g3t1_1,,running
Status,284,10750536381,/g3t1_1,,success
Status,285,10752735604,/g3t1_2,,running
Status,286,10753557123,/g3t1_2,,success
Status,287,10753649566,/g3t1_3,,running
Status,288,10754474392,/g3t1_3,,success
Status,289,10800418343,/g3t1_1,,running
Status,290,10800826526,/g3t1_1,,success
Status,291,10803232981,/g3t1_2,,running
Status,292,10803967127,/g3t1_2,,success
Status,293,10804086620,/g3t1_3,,running
Status,294,10804428426,/g3t1_3,,success
Status,295,10844550537,/g4t1,,fail
Status,296,10850685806,/g3t1_1,,running
Status,297,10850750853,/g3t1_1,,success
Status,298,10853034068,/g3t1_2,,running
Status,299,10853581066,/g3t1_2,,success
Status,300,10853678843,/g3t1_3,,running
Status,301,10854405457,/g3t1_3,,success
Status,302,10900902631,/g3t1_1,,running
Status,303,10901130526,/g3t1_1,,success
Status,304,10903446699,/g3t1_2,,running
Status,305,10904403850,/g3t1_2,,success
Status,306,10905246038,/g3t1_3,,running
Status,307,10905354162,/g3t1_3,,success
Status,308,10944660541,/g4t1,,fail
Status,309,10950585994,/g3t1_1,,running
Status,310,10951381322,/g3t1_1,,success
Status,311,10953205755,/g3t1_2,,running
Status,312,10953830839,/g3t1_2,,success
Status,313,10953902762,/g3t1_3,,running
Status,314,10954533590,/g3t1_3,,success
Status,315,11001089531,/g3t1_1,,running
Status,316,11001854708,/g3t1_1,,success
Status,317,11003361744,/g3t1_2,,running
Status,318,11003750555,/g3t1_2,,success
Status,319,11004043473,/g3t1_3,,running
Status,320,11004588231,/g3t1_3,,success
Status,321,11044794891,/g4t1,,fail
Status,322,11051286291,/g3t1_1,,running
Status,323,11051713431,/g3t1_1,,success
Status,324,11053392870,/g3t1_2,,running
Status,325,11053965231,/g3t1_2,,success
Status,326,11054882371,/g3t1_3,,running
Status,327,11055127168,/g3t1_3,,success
Status,328,11101320297,/g3t1_1,,running
Status,329,11102501844,/g3t1_1,,success
Status,330,11104189405,/g3t1_2,,running
Status,331,11104281559,/g3t1_2,,success
Status,332,11104376282,/g3t1_3,,running
Status,333,11105901754,/g3t1_3,,success
Status,334,11144860102,/g4t1,,fail
Status,335,11151325734,/g3t1_1,,running
Status,336,11152037496,/g3t1_1,,success
Status,337,11153625189,/g3t1_2,,running
Status,338,11154020397,/g3t1_2,,success
Status,339,11154638080,/g3t1_3,,running
Status,340,11155268369,/g3t1_3,,success
Status,341,11201788689,/g3t1_1,,running
Status,342,11201851527,/g3t1_1,,success
Status,343,11203931853,/g3t1_2,,running
Status,344,11204796444,/g3t1_2,,success
Status,345,11204944460,/g3t1_3,,running
Status,346,11205741065,/g3t1_3,,success
Status,347,11244551834,/g4t1,,fail
Status,348,11251315503,/g3t1_1,,running
Status,349,11251350540,/g3t1_1,,success
Status,350,11253354616,/g3t1_2,,running
Status,351,11253798560,/g3t1_2,,success
Status,352,11254348597,/g3t1_3,,running
Status,353,11254518914,/g3t1_3,,success
Status,354,11301711561,/g3t1_1,,running
Status,355,11301990252,/g3t1_1,,success
Status,356,11304126997,/g3t1_2,,running
Status,357,11305374307,/g3t1_2,,success
Status,358,11305585040,/g3t1_3,,running
Status,359,11306847297,/g3t1_3,,success
Status,360,11344185120,/g4t1,,fail
Status,361,11351301296,/g3t1_1,,running
Status,362,11351405307,/g3t1_1,,success
Status,363,11353678801,/g3t1_2,,running
Status,364,11353708726,/g3t1_2,,success
Status,365,11354597583,/g3t1_3,,running
Status,366,11354634336,/g3t1_3,,success
Status,367,11401345122,/g3t1_1,,running
Status,368,11401524650,/g3t1_1,,success
Status,369,11403605816,/g3t1_2,,running
Status,370,11403711737,/g3t1_2,,success
Status,371,11404555140,/g3t1_3,,running
Status,372,11404701120,/g3t1_3,,success
Status,373,11444358595,/g4t1,,fail
Status,374,11451461108,/g3t1_1,,running
Status,375,11451530637,/g3t1_1,,success
Status,376,11453695050,/g3t1_2,,running
Status,377,11453783200,/g3t1_2,,success
Status,378,11454564583,/g3t1_3,,running
Status,379,11454667531,/g3t1_3,,success
Status,380,11501563664,/g3t1_1,,running
Status,381,11501934331,/g3t1_1,,success
Status,382,11503808562,/g3t1_2,,running
Status,383,11504004275,/g3t1_2,,success
Status,384,11504732648,/g3t1_3,,running
Status,385,11504859688,/g3t1_3,,success
Status,386,11544454579,/g4t1,,fail
Status,387,11551639236,/g3t1_1,,running
Status,388,11551668395,/g3t1_1,,success
Status,389,11553852072,/g3t1_2,,running
Status,390,11553953135,/g3t1_2,,success
Status,391,11554754124,/g3t1_3,,running
Status,392,11554857929,/g3t1_3,,success
Status,393,11601737358,/g3t1_1,,running
Status,394,11601763795,/g3t1_1,,success
Status,395,11604127103,/g3t1_2,,running
Status,396,11604166221,/g3t1_2,,success
Status,397,11604896149,/g3t1_3,,running
Status,398,11605021959,/g3t1_3,,success
Status,399,11644547125,/g4t1,,fail
Status,400,11651773130,/g3t1_1,,running
Status,401,11652004792,/g3t1_1,,success
Status,402,11654057850,/g3t1_2,,running
Status,403,11654209762,/g3t1_2,,success
Status,404,11655249045,/g3t1_3,,running
Status,405,11655444067,/g3t1_3,,success
Status,406,11701901496,/g3t1_1,,running
Status,407,11701929618,/g3t1_1,,success
Status,408,11704390980,/g3t1_2,,running
Status,409,11704445710,/g3t1_2,,success
Status,410,11705442919,/g3t1_3,,running
Status,411,11705660648,/g3t1_3,,success
Status,412,11744573325,/g4t1,,fail
Status,413,11752045495,/g3t1_1,,running
Status,414,11752068336,/g3t1_1,,success
Status,415,11754952605,/g3t1_2,,running
Status,416,11754985387,/g3t1_2,,success
Status,417,11755317522,/g3t1_3,,running
Status,418,11755339995,/g3t1_3,,success
Status,419,11802061951,/g3t1_1,,running
Status,420,11802223713,/g3t1_1,,success
Status,421,11804367752,/g3t1_2,,running
Status,422,11805126858,/g3t1_2,,success
Status,423,11805152457,/g3t1_3,,running
Status,424,11805366998,/g3t1_3,,success
Status,425,11844672295,/g4t1,,fail
Status,426,11852163228,/g3t1_1,,running
Status,427,11852187359,/g3t1_1,,success
Status,428,11854744674,/g3t1_2,,running
Status,429,11854983328,/g3t1_2,,success
Status,430,11855400362,/g3t1_3,,running
Status,431,11855564186,/g3t1_3,,success
Status,432,11902731181,/g3t1_1,,running
Status,433,11903095648,/g3t1_1,,success
Status,434,11905357881,/g3t1_2,,running
Status,435,11905617660,/g3t1_2,,success
Status,436,11906265826,/g3t1_3,,running
Status,437,11906608776,/g3t1_3,,success
Status,438,11945573102,/g4t1,,fail
Status,439,11953003499,/g3t1_1,,running
Status,440,11953331924,/g3t1_1,,success
Status,441,11955110894,/g3t1_2,,running
Status,442,11955216934,/g3t1_2,,success
Status,443,11956136011,/g3t1_3,,running
Status,444,11956508992,/g3t1_3,,success
Status,445,12003016286,/g3t1_1,,running
Status,446,12003149942,/g3t1_1,,success
Status,447,12005074210,/g3t1_2,,running
Status,448,12005412990,/g3t1_2,,success
Status,449,12005955977,/g3t1_3,,running
Status,450,12006410866,/g3t1_3,,success
Status,451,12045598337,/g4t1,,fail
Status,452,12053291385,/g3t1_1,,running
Status,453,12053688502,/g3t1_1,,success
Status,454,12055772047,/g3t1_2,,running
Status,455,12055846723,/g3t1_2,,success
Status,456,12056216155,/g3t1_3,,running
Status,457,12056824800,/g3t1_3,,success
Status,458,12103380876,/g3t1_1,,running
Status,459,12103727140,/g3t1_1,,success
Status,460,12105484722,/g3t1_2,,running
Status,461,12105584616,/g3t1_2,,success
Status,462,12106595485,/g3t1_3,,running
Status,463,12106665452,/g3t1_3,,success
Status,464,12145946986,/g4t1,,fail
Status,465,12153366879,/g3t1_1,,running
Status,466,12154068319,/g3t1_1,,success
Status,467,12155554598,/g3t1_2,,running
Status,468,12155856435,/g3t1_2,,success
Status,469,12156602477,/g3t1_3,,running
Status,470,12156703624,/g3t1_3,,success
Status,471,12203821763,/g3t1_1,,running
Status,472,12204241280,/g3t1_1,,success
Status,473,12205772856,/g3t1_2,,running
Status,474,12206439712,/g3t1_2,,success
Status,475,12206600998,/g3t1_3,,running
Status,476,12207075647,/g3t1_3,,success
Status,477,12246078923,/g4t1,,fail
Status,478,12253613569,/g3t1_1,,running
Status,479,12254263591,/g3t1_1,,success
Status,480,12255695606,/g3t1_2,,running
Status,481,12256674495,/g3t1_2,,success
Status,482,12256798016,/g3t1_3,,running
Status,483,12257129458,/g3t1_3,,success
Status,484,12303384778,/g3t1_1,,running
Status,485,12303622599,/g3t1_1,,success
Status,486,12305323182,/g3t1_2,,running
Status,487,12305402416,/g3t1_2,,success
Status,488,12306017551,/g3t1_3,,running
Status,489,12306239949,/g3t1_3,,success
Status,490,12345394159,/g4t1,,fail
Status,491,12353535313,/g3t1_1,,running
Status,492,12353659299,/g3t1_1,,success
Status,493,12355642853,/g3t1_2,,running
Status,494,12355852443,/g3t1_2,,success
Status,495,12356346809,/g3t1_3,,running
Status,496,12356753157,/g3t1_3,,success
Status,497,12404729023,/g3t1_1,,running
Status,498,12404908790,/g3t1_1,,success
Status,499,12406661562,/g3t1_2,,running
Status,500,12406885336,/g3t1_3,,running
Status,501,12407075397,/g3t1_2,,success
Status,502,12407122727,/g3t1_3,,success
Status,503,12446290216,/g4t1,,fail
Status,504,12454272483,/g3t1_1,,running
Status,505,12454637489,/g3t1_1,,success
Status,506,12456190011,/g3t1_2,,running
Status,507,12456862600,/g3t1_2,,success
Status,508,12456934498,/g3t1_3,,running
Status,509,12457554412,/g3t1_3,,success
Status,510,12504665819,/g3t1_1,,running
Status,511,12505383390,/g3t1_1,,success
Status,512,12506332165,/g3t1_2,,running
Status,513,12507618145,/g3t1_3,,running
Status,514,12507672712,/g3t1_2,,success
Status,515,12507773084,/g3t1_3,,success
Status,516,12546587210,/g4t1,,fail
Status,517,12554489926,/g3t1_1,,running
Status,518,12554806551,/g3t1_1,,success
Status,519,12556282940,/g3t1_2,,running
Status,520,12556893543,/g3t1_2,,success
Status,521,12557153008,/g3t1_3,,running
Status,522,12557798580,/g3t1_3,,success
Status,523,12604861079,/g3t1_1,,running
Status,524,12605214563,/g3t1_1,,success
Status,525,12606497731,/g3t1_2,,running
Status,526,12607631661,/g3t1_3,,running
Status,527,12607697383,/g3t1_2,,success
Status,528,12607724389,/g3t1_3,,success
Status,529,12646563439,/g4t1,,fail
Status,530,12654875246,/g3t1_1,,running
Status,531,12655356288,/g3t1_1,,success
Status,532,12656565587,/g3t1_2,,running
Status,533,12657322916,/g3t1_2,,success
Status,534,12657759755,/g3t1_3,,running
Status,535,12657826680,/g3t1_3,,success
Status,536,12705425667,/g3t1_1,,running
Status,537,12705515774,/g3t1_1,,success
Status,538,12706834043,/g3t1_2,,running
Status,539,12707368509,/g3t1_2,,success
Status,540,12707644572,/g3t1_3,,running
Status,541,12708178510,/g3t1_3,,success
Status,542,12746758169,/g4t1,,fail
Status,543,12755496790,/g3t1_1,,running
Status,544,12755905167,/g3t1_1,,success
Status,545,12757082851,/g3t1_2,,running
Status,546,12757567069,/g3t1_2,,success
Status,547,12757640326,/g3t1_3,,running
Status,548,12758425948,/g3t1_3,,success
Status,549,12805570470,/g3t1_1,,running
Status,550,12805971434,/g3t1_1,,success
Status,551,12806827710,/g3t1_2,,running
Status,552,12807535146,/g3t1_2,,success
Status,553,12807772057,/g3t1_3,,running
Status,554,12808433870,/g3t1_3,,success
Status,555,12846927270,/g4t1,,fail
Status,556,12855843216,/g3t1_1,,running
Status,557,12856740930,/g3t1_1,,success
Status,558,12857021529,/g3t1_2,,running
Status,559,12857619357,/g3t1_2,,success
Status,560,12857832181,/g3t1_3,,running
Status,561,12858581186,/g3t1_3,,success
Status,562,12905962975,/g3t1_1,,running
Status,563,12906273344,/g3t1_1,,success
Status,564,12907658333,/g3t1_2,,running
Status,565,12907850416,/g3t1_2,,success
Status,566,12908004238,/g3t1_3,,running
Status,567,12908873827,/g3t1_3,,success
Status,568,12946953664,/g4t1,,fail
Status,569,12956028941,/g3t1_1,,running
Status,570,12956804457,/g3t1_1,,success
Status,571,12957210110,/g3t1_2,,running
Status,572,12958055448,/g3t1_2,,success
Status,573,12958284449,/g3t1_3,,running
Status,574,12958680221,/g3t1_3,,success
Status,575,13006592729,/g3t1_1,,running
Status,576,13006684043,/g3t1_1,,success
Status,577,13007381314,/g3t1_2,,running
Status,578,13008038968,/g3t1_2,,success
Status,579,13008387795,/g3t1_3,,running
Status,580,13008495684,/g3t1_3,,success
Status,581,13047050747,/g4t1,,fail
Status,582,13056161775,/g3t1_1,,running
Status,583,13056612165,/g3t1_1,,success
Status,584,13057579094,/g3t1_2,,running
Status,585,13057659401,/g3t1_2,,success
Status,586,13058256764,/g3t1_3,,running
Status,587,13058613856,/g3t1_3,,success
Status,588,13106435450,/g3t1_1,,running
Status,589,13106860939,/g3t1_1,,success
Status,590,13107624529,/g3t1_2,,running
Status,591,13108368439,/g3t1_2,,success
Status,592,13108449042,/g3t1_3,,running
Status,593,13108943749,/g3t1_3,,success
Status,594,13147304693,/g4t1,,fail
Status,595,13156404626,/g3t1_1,,running
Status,596,13157424799,/g3t1_1,,success
Status,597,13157710909,/g3t1_2,,running
Status,598,13158717094,/g3t1_2,,success
Status,599,13158803359,/g3t1_3,,running
Status,600,13158893206,/g3t1_3,,success
Status,601,13206871820,/g3t1_1,,running
Status,602,13207837717,/g3t1_1,,success
Status,603,13207923080,/g3t1_2,,running
Status,604,13208478468,/g3t1_2,,success
Status,605,13208547215,/g3t1_3,,running
Status,606,13209219513,/g3t1_3,,success
Status,607,13247571227,/g4t1,,fail
Status,608,13257048135,/g3t1_1,,running
Status,609,13257440133,/g3t1_1,,success
Status,610,13257848989,/g3t1_2,,running
Status,611,13258923179,/g3t1_2,,success
Status,612,13259012797,/g3t1_3,,running
Status,613,13260078480,/g3t1_3,,success
Status,614,13307123405,/g3t1_1,,running
Status,615,13308099126,/g3t1_1,,success
Status,616,13308184776,/g3t1_2,,running
Status,617,13308891767,/g3t1_2,,success
Status,618,13309069956,/g3t1_3,,running
Status,619,13309349764,/g3t1_3,,success
Status,620,13347675994,/g4t1,,fail
Status,621,13357496809,/g3t1_1,,running
Status,622,13357594684,/g3t1_1,,success
Status,623,13357990481,/g3t1_2,,running
Status,624,13358847419,/g3t1_2,,success
Status,625,13358921767,/g3t1_3,,running
Status,626,13359443283,/g3t1_3,,success
Status,627,13407725966,/g3t1_1,,running
Status,628,13408266592,/g3t1_1,,success
Status,629,13408345899,/g3t1_2,,running
Status,630,13409080066,/g3t1_3,,running
Status,631,13409148747,/g3t1_2,,success
Status,632,13410109119,/g3t1_3,,success
Status,633,13447987662,/g4t1,,fail
Status,634,13457509303,/g3t1_1,,running
Status,635,13458376268,/g3t1_1,,success
Status,636,13458481128,/g3t1_2,,running
Status,637,13459500684,/g3t1_2,,success
Status,638,13459558724,/g3t1_3,,running
Status,639,13459622905,/g3t1_3,,success
Status,640,13507640288,/g3t1_1,,running
Status,641,13508098665,/g3t1_1,,success
Status,642,13508208495,/g3t1_2,,running
Status,643,13509226822,/g3t1_2,,success
Status,644,13509581845,/g3t1_3,,running
Status,645,13509650082,/g3t1_3,,success
Status,646,13548118167,/g4t1,,fail
Status,647,13557764774,/g3t1_1,,running
Status,648,13558464174,/g3t1_2,,running
Status,649,13559618982,/g3t1_1,,success
Status,650,13559685680,/g3t1_2,,success
Status,651,13559860391,/g3t1_3,,running
Status,652,13560235156,/g3t1_3,,success
Status,653,13608049564,/g3t1_1,,running
Status,654,13608693291,/g3t1_1,,success
Status,655,13608765690,/g3t1_2,,running
Status,656,13609189236,/g3t1_2,,success
Status,657,13609530316,/g3t1_3,,running
Status,658,13609623917,/g3t1_3,,success
Status,659,13648318370,/g4t1,,fail
Status,660,13657883520,/g3t1_1,,running
Status,661,13659320131,/g3t1_1,,success
Status,662,13659406228,/g3t1_2,,running
Status,663,13659443207,/g3t1_2,,success
Status,664,13659815550,/g3t1_3,,running
Status,665,13660447680,/g3t1_3,,success
Status,666,13708469556,/g3t1_1,,running
Status,667,13708559116,/g3t1_1,,success
Status,668,13708807463,/g3t1_2,,running
Status,669,13709461435,/g3t1_2,,success
Status,670,13709812321,/g3t1_3,,running
Status,671,13710179082,/g3t1_3,,success
Status,672,13748648027,/g4t1,,fail
Status,673,13758573130,/g3t1_1,,running
Status,674,13758669211,/g3t1_1,,success
Status,675,13758855558,/g3t1_2,,running
Status,676,13760319564,/g3t1_3,,running
Status,677,13760379025,/g3t1_2,,success
Status,678,13760478373,/g3t1_3,,success
Status,679,13808304850,/g3t1_1,,running
Status,680,13808953819,/g3t1_1,,success
Status,681,13809383924,/g3t1_2,,running
Status,682,13809844683,/g3t1_3,,running
Status,683,13810246232,/g3t1_2,,success
Status,684,13810879745,/g3t1_3,,success
Status,685,13847958524,/g4t1,,fail
Status,686,13858031883,/g3t1_1,,running
Status,687,13858184327,/g3t1_1,,success
Status,688,13858946628,/g3t1_2,,running
Status,689,13858987464,/g3t1_2,,success
Status,690,13859682433,/g3t1_3,,running
Status,691,13859810237,/g3t1_3,,success
Status,692,13907985474,/g3t1_1,,running
Status,693,13908016845,/g3t1_1,,success
Status,694,13908603226,/g3t1_2,,running
Status,695,13908748397,/g3t1_2,,success
Status,696,13909420803,/g3t1_3,,running
Status,697,13909595953,/g3t1_3,,success
Status,698,13947856676,/g4t1,,fail
Status,699,13958107560,/g3t1_1,,running
Status,700,13958191106,/g3t1_1,,success
Status,701,13958640714,/g3t1_2,,running
Status,702,13958743602,/g3t1_2,,success
Status,703,13959420883,/g3t1_3,,running
Status,704,13959512634,/g3t1_3,,success
Status,705,14008092824,/g3t1_1,,running
Status,706,14008149847,/g3t1_1,,success
Status,707,14008739346,/g3t1_2,,running
Status,708,14008918303,/g3t1_2,,success
Status,709,14009534028,/g3t1_3,,running
Status,710,14009642199,/g3t1_3,,success
Status,711,14047923638,/g4t1,,fail
Status,712,14058207847,/g3t1_1,,running
Status,713,14058297150,/g3t1_1,,success
Status,714,14058885945,/g3t1_2,,running
Status,715,14058915928,/g3t1_2,,success
Status,716,14059522949,/g3t1_3,,running
Status,717,14059738424,/g3t1_3,,success
Status,718,14108251567,/g3t1_1,,running
Status,719,14108483109,/g3t1_1,,success
Status,720,14108767368,/g3t1_2,,running
Status,721,14108913657,/g3t1_2,,success
Status,722,14109618212,/g3t1_3,,running
Status,723,14109737928,/g3t1_3,,success
Status,724,14148038529,/g4t1,,fail
Status,725,14158454737,/g3t1_1,,running
Status,726,14158478122,/g3t1_1,,success
Status,727,14158941793,/g3t1_2,,running
Status,728,14159082133,/g3t1_2,,success
Status,729,14159655954,/g3t1_3,,running
Status,730,14159874062,/g3t1_3,,success
Status,731,14208498133,/g3t1_1,,running
Status,732,14208561931,/g3t1_1,,success
Status,733,14208971947,/g3t1_2,,running
Status,734,14209088847,/g3t1_2,,success
Status,735,14209718940,/g3t1_3,,running
Status,736,14209867905,/g3t1_3,,success
Status,737,14248032149,/g4t1,,fail
Status,738,14258629225,/g3t1_1,,running
Status,739,14258653319,/g3t1_1,,success
Status,740,14259110931,/g3t1_2,,running
Status,741,14259138170,/g3t1_2,,success
Status,742,14259807038,/g3t1_3,,running
Status,743,14259959936,/g3t1_3,,success
Status,744,14308611271,/g3t1_1,,running
Status,745,14308717004,/g3t1_1,,success
Status,746,14309085942,/g3t1_2,,running
Status,747,14309204406,/g3t1_2,,success
Status,748,14309954660,/g3t1_3,,running
Status,749,14309973284,/g3t1_3,,success
Status,750,14348130996,/g4t1,,fail
Status,751,14358773232,/g3t1_1,,running
Status,752,14358860231,/g3t1_1,,success
Status,753,14359260697,/g3t1_2,,running
Status,754,14359284221,/g3t1_2,,success
Status,755,14360091393,/g3t1_3,,running
Status,756,14360189444,/g3t1_3,,success
Status,757,14408943545,/g3t1_1,,running
Status,758,14408968971,/g3t1_1,,success
Status,759,14409370454,/g3t1_2,,running
Status,760,14409775124,/g3t1_2,,success
Status,761,14410039528,/g3t1_3,,running
Status,762,14410125516,/g3t1_3,,success
Status,763,14449135081,/g4t1,,fail
Status,764,14459682116,/g3t1_1,,running
Status,765,14460316764,/g3t1_2,,running
Status,766,14460393673,/g3t1_1,,success
Status,767,14460627480,/g3t1_2,,success
Status,768,14460688111,/g3t1_3,,running
Status,769,14461426286,/g3t1_3,,success
Status,770,14510193762,/g3t1_1,,running
Status,771,14510394131,/g3t1_2,,running
Status,772,14510438248,/g3t1_1,,success
Status,773,14510953608,/g3t1_3,,running
Status,774,14511531874,/g3t1_2,,success
Status,775,14511891049,/g3t1_3,,success
Status,776,14549089461,/g4t1,,fail
Status,777,14560737914,/g3t1_1,,running
Status,778,14560845747,/g3t1_2,,running
Status,779,14560977851,/g3t1_2,,success
Status,780,14561312546,/g3t1_3,,running
Status,781,14561393174,/g3t1_1,,success
Status,782,14562128886,/g3t1_3,,success
Status,783,14610413854,/g3t1_1,,running
Status,784,14610519420,/g3t1_2,,running
Status,785,14611366546,/g3t1_1,,success
Status,786,14611423318,/g3t1_2,,success
Status,787,14611537669,/g3t1_3,,running
Status,788,14611562265,/g3t1_3,,success
Status,789,14649336953,/g4t1,,fail
Status,790,14660662748,/g3t1_1,,running
Status,791,14660757877,/g3t1_2,,running
Status,792,14661156965,/g3t1_1,,success
Status,793,14661211768,/g3t1_2,,success
Status,794,14661296932,/g3t1_3,,running
Status,795,14661344866,/g3t1_3,,success
Status,796,14710772613,/g3t1_1,,running
Status,797,14710866922,/g3t1_2,,running
Status,798,14711443216,/g3t1_1,,success
Status,799,14711491284,/g3t1_3,,running
Status,800,14711872148,/g3t1_2,,success
Status,801,14712069366,/g3t1_3,,success
Status,802,14749506711,/g4t1,,fail
Status,803,14760888938,/g3t1_1,,running
Status,804,14761053213,/g3t1_2,,running
Status,805,14761430238,/g3t1_1,,success
Status,806,14761749729,/g3t1_3,,running
Status,807,14761805127,/g3t1_2,,success
Status,808,14762009854,/g3t1_3,,success
Status,809,14811453869,/g3t1_1,,running
Status,810,14811543653,/g3t1_2,,running
Status,811,14812052105,/g3t1_1,,success
Status,812,14812106868,/g3t1_3,,running
Status,813,14812211836,/g3t1_2,,success
Status,814,14812238354,/g3t1_3,,success
Status,815,14849594625,/g4t1,,fail
Status,816,14861108306,/g3t1_1,,running
Status,817,14861198972,/g3t1_2,,running
Status,818,14861707841,/g3t1_1,,success
Status,819,14861773687,/g3t1_2,,success
Status,820,14861898909,/g3t1_3,,running
Status,821,14862405426,/g3t1_3,,success
Status,822,14911101594,/g3t1_1,,running
Status,823,14911260366,/g3t1_2,,running
Status,824,14912033838,/g3t1_1,,success
Status,825,14912068587,/g3t1_2,,success
Status,826,14912099112,/g3t1_3,,running
Status,827,14912660812,/g3t1_3,,success
Status,828,14948939743,/g4t1,,fail
Status,829,14960536884,/g3t1_1,,running
Status,830,14960570053,/g3t1_2,,running
Status,831,14960620038,/g3t1_2,,success
Status,832,14960631331,/g3t1_1,,success
Status,833,14961376952,/g3t1_3,,running
Status,834,14961400799,/g3t1_3,,success
Status,835,15010916098,/g3t1_1,,running
Status,836,15010953669,/g3t1_1,,success
Status,837,15010966856,/g3t1_2,,running
Status,838,15010977850,/g3t1_2,,success
Status,839,15011709281,/g3t1_3,,running
Status,840,15011758824,/g3t1_3,,success
Status,841,15048998967,/g4t1,,fail
Status,842,15060849259,/g3t1_2,,running
Status,843,15060879164,/g3t1_1,,running
Status,844,15060906026,/g3t1_1,,success
Status,845,15061287549,/g3t1_2,,success
Status,846,15061567386,/g3t1_3,,running
Status,847,15061590418,/g3t1_3,,success
Status,848,15110719130,/g3t1_1,,running
Status,849,15110755478,/g3t1_2,,running
Status,850,15110774490,/g3t1_2,,success
Status,851,15110793533,/g3t1_1,,success
Status,852,15111410569,/g3t1_3,,running
Status,853,15111515588,/g3t1_3,,success
Status,854,15149089311,/g4t1,,fail
Status,855,15160859434,/g3t1_1,,running
Status,856,15160894392,/g3t1_2,,running
Status,857,15160904025,/g3t1_1,,success
Status,858,15160912696,/g3t1_2,,success
Status,859,15161581554,/g3t1_3,,running
Status,860,15161681671,/g3t1_3,,success
Status,861,15210977225,/g3t1_2,,running
Status,862,15211106306,/g3t1_1,,running
Status,863,15211120740,/g3t1_1,,success
Status,864,15211222753,/g3t1_2,,success
Status,865,15211629240,/g3t1_3,,running
Status,866,15211722642,/g3t1_3,,success
Status,867,15249474525,/g4t1,,fail
Status,868,15261002702,/g3t1_1,,running
Status,869,15261120423,/g3t1_2,,running
Status,870,15261136207,/g3t1_1,,success
Status,871,15261143932,/g3t1_2,,success
Status,872,15261711049,/g3t1_3,,running
Status,873,15261823688,/g3t1_3,,success
Status,874,15311223447,/g3t1_1,,running
Status,875,15311253443,/g3t1_2,,running
Status,876,15311266456,/g3t1_2,,success
Status,877,15311299194,/g3t1_1,,success
Status,878,15312046044,/g3t1_3,,running
Status,879,15312073200,/g3t1_3,,success
Status,880,15349367949,/g4t1,,fail
Status,881,15361199225,/g3t1_1,,running
Status,882,15361243778,/g3t1_2,,running
Status,883,15361257443,/g3t1_1,,success
Status,884,15361286638,/g3t1_2,,success
Status,885,15361793849,/g3t1_3,,running
Status,886,15361934117,/g3t1_3,,success
Status,887,15411255893,/g3t1_1,,running
Status,888,15411342715,/g3t1_2,,running
Status,889,15411385269,/g3t1_1,,success
Status,890,15411467118,/g3t1_2,,success
Status,891,15411826902,/g3t1_3,,running
Status,892,15411992085,/g3t1_3,,success
Status,893,15449284170,/g4t1,,fail
Status,894,15461256892,/g3t1_1,,running
Status,895,15461293012,/g3t1_2,,running
Status,896,15461470164,/g3t1_1,,success
Status,897,15461581655,/g3t1_2,,success
Status,898,15461998018,/g3t1_3,,running
Status,899,15462015042,/g3t1_3,,success
Status,900,15512080709,/g3t1_1,,running
Status,901,15512198547,/g3t1_2,,running
Status,902,15512904455,/g3t1_1,,success
Status,903,15512974028,/g3t1_2,,success
Status,904,15513124471,/g3t1_3,,running
Status,905,15513425792,/g3t1_3,,success
Status,906,15550076347,/g4t1,,fail
Status,907,15562052337,/g3t1_1,,running
Status,908,15562195700,/g3t1_2,,running
Status,909,15562691570,/g3t1_1,,success
Status,910,15562748859,/g3t1_3,,running
Status,911,15562803370,/g3t1_2,,success
Status,912,15563603548,/g3t1_3,,success
Status,913,15612478640,/g3t1_1,,running
Status,914,15612550454,/g3t1_2,,running
Status,915,15612978143,/g3t1_2,,success
Status,916,15613079768,/g3t1_3,,running
Status,917,15613415580,/g3t1_1,,success
Status,918,15613496630,/g3t1_3,,success
Status,919,15650290249,/g4t1,,fail
Status,920,15662507801,/g3t1_1,,running
Status,921,15662617344,/g3t1_2,,running
Status,922,15662758653,/g3t1_1,,success
Status,923,15663053585,/g3t1_2,,success
Status,924,15663136505,/g3t1_3,,running
Status,925,15663657647,/g3t1_3,,success
Status,926,15713077145,/g3t1_1,,running
Status,927,15713168743,/g3t1_2,,running
Status,928,15713216045,/g3t1_2,,success
Status,929,15713249826,/g3t1_1,,success
Status,930,15713573157,/g3t1_3,,running
Status,931,15713631223,/g3t1_3,,success
Status,932,15750407427,/g4t1,,fail
Status,933,15763659535,/g3t1_1,,running
Status,934,15763730031,/g3t1_2,,running
Status,935,15763754443,/g3t1_1,,success
Status,936,15763776955,/g3t1_2,,success
Status,937,15763803315,/g3t1_3,,running
Status,938,15764225690,/g3t1_3,,success
Status,939,15813105964,/g3t1_2,,running
Status,940,15813231564,/g3t1_1,,running
Status,941,15814639978,/g3t1_1,,success
Status,942,15814712570,/g3t1_2,,success
Status,943,15814907815,/g3t1_3,,running
Status,944,15815042962,/g3t1_3,,success
Status,945,15850542405,/g4t1,,fail
Status,946,15862855304,/g3t1_2,,running
Status,947,15863074657,/g3t1_1,,running
Status,948,15863333101,/g3t1_1,,success
Status,949,15864008379,/g3t1_2,,success
Status,950,15864059621,/g3t1_3,,running
Status,951,15864156875,/g3t1_3,,success
Status,952,15913192836,/g3t1_1,,running
Status,953,15913307721,/g3t1_2,,running
Status,954,15914438958,/g3t1_2,,success
Status,955,15914504634,/g3t1_3,,running
Status,956,15914529836,/g3t1_1,,success
Status,957,15914557801,/g3t1_3,,success
Status,958,15950915019,/g4t1,,fail
Status,959,15964427550,/g3t1_2,,running
Status,960,15964515220,/g3t1_1,,running
Status,961,15964695609,/g3t1_1,,success
Status,962,15964720895,/g3t1_2,,success
Status,963,15964797443,/g3t1_3,,running
Status,964,15964979262,/g3t1_3,,success
Status,965,16014071219,/g3t1_2,,running
Status,966,16014146689,/g3t1_1,,running
Status,967,16014186661,/g3t1_2,,success
Status,968,16014385012,/g3t1_3,,running
Status,969,16014433133,/g3t1_1,,success
Status,970,16014783443,/g3t1_3,,success
Status,971,16051134299,/g4t1,,fail
Status,972,16063826766,/g3t1_1,,running
Status,973,16063893346,/g3t1_2,,running
Status,974,16064139673,/g3t1_2,,success
Status,975,16064273379,/g3t1_3,,running
Status,976,16064866441,/g3t1_1,,success
Status,977,16064975357,/g3t1_3,,success
Status,978,16113975306,/g3t1_2,,running
Status,979,16114064820,/g3t1_1,,running
Status,980,16114762550,/g3t1_2,,success
Status,981,16114880890,/g3t1_3,,running
Status,982,16115068001,/g3t1_1,,success
Status,983,16115726505,/g3t1_3,,success
Status,984,16151551218,/g4t1,,fail
Status,985,16164449102,/g3t1_2,,running
Status,986,16164509738,/g3t1_1,,running
Status,987,16164557584,/g3t1_2,,success
Status,988,16164706937,/g3t1_1,,success
Status,989,16164742671,/g3t1_3,,running
Status,990,16165316088,/g3t1_3,,success
Status,991,16214034611,/g3t1_2,,running
Status,992,16214172236,/g3t1_1,,running
Status,993,16214952732,/g3t1_2,,success
Status,994,16215058363,/g3t1_1,,success
Status,995,16215096076,/g3t1_3,,running
Status,996,16215538671,/g3t1_3,,success
Status,997,16251771509,/g4t1,,fail
Status,998,16264453249,/g3t1_2,,running
Status,999,16264577171,/g3t1_1,,running
Status,1000,16265398965,/g3t1_1,,success
Status,1001,16265532512,/g3t1_3,,running
Status,1002,16265639488,/g3t1_2,,success
Status,1003,16265791482,/g3t1_3,,success
Status,1004,16314767592,/g3t1_2,,running
Status,1005,16314856011,/g3t1_1,,running
Status,1006,16315371287,/g3t1_1,,success
Status,1007,16315691741,/g3t1_2,,success
Status,1008,16315795829,/g3t1_3,,running
Status,1009,16315922467,/g3t1_3,,success
Status,1010,16351861576,/g4t1,,fail
Status,1011,16364904491,/g3t1_2,,running
Status,1012,16365067933,/g3t1_1,,running
Status,1013,16365214718,/g3t1_2,,success
Status,1014,16365721662,/g3t1_1,,success
Status,1015,16365773697,/g3t1_3,,running
Status,1016,16365819980,/g3t1_3,,success
Status,1017,16414770903,/g3t1_2,,running
Status,1018,16414855509,/g3t1_1,,running
Status,1019,16414992203,/g3t1_1,,success
Status,1020,16415156633,/g3t1_2,,success
Status,1021,16415333023,/g3t1_3,,running
Status,1022,16415728348,/g3t1_3,,success
Status,1023,16451875845,/g4t1,,fail
Status,1024,16464963564,/g3t1_2,,running
Status,1025,16465052054,/g3t1_1,,running
Status,1026,16465372962,/g3t1_2,,success
Status,1027,16465961622,/g3t1_3,,running
Status,1028,16466067165,/g3t1_1,,success
Status,1029,16466193465,/g3t1_3,,success
Status,1030,16514908834,/g3t1_1,,running
Status,1031,16515335658,/g3t1_2,,running
Status,1032,16515908643,/g3t1_2,,success
Status,1033,16515993701,/g3t1_3,,running
Status,1034,16516138057,/g3t1_1,,success
Status,1035,16516175880,/g3t1_3,,success
Status,1036,16551927768,/g4t1,,fail
Status,1037,16565162062,/g3t1_2,,running
Status,1038,16565261235,/g3t1_1,,running
Status,1039,16565307145,/g3t1_2,,success
Status,1040,16566502222,/g3t1_1,,success
Status,1041,16566715082,/g3t1_3,,running
Status,1042,16566843635,/g3t1_3,,success
Status,1043,16615700549,/g3t1_2,,running
Status,1044,16615795277,/g3t1_1,,running
Status,1045,16615901211,/g3t1_1,,success
Status,1046,16615924361,/g3t1_3,,running
Status,1047,16616357641,/g3t1_2,,success
Status,1048,16616482281,/g3t1_3,,success
Status,1049,16652087912,/g4t1,,fail
Status,1050,16665380473,/g3t1_2,,running
Status,1051,16666054728,/g3t1_1,,running
Status,1052,16666447699,/g3t1_2,,success
Status,1053,16666526911,/g3t1_1,,success
Status,1054,16666603394,/g3t1_3,,running
Status,1055,16666634035,/g3t1_3,,success
Status,1056,16716361471,/g3t1_2,,running
Status,1057,16716500588,/g3t1_1,,running
Status,1058,16716946676,/g3t1_2,,success
Status,1059,16717035499,/g3t1_3,,running
Status,1060,16717086394,/g3t1_1,,success
Status,1061,16717120288,/g3t1_3,,success
Status,1062,16752117120,/g4t1,,fail
Status,1063,16765779344,/g3t1_2,,running
Status,1064,16765925699,/g3t1_1,,running
Status,1065,16766530004,/g3t1_1,,success
Status,1066,16766597347,/g3t1_2,,success
Status,1067,16766631066,/g3t1_3,,running
Status,1068,16767303723,/g3t1_3,,success
Status,1069,16816798110,/g3t1_2,,running
Status,1070,16816908101,/g3t1_1,,running
Status,1071,16817042703,/g3t1_1,,success
Status,1072,16817079733,/g3t1_3,,running
Status,1073,16817121518,/g3t1_2,,success
Status,1074,16817366673,/g3t1_3,,success
Status,1075,16852238608,/g4t1,,fail
Status,1076,16866111062,/g3t1_2,,running
Status,1077,16866409639,/g3t1_1,,running
Status,1078,16866657642,/g3t1_1,,success
Status,1079,16866732069,/g3t1_2,,success
Status,1080,16866928702,/g3t1_3,,running
Status,1081,16867408022,/g3t1_3,,success
Status,1082,16916333153,/g3t1_1,,running
Status,1083,16916577763,/g3t1_2,,running
Status,1084,16916822365,/g3t1_2,,success
Status,1085,16917122018,/g3t1_3,,running
Status,1086,16917572739,/g3t1_1,,success
Status,1087,16917642999,/g3t1_3,,success
Status,1088,16952665421,/g4t1,,fail
Status,1089,16966462806,/g3t1_1,,running
Status,1090,16966594187,/g3t1_2,,running
Status,1091,16967278517,/g3t1_2,,success
Status,1092,16967409324,/g3t1_3,,running
Status,1093,16967516791,/g3t1_1,,success
Status,1094,16967813131,/g3t1_3,,success
Status,1095,17016757591,/g3t1_1,,running
Status,1096,17016893559,/g3t1_2,,running
Status,1097,17017311149,/g3t1_1,,success
Status,1098,17017396555,/g3t1_2,,success
Status,1099,17017433735,/g3t1_3,,running
Status,1100,17017538795,/g3t1_3,,success
Status,1101,17052595314,/g4t1,,fail
Status,1102,17066369135,/g3t1_1,,running
Status,1103,17066503907,/g3t1_2,,running
Status,1104,17067160587,/g3t1_2,,success
Status,1105,17067513334,/g3t1_1,,success
Status,1106,17067953494,/g3t1_3,,running
Status,1107,17067996443,/g3t1_3,,success
Status,1108,17117545439,/g3t1_2,,running
Status,1109,17117615302,/g3t1_1,,running
Status,1110,17117756313,/g3t1_3,,running
Status,1111,17117798392,/g3t1_2,,success
Status,1112,17118241884,/g3t1_3,,success
Status,1113,17118332078,/g3t1_1,,success
Status,1114,17152781301,/g4t1,,fail
Status,1115,17167209547,/g3t1_1,,running
Status,1116,17167301218,/g3t1_2,,running
Status,1117,17167771516,/g3t1_2,,success
Status,1118,17168088753,/g3t1_3,,running
Status,1119,17168123220,/g3t1_1,,success
Status,1120,17168181644,/g3t1_3,,success
Status,1121,17216060364,/g3t1_2,,running
Status,1122,17216214623,/g3t1_1,,running
Status,1123,17216234196,/g3t1_1,,success
Status,1124,17216242238,/g3t1_2,,success
Status,1125,17217049959,/g3t1_3,,running
Status,1126,17217123856,/g3t1_3,,success
Status,1127,17252026653,/g4t1,,fail
Status,1128,17266124283,/g3t1_2,,running
Status,1129,17266161667,/g3t1_1,,running
Status,1130,17266187782,/g3t1_2,,success
Status,1131,17266218225,/g3t1_1,,success
Status,1132,17267027111,/g3t1_3,,running
Status,1133,17267297618,/g3t1_3,,success
Status,1134,17316350288,/g3t1_1,,running
Status,1135,17316380069,/g3t1_2,,running
Status,1136,17316443683,/g3t1_2,,success
Status,1137,17316458827,/g3t1_1,,success
Status,1138,17317184328,/g3t1_3,,running
Status,1139,17317343862,/g3t1_3,,success
Status,1140,17352046870,/g4t1,,fail
Status,1141,17366318386,/g3t1_2,,running
Status,1142,17366350681,/g3t1_1,,running
Status,1143,17366467047,/g3t1_1,,success
Status,1144,17366654878,/g3t1_2,,success
Status,1145,17367265628,/g3t1_3,,running
Status,1146,17367676529,/g3t1_3,,success
Status,1147,17416416304,/g3t1_1,,running
Status,1148,17416443979,/g3t1_2,,running
Status,1149,17416473219,/g3t1_2,,success
Status,1150,17416483884,/g3t1_1,,success
Status,1151,17417476235,/g3t1_3,,running
Status,1152,17417512710,/g3t1_3,,success
Status,1153,17452128912,/g4t1,,fail
Status,1154,17466611072,/g3t1_2,,running
Status,1155,17466672666,/g3t1_2,,success
Status,1156,17466740045,/g3t1_1,,running
Status,1157,17466916876,/g3t1_1,,success
Status,1158,17467414851,/g3t1_3,,running
Status,1159,17467735099,/g3t1_3,,success
Status,1160,17516544361,/g3t1_2,,running
Status,1161,17516613087,/g3t1_1,,running
Status,1162,17516653055,/g3t1_1,,success
Status,1163,17516693100,/g3t1_2,,success
Status,1164,17517363609,/g3t1_3,,running
Status,1165,17517501182,/g3t1_3,,success
Status,1166,17552218739,/g4t1,,fail
Status,1167,17566638324,/g3t1_2,,running
Status,1168,17566666788,/g3t1_1,,running
Status,1169,17566780189,/g3t1_2,,success
Status,1170,17566796626,/g3t1_1,,success
Status,1171,17567449608,/g3t1_3,,running
Status,1172,17567556010,/g3t1_3,,success
Status,1173,17616638518,/g3t1_2,,running
Status,1174,17616728874,/g3t1_1,,running
Status,1175,17616775946,/g3t1_2,,success
Status,1176,17616964781,/g3t1_1,,success
Status,1177,17617483486,/g3t1_3,,running
Status,1178,17617608594,/g3t1_3,,success
Status,1179,17652230334,/g4t1,,fail
Status,1180,17666807957,/g3t1_1,,running
Status,1181,17666836414,/g3t1_2,,running
Status,1182,17666850397,/g3t1_2,,success
Status,1183,17667020249,/g3t1_1,,success
Status,1184,17667573485,/g3t1_3,,running
Status,1185,17667671874,/g3t1_3,,success
Status,1186,17717077499,/g3t1_2,,running
Status,1187,17717184158,/g3t1_1,,running
Status,1188,17717200767,/g3t1_2,,success
Status,1189,17717271189,/g3t1_1,,success
Status,1190,17718138829,/g3t1_3,,running
Status,1191,17718167384,/g3t1_3,,success
Status,1192,17752358824,/g4t1,,fail
Status,1193,17767115266,/g3t1_1,,running
Status,1194,17767142611,/g3t1_2,,running
Status,1195,17767151421,/g3t1_2,,success
Status,1196,17767330125,/g3t1_1,,success
Status,1197,17767677262,/g3t1_3,,running
Status,1198,17767946124,/g3t1_3,,success
Status,1199,17817004200,/g3t1_2,,running
Status,1200,17817024917,/g3t1_1,,running
Status,1201,17817037090,/g3t1_1,,success
Status,1202,17817195670,/g3t1_2,,success
Status,1203,17817746271,/g3t1_3,,running
Status,1204,17817850392,/g3t1_3,,success
Status,1205,17852505763,/g4t1,,fail
Status,1206,17867226059,/g3t1_2,,running
Status,1207,17867248553,/g3t1_1,,running
Status,1208,17867258347,/g3t1_2,,success
Status,1209,17867287164,/g3t1_1,,success
Status,1210,17867893652,/g3t1_3,,running
Status,1211,17867964568,/g3t1_3,,success
Status,1212,17917764650,/g3t1_2,,running
Status,1213,17917829365,/g3t1_1,,running
Status,1214,17918555766,/g3t1_2,,success
Status,1215,17918757228,/g3t1_3,,running
Status,1216,17918795298,/g3t1_1,,success
Status,1217,17918821202,/g3t1_3,,success
Status,1218,17953406988,/g4t1,,fail
Status,1219,17968580896,/g3t1_2,,running
Status,1220,17968933795,/g3t1_1,,running
Status,1221,17969054886,/g3t1_3,,running
Status,1222,17969099113,/g3t1_1,,success
Status,1223,17969449902,/g3t1_2,,success
Status,1224,17969548217,/g3t1_3,,success
Status,1225,18018810738,/g3t1_1,,running
Status,1226,18018901175,/g3t1_2,,running
Status,1227,18018933816,/g3t1_3,,running
Status,1228,18019734244,/g3t1_1,,success
Status,1229,18019823379,/g3t1_3,,success
Status,1230,18019906821,/g3t1_2,,success
Status,1231,18053502099,/g4t1,,fail
Status,1232,18068802291,/g3t1_2,,running
Status,1233,18068887341,/g3t1_1,,running
Status,1234,18069143506,/g3t1_2,,success
Status,1235,18069193546,/g3t1_3,,running
Status,1236,18069814927,/g3t1_1,,success
Status,1237,18070365683,/g3t1_3,,success
Status,1238,18119275192,/g3t1_2,,running
Status,1239,18119476169,/g3t1_1,,running
Status,1240,18120269352,/g3t1_3,,running
Status,1241,18120321659,/g3t1_2,,success
Status,1242,18120409867,/g3t1_1,,success
Status,1243,18120561181,/g3t1_3,,success
Status,1244,18153707217,/g4t1,,fail
Status,1245,18169044968,/g3t1_1,,running
Status,1246,18169205413,/g3t1_2,,running
Status,1247,18169877482,/g3t1_1,,success
Status,1248,18169929139,/g3t1_3,,running
Status,1249,18170036901,/g3t1_2,,success
Status,1250,18170077708,/g3t1_3,,success
Status,1251,18218961847,/g3t1_2,,running
Status,1252,18219051093,/g3t1_1,,running
Status,1253,18219727975,/g3t1_1,,success
Status,1254,18219807793,/g3t1_2,,success
Status,1255,18219844065,/g3t1_3,,running
Status,1256,18219927187,/g3t1_3,,success
Status,1257,18253990796,/g4t1,,fail
Status,1258,18269026491,/g3t1_1,,running
Status,1259,18269144488,/g3t1_2,,running
Status,1260,18269666858,/g3t1_2,,success
Status,1261,18269859754,/g3t1_1,,success
Status,1262,18269929764,/g3t1_3,,running
Status,1263,18270122563,/g3t1_3,,success
Status,1264,18318208270,/g3t1_1,,running
Status,1265,18318297331,/g3t1_1,,success
Status,1266,18318313870,/g3t1_2,,running
Status,1267,18318334620,/g3t1_2,,success
Status,1268,18318913817,/g3t1_3,,running
Status,1269,18319096950,/g3t1_3,,success
Status,1270,18353374310,/g4t1,,fail
Status,1271,18368511868,/g3t1_1,,running
Status,1272,18368570210,/g3t1_2,,running
Status,1273,18368878020,/g3t1_1,,success
Status,1274,18368914623,/g3t1_2,,success
Status,1275,18369285239,/g3t1_3,,running
Status,1276,18369365115,/g3t1_3,,success
Status,1277,18418717562,/g3t1_1,,running
Status,1278,18418762379,/g3t1_2,,running
Status,1279,18418970537,/g3t1_2,,success
Status,1280,18419025333,/g3t1_1,,success
Status,1281,18419473592,/g3t1_3,,running
Status,1282,18419500843,/g3t1_3,,success
Status,1283,18453678720,/g4t1,,fail
Status,1284,18469112296,/g3t1_1,,running
Status,1285,18469170902,/g3t1_2,,running
Status,1286,18469198478,/g3t1_2,,success
Status,1287,18469616863,/g3t1_3,,running
Status,1288,18469654334,/g3t1_1,,success
Status,1289,18469692270,/g3t1_3,,success
Status,1290,18519727788,/g3t1_1,,running
Status,1291,18519780073,/g3t1_2,,running
Status,1292,18519814134,/g3t1_1,,success
Status,1293,18519933617,/g3t1_2,,success
Status,1294,18519962678,/g3t1_3,,running
Status,1295,18520115775,/g3t1_3,,success
Status,1296,18554338806,/g4t1,,fail
Status,1297,18569851576,/g3t1_2,,running
Status,1298,18570395404,/g3t1_1,,running
Status,1299,18570475270,/g3t1_1,,success
Status,1300,18570519284,/g3t1_3,,running
Status,1301,18570784909,/g3t1_2,,success
Status,1302,18571051707,/g3t1_3,,success
Status,1303,18619913349,/g3t1_2,,running
Status,1304,18620030535,/g3t1_1,,running
Status,1305,18621221605,/g3t1_1,,success
Status,1306,18621312715,/g3t1_3,,running
Status,1307,18621397673,/g3t1_2,,success
Status,1308,18621426389,/g3t1_3,,success
Status,1309,18654747274,/g4t1,,fail
Status,1310,18669962689,/g3t1_1,,running
Status,1311,18670138792,/g3t1_2,,running
Status,1312,18670384722,/g3t1_2,,success
Status,1313,18670424025,/g3t1_1,,success
Status,1314,18670731513,/g3t1_3,,running
Status,1315,18670964277,/g3t1_3,,success
Status,1316,18720375053,/g3t1_2,,running
Status,1317,18720523762,/g3t1_1,,running
Status,1318,18720659869,/g3t1_2,,success
Status,1319,18721108398,/g3t1_1,,success
Status,1320,18721250858,/g3t1_3,,running
Status,1321,18721342815,/g3t1_3,,success
Status,1322,18754904800,/g4t1,,fail
Status,1323,18770014595,/g3t1_2,,running
Status,1324,18770110766,/g3t1_1,,running
Status,1325,18770604380,/g3t1_2,,success
Status,1326,18770775444,/g3t1_1,,success
Status,1327,18770984948,/g3t1_3,,running
Status,1328,18771398912,/g3t1_3,,success
Status,1329,18824520840,/g3t1_2,,running
Status,1330,18824622482,/g3t1_2,,success
Status,1331,18826858388,/g3t1_3,,running
Status,1332,18826921129,/g3t1_3,,success
Status,1333,18826965884,/g3t1_1,,running
Status,1334,18827006394,/g3t1_1,,success
Status,1335,18854144020,/g4t1,,fail
Status,1336,18869494963,/g3t1_2,,running
Status,1337,18869524905,/g3t1_2,,success
Status,1338,18870371012,/g3t1_3,,running
Status,1339,18870398610,/g3t1_1,,running
Status,1340,18870423879,/g3t1_3,,success
Status,1341,18870834677,/g3t1_1,,success
Status,1342,18919582037,/g3t1_2,,running
Status,1343,18919732586,/g3t1_2,,success
Status,1344,18920621561,/g3t1_3,,running
Status,1345,18920794837,/g3t1_3,,success
Status,1346,18920815597,/g3t1_1,,running
Status,1347,18920888218,/g3t1_1,,success
Status,1348,18954157731,/g4t1,,fail
Status,1349,18969697879,/g3t1_2,,running
Status,1350,18969721064,/g3t1_2,,success
Status,1351,18970530786,/g3t1_3,,running
Status,1352,18970606885,/g3t1_1,,running
Status,1353,18970621314,/g3t1_1,,success
Status,1354,18970687689,/g3t1_3,,success
Status,1355,19019691273,/g3t1_2,,running
Status,1356,19019929247,/g3t1_2,,success
Status,1357,19020713494,/g3t1_3,,running
Status,1358,19020754043,/g3t1_1,,running
Status,1359,19020980515,/g3t1_3,,success
Status,1360,19021112371,/g3t1_1,,success
Status,1361,19054337603,/g4t1,,fail
Status,1362,19069862711,/g3t1_2,,running
Status,1363,19069887895,/g3t1_2,,success
Status,1364,19070769329,/g3t1_3,,running
Status,1365,19070817841,/g3t1_3,,success
Status,1366,19070839501,/g3t1_1,,running
Status,1367,19070847408,/g3t1_1,,success
Status,1368,19122320144,/g3t1_2,,running
Status,1369,19122351018,/g3t1_2,,success
Status,1370,19122362894,/g3t1_3,,running
Status,1371,19122380311,/g3t1_3,,success
Status,1372,19122450224,/g3t1_1,,running
Status,1373,19122463564,/g3t1_1,,success
Status,1374,19154318537,/g4t1,,fail
Status,1375,19169927869,/g3t1_2,,running
Status,1376,19170080348,/g3t1_2,,success
Status,1377,19172211227,/g3t1_3,,running
Status,1378,19172245216,/g3t1_1,,running
Status,1379,19172270369,/g3t1_3,,success
Status,1380,19172370653,/g3t1_1,,success
Status,1381,19220320297,/g3t1_2,,running
Status,1382,19220356672,/g3t1_2,,success
Status,1383,19222232363,/g3t1_1,,running
Status,1384,19222256180,/g3t1_3,,running
Status,1385,19222292510,/g3t1_1,,success
Status,1386,19222305705,/g3t1_3,,success
Status,1387,19254459526,/g4t1,,fail
Status,1388,19270266975,/g3t1_2,,running
Status,1389,19270467504,/g3t1_2,,success
Status,1390,19272252989,/g3t1_3,,running
Status,1391,19272277954,/g3t1_1,,running
Status,1392,19272355245,/g3t1_1,,success
Status,1393,19272364214,/g3t1_3,,success
Status,1394,19320272613,/g3t1_2,,running
Status,1395,19320297214,/g3t1_2,,success
Status,1396,19322214375,/g3t1_1,,running
Status,1397,19322233824,/g3t1_3,,running
Status,1398,19322333837,/g3t1_1,,success
Status,1399,19322388930,/g3t1_3,,success
Status,1400,19354926849,/g4t1,,fail
Status,1401,19370982027,/g3t1_2,,running
Status,1402,19371506146,/g3t1_2,,success
Status,1403,19373060988,/g3t1_3,,running
Status,1404,19373140402,/g3t1_1,,running
Status,1405,19373316897,/g3t1_3,,success
Status,1406,19373345284,/g3t1_1,,success
Status,1407,19421226218,/g3t1_2,,running
Status,1408,19421555760,/g3t1_2,,success
Status,1409,19423430229,/g3t1_3,,running
Status,1410,19423498007,/g3t1_1,,running
Status,1411,19423597241,/g3t1_3,,success
Status,1412,19423620009,/g3t1_1,,success
Status,1413,19455534313,/g4t1,,fail
Status,1414,19471426231,/g3t1_2,,running
Status,1415,19472123184,/g3t1_2,,success
Status,1416,19473384739,/g3t1_1,,running
Status,1417,19473447074,/g3t1_3,,running
Status,1418,19473832609,/g3t1_3,,success
Status,1419,19473909402,/g3t1_1,,success
Status,1420,19521392719,/g3t1_2,,running
Status,1421,19521758713,/g3t1_2,,success
Status,1422,19523306669,/g3t1_3,,running
Status,1423,19523402935,/g3t1_1,,running
Status,1424,19523797255,/g3t1_3,,success
Status,1425,19523844978,/g3t1_1,,success
Status,1426,19555797131,/g4t1,,fail
Status,1427,19571696113,/g3t1_2,,running
Status,1428,19572191448,/g3t1_2,,success
Status,1429,19573620180,/g3t1_3,,running
Status,1430,19573735601,/g3t1_1,,running
Status,1431,19574173078,/g3t1_3,,success
Status,1432,19574279261,/g3t1_1,,success
Status,1433,19621699659,/g3t1_2,,running
Status,1434,19621984600,/g3t1_2,,success
Status,1435,19623635373,/g3t1_3,,running
Status,1436,19623755407,/g3t1_1,,running
Status,1437,19624206109,/g3t1_1,,success
Status,1438,19624291869,/g3t1_3,,success
Status,1439,19655828053,/g4t1,,fail
Status,1440,19671935360,/g3t1_2,,running
Status,1441,19672003004,/g3t1_2,,success
Status,1442,19673920564,/g3t1_3,,running
Status,1443,19673977752,/g3t1_3,,success
Status,1444,19674146335,/g3t1_1,,running
Status,1445,19674566102,/g3t1_1,,success
Status,1446,19721884608,/g3t1_2,,running
Status,1447,19722238531,/g3t1_2,,success
Status,1448,19724159663,/g3t1_3,,running
Status,1449,19724265071,/g3t1_3,,success
Status,1450,19724316283,/g3t1_1,,running
Status,1451,19724348486,/g3t1_1,,success
Status,1452,19756012967,/g4t1,,fail
Status,1453,19771837259,/g3t1_2,,running
Status,1454,19772318017,/g3t1_2,,success
Status,1455,19774100084,/g3t1_3,,running
Status,1456,19774202377,/g3t1_1,,running
Status,1457,19774265908,/g3t1_3,,success
Status,1458,19774331048,/g3t1_1,,success
Status,1459,19821425108,/g3t1_2,,running
Status,1460,19821560453,/g3t1_2,,success
Status,1461,19823373147,/g3t1_3,,running
Status,1462,19823394732,/g3t1_1,,running
Status,1463,19823419772,/g3t1_3,,success
Status,1464,19823427175,/g3t1_1,,success
Status,1465,19855154222,/g4t1,,fail
Status,1466,19871856758,/g3t1_2,,running
Status,1467,19872230901,/g3t1_2,,success
Status,1468,19873447873,/g3t1_3,,running
Status,1469,19873605762,/g3t1_1,,running
Status,1470,19873722839,/g3t1_3,,success
Status,1471,19873781368,/g3t1_1,,success
Status,1472,19922032203,/g3t1_2,,running
Status,1473,19922059056,/g3t1_2,,success
Status,1474,19923513066,/g3t1_3,,running
Status,1475,19923540984,/g3t1_1,,running
Status,1476,19923554862,/g3t1_1,,success
Status,1477,19923669692,/g3t1_3,,success
Status,1478,19955341729,/g4t1,,fail
Status,1479,19971725988,/g3t1_2,,running
Status,1480,19972143611,/g3t1_2,,success
Status,1481,19973495930,/g3t1_3,,running
Status,1482,19973551557,/g3t1_1,,running
Status,1483,19973563097,/g3t1_1,,success
Status,1484,19973803043,/g3t1_3,,success
Status,1485,20022027650,/g3t1_2,,running
Status,1486,20022197118,/g3t1_2,,success
Status,1487,20023695149,/g3t1_1,,running
Status,1488,20023717475,/g3t1_3,,running
Status,1489,20023741499,/g3t1_3,,success
Status,1490,20023748950,/g3t1_1,,success
Status,1491,20055341278,/g4t1,,fail
Status,1492,20071958925,/g3t1_2,,running
Status,1493,20071990379,/g3t1_2,,success
Status,1494,20073562509,/g3t1_3,,running
Status,1495,20073601018,/g3t1_1,,running
Status,1496,20073744295,/g3t1_3,,success
Status,1497,20073764682,/g3t1_1,,success
Status,1498,20122091575,/g3t1_2,,running
Status,1499,20122115956,/g3t1_2,,success
Status,1500,20123693666,/g3t1_3,,running
Status,1501,20123726094,/g3t1_1,,running
Status,1502,20123923533,/g3t1_3,,success
Status,1503,20123944783,/g3t1_1,,success
Status,1504,20155600232,/g4t1,,fail
Status,1505,20172074852,/g3t1_2,,running
Status,1506,20172200561,/g3t1_2,,success
Status,1507,20173726961,/g3t1_3,,running
Status,1508,20173922853,/g3t1_3,,success
Status,1509,20173948080,/g3t1_1,,running
Status,1510,20173989019,/g3t1_1,,success
Status,1511,20222235278,/g3t1_2,,running
Status,1512,20222315856,/g3t1_2,,success
