
Status,2,3590161896,/g4t1,,init
Status,3,8605702556,/g3t1_1,,init
Status,5,8694675535,/g3t1_1,,init
Status,6,8694716925,/g3t1_1,,running
Status,7,8696176897,/g3t1_1,,success
Status,8,8794960589,/g3t1_1,,running
Status,9,8796192162,/g3t1_1,,success
Status,11,8810573574,/g3t1_2,,init
Status,12,8833868668,/g3t1_2,,init
Status,13,8834043786,/g3t1_2,,running
Status,14,8835351228,/g3t1_2,,success
Status,15,8895095734,/g3t1_1,,running
Status,16,8895283178,/g3t1_1,,success
Status,17,8933971322,/g3t1_2,,running
Status,18,8934133724,/g3t1_2,,success
Status,19,8995037902,/g3t1_1,,running
Status,20,8995294130,/g3t1_1,,success
Status,21,8997252062,/g4t1,,success
Status,23,9014252031,/g3t1_3,,init
Status,24,9033741664,/g3t1_3,,init
Status,25,9033784410,/g3t1_3,,running
Status,26,9034115338,/g3t1_2,,running
Status,27,9034296874,/g3t1_2,,success
Status,28,9034874779,/g3t1_3,,success
Status,29,9095150113,/g3t1_1,,running
Status,30,9095327806,/g3t1_1,,success
Status,31,9097657059,/g4t1,,success
Status,32,9117875034,/g4t1,,success
Status,33,9133996431,/g3t1_3,,running
Status,34,9134063327,/g3t1_2,,running
Status,35,9134195591,/g3t1_3,,success
Status,36,9134456911,/g3t1_2,,success
Status,37,9137871335,/g4t1,,success
Status,38,9158150336,/g4t1,,success
Status,39,9178232903,/g4t1,,success
Status,40,9195301707,/g3t1_1,,running
Status,41,9195337621,/g3t1_1,,success
Status,42,9198321006,/g4t1,,success
Status,43,9218262127,/g4t1,,success
Status,44,9234086723,/g3t1_3,,running
Status,45,9234203036,/g3t1_2,,running
Status,46,9234257072,/g3t1_3,,success
Status,47,9234353207,/g3t1_2,,success
Status,48,9238258412,/g4t1,,success
Status,49,9258728677,/g4t1,,success
Status,50,9278635793,/g4t1,,success
Status,51,9295339281,/g3t1_1,,running
Status,52,9295451226,/g3t1_1,,success
Status,53,9298596366,/g4t1,,success
Status,54,9318767699,/g4t1,,success
Status,55,9334186190,/g3t1_3,,running
Status,56,9334323265,/g3t1_2,,running
Status,57,9334348460,/g3t1_3,,success
Status,58,9334358069,/g3t1_2,,success
Status,59,9338782322,/g4t1,,success
Status,60,9359200082,/g4t1,,success
Status,61,9379138592,/g4t1,,success
Status,62,9395439114,/g3t1_1,,running
Status,63,9395581392,/g3t1_1,,success
Status,64,9399216018,/g4t1,,fail
Status,65,9419240632,/g4t1,,success
Status,66,9434281067,/g3t1_3,,running
Status,67,9434351414,/g3t1_2,,running
Status,68,9434365506,/g3t1_3,,success
Status,69,9434507563,/g3t1_2,,success
Status,70,9439385354,/g4t1,,success
Status,71,9459542134,/g4t1,,success
Status,72,9479575729,/g4t1,,success
Status,73,9495609831,/g3t1_1,,running
Status,74,9495639263,/g3t1_1,,success
Status,75,9499613231,/g4t1,,fail
Status,76,9519687087,/g4t1,,success
Status,77,9534313239,/g3t1_3,,running
Status,78,9534550190,/g3t1_2,,running
Status,79,9534576057,/g3t1_3,,success
Status,80,9534718095,/g3t1_2,,success
Status,81,9539735301,/g4t1,,fail
Status,82,9559875577,/g4t1,,success
Status,83,9579984690,/g4t1,,success
Status,84,9595574620,/g3t1_1,,running
Status,85,9595789668,/g3t1_1,,success
Status,86,9600018798,/g4t1,,fail
Status,87,9620134615,/g4t1,,success
Status,88,9634557756,/g3t1_3,,running
Status,89,9634637605,/g3t1_2,,running
Status,90,9634673365,/g3t1_3,,success
Status,91,9634774039,/g3t1_2,,success
Status,92,9640064638,/g4t1,,fail
Status,93,9660305172,/g4t1,,success
Status,94,9680355915,/g4t1,,success
Status,95,9695866701,/g3t1_1,,running
Status,96,9696023912,/g3t1_1,,success
Status,97,9700471175,/g4t1,,fail
Status,98,9720618325,/g4t1,,success
Status,99,9734579336,/g3t1_3,,running
Status,100,9734602956,/g3t1_2,,running
Status,101,9734639649,/g3t1_3,,success
Status,102,9734843710,/g3t1_2,,success
Status,103,9740641914,/g4t1,,fail
Status,104,9760864820,/g4t1,,success
Status,105,9780985199,/g4t1,,success
Status,106,9795807043,/g3t1_1,,running
Status,107,9795830250,/g3t1_1,,success
Status,108,9800905139,/g4t1,,fail
Status,109,9821102978,/g4t1,,success
Status,110,9834662129,/g3t1_3,,running
Status,111,9834888033,/g3t1_2,,running
Status,112,9834915169,/g3t1_3,,success
Status,113,9834928449,/g3t1_2,,success
Status,114,9841006590,/g4t1,,fail
Status,115,9861234778,/g4t1,,success
Status,116,9881274250,/g4t1,,success
Status,117,9895846197,/g3t1_1,,running
Status,118,9895892659,/g3t1_1,,success
Status,119,9901403424,/g4t1,,fail
Status,120,9921595376,/g4t1,,success
Status,121,9934786922,/g3t1_3,,running
Status,122,9934878280,/g3t1_2,,running
Status,123,9934893507,/g3t1_3,,success
Status,124,9935073203,/g3t1_2,,success
Status,125,9941725665,/g4t1,,fail
Status,126,9961820274,/g4t1,,success
Status,127,9981928430,/g4t1,,success
Status,128,9995886427,/g3t1_1,,running
Status,129,9996000079,/g3t1_1,,success
Status,130,10001873247,/g4t1,,fail
Status,131,10022048357,/g4t1,,success
Status,132,10034819326,/g3t1_3,,running
Status,133,10034850921,/g3t1_2,,running
Status,134,10034934490,/g3t1_3,,success
Status,135,10035160292,/g3t1_2,,success
Status,136,10042184074,/g4t1,,fail
Status,137,10062132973,/g4t1,,success
Status,138,10082244175,/g4t1,,success
Status,139,10096024937,/g3t1_1,,running
Status,140,10096171753,/g3t1_1,,success
Status,141,10102310070,/g4t1,,fail
Status,142,10122435258,/g4t1,,success
Status,143,10135019872,/g3t1_3,,running
Status,144,10135046337,/g3t1_2,,running
Status,145,10135079412,/g3t1_2,,success
Status,146,10135174854,/g3t1_3,,success
Status,147,10142643697,/g4t1,,fail
Status,148,10162704178,/g4t1,,success
Status,149,10182818001,/g4t1,,success
Status,150,10196137545,/g3t1_1,,running
Status,151,10196336082,/g3t1_1,,success
Status,152,10202781348,/g4t1,,fail
Status,153,10222990548,/g4t1,,success
Status,154,10235021912,/g3t1_3,,running
Status,155,10235052892,/g3t1_2,,running
Status,156,10235119055,/g3t1_2,,success
Status,157,10235143318,/g3t1_3,,success
Status,158,10242974848,/g4t1,,fail
Status,159,10263120800,/g4t1,,success
Status,160,10283235591,/g4t1,,success
Status,161,10296314921,/g3t1_1,,running
Status,162,10296338393,/g3t1_1,,success
Status,163,10303264348,/g4t1,,fail
Status,164,10323343721,/g4t1,,success
Status,165,10335009857,/g3t1_3,,running
Status,166,10335038320,/g3t1_2,,running
Status,167,10335147369,/g3t1_2,,success
Status,168,10335165498,/g3t1_3,,success
Status,169,10343339982,/g4t1,,fail
Status,170,10363445923,/g4t1,,success
Status,171,10383543235,/g4t1,,success
Status,172,10396306818,/g3t1_1,,running
Status,173,10396568776,/g3t1_1,,success
Status,174,10403661918,/g4t1,,fail
Status,175,10423740680,/g4t1,,success
Status,176,10435295624,/g3t1_3,,running
Status,177,10435317483,/g3t1_3,,success
Status,178,10435324113,/g3t1_2,,running
Status,179,10435331169,/g3t1_2,,success
Status,180,10443973036,/g4t1,,fail
Status,181,10464016463,/g4t1,,success
Status,182,10484146013,/g4t1,,success
Status,183,10496387437,/g3t1_1,,running
Status,184,10496511259,/g3t1_1,,success
Status,185,10504297568,/g4t1,,fail
Status,186,10524347758,/g4t1,,success
Status,187,10535231705,/g3t1_3,,running
Status,188,10535252834,/g3t1_2,,running
Status,189,10535260581,/g3t1_2,,success
Status,190,10535290041,/g3t1_3,,success
Status,191,10544454310,/g4t1,,fail
Status,192,10564533248,/g4t1,,success
Status,193,10584650627,/g4t1,,success
Status,194,10596552137,/g3t1_1,,running
Status,195,10596575979,/g3t1_1,,success
Status,196,10604703412,/g4t1,,fail
Status,197,10624717063,/g4t1,,success
Status,198,10635354096,/g3t1_3,,running
Status,199,10635379438,/g3t1_2,,running
Status,200,10635389397,/g3t1_3,,success
Status,201,10635464928,/g3t1_2,,success
Status,202,10644836192,/g4t1,,fail
Status,203,10664909260,/g4t1,,success
Status,204,10685009427,/g4t1,,success
Status,205,10696546330,/g3t1_1,,running
Status,206,10696680306,/g3t1_1,,success
Status,207,10705098619,/g4t1,,fail
Status,208,10725304953,/g4t1,,success
Status,209,10735361241,/g3t1_3,,running
Status,210,10735391530,/g3t1_2,,running
Status,211,10735633125,/g3t1_3,,success
Status,212,10735651085,/g3t1_2,,success
Status,213,10745361616,/g4t1,,fail
Status,214,10765407286,/g4t1,,success
Status,215,10785506813,/g4t1,,success
Status,216,10796710832,/g3t1_1,,running
Status,217,10796738183,/g3t1_1,,success
Status,218,10805613081,/g4t1,,fail
Status,219,10825717178,/g4t1,,success
Status,220,10835519818,/g3t1_3,,running
Status,221,10835548629,/g3t1_3,,success
Status,222,10835559214,/g3t1_2,,running
Status,223,10835626049,/g3t1_2,,success
Status,224,10845678748,/g4t1,,fail
Status,225,10865831019,/g4t1,,success
Status,226,10885951985,/g4t1,,success
Status,227,10896711553,/g3t1_1,,running
Status,228,10896858426,/g3t1_1,,success
Status,229,10905980934,/g4t1,,fail
Status,230,10926250559,/g4t1,,success
Status,231,10935709888,/g3t1_2,,running
Status,232,10935737462,/g3t1_3,,running
Status,233,10935747434,/g3t1_3,,success
Status,234,10935880872,/g3t1_2,,success
Status,235,10946232910,/g4t1,,fail
Status,236,10966359460,/g4t1,,success
Status,237,10986441585,/g4t1,,success
Status,238,10996879319,/g3t1_1,,running
Status,239,10997017838,/g3t1_1,,success
Status,240,11006542941,/g4t1,,fail
Status,241,11026537034,/g4t1,,success
Status,242,11035903197,/g3t1_2,,running
Status,243,11035925743,/g3t1_2,,success
Status,244,11035932710,/g3t1_3,,running
Status,245,11035938504,/g3t1_3,,success
Status,246,11046677601,/g4t1,,fail
Status,247,11066760448,/g4t1,,success
Status,248,11086913085,/g4t1,,success
Status,249,11096958452,/g3t1_1,,running
Status,250,11097059084,/g3t1_1,,success
Status,251,11106968287,/g4t1,,fail
Status,252,11126923416,/g4t1,,success
Status,253,11135810537,/g3t1_3,,running
Status,254,11135934522,/g3t1_2,,running
Status,255,11135957313,/g3t1_3,,success
Status,256,11136010039,/g3t1_2,,success
Status,257,11147102634,/g4t1,,fail
Status,258,11167195453,/g4t1,,success
Status,259,11187239083,/g4t1,,success
Status,260,11197116726,/g3t1_1,,running
Status,261,11197137185,/g3t1_1,,success
Status,262,11207233219,/g4t1,,fail
Status,263,11227357815,/g4t1,,success
Status,264,11235981100,/g3t1_3,,running
Status,265,11236004318,/g3t1_3,,success
Status,266,11236015980,/g3t1_2,,running
Status,267,11236117658,/g3t1_2,,success
Status,268,11247501861,/g4t1,,fail
Status,269,11267599438,/g4t1,,success
Status,270,11287702929,/g4t1,,success
Status,271,11297127541,/g3t1_1,,running
Status,272,11297217316,/g3t1_1,,success
Status,273,11307700771,/g4t1,,fail
Status,274,11327806875,/g4t1,,success
Status,275,11335890486,/g3t1_3,,running
Status,276,11335918536,/g3t1_2,,running
Status,277,11336016065,/g3t1_3,,success
Status,278,11336030928,/g3t1_2,,success
Status,279,11347945981,/g4t1,,fail
Status,280,11368041485,/g4t1,,success
Status,281,11388150163,/g4t1,,success
Status,282,11397338282,/g3t1_1,,running
Status,283,11397359136,/g3t1_1,,success
Status,284,11408203049,/g4t1,,fail
Status,285,11428344299,/g4t1,,success
Status,286,11436018932,/g3t1_3,,running
Status,287,11436044213,/g3t1_2,,running
Status,288,11436056304,/g3t1_3,,success
Status,289,11436173632,/g3t1_2,,success
Status,290,11448467675,/g4t1,,fail
Status,291,11468498904,/g4t1,,success
Status,292,11488674422,/g4t1,,success
Status,293,11497378872,/g3t1_1,,running
Status,294,11497405103,/g3t1_1,,success
Status,295,11508861598,/g4t1,,fail
Status,296,11528874749,/g4t1,,success
Status,297,11536141771,/g3t1_3,,running
Status,298,11536227126,/g3t1_2,,running
Status,299,11536250886,/g3t1_3,,success
Status,300,11536355800,/g3t1_2,,success
Status,301,11548895385,/g4t1,,fail
Status,302,11568958984,/g4t1,,success
Status,303,11588973394,/g4t1,,success
Status,304,11597496319,/g3t1_1,,running
Status,305,11597522063,/g3t1_1,,success
Status,306,11609174770,/g4t1,,fail
Status,307,11629235380,/g4t1,,success
Status,308,11636158557,/g3t1_3,,running
Status,309,11636187781,/g3t1_2,,running
Status,310,11636247931,/g3t1_3,,success
Status,311,11636286592,/g3t1_2,,success
Status,312,11649434609,/g4t1,,fail
Status,313,11669530636,/g4t1,,success
Status,314,11689643264,/g4t1,,success
Status,315,11697577821,/g3t1_1,,running
Status,316,11697600109,/g3t1_1,,success
Status,317,11709664512,/g4t1,,fail
Status,318,11729837403,/g4t1,,success
Status,319,11736242734,/g3t1_3,,running
Status,320,11736268575,/g3t1_2,,running
Status,321,11736389653,/g3t1_3,,success
Status,322,11736406805,/g3t1_2,,success
Status,323,11749923588,/g4t1,,fail
Status,324,11770008856,/g4t1,,success
Status,325,11790142570,/g4t1,,success
Status,326,11797756925,/g3t1_1,,running
Status,327,11797778129,/g3t1_1,,success
Status,328,11810122956,/g4t1,,fail
Status,329,11830291811,/g4t1,,success
Status,330,11836337045,/g3t1_2,,running
Status,331,11836363679,/g3t1_3,,running
Status,332,11836409615,/g3t1_2,,success
Status,333,11836422743,/g3t1_3,,success
Status,334,11850262042,/g4t1,,fail
Status,335,11870367347,/g4t1,,success
Status,336,11890639373,/g4t1,,success
Status,337,11897895209,/g3t1_1,,running
Status,338,11897916851,/g3t1_1,,success
Status,339,11910637902,/g4t1,,fail
Status,340,11930642259,/g4t1,,success
Status,341,11936432946,/g3t1_2,,running
Status,342,11936461016,/g3t1_3,,running
Status,343,11936549356,/g3t1_2,,success
Status,344,11936575399,/g3t1_3,,success
Status,345,11950716276,/g4t1,,fail
Status,346,11970866560,/g4t1,,success
Status,347,11990941035,/g4t1,,success
Status,348,11997812877,/g3t1_1,,running
Status,349,11997942815,/g3t1_1,,success
Status,350,12011036819,/g4t1,,fail
Status,351,12031048293,/g4t1,,success
Status,352,12036530473,/g3t1_3,,running
Status,353,12036685811,/g3t1_2,,running
Status,354,12036701661,/g3t1_3,,success
Status,355,12036709926,/g3t1_2,,success
Status,356,12051117001,/g4t1,,fail
Status,357,12071232765,/g4t1,,success
Status,358,12091326703,/g4t1,,success
Status,359,12097929937,/g3t1_1,,running
Status,360,12098054068,/g3t1_1,,success
Status,361,12111443695,/g4t1,,fail
Status,362,12131569575,/g4t1,,success
Status,363,12136604942,/g3t1_2,,running
Status,364,12136679203,/g3t1_3,,running
Status,365,12136749478,/g3t1_3,,success
Status,366,12136764844,/g3t1_2,,success
Status,367,12151615428,/g4t1,,fail
Status,368,12171711969,/g4t1,,success
Status,369,12191877224,/g4t1,,success
Status,370,12197990782,/g3t1_1,,running
Status,371,12198199540,/g3t1_1,,success
Status,372,12211986254,/g4t1,,fail
Status,373,12232126929,/g4t1,,success
Status,374,12236652695,/g3t1_3,,running
Status,375,12236690981,/g3t1_2,,running
Status,376,12236703971,/g3t1_3,,success
Status,377,12236981246,/g3t1_2,,success
Status,378,12252172390,/g4t1,,fail
Status,379,12272190450,/g4t1,,success
Status,380,12292511066,/g4t1,,success
Status,381,12298089738,/g3t1_1,,running
Status,382,12298312294,/g3t1_1,,success
Status,383,12312471215,/g4t1,,fail
Status,384,12332473270,/g4t1,,success
Status,385,12336850627,/g3t1_2,,running
Status,386,12336998653,/g3t1_3,,running
Status,387,12337019819,/g3t1_2,,success
Status,388,12337030814,/g3t1_3,,success
Status,389,12352654126,/g4t1,,fail
Status,390,12372782124,/g4t1,,success
Status,391,12392899143,/g4t1,,success
Status,392,12398149682,/g3t1_1,,running
Status,393,12398344785,/g3t1_1,,success
Status,394,12413045315,/g4t1,,fail
Status,395,12433008507,/g4t1,,success
Status,396,12436972739,/g3t1_3,,running
Status,397,12436992372,/g3t1_2,,running
Status,398,12437024585,/g3t1_3,,success
Status,399,12437039992,/g3t1_2,,success
Status,400,12453038720,/g4t1,,fail
Status,401,12473248552,/g4t1,,success
Status,402,12493354130,/g4t1,,success
Status,403,12498297051,/g3t1_1,,running
Status,404,12498315313,/g3t1_1,,success
Status,405,12513612074,/g4t1,,fail
Status,406,12533611999,/g4t1,,success
Status,407,12537039576,/g3t1_3,,running
Status,408,12537058881,/g3t1_2,,running
Status,409,12537078603,/g3t1_3,,success
Status,410,12537117793,/g3t1_2,,success
Status,411,12553575085,/g4t1,,fail
Status,412,12573673950,/g4t1,,success
Status,413,12593790230,/g4t1,,success
Status,414,12598471539,/g3t1_1,,running
Status,415,12598492414,/g3t1_1,,success
Status,416,12613878392,/g4t1,,fail
Status,417,12634043250,/g4t1,,success
Status,418,12637162649,/g3t1_3,,running
Status,419,12637182113,/g3t1_2,,running
Status,420,12637203027,/g3t1_3,,success
Status,421,12637209089,/g3t1_2,,success
Status,422,12654115284,/g4t1,,fail
Status,423,12674355718,/g4t1,,success
Status,424,12694308107,/g4t1,,success
Status,425,12698445985,/g3t1_1,,running
Status,426,12698611231,/g3t1_1,,success
Status,427,12714391642,/g4t1,,success
Status,428,12734494225,/g4t1,,success
Status,429,12737139742,/g3t1_3,,running
Status,430,12737190099,/g3t1_2,,running
Status,431,12737344411,/g3t1_2,,success
Status,432,12737366026,/g3t1_3,,success
Status,433,12754668762,/g4t1,,fail
Status,434,12774675409,/g4t1,,success
Status,435,12794860843,/g4t1,,success
Status,436,12798548540,/g3t1_1,,running
Status,437,12798620922,/g3t1_1,,success
Status,438,12814885163,/g4t1,,fail
Status,439,12834886901,/g4t1,,success
Status,440,12837197412,/g3t1_2,,running
Status,441,12837219004,/g3t1_3,,running
Status,442,12837426427,/g3t1_3,,success
Status,443,12837461438,/g3t1_2,,success
Status,444,12855052255,/g4t1,,fail
Status,445,12875138006,/g4t1,,success
Status,446,12895140695,/g4t1,,success
Status,447,12898652580,/g3t1_1,,running
Status,448,12898796497,/g3t1_1,,success
Status,449,12915249307,/g4t1,,success
Status,450,12935393828,/g4t1,,success
Status,451,12937377597,/g3t1_2,,running
Status,452,12937397699,/g3t1_3,,running
Status,453,12937428147,/g3t1_3,,success
Status,454,12937437246,/g3t1_2,,success
Status,455,12955392717,/g4t1,,fail
Status,456,12975494153,/g4t1,,success
Status,457,12995577003,/g4t1,,success
Status,458,12998856609,/g3t1_1,,running
Status,459,12998875821,/g3t1_1,,success
Status,460,13015755197,/g4t1,,fail
Status,461,13035861490,/g4t1,,success
Status,462,13037358168,/g3t1_3,,running
Status,463,13037385994,/g3t1_2,,running
Status,464,13037528178,/g3t1_3,,success
Status,465,13037550125,/g3t1_2,,success
Status,466,13055875196,/g4t1,,fail
Status,467,13076089906,/g4t1,,success
Status,468,13096090359,/g4t1,,success
Status,469,13098864739,/g3t1_1,,running
Status,470,13099101208,/g3t1_1,,success
Status,471,13116246446,/g4t1,,success
Status,472,13136358634,/g4t1,,success
Status,473,13137398065,/g3t1_3,,running
Status,474,13137492994,/g3t1_2,,running
Status,475,13137612172,/g3t1_3,,success
Status,476,13137636393,/g3t1_2,,success
Status,477,13156372938,/g4t1,,fail
Status,478,13176563806,/g4t1,,success
Status,479,13196545506,/g4t1,,success
Status,480,13198953338,/g3t1_1,,running
Status,481,13198971481,/g3t1_1,,success
Status,482,13216744270,/g4t1,,fail
Status,483,13236792274,/g4t1,,success
Status,484,13237483319,/g3t1_3,,running
Status,485,13237503222,/g3t1_2,,running
Status,486,13237657288,/g3t1_2,,success
Status,487,13237678946,/g3t1_3,,success
Status,488,13256893187,/g4t1,,fail
Status,489,13277029982,/g4t1,,success
Status,490,13297137234,/g4t1,,success
Status,491,13298998571,/g3t1_1,,running
Status,492,13299120400,/g3t1_1,,success
Status,493,13317242826,/g4t1,,success
Status,494,13337274004,/g4t1,,success
Status,495,13337674604,/g3t1_2,,running
Status,496,13337695854,/g3t1_3,,running
Status,497,13337726176,/g3t1_2,,success
Status,498,13337875379,/g3t1_3,,success
Status,499,13357503161,/g4t1,,fail
Status,500,13377574427,/g4t1,,success
Status,501,13397652327,/g4t1,,success
Status,502,13399106379,/g3t1_1,,running
Status,503,13399124514,/g3t1_1,,success
Status,504,13417697389,/g4t1,,fail
Status,505,13437717547,/g3t1_2,,running
Status,506,13437769907,/g3t1_3,,running
Status,507,13437807986,/g4t1,,success
Status,508,13437875508,/g3t1_3,,success
Status,509,13437889767,/g3t1_2,,success
Status,510,13457911145,/g4t1,,fail
Status,511,13478017039,/g4t1,,success
Status,512,13498044742,/g4t1,,success
Status,513,13499077304,/g3t1_1,,running
Status,514,13499176167,/g3t1_1,,success
Status,515,13518157477,/g4t1,,success
Status,516,13537989630,/g3t1_3,,running
Status,517,13538037211,/g3t1_3,,success
Status,518,13538049295,/g3t1_2,,running
Status,519,13538069431,/g3t1_2,,success
Status,520,13538117200,/g4t1,,success
Status,521,13558313229,/g4t1,,fail
Status,522,13578364965,/g4t1,,success
Status,523,13598531714,/g4t1,,success
Status,524,13599157748,/g3t1_1,,running
Status,525,13599242536,/g3t1_1,,success
Status,526,13618707506,/g4t1,,fail
Status,527,13637956299,/g3t1_2,,running
Status,528,13638065914,/g3t1_3,,running
Status,529,13638093743,/g3t1_2,,success
Status,530,13638138557,/g3t1_3,,success
Status,531,13638691686,/g4t1,,fail
Status,532,13658924476,/g4t1,,success
Status,533,13678897858,/g4t1,,success
Status,534,13698988723,/g4t1,,success
Status,535,13699165244,/g3t1_1,,running
Status,536,13699336127,/g3t1_1,,success
Status,537,13719084329,/g4t1,,success
Status,538,13738061516,/g3t1_2,,running
Status,539,13738136382,/g3t1_3,,running
Status,540,13738154057,/g3t1_2,,success
Status,541,13738230627,/g3t1_3,,success
Status,542,13738856461,/g4t1,,fail
Status,543,13759308832,/g4t1,,success
Status,544,13779220357,/g4t1,,success
Status,545,13799301356,/g4t1,,success
Status,546,13799325702,/g3t1_1,,running
Status,547,13799426848,/g3t1_1,,success
Status,548,13819442394,/g4t1,,fail
Status,549,13838084994,/g3t1_3,,running
Status,550,13838152769,/g3t1_2,,running
Status,551,13838188287,/g3t1_2,,success
Status,552,13838310651,/g3t1_3,,success
Status,553,13839326304,/g4t1,,fail
Status,554,13859557984,/g4t1,,success
Status,555,13879650040,/g4t1,,success
Status,556,13899446138,/g3t1_1,,running
Status,557,13899546255,/g4t1,,success
Status,558,13899562910,/g3t1_1,,success
Status,559,13919714007,/g4t1,,success
Status,560,13938266885,/g3t1_2,,running
Status,561,13938284514,/g3t1_3,,running
Status,562,13938296171,/g3t1_3,,success
Status,563,13938316012,/g3t1_2,,success
Status,564,13939678112,/g4t1,,fail
Status,565,13959936775,/g4t1,,success
Status,566,13979969262,/g4t1,,success
Status,567,13999510329,/g3t1_1,,running
Status,568,13999578703,/g3t1_1,,success
Status,569,13999897042,/g4t1,,fail
Status,570,14020167561,/g4t1,,success
Status,571,14038429793,/g3t1_2,,running
Status,572,14038501629,/g3t1_3,,running
Status,573,14038517405,/g3t1_3,,success
Status,574,14038537336,/g3t1_2,,success
Status,575,14040008520,/g4t1,,fail
Status,576,14060135366,/g4t1,,success
Status,577,14080240813,/g4t1,,success
Status,578,14099566324,/g3t1_1,,running
Status,579,14099746191,/g3t1_1,,success
Status,580,14100292204,/g4t1,,success
Status,581,14120519045,/g4t1,,success
Status,582,14138640270,/g3t1_3,,running
Status,583,14138661002,/g3t1_3,,success
Status,584,14138677449,/g3t1_2,,running
Status,585,14138683465,/g3t1_2,,success
Status,586,14140632486,/g4t1,,fail
Status,587,14160740751,/g4t1,,success
Status,588,14180794471,/g4t1,,success
Status,589,14199703449,/g3t1_1,,running
Status,590,14199724217,/g3t1_1,,success
Status,591,14200781289,/g4t1,,fail
Status,592,14221049444,/g4t1,,success
Status,593,14238550429,/g3t1_3,,running
Status,594,14238581377,/g3t1_2,,running
Status,595,14238621139,/g3t1_3,,success
Status,596,14238721407,/g3t1_2,,success
Status,597,14240941629,/g4t1,,fail
Status,598,14261243842,/g4t1,,success
Status,599,14281375019,/g4t1,,success
Status,600,14299721389,/g3t1_1,,running
Status,601,14299742152,/g3t1_1,,success
Status,602,14301182741,/g4t1,,success
Status,603,14321406732,/g4t1,,success
Status,604,14338599363,/g3t1_2,,running
Status,605,14338629627,/g3t1_3,,running
Status,606,14339308416,/g3t1_2,,success
Status,607,14339331345,/g3t1_3,,success
Status,608,14341525435,/g4t1,,fail
Status,609,14361665068,/g4t1,,success
Status,610,14381757046,/g4t1,,success
Status,611,14399807328,/g3t1_1,,running
Status,612,14399828972,/g3t1_1,,success
Status,613,14401804448,/g4t1,,fail
Status,614,14421976887,/g4t1,,success
Status,615,14438864000,/g3t1_2,,running
Status,616,14438888976,/g3t1_2,,success
Status,617,14438896848,/g3t1_3,,running
Status,618,14438904945,/g3t1_3,,success
Status,619,14442076635,/g4t1,,fail
Status,620,14462080362,/g4t1,,success
Status,621,14482134808,/g4t1,,success
Status,622,14499850801,/g3t1_1,,running
Status,623,14499873127,/g3t1_1,,success
Status,624,14502178575,/g4t1,,success
Status,625,14522363858,/g4t1,,success
Status,626,14538769834,/g3t1_3,,running
Status,627,14538935665,/g3t1_2,,running
Status,628,14538963732,/g3t1_2,,success
Status,629,14539122493,/g3t1_3,,success
Status,630,14542506204,/g4t1,,fail
Status,631,14562628659,/g4t1,,success
Status,632,14582626715,/g4t1,,success
Status,633,14600008627,/g3t1_1,,running
Status,634,14600051043,/g3t1_1,,success
Status,635,14602738287,/g4t1,,fail
Status,636,14622828220,/g4t1,,success
Status,637,14638932995,/g3t1_2,,running
Status,638,14638968775,/g3t1_3,,running
Status,639,14638979921,/g3t1_3,,success
Status,640,14639084208,/g3t1_2,,success
Status,641,14642865872,/g4t1,,fail
Status,642,14662960165,/g4t1,,success
Status,643,14683130726,/g4t1,,success
Status,644,14699974498,/g3t1_1,,running
Status,645,14700093749,/g3t1_1,,success
Status,646,14703025323,/g4t1,,success
Status,647,14723400015,/g4t1,,success
Status,648,14739019756,/g3t1_3,,running
Status,649,14739042041,/g3t1_2,,running
Status,650,14739049207,/g3t1_2,,success
Status,651,14739055097,/g3t1_3,,success
Status,652,14743224217,/g4t1,,fail
Status,653,14763419239,/g4t1,,success
Status,654,14783592164,/g4t1,,success
Status,655,14800003993,/g3t1_1,,running
Status,656,14800140760,/g3t1_1,,success
Status,657,14803545230,/g4t1,,fail
Status,658,14823810368,/g4t1,,success
Status,659,14839043568,/g3t1_2,,running
Status,660,14839064482,/g3t1_2,,success
Status,661,14839071246,/g3t1_3,,running
Status,662,14839077020,/g3t1_3,,success
Status,663,14843810433,/g4t1,,fail
Status,664,14864020236,/g4t1,,success
Status,665,14884101160,/g4t1,,success
Status,666,14900111922,/g3t1_1,,running
Status,667,14900186382,/g3t1_1,,success
Status,668,14904050921,/g4t1,,success
Status,669,14924333539,/g4t1,,success
Status,670,14939171352,/g3t1_3,,running
Status,671,14939193779,/g3t1_2,,running
Status,672,14939203358,/g3t1_2,,success
Status,673,14939210514,/g3t1_3,,success
Status,674,14944282877,/g4t1,,fail
Status,675,14964401854,/g4t1,,success
Status,676,14984478588,/g4t1,,success
Status,677,15000262860,/g3t1_1,,running
Status,678,15000285233,/g3t1_1,,success
Status,679,15004562682,/g4t1,,fail
Status,680,15024720939,/g4t1,,success
Status,681,15039117638,/g3t1_3,,running
Status,682,15039145282,/g3t1_2,,running
Status,683,15039258040,/g3t1_3,,success
Status,684,15039276254,/g3t1_2,,success
Status,685,15044723842,/g4t1,,fail
Status,686,15064860322,/g4t1,,success
Status,687,15084975665,/g4t1,,success
Status,688,15100275956,/g3t1_1,,running
Status,689,15100418112,/g3t1_1,,success
Status,690,15104926833,/g4t1,,success
Status,691,15125082239,/g4t1,,success
Status,692,15139266172,/g3t1_2,,running
Status,693,15139293381,/g3t1_2,,success
Status,694,15139302044,/g3t1_3,,running
Status,695,15139541772,/g3t1_3,,success
Status,696,15145124033,/g4t1,,fail
Status,697,15165322641,/g4t1,,success
Status,698,15185443573,/g4t1,,success
Status,699,15200316088,/g3t1_1,,running
Status,700,15200426817,/g3t1_1,,success
Status,701,15205389693,/g4t1,,fail
Status,702,15225568353,/g4t1,,success
Status,703,15239287905,/g3t1_2,,running
Status,704,15239309252,/g3t1_3,,running
Status,705,15239315759,/g3t1_3,,success
Status,706,15239321317,/g3t1_2,,success
Status,707,15245670864,/g4t1,,fail
Status,708,15265792371,/g4t1,,success
Status,709,15285948288,/g4t1,,success
Status,710,15300417853,/g3t1_1,,running
Status,711,15300439103,/g3t1_1,,success
Status,712,15305942010,/g4t1,,success
Status,713,15326053514,/g4t1,,success
Status,714,15339344141,/g3t1_2,,running
Status,715,15339368530,/g3t1_3,,running
Status,716,15339378348,/g3t1_2,,success
Status,717,15339495149,/g3t1_3,,success
Status,718,15346208359,/g4t1,,fail
Status,719,15366265766,/g4t1,,success
Status,720,15386319382,/g4t1,,success
Status,721,15400484439,/g3t1_1,,running
Status,722,15400657769,/g3t1_1,,success
Status,723,15406374931,/g4t1,,fail
Status,724,15426554707,/g4t1,,success
Status,725,15439436539,/g3t1_2,,running
Status,726,15439456143,/g3t1_3,,running
Status,727,15439468525,/g3t1_2,,success
Status,728,15439589984,/g3t1_3,,success
Status,729,15446726499,/g4t1,,fail
Status,730,15466722836,/g4t1,,success
Status,731,15486877328,/g4t1,,success
Status,732,15500624279,/g3t1_1,,running
Status,733,15500644457,/g3t1_1,,success
Status,734,15506974864,/g4t1,,success
Status,735,15527010825,/g4t1,,success
Status,736,15539510471,/g3t1_2,,running
Status,737,15539562073,/g3t1_3,,running
Status,738,15539623410,/g3t1_2,,success
Status,739,15539714679,/g3t1_3,,success
Status,740,15547154565,/g4t1,,fail
Status,741,15567307383,/g4t1,,success
Status,742,15587405382,/g4t1,,success
Status,743,15600600752,/g3t1_1,,running
Status,744,15600620620,/g3t1_1,,success
Status,745,15607451575,/g4t1,,fail
Status,746,15627484947,/g4t1,,success
Status,747,15639674072,/g3t1_2,,running
Status,748,15639717699,/g3t1_3,,running
Status,749,15639980587,/g3t1_2,,success
Status,750,15640015097,/g3t1_3,,success
Status,751,15647664397,/g4t1,,fail
Status,752,15667775675,/g4t1,,success
Status,753,15687892058,/g4t1,,success
Status,754,15700741817,/g3t1_1,,running
Status,755,15700760799,/g3t1_1,,success
Status,756,15707798222,/g4t1,,success
Status,757,15727992218,/g4t1,,success
Status,758,15739652217,/g3t1_2,,running
Status,759,15739681235,/g3t1_3,,running
Status,760,15739833334,/g3t1_3,,success
Status,761,15739851721,/g3t1_2,,success
Status,762,15748135426,/g4t1,,fail
Status,763,15768270721,/g4t1,,success
Status,764,15788321531,/g4t1,,success
Status,765,15800838459,/g3t1_1,,running
Status,766,15800858683,/g3t1_1,,success
Status,767,15808359153,/g4t1,,fail
Status,768,15828503372,/g4t1,,success
Status,769,15839736400,/g3t1_2,,running
Status,770,15839767797,/g3t1_3,,running
Status,771,15839777454,/g3t1_2,,success
Status,772,15840049939,/g3t1_3,,success
Status,773,15848534469,/g4t1,,fail
Status,774,15868648375,/g4t1,,success
Status,775,15888749238,/g4t1,,success
Status,776,15900829231,/g3t1_1,,running
Status,777,15900960929,/g3t1_1,,success
Status,778,15908819559,/g4t1,,success
Status,779,15928905934,/g4t1,,success
Status,780,15939980005,/g3t1_2,,running
Status,781,15940003225,/g3t1_3,,running
Status,782,15940089485,/g3t1_3,,success
Status,783,15940117768,/g3t1_2,,success
Status,784,15948913989,/g4t1,,fail
Status,785,15969154346,/g4t1,,success
Status,786,15989246864,/g4t1,,success
Status,787,16000916985,/g3t1_1,,running
Status,788,16000938600,/g3t1_1,,success
Status,789,16009419408,/g4t1,,fail
Status,790,16029428972,/g4t1,,success
Status,791,16040204089,/g3t1_2,,running
Status,792,16040227900,/g3t1_2,,success
Status,793,16040234338,/g3t1_3,,running
Status,794,16040240050,/g3t1_3,,success
Status,795,16049480687,/g4t1,,fail
Status,796,16069615562,/g4t1,,success
Status,797,16089715655,/g4t1,,success
Status,798,16101033038,/g3t1_1,,running
Status,799,16101054251,/g3t1_1,,success
Status,800,16109769649,/g4t1,,success
Status,801,16129881715,/g4t1,,success
Status,802,16140277409,/g3t1_3,,running
Status,803,16140300009,/g3t1_2,,running
Status,804,16140392468,/g3t1_2,,success
Status,805,16140414646,/g3t1_3,,success
Status,806,16150035450,/g4t1,,fail
Status,807,16170128124,/g4t1,,success
Status,808,16190254252,/g4t1,,success
Status,809,16201079418,/g3t1_1,,running
Status,810,16201100840,/g3t1_1,,success
Status,811,16210145068,/g4t1,,fail
Status,812,16230358571,/g4t1,,success
Status,813,16240213821,/g3t1_3,,running
Status,814,16240233716,/g3t1_2,,running
Status,815,16240240000,/g3t1_3,,success
Status,816,16240245791,/g3t1_2,,success
Status,817,16250333581,/g4t1,,fail
Status,818,16270485091,/g4t1,,success
Status,819,16290425863,/g4t1,,success
Status,820,16301080179,/g3t1_1,,running
Status,821,16301097438,/g3t1_1,,success
Status,822,16310703686,/g4t1,,success
Status,823,16330769332,/g4t1,,success
Status,824,16340208117,/g3t1_3,,running
Status,825,16340232679,/g3t1_2,,running
Status,826,16340328909,/g3t1_3,,success
Status,827,16340346337,/g3t1_2,,success
Status,828,16350846175,/g4t1,,fail
Status,829,16370948635,/g4t1,,success
Status,830,16390963797,/g4t1,,success
Status,831,16401054383,/g3t1_1,,running
Status,832,16401247272,/g3t1_1,,success
Status,833,16411069520,/g4t1,,fail
Status,834,16431187019,/g4t1,,success
Status,835,16440172113,/g3t1_3,,running
Status,836,16440194383,/g3t1_2,,running
Status,837,16440478973,/g3t1_3,,success
Status,838,16440496669,/g3t1_2,,success
Status,839,16451256084,/g4t1,,fail
Status,840,16471336175,/g4t1,,success
Status,841,16491535322,/g4t1,,success
Status,842,16501352307,/g3t1_1,,running
Status,843,16501377551,/g3t1_1,,success
Status,844,16511571646,/g4t1,,success
Status,845,16531662904,/g4t1,,success
Status,846,16540496424,/g3t1_3,,running
Status,847,16540521614,/g3t1_2,,running
Status,848,16540542171,/g3t1_3,,success
Status,849,16540550275,/g3t1_2,,success
Status,850,16551822312,/g4t1,,fail
Status,851,16571913834,/g4t1,,success
Status,852,16591977310,/g4t1,,success
Status,853,16601387886,/g3t1_1,,running
Status,854,16601549732,/g3t1_1,,success
Status,855,16612038590,/g4t1,,fail
Status,856,16632126058,/g4t1,,success
Status,857,16641375304,/g3t1_2,,running
Status,858,16641407286,/g3t1_2,,success
Status,859,16641439945,/g3t1_3,,running
Status,860,16641450561,/g3t1_3,,success
Status,861,16652113615,/g4t1,,fail
Status,862,16672301368,/g4t1,,success
Status,863,16692348307,/g4t1,,success
Status,864,16701484429,/g3t1_1,,running
Status,865,16701509501,/g3t1_1,,success
Status,866,16712486537,/g4t1,,success
Status,867,16732528990,/g4t1,,success
Status,868,16740616141,/g3t1_2,,running
Status,869,16740642147,/g3t1_3,,running
Status,870,16740729915,/g3t1_3,,success
Status,871,16740808904,/g3t1_2,,success
Status,872,16752570595,/g4t1,,fail
Status,873,16772619234,/g4t1,,success
Status,874,16792699756,/g4t1,,success
Status,875,16801483947,/g3t1_1,,running
Status,876,16801693044,/g3t1_1,,success
Status,877,16812691445,/g4t1,,fail
Status,878,16832851025,/g4t1,,success
Status,879,16840700062,/g3t1_2,,running
Status,880,16840907151,/g3t1_3,,running
Status,881,16840934116,/g3t1_2,,success
Status,882,16841005838,/g3t1_3,,success
Status,883,16852980518,/g4t1,,fail
Status,884,16873016088,/g4t1,,success
Status,885,16893061040,/g4t1,,success
Status,886,16901571317,/g3t1_1,,running
Status,887,16901654147,/g3t1_1,,success
Status,888,16913131167,/g4t1,,success
Status,889,16933144245,/g4t1,,success
Status,890,16940824908,/g3t1_2,,running
Status,891,16940856361,/g3t1_3,,running
Status,892,16940922716,/g3t1_3,,success
Status,893,16940955041,/g3t1_2,,success
Status,894,16953191701,/g4t1,,fail
Status,895,16973308316,/g4t1,,success
Status,896,16993352877,/g4t1,,success
Status,897,17001731802,/g3t1_1,,running
Status,898,17001821276,/g3t1_1,,success
Status,899,17013456360,/g4t1,,fail
Status,900,17033474475,/g4t1,,success
Status,901,17041110721,/g3t1_3,,running
Status,902,17041142709,/g3t1_2,,running
Status,903,17041168648,/g3t1_3,,success
Status,904,17041393201,/g3t1_2,,success
Status,905,17053615510,/g4t1,,fail
Status,906,17073773460,/g4t1,,success
Status,907,17093788571,/g4t1,,success
Status,908,17101920596,/g3t1_1,,running
Status,909,17102034396,/g3t1_1,,success
Status,910,17113874984,/g4t1,,success
Status,911,17133818071,/g4t1,,success
Status,912,17141172348,/g3t1_3,,running
Status,913,17141206991,/g3t1_2,,running
Status,914,17141425767,/g3t1_3,,success
Status,915,17141451037,/g3t1_2,,success
Status,916,17153903347,/g4t1,,fail
Status,917,17174065889,/g4t1,,success
Status,918,17194078064,/g4t1,,success
Status,919,17201915034,/g3t1_1,,running
Status,920,17202008446,/g3t1_1,,success
Status,921,17214163759,/g4t1,,fail
Status,922,17234081857,/g4t1,,success
Status,923,17241358107,/g3t1_2,,running
Status,924,17241399305,/g3t1_3,,running
Status,925,17241407777,/g3t1_3,,success
Status,926,17241414362,/g3t1_2,,success
Status,927,17254254678,/g4t1,,fail
Status,928,17274396655,/g4t1,,success
Status,929,17294492920,/g4t1,,success
Status,930,17301940363,/g3t1_1,,running
Status,931,17301971520,/g3t1_1,,success
Status,932,17314327621,/g4t1,,success
Status,933,17334468549,/g4t1,,success
Status,934,17341200943,/g3t1_2,,running
Status,935,17341312282,/g3t1_3,,running
Status,936,17341338895,/g3t1_2,,success
Status,937,17341413381,/g3t1_3,,success
Status,938,17354627760,/g4t1,,fail
Status,939,17374657551,/g4t1,,success
Status,940,17394774752,/g4t1,,success
Status,941,17402032938,/g3t1_1,,running
Status,942,17402123120,/g3t1_1,,success
Status,943,17415015882,/g4t1,,fail
Status,944,17434833056,/g4t1,,success
Status,945,17441351449,/g3t1_2,,running
Status,946,17441379069,/g3t1_3,,running
Status,947,17441543470,/g3t1_3,,success
Status,948,17441658819,/g3t1_2,,success
Status,949,17455013242,/g4t1,,fail
Status,950,17475068649,/g4t1,,success
Status,951,17495098502,/g4t1,,success
Status,952,17502073601,/g3t1_1,,running
Status,953,17502181283,/g3t1_1,,success
Status,954,17515169226,/g4t1,,success
Status,955,17535241157,/g4t1,,success
Status,956,17541589429,/g3t1_2,,running
Status,957,17541623075,/g3t1_3,,running
Status,958,17541774670,/g3t1_2,,success
Status,959,17541790262,/g3t1_3,,success
Status,960,17555272968,/g4t1,,fail
Status,961,17575406529,/g4t1,,success
Status,962,17595471117,/g4t1,,success
Status,963,17602277733,/g3t1_1,,running
Status,964,17602343524,/g3t1_1,,success
Status,965,17615526309,/g4t1,,fail
Status,966,17635596628,/g4t1,,success
Status,967,17641666437,/g3t1_2,,running
Status,968,17641697261,/g3t1_3,,running
Status,969,17641740278,/g3t1_2,,success
Status,970,17641816222,/g3t1_3,,success
Status,971,17655599786,/g4t1,,fail
Status,972,17675920736,/g4t1,,success
Status,973,17695972001,/g4t1,,success
Status,974,17702278778,/g3t1_1,,running
Status,975,17702366552,/g3t1_1,,success
Status,976,17716019321,/g4t1,,success
Status,977,17736093920,/g4t1,,success
Status,978,17741841184,/g3t1_2,,running
Status,979,17741863444,/g3t1_3,,running
Status,980,17741894455,/g3t1_3,,success
Status,981,17741902259,/g3t1_2,,success
Status,982,17756165069,/g4t1,,fail
Status,983,17776331143,/g4t1,,success
Status,984,17796596155,/g4t1,,success
Status,985,17802435256,/g3t1_1,,running
Status,986,17802573882,/g3t1_1,,success
Status,987,17816513065,/g4t1,,fail
Status,988,17836617121,/g4t1,,success
Status,989,17841671266,/g3t1_2,,running
Status,990,17841698184,/g3t1_3,,running
Status,991,17841839940,/g3t1_2,,success
Status,992,17841858010,/g3t1_3,,success
Status,993,17856725290,/g4t1,,fail
Status,994,17876775573,/g4t1,,success
Status,995,17896883732,/g4t1,,success
Status,996,17902499961,/g3t1_1,,running
Status,997,17902597014,/g3t1_1,,success
Status,998,17916917017,/g4t1,,success
Status,999,17936994490,/g4t1,,success
Status,1000,17941859023,/g3t1_2,,running
Status,1001,17941887003,/g3t1_3,,running
Status,1002,17941916306,/g3t1_3,,success
Status,1003,17942049019,/g3t1_2,,success
Status,1004,17957294872,/g4t1,,fail
Status,1005,17977243081,/g4t1,,success
Status,1006,17997345493,/g4t1,,success
Status,1007,18002657817,/g3t1_1,,running
Status,1008,18002777199,/g3t1_1,,success
Status,1009,18017394510,/g4t1,,fail
Status,1010,18037548982,/g4t1,,success
Status,1011,18041972207,/g3t1_2,,running
Status,1012,18042040535,/g3t1_3,,running
Status,1013,18042064343,/g3t1_3,,success
Status,1014,18042145149,/g3t1_2,,success
Status,1015,18057622498,/g4t1,,fail
Status,1016,18077773534,/g4t1,,success
Status,1017,18097789097,/g4t1,,success
Status,1018,18102809762,/g3t1_1,,running
Status,1019,18102852640,/g3t1_1,,success
Status,1020,18117898407,/g4t1,,success
Status,1021,18138011799,/g4t1,,success
Status,1022,18142152929,/g3t1_3,,running
Status,1023,18142173654,/g3t1_2,,running
Status,1024,18142193513,/g3t1_2,,success
Status,1025,18142199638,/g3t1_3,,success
Status,1026,18158043853,/g4t1,,fail
Status,1027,18178174680,/g4t1,,success
Status,1028,18198301983,/g4t1,,success
Status,1029,18202795854,/g3t1_1,,running
Status,1030,18202892470,/g3t1_1,,success
Status,1031,18218432468,/g4t1,,fail
Status,1032,18238437261,/g4t1,,success
Status,1033,18242045694,/g3t1_2,,running
Status,1034,18242212980,/g3t1_3,,running
Status,1035,18242296256,/g3t1_2,,success
Status,1036,18242422100,/g3t1_3,,success
Status,1037,18258619632,/g4t1,,fail
Status,1038,18278666823,/g4t1,,success
Status,1039,18298806498,/g4t1,,success
Status,1040,18302945554,/g3t1_1,,running
Status,1041,18302969358,/g3t1_1,,success
Status,1042,18318978450,/g4t1,,success
Status,1043,18338978457,/g4t1,,success
Status,1044,18342230380,/g3t1_2,,running
Status,1045,18342255922,/g3t1_3,,running
Status,1046,18342288563,/g3t1_3,,success
Status,1047,18342361439,/g3t1_2,,success
Status,1048,18359148273,/g4t1,,fail
Status,1049,18379175728,/g4t1,,success
Status,1050,18399266392,/g4t1,,success
Status,1051,18402953723,/g3t1_1,,running
Status,1052,18403079669,/g3t1_1,,success
Status,1053,18419390317,/g4t1,,fail
Status,1054,18439469029,/g4t1,,success
Status,1055,18442226183,/g3t1_2,,running
Status,1056,18442291366,/g3t1_3,,running
Status,1057,18442491936,/g3t1_3,,success
Status,1058,18442540454,/g3t1_2,,success
Status,1059,18459481596,/g4t1,,fail
Status,1060,18479630595,/g4t1,,success
Status,1061,18499697324,/g4t1,,success
Status,1062,18503044666,/g3t1_1,,running
Status,1063,18503181917,/g3t1_1,,success
Status,1064,18519872957,/g4t1,,success
Status,1065,18540014179,/g4t1,,success
Status,1066,18542475665,/g3t1_2,,running
Status,1067,18542565802,/g3t1_3,,running
Status,1068,18542582564,/g3t1_3,,success
Status,1069,18542599955,/g3t1_2,,success
Status,1070,18560008723,/g4t1,,fail
Status,1071,18580229247,/g4t1,,success
Status,1072,18600120934,/g4t1,,success
Status,1073,18603189774,/g3t1_1,,running
Status,1074,18603323117,/g3t1_1,,success
Status,1075,18620249740,/g4t1,,fail
Status,1076,18640421241,/g4t1,,success
Status,1077,18642376144,/g3t1_2,,running
Status,1078,18642430638,/g3t1_3,,running
Status,1079,18642619647,/g3t1_2,,success
Status,1080,18642737182,/g3t1_3,,success
Status,1081,18660518639,/g4t1,,fail
Status,1082,18680635389,/g4t1,,success
Status,1083,18700704507,/g4t1,,success
Status,1084,18703229062,/g3t1_1,,running
Status,1085,18703322703,/g3t1_1,,success
Status,1086,18720790667,/g4t1,,success
Status,1088,18740972674,/g4t1,,success
Status,1089,18742507790,/g3t1_2,,running
Status,1090,18742533191,/g3t1_3,,running
Status,1091,18742556372,/g3t1_2,,success
Status,1092,18742716168,/g3t1_3,,success
Status,1093,18761065682,/g4t1,,fail
Status,1094,18781102682,/g4t1,,success
Status,1095,18801231421,/g4t1,,success
Status,1096,18803432278,/g3t1_1,,running
Status,1097,18803557600,/g3t1_1,,fail
Status,1098,18821257329,/g4t1,,success
Status,1099,18841404833,/g4t1,,success
Status,1100,18842549401,/g3t1_2,,running
Status,1101,18842608638,/g3t1_3,,running
Status,1102,18842693476,/g3t1_2,,success
Status,1103,18842717125,/g3t1_3,,success
Status,1104,18861487668,/g4t1,,success
Status,1105,18881609277,/g4t1,,success
Status,1106,18901645673,/g4t1,,success
Status,1107,18903411553,/g3t1_1,,running
Status,1108,18903523345,/g3t1_1,,fail
Status,1109,18921786894,/g4t1,,success
Status,1111,18941848558,/g4t1,,success
Status,1112,18942700304,/g3t1_2,,running
Status,1113,18942718537,/g3t1_3,,running
Status,1114,18942796414,/g3t1_2,,success
Status,1115,18942818390,/g3t1_3,,success
Status,1116,18961959677,/g4t1,,success
Status,1117,18982084029,/g4t1,,success
Status,1118,19002151104,/g4t1,,success
Status,1119,19003472218,/g3t1_1,,running
Status,1120,19003533144,/g3t1_1,,fail
Status,1121,19022096909,/g4t1,,success
Status,1122,19042262328,/g4t1,,success
Status,1123,19042689350,/g3t1_2,,running
Status,1124,19042805176,/g3t1_3,,running
Status,1125,19042969274,/g3t1_2,,success
Status,1126,19042994556,/g3t1_3,,success
Status,1127,19062370818,/g4t1,,success
Status,1128,19082567484,/g4t1,,success
Status,1129,19102554299,/g4t1,,success
Status,1130,19103525684,/g3t1_1,,running
Status,1131,19103634080,/g3t1_1,,fail
Status,1132,19122626350,/g4t1,,success
Status,1134,19142829938,/g4t1,,success
Status,1135,19142891433,/g3t1_3,,running
Status,1136,19142910398,/g3t1_2,,running
Status,1137,19142920247,/g3t1_3,,success
Status,1138,19143187080,/g3t1_2,,success
Status,1139,19162841607,/g4t1,,success
Status,1140,19183252210,/g4t1,,success
Status,1141,19203090067,/g4t1,,success
Status,1142,19203722527,/g3t1_1,,running
Status,1143,19203742035,/g3t1_1,,fail
Status,1144,19223045646,/g4t1,,success
Status,1145,19242887263,/g3t1_2,,running
Status,1146,19242955284,/g3t1_3,,running
Status,1147,19243124931,/g3t1_3,,success
Status,1148,19243163015,/g3t1_2,,success
Status,1149,19243247915,/g4t1,,success
Status,1150,19263283610,/g4t1,,success
Status,1151,19283485271,/g4t1,,success
Status,1152,19303574754,/g4t1,,success
Status,1153,19303834647,/g3t1_1,,running
Status,1154,19303855888,/g3t1_1,,fail
Status,1155,19323823512,/g4t1,,success
Status,1157,19342987784,/g3t1_2,,running
Status,1158,19343005508,/g3t1_3,,running
Status,1159,19343012576,/g3t1_2,,success
Status,1160,19343088617,/g3t1_3,,success
Status,1161,19343534949,/g4t1,,success
Status,1162,19363847591,/g4t1,,success
Status,1163,19383947899,/g4t1,,success
Status,1164,19403988090,/g3t1_1,,running
Status,1165,19404009837,/g4t1,,success
Status,1166,19404016910,/g3t1_1,,fail
Status,1167,19424270161,/g4t1,,success
Status,1168,19442976711,/g3t1_2,,running
Status,1169,19443061665,/g3t1_3,,running
Status,1170,19443130297,/g3t1_2,,success
Status,1171,19443170119,/g3t1_3,,success
Status,1172,19444067813,/g4t1,,success
Status,1173,19464277538,/g4t1,,success
Status,1174,19484344637,/g4t1,,success
Status,1175,19504041636,/g3t1_1,,running
Status,1176,19504071310,/g3t1_1,,fail
Status,1177,19504405211,/g4t1,,success
Status,1178,19524727145,/g4t1,,success
Status,1180,19543128315,/g3t1_2,,running
Status,1181,19543155996,/g3t1_3,,running
Status,1182,19543180137,/g3t1_2,,success
Status,1183,19543189107,/g3t1_3,,success
Status,1184,19544522986,/g4t1,,success
Status,1185,19564795689,/g4t1,,success
Status,1186,19584874617,/g4t1,,success
Status,1187,19604194112,/g3t1_1,,running
Status,1188,19604214518,/g3t1_1,,fail
Status,1189,19604890409,/g4t1,,success
Status,1190,19625067156,/g4t1,,success
Status,1191,19643145101,/g3t1_2,,running
Status,1192,19643175952,/g3t1_3,,running
Status,1193,19643207278,/g3t1_2,,success
Status,1194,19643218968,/g3t1_3,,success
Status,1195,19644845713,/g4t1,,success
Status,1196,19665131641,/g4t1,,success
Status,1197,19685113680,/g4t1,,success
Status,1198,19704233205,/g3t1_1,,running
Status,1199,19704333827,/g3t1_1,,fail
Status,1200,19705232868,/g4t1,,success
Status,1201,19725432421,/g4t1,,success
Status,1203,19743224540,/g3t1_2,,running
Status,1204,19743266110,/g3t1_3,,running
Status,1205,19743316295,/g3t1_2,,success
Status,1206,19743499629,/g3t1_3,,success
Status,1207,19745261346,/g4t1,,success
Status,1208,19765650819,/g4t1,,success
Status,1209,19785738583,/g4t1,,success
Status,1210,19804306586,/g3t1_1,,running
Status,1211,19804559234,/g3t1_1,,fail
Status,1212,19805630431,/g4t1,,success
Status,1213,19825966710,/g4t1,,success
Status,1214,19843344669,/g3t1_2,,running
Status,1215,19843368974,/g3t1_3,,running
Status,1216,19843406496,/g3t1_2,,success
Status,1217,19843550824,/g3t1_3,,success
Status,1218,19845703620,/g4t1,,success
Status,1219,19866077145,/g4t1,,success
Status,1220,19886210995,/g4t1,,success
Status,1221,19904444280,/g3t1_1,,running
Status,1222,19904465668,/g3t1_1,,fail
Status,1223,19906064804,/g4t1,,success
Status,1224,19926228516,/g4t1,,success
Status,1226,19943369823,/g3t1_2,,running
Status,1227,19943397011,/g3t1_3,,running
Status,1228,19943435066,/g3t1_2,,success
Status,1229,19943675645,/g3t1_3,,success
Status,1230,19946144820,/g4t1,,success
Status,1231,19966440230,/g4t1,,success
Status,1232,19986647824,/g4t1,,success
Status,1233,20004602018,/g3t1_1,,running
Status,1234,20004624468,/g3t1_1,,fail
Status,1235,20006625635,/g4t1,,success
Status,1236,20026812996,/g4t1,,success
Status,1237,20043582895,/g3t1_2,,running
Status,1238,20043610996,/g3t1_3,,running
Status,1239,20043633918,/g3t1_2,,success
Status,1240,20043642655,/g3t1_3,,success
Status,1241,20046700946,/g4t1,,success
Status,1242,20066880133,/g4t1,,success
Status,1243,20086987680,/g4t1,,success
Status,1244,20104645697,/g3t1_1,,running
Status,1245,20104667949,/g3t1_1,,fail
Status,1246,20107009405,/g4t1,,success
Status,1247,20127163450,/g4t1,,success
Status,1249,20143531854,/g3t1_2,,running
Status,1250,20143567099,/g3t1_3,,running
Status,1251,20143589400,/g3t1_2,,success
Status,1252,20143772509,/g3t1_3,,success
Status,1253,20147052976,/g4t1,,success
Status,1254,20167406136,/g4t1,,success
Status,1255,20187481901,/g4t1,,success
Status,1256,20204740263,/g3t1_1,,running
Status,1257,20204788930,/g3t1_1,,fail
Status,1258,20207618132,/g4t1,,success
Status,1259,20227544723,/g4t1,,success
Status,1260,20243623593,/g3t1_2,,running
Status,1261,20243694264,/g3t1_3,,running
Status,1262,20243707956,/g3t1_2,,success
Status,1263,20243718039,/g3t1_3,,success
Status,1264,20247644292,/g4t1,,success
Status,1265,20267837848,/g4t1,,success
Status,1266,20287879130,/g4t1,,success
Status,1267,20304810198,/g3t1_1,,running
Status,1268,20304841809,/g3t1_1,,fail
Status,1269,20308186625,/g4t1,,success
Status,1270,20328167377,/g4t1,,success
Status,1272,20343784070,/g3t1_2,,running
Status,1273,20343814568,/g3t1_3,,running
Status,1274,20343837047,/g3t1_2,,success
Status,1275,20343936004,/g3t1_3,,success
Status,1276,20348078863,/g4t1,,success
Status,1277,20368317161,/g4t1,,success
Status,1278,20388535946,/g4t1,,success
Status,1279,20404928577,/g3t1_1,,running
Status,1280,20404950269,/g3t1_1,,fail
Status,1281,20408460416,/g4t1,,success
Status,1282,20428641174,/g4t1,,success
Status,1283,20443854538,/g3t1_2,,running
Status,1284,20443895077,/g3t1_3,,running
Status,1285,20443905977,/g3t1_2,,success
Status,1286,20443967063,/g3t1_3,,success
Status,1287,20448623217,/g4t1,,success
Status,1288,20468882180,/g4t1,,success
Status,1289,20488961544,/g4t1,,success
Status,1290,20505041732,/g3t1_1,,running
Status,1291,20505063481,/g3t1_1,,fail
Status,1292,20508856266,/g4t1,,success
Status,1293,20529100841,/g4t1,,success
Status,1295,20543838025,/g3t1_2,,running
Status,1296,20543868853,/g3t1_3,,running
Status,1297,20543904964,/g3t1_2,,success
Status,1298,20543994083,/g3t1_3,,success
Status,1299,20549045370,/g4t1,,success
Status,1300,20569186958,/g4t1,,success
Status,1301,20589234221,/g4t1,,success
Status,1302,20605052925,/g3t1_1,,running
Status,1303,20605148428,/g3t1_1,,fail
Status,1304,20609453429,/g4t1,,success
Status,1305,20629505195,/g4t1,,success
Status,1306,20643910803,/g3t1_2,,running
Status,1307,20644044051,/g3t1_3,,running
Status,1308,20644113254,/g3t1_2,,success
Status,1309,20644374739,/g3t1_3,,success
Status,1310,20649455011,/g4t1,,success
Status,1311,20669600086,/g4t1,,success
Status,1312,20689779237,/g4t1,,success
Status,1313,20705178469,/g3t1_1,,running
Status,1314,20705201077,/g3t1_1,,fail
Status,1315,20709834250,/g4t1,,success
Status,1316,20729827555,/g4t1,,success
Status,1318,20743986992,/g3t1_2,,running
Status,1319,20744016130,/g3t1_3,,running
Status,1320,20744052066,/g3t1_2,,success
Status,1321,20744316715,/g3t1_3,,success
Status,1322,20749905408,/g4t1,,success
Status,1323,20770099550,/g4t1,,success
Status,1324,20790234586,/g4t1,,success
Status,1325,20805330178,/g3t1_1,,running
Status,1326,20805354476,/g3t1_1,,fail
Status,1327,20810314919,/g4t1,,success
Status,1328,20830393503,/g4t1,,success
Status,1329,20844015809,/g3t1_2,,running
Status,1330,20844044065,/g3t1_3,,running
Status,1331,20844216283,/g3t1_2,,success
Status,1332,20844236677,/g3t1_3,,success
Status,1333,20850333228,/g4t1,,success
Status,1334,20870604888,/g4t1,,success
Status,1335,20890682935,/g4t1,,success
Status,1336,20905380725,/g3t1_1,,running
Status,1337,20905402305,/g3t1_1,,fail
Status,1338,20910865432,/g4t1,,success
Status,1339,20931009092,/g4t1,,success
Status,1341,20944144791,/g3t1_2,,running
Status,1342,20944171605,/g3t1_3,,running
Status,1343,20944387622,/g3t1_2,,success
Status,1344,20944410338,/g3t1_3,,success
Status,1345,20950966105,/g4t1,,success
Status,1346,20971105531,/g4t1,,success
Status,1347,20991192757,/g4t1,,success
Status,1348,21005462531,/g3t1_1,,running
Status,1349,21005506272,/g3t1_1,,fail
Status,1350,21011109411,/g4t1,,success
Status,1351,21031300333,/g4t1,,success
Status,1352,21044217084,/g3t1_2,,running
Status,1353,21044360918,/g3t1_3,,running
Status,1354,21044379916,/g3t1_2,,success
Status,1355,21044393371,/g3t1_3,,success
Status,1356,21051359839,/g4t1,,success
Status,1357,21071443262,/g4t1,,success
Status,1358,21091673950,/g4t1,,success
Status,1359,21105505947,/g3t1_1,,running
Status,1360,21105528666,/g3t1_1,,fail
Status,1361,21111581941,/g4t1,,success
Status,1362,21131693747,/g4t1,,success
Status,1364,21144290932,/g3t1_2,,running
Status,1365,21144313992,/g3t1_3,,running
Status,1366,21144364096,/g3t1_3,,success
Status,1367,21144509547,/g3t1_2,,success
Status,1368,21151690868,/g4t1,,success
Status,1369,21172015051,/g4t1,,success
Status,1370,21192180979,/g4t1,,success
Status,1371,21205666623,/g3t1_1,,running
Status,1372,21205735027,/g3t1_1,,fail
Status,1373,21212261058,/g4t1,,success
Status,1374,21232215180,/g4t1,,success
Status,1375,21244553824,/g3t1_3,,running
Status,1376,21244574005,/g3t1_2,,running
Status,1377,21244586545,/g3t1_2,,success
Status,1378,21244603769,/g3t1_3,,success
Status,1379,21252271754,/g4t1,,success
Status,1380,21272505305,/g4t1,,success
Status,1381,21292470583,/g4t1,,success
Status,1382,21305797258,/g3t1_1,,running
Status,1383,21305825012,/g3t1_1,,fail
Status,1384,21312617380,/g4t1,,success
Status,1385,21332570697,/g4t1,,success
Status,1387,21344482007,/g3t1_3,,running
Status,1388,21344511308,/g3t1_2,,running
Status,1389,21344538841,/g3t1_3,,success
Status,1390,21344629149,/g3t1_2,,success
Status,1391,21352600596,/g4t1,,success
Status,1392,21372919236,/g4t1,,success
Status,1393,21393006984,/g4t1,,success
Status,1394,21406086977,/g3t1_1,,running
Status,1395,21406112744,/g3t1_1,,fail
Status,1396,21413038165,/g4t1,,success
Status,1397,21433141647,/g4t1,,success
Status,1398,21444837519,/g3t1_3,,running
Status,1399,21444861853,/g3t1_2,,running
Status,1400,21444868584,/g3t1_3,,success
Status,1401,21444874477,/g3t1_2,,success
Status,1402,21453228742,/g4t1,,success
Status,1403,21473331896,/g4t1,,success
Status,1404,21493429689,/g4t1,,success
Status,1405,21505918837,/g3t1_1,,running
Status,1406,21505938356,/g3t1_1,,fail
Status,1407,21513514122,/g4t1,,success
Status,1408,21533572354,/g4t1,,success
Status,1410,21544666424,/g3t1_2,,running
Status,1411,21544890074,/g3t1_3,,running
Status,1412,21544912176,/g3t1_2,,success
Status,1413,21544972775,/g3t1_3,,success
Status,1414,21553695097,/g4t1,,success
Status,1415,21573801789,/g4t1,,success
Status,1416,21593945430,/g4t1,,success
Status,1417,21606057907,/g3t1_1,,running
Status,1418,21606079963,/g3t1_1,,fail
Status,1419,21614029425,/g4t1,,success
Status,1420,21634079823,/g4t1,,success
Status,1421,21644758682,/g3t1_2,,running
Status,1422,21644793118,/g3t1_3,,running
Status,1423,21644801089,/g3t1_3,,success
Status,1424,21644807435,/g3t1_2,,success
Status,1425,21654167956,/g4t1,,success
Status,1426,21674294342,/g4t1,,success
Status,1427,21694393209,/g4t1,,success
Status,1428,21706114621,/g3t1_1,,running
Status,1429,21706136325,/g3t1_1,,fail
Status,1430,21714392357,/g4t1,,success
Status,1431,21734539464,/g4t1,,success
Status,1433,21744874410,/g3t1_2,,running
Status,1434,21744894204,/g3t1_3,,running
Status,1435,21744923747,/g3t1_2,,success
Status,1436,21744937559,/g3t1_3,,success
Status,1437,21754525651,/g4t1,,success
Status,1438,21774856486,/g4t1,,success
Status,1439,21794777351,/g4t1,,success
Status,1440,21806329587,/g3t1_1,,running
Status,1441,21806401206,/g3t1_1,,fail
Status,1442,21814843506,/g4t1,,success
Status,1443,21834871450,/g4t1,,success
Status,1444,21844861548,/g3t1_2,,running
Status,1445,21844890120,/g3t1_3,,running
Status,1446,21844978218,/g3t1_2,,success
Status,1447,21844997301,/g3t1_3,,success
Status,1448,21854918125,/g4t1,,success
Status,1449,21875181268,/g4t1,,success
Status,1450,21895119806,/g4t1,,success
Status,1451,21906472222,/g3t1_1,,running
Status,1452,21906505661,/g3t1_1,,fail
Status,1453,21915172732,/g4t1,,success
Status,1455,21935225759,/g4t1,,success
Status,1456,21945204427,/g3t1_2,,running
Status,1457,21945234480,/g3t1_3,,running
Status,1458,21945316553,/g3t1_3,,success
Status,1459,21945331496,/g3t1_2,,success
Status,1460,21955382687,/g4t1,,success
Status,1461,21975458466,/g4t1,,success
Status,1462,21995520010,/g4t1,,success
Status,1463,22006401459,/g3t1_1,,running
Status,1464,22006459537,/g3t1_1,,fail
Status,1465,22015618680,/g4t1,,success
Status,1466,22035709976,/g4t1,,success
Status,1467,22044945480,/g3t1_2,,running
Status,1468,22045123262,/g3t1_3,,running
Status,1469,22045157710,/g3t1_2,,success
Status,1470,22045258056,/g3t1_3,,success
Status,1471,22055909771,/g4t1,,success
Status,1472,22075914266,/g4t1,,success
Status,1473,22096005264,/g4t1,,success
Status,1474,22106510955,/g3t1_1,,running
Status,1475,22106533443,/g3t1_1,,fail
Status,1476,22115992697,/g4t1,,success
Status,1478,22136054163,/g4t1,,success
Status,1479,22145013502,/g3t1_2,,running
Status,1480,22145172351,/g3t1_3,,running
Status,1481,22145209427,/g3t1_2,,success
Status,1482,22145221280,/g3t1_3,,success
Status,1483,22206693844,/g3t1_1,,running
Status,1484,22206715965,/g3t1_1,,fail
Status,1485,22245238167,/g3t1_2,,running
Status,1486,22245264080,/g3t1_2,,success
Status,1487,22245274102,/g3t1_3,,running
Status,1488,22245361597,/g3t1_3,,success
Status,1489,22306743828,/g3t1_1,,running
Status,1490,22306765776,/g3t1_1,,fail
Status,1492,22345270408,/g3t1_2,,running
Status,1493,22345399616,/g3t1_3,,running
Status,1494,22345418266,/g3t1_2,,success
Status,1495,22345504810,/g3t1_3,,success
Status,1496,22406839475,/g3t1_1,,running
Status,1497,22406861805,/g3t1_1,,fail
Status,1498,22445371773,/g3t1_2,,running
Status,1499,22445406603,/g3t1_3,,running
Status,1500,22445420032,/g3t1_2,,success
Status,1501,22445644964,/g3t1_3,,success
Status,1502,22506876292,/g3t1_1,,running
Status,1503,22506907432,/g3t1_1,,fail
Status,1505,22545479209,/g3t1_2,,running
Status,1506,22545590988,/g3t1_3,,running
Status,1507,22545605511,/g3t1_2,,success
Status,1508,22545707476,/g3t1_3,,success
Status,1509,22607049955,/g3t1_1,,running
Status,1510,22607073389,/g3t1_1,,fail
Status,1511,22645555820,/g3t1_2,,running
Status,1512,22645583149,/g3t1_3,,running
Status,1513,22645691146,/g3t1_3,,success
Status,1514,22645709693,/g3t1_2,,success
Status,1515,22706971910,/g3t1_1,,running
Status,1516,22706998602,/g3t1_1,,fail
Status,1518,22745717876,/g3t1_2,,running
Status,1519,22745762782,/g3t1_2,,success
Status,1520,22745775677,/g3t1_3,,running
Status,1521,22745886431,/g3t1_3,,success
Status,1522,22807150229,/g3t1_1,,running
Status,1523,22807173729,/g3t1_1,,fail
Status,1524,22845756778,/g3t1_2,,running
Status,1525,22845786197,/g3t1_3,,running
Status,1526,22845797684,/g3t1_2,,success
Status,1527,22845812222,/g3t1_3,,success
Status,1528,22907130001,/g3t1_1,,running
Status,1529,22907155880,/g3t1_1,,fail
Status,1531,22945815453,/g3t1_2,,running
Status,1532,22945836229,/g3t1_3,,running
Status,1533,22945850860,/g3t1_2,,success
Status,1534,22945984932,/g3t1_3,,success
Status,1535,23007359577,/g3t1_1,,running
Status,1536,23007380912,/g3t1_1,,fail
Status,1537,23045904710,/g3t1_2,,running
Status,1538,23045934755,/g3t1_3,,running
Status,1539,23046045870,/g3t1_3,,success
Status,1540,23046063308,/g3t1_2,,success
Status,1541,23107373755,/g3t1_1,,running
Status,1542,23107395420,/g3t1_1,,fail
Status,1544,23146000641,/g3t1_2,,running
Status,1545,23146024927,/g3t1_3,,running
Status,1546,23146144134,/g3t1_2,,success
Status,1547,23146158119,/g3t1_3,,success
Status,1548,23207407438,/g3t1_1,,running
Status,1549,23207433837,/g3t1_1,,fail
Status,1550,23246129811,/g3t1_2,,running
Status,1551,23246156458,/g3t1_3,,running
Status,1552,23246333273,/g3t1_3,,success
Status,1553,23246353653,/g3t1_2,,success
Status,1554,23307492133,/g3t1_1,,running
Status,1555,23307519491,/g3t1_1,,fail
Status,1557,23346374641,/g3t1_2,,running
Status,1558,23346395103,/g3t1_3,,running
Status,1559,23346430717,/g3t1_2,,success
Status,1560,23346437115,/g3t1_3,,success
Status,1561,23407637568,/g3t1_1,,running
Status,1562,23407665830,/g3t1_1,,fail
Status,1563,23446362388,/g3t1_2,,running
Status,1564,23446391125,/g3t1_3,,running
Status,1565,23446430302,/g3t1_2,,success
Status,1566,23446441216,/g3t1_3,,success
Status,1567,23507650968,/g3t1_1,,running
Status,1568,23507673252,/g3t1_1,,fail
