
Status,1,3445027410,/g4t1,,init
Status,4,8658316366,/g3t1_1,,init
Status,5,8665104259,/g3t1_1,,init
Status,6,8665120659,/g3t1_1,,running
Status,7,8665513052,/g3t1_1,,success
Status,8,8715511468,/g3t1_1,,running
Status,9,8715530580,/g3t1_1,,success
Status,10,8759848871,/g3t1_2,,init
Status,12,8765417393,/g3t1_1,,running
Status,13,8765478193,/g3t1_1,,success
Status,14,8767763223,/g3t1_2,,init
Status,15,8767787629,/g3t1_2,,running
Status,16,8768683108,/g3t1_2,,success
Status,17,8815589773,/g3t1_1,,running
Status,18,8815609169,/g3t1_1,,success
Status,19,8818006397,/g3t1_2,,running
Status,20,8818092040,/g3t1_2,,success
Status,22,8860356825,/g3t1_3,,init
Status,23,8865670260,/g3t1_1,,running
Status,24,8865688791,/g3t1_1,,success
Status,25,8867969906,/g3t1_2,,running
Status,26,8868093603,/g3t1_2,,success
Status,27,8869952737,/g3t1_3,,init
Status,28,8869973108,/g3t1_3,,running
Status,29,8870466310,/g3t1_3,,success
Status,30,8915831558,/g3t1_1,,running
Status,31,8915855792,/g3t1_1,,success
Status,32,8918213922,/g3t1_2,,running
Status,33,8918261235,/g3t1_2,,success
Status,34,8920083697,/g3t1_3,,running
Status,35,8920192583,/g3t1_3,,success
Status,36,8966118377,/g3t1_1,,running
Status,37,8966249437,/g3t1_1,,success
Status,38,8968186849,/g3t1_2,,running
Status,39,8968351044,/g3t1_2,,success
Status,40,8970297330,/g3t1_3,,running
Status,41,8970643176,/g3t1_3,,success
Status,45,9016542178,/g3t1_1,,running
Status,46,9016805617,/g3t1_1,,fail
Status,47,9018246907,/g3t1_2,,running
Status,48,9018410116,/g3t1_2,,fail
Status,49,9020501689,/g3t1_3,,running
Status,50,9020708527,/g3t1_3,,success
Status,51,9063431097,/g4t1,,success
Status,52,9066744557,/g3t1_1,,running
Status,53,9066797767,/g3t1_1,,fail
Status,54,9068410807,/g3t1_2,,running
Status,55,9068561461,/g3t1_2,,fail
Status,56,9070753381,/g3t1_3,,running
Status,57,9071077517,/g3t1_3,,success
Status,58,9116659881,/g3t1_1,,running
Status,59,9116736377,/g3t1_1,,fail
Status,60,9119061383,/g3t1_2,,running
Status,61,9119114799,/g3t1_2,,fail
Status,62,9121223269,/g3t1_3,,running
Status,63,9121537574,/g3t1_3,,success
Status,64,9163840972,/g4t1,,success
Status,65,9166582914,/g3t1_1,,running
Status,66,9166960004,/g3t1_1,,fail
Status,67,9168746926,/g3t1_2,,running
Status,68,9169107369,/g3t1_2,,fail
Status,69,9171086707,/g3t1_3,,running
Status,70,9171556836,/g3t1_3,,success
Status,74,9217255860,/g3t1_1,,running
Status,75,9217465989,/g3t1_1,,fail
Status,76,9219264220,/g3t1_2,,running
Status,77,9219333849,/g3t1_2,,fail
Status,78,9221853202,/g3t1_3,,running
Status,79,9222277961,/g3t1_3,,fail
Status,80,9263972427,/g4t1,,success
Status,81,9266914434,/g3t1_1,,running
Status,82,9267025673,/g3t1_1,,fail
Status,83,9268954774,/g3t1_2,,running
Status,84,9269187280,/g3t1_2,,fail
Status,85,9271587022,/g3t1_3,,running
Status,86,9271646734,/g3t1_3,,success
Status,87,9317406902,/g3t1_1,,running
Status,88,9317905523,/g3t1_1,,success
Status,89,9319330900,/g3t1_2,,running
Status,90,9319399732,/g3t1_2,,fail
Status,91,9322037444,/g3t1_3,,running
Status,92,9322428764,/g3t1_3,,fail
Status,93,9364161263,/g4t1,,success
Status,94,9367378142,/g3t1_1,,running
Status,95,9367870530,/g3t1_1,,success
Status,96,9369406823,/g3t1_2,,running
Status,97,9369847235,/g3t1_2,,fail
Status,98,9372088049,/g3t1_3,,running
Status,99,9372150049,/g3t1_3,,fail
Status,103,9417580274,/g3t1_1,,running
Status,104,9417656392,/g3t1_1,,fail
Status,105,9419414852,/g3t1_2,,running
Status,106,9419470175,/g3t1_2,,fail
Status,107,9421768991,/g3t1_3,,running
Status,108,9421826095,/g3t1_3,,fail
Status,109,9464374190,/g4t1,,success
Status,110,9467177501,/g3t1_1,,running
Status,111,9467226325,/g3t1_1,,fail
Status,112,9469612774,/g3t1_2,,running
Status,113,9469649261,/g3t1_2,,fail
Status,114,9472039817,/g3t1_3,,running
Status,115,9472088612,/g3t1_3,,fail
Status,116,9517289761,/g3t1_1,,running
Status,117,9517321283,/g3t1_1,,fail
Status,118,9519089339,/g3t1_2,,running
Status,119,9519166998,/g3t1_2,,fail
Status,120,9521536296,/g3t1_3,,running
Status,121,9521635688,/g3t1_3,,fail
Status,122,9564333520,/g4t1,,success
Status,123,9567556611,/g3t1_1,,running
Status,124,9567736323,/g3t1_1,,fail
Status,125,9569893083,/g3t1_2,,running
Status,126,9570080399,/g3t1_2,,fail
Status,127,9572354040,/g3t1_3,,running
Status,128,9572416177,/g3t1_3,,fail
Status,132,9617762149,/g3t1_1,,running
Status,133,9617816257,/g3t1_1,,fail
Status,134,9619824996,/g3t1_2,,running
Status,135,9620208256,/g3t1_2,,fail
Status,136,9622391263,/g3t1_3,,running
Status,137,9622458254,/g3t1_3,,fail
Status,138,9664304846,/g4t1,,success
Status,139,9667955364,/g3t1_1,,running
Status,140,9668208467,/g3t1_1,,fail
Status,141,9669649345,/g3t1_2,,running
Status,142,9669693104,/g3t1_2,,fail
Status,143,9671991189,/g3t1_3,,running
Status,144,9672238453,/g3t1_3,,success
Status,145,9718565474,/g3t1_1,,running
Status,146,9718764712,/g3t1_1,,success
Status,147,9720220328,/g3t1_2,,running
Status,148,9720673393,/g3t1_2,,fail
Status,149,9722469992,/g3t1_3,,running
Status,150,9722843208,/g3t1_3,,success
Status,151,9763932655,/g4t1,,success
Status,152,9767580595,/g3t1_1,,running
Status,153,9767606028,/g3t1_1,,success
Status,154,9769483952,/g3t1_2,,running
Status,155,9769576333,/g3t1_2,,fail
Status,156,9772031506,/g3t1_3,,running
Status,157,9772115421,/g3t1_3,,success
Status,161,9817822956,/g3t1_1,,running
Status,162,9817845526,/g3t1_1,,fail
Status,163,9819672917,/g3t1_2,,running
Status,164,9819825332,/g3t1_2,,success
Status,165,9822093534,/g3t1_3,,running
Status,166,9822163678,/g3t1_3,,success
Status,167,9864878024,/g4t1,,success
Status,168,9868199895,/g3t1_1,,running
Status,169,9868556236,/g3t1_1,,fail
Status,170,9870454039,/g3t1_2,,running
Status,171,9870518615,/g3t1_2,,fail
Status,172,9872574956,/g3t1_3,,running
Status,173,9873350295,/g3t1_3,,success
Status,174,9918544948,/g3t1_1,,running
Status,175,9918615880,/g3t1_1,,fail
Status,176,9920449140,/g3t1_2,,running
Status,177,9920536930,/g3t1_2,,fail
Status,178,9922902917,/g3t1_3,,running
Status,179,9923258846,/g3t1_3,,success
Status,180,9964504102,/g4t1,,success
Status,181,9968183962,/g3t1_1,,running
Status,182,9968333342,/g3t1_1,,success
Status,183,9969984786,/g3t1_2,,running
Status,184,9970151513,/g3t1_2,,fail
Status,185,9972407210,/g3t1_3,,running
Status,186,9972698774,/g3t1_3,,success
Status,190,10018348898,/g3t1_1,,running
Status,191,10018413260,/g3t1_1,,fail
Status,192,10020673000,/g3t1_2,,running
Status,193,10020781734,/g3t1_2,,fail
Status,194,10022745544,/g3t1_3,,running
Status,195,10022777117,/g3t1_3,,fail
Status,196,10064378659,/g4t1,,success
Status,197,10068523396,/g3t1_1,,running
Status,198,10068567770,/g3t1_1,,fail
Status,199,10070236020,/g3t1_2,,running
Status,200,10070356799,/g3t1_2,,fail
Status,201,10072826916,/g3t1_3,,running
Status,202,10072858045,/g3t1_3,,fail
Status,203,10119074157,/g3t1_1,,running
Status,204,10119142472,/g3t1_1,,fail
Status,205,10120775201,/g3t1_2,,running
Status,206,10120886790,/g3t1_2,,fail
Status,207,10123192462,/g3t1_3,,running
Status,208,10123549295,/g3t1_3,,success
Status,209,10165134950,/g4t1,,success
Status,210,10169105225,/g3t1_1,,running
Status,211,10169187017,/g3t1_1,,fail
Status,212,10172529072,/g3t1_2,,running
Status,213,10172606791,/g3t1_2,,fail
Status,214,10173364302,/g3t1_3,,running
Status,215,10173687268,/g3t1_3,,fail
Status,219,10218750599,/g3t1_1,,running
Status,220,10218849397,/g3t1_1,,fail
Status,221,10220342513,/g3t1_2,,running
Status,222,10220428615,/g3t1_2,,fail
Status,223,10222939717,/g3t1_3,,running
Status,224,10223109890,/g3t1_3,,fail
Status,225,10264340088,/g4t1,,success
Status,226,10269451005,/g3t1_1,,running
Status,227,10269601520,/g3t1_1,,success
Status,228,10270870746,/g3t1_2,,running
Status,229,10270919339,/g3t1_2,,fail
Status,230,10272970638,/g3t1_3,,running
Status,231,10272989603,/g3t1_3,,fail
Status,232,10319678970,/g3t1_1,,running
Status,233,10320225234,/g3t1_1,,success
Status,234,10321576668,/g3t1_2,,running
Status,235,10321649702,/g3t1_2,,fail
Status,236,10323438414,/g3t1_3,,running
Status,237,10324091807,/g3t1_3,,fail
Status,238,10365069584,/g4t1,,success
Status,239,10369254120,/g3t1_1,,running
Status,240,10369276829,/g3t1_1,,fail
Status,241,10370600651,/g3t1_2,,running
Status,242,10370620574,/g3t1_2,,fail
Status,243,10373075984,/g3t1_3,,running
Status,244,10373174328,/g3t1_3,,fail
Status,248,10419969602,/g3t1_1,,running
Status,249,10420482928,/g3t1_1,,success
Status,250,10421491958,/g3t1_2,,running
Status,251,10421865384,/g3t1_2,,fail
Status,252,10423800067,/g3t1_3,,running
Status,253,10423941655,/g3t1_3,,fail
Status,254,10465402730,/g4t1,,success
Status,255,10469954303,/g3t1_1,,running
Status,256,10470065025,/g3t1_1,,fail
Status,257,10471316653,/g3t1_2,,running
Status,258,10471684596,/g3t1_2,,fail
Status,259,10473845940,/g3t1_3,,running
Status,260,10473973204,/g3t1_3,,fail
Status,261,10520297396,/g3t1_1,,running
Status,262,10520387604,/g3t1_1,,fail
Status,263,10521482283,/g3t1_2,,running
Status,264,10521824927,/g3t1_2,,fail
Status,265,10523886891,/g3t1_3,,running
Status,266,10523967507,/g3t1_3,,fail
Status,267,10565481888,/g4t1,,success
Status,268,10570301795,/g3t1_1,,running
Status,269,10570597769,/g3t1_1,,success
Status,270,10571788662,/g3t1_2,,running
Status,271,10571850453,/g3t1_2,,fail
Status,272,10574375328,/g3t1_3,,running
Status,273,10574475321,/g3t1_3,,fail
Status,277,10619852000,/g3t1_1,,running
Status,278,10619963087,/g3t1_1,,fail
Status,279,10621101639,/g3t1_2,,running
Status,280,10621194043,/g3t1_2,,fail
Status,281,10623523444,/g3t1_3,,running
Status,282,10623698899,/g3t1_3,,fail
Status,283,10664947962,/g4t1,,success
Status,284,10670152147,/g3t1_1,,running
Status,285,10670185780,/g3t1_1,,fail
Status,286,10671305741,/g3t1_2,,running
Status,287,10671381775,/g3t1_2,,fail
Status,288,10673786706,/g3t1_3,,running
Status,289,10673826190,/g3t1_3,,fail
Status,290,10720736275,/g3t1_1,,running
Status,291,10720814117,/g3t1_1,,fail
Status,292,10722110620,/g3t1_2,,running
Status,293,10722173797,/g3t1_2,,fail
Status,294,10724332888,/g3t1_3,,running
Status,295,10724666131,/g3t1_3,,fail
Status,296,10765569823,/g4t1,,success
Status,297,10770681615,/g3t1_1,,running
Status,298,10770887109,/g3t1_1,,fail
Status,299,10772061431,/g3t1_2,,running
Status,300,10772123534,/g3t1_2,,fail
Status,301,10774487414,/g3t1_3,,running
Status,302,10774833454,/g3t1_3,,fail
Status,306,10821179669,/g3t1_1,,running
Status,307,10821243688,/g3t1_1,,fail
Status,308,10822175093,/g3t1_2,,running
Status,309,10822781179,/g3t1_2,,fail
Status,310,10824660232,/g3t1_3,,running
Status,311,10825086484,/g3t1_3,,fail
Status,312,10865915006,/g4t1,,success
Status,313,10871234523,/g3t1_1,,running
Status,314,10871394983,/g3t1_1,,fail
Status,315,10872155466,/g3t1_2,,running
Status,316,10872645681,/g3t1_2,,fail
Status,317,10874289446,/g3t1_3,,running
Status,318,10874537155,/g3t1_3,,fail
Status,319,10921099662,/g3t1_1,,running
Status,320,10921151246,/g3t1_1,,fail
Status,321,10922005465,/g3t1_2,,running
Status,322,10922118575,/g3t1_2,,fail
Status,323,10924747538,/g3t1_3,,running
Status,324,10924876886,/g3t1_3,,fail
Status,325,10966231327,/g4t1,,success
Status,326,10971341105,/g3t1_1,,running
Status,327,10971654244,/g3t1_1,,fail
Status,328,10972405031,/g3t1_2,,running
Status,329,10972776843,/g3t1_2,,fail
Status,330,10974816796,/g3t1_3,,running
Status,331,10975141456,/g3t1_3,,fail
Status,335,11021882546,/g3t1_1,,running
Status,336,11021949217,/g3t1_1,,fail
Status,337,11022394003,/g3t1_2,,running
Status,338,11022955659,/g3t1_2,,fail
Status,339,11024869204,/g3t1_3,,running
Status,340,11025444522,/g3t1_3,,success
Status,341,11066277086,/g4t1,,success
Status,342,11071575662,/g3t1_1,,running
Status,343,11072268167,/g3t1_1,,success
Status,344,11072509272,/g3t1_2,,running
Status,345,11072871320,/g3t1_2,,fail
Status,346,11074917748,/g3t1_3,,running
Status,347,11075346498,/g3t1_3,,success
Status,348,11121803078,/g3t1_1,,running
Status,349,11122089504,/g3t1_1,,success
Status,350,11123033999,/g3t1_2,,running
Status,351,11123105548,/g3t1_2,,fail
Status,352,11125000099,/g3t1_3,,running
Status,353,11125469289,/g3t1_3,,success
Status,354,11166289805,/g4t1,,success
Status,355,11171602674,/g3t1_1,,running
Status,356,11172161548,/g3t1_1,,fail
Status,357,11172783462,/g3t1_2,,running
Status,358,11172853998,/g3t1_2,,fail
Status,359,11175341754,/g3t1_3,,running
Status,360,11175411728,/g3t1_3,,fail
Status,364,11221509342,/g3t1_1,,running
Status,365,11221535187,/g3t1_1,,fail
Status,366,11222437215,/g3t1_2,,running
Status,367,11222460804,/g3t1_2,,fail
Status,368,11225457861,/g3t1_3,,running
Status,369,11225891359,/g3t1_3,,fail
Status,370,11266317912,/g4t1,,success
Status,371,11272126729,/g3t1_1,,running
Status,372,11272192455,/g3t1_1,,fail
Status,373,11273232330,/g3t1_2,,running
Status,374,11273297328,/g3t1_2,,fail
Status,375,11275342481,/g3t1_3,,running
Status,376,11275735556,/g3t1_3,,fail
Status,377,11322126890,/g3t1_1,,running
Status,378,11322212841,/g3t1_1,,fail
Status,379,11323424945,/g3t1_2,,running
Status,380,11323699013,/g3t1_2,,fail
Status,381,11325536284,/g3t1_3,,running
Status,382,11325988283,/g3t1_3,,fail
Status,383,11366440868,/g4t1,,success
Status,384,11372387446,/g3t1_1,,running
Status,385,11372471267,/g3t1_1,,fail
Status,386,11373375957,/g3t1_2,,running
Status,387,11373658694,/g3t1_2,,fail
Status,388,11375690062,/g3t1_3,,running
Status,389,11375757732,/g3t1_3,,fail
Status,393,11422551871,/g3t1_1,,running
Status,394,11422641477,/g3t1_1,,fail
Status,395,11423511637,/g3t1_2,,running
Status,396,11423836936,/g3t1_2,,fail
Status,397,11425821860,/g3t1_3,,running
Status,398,11425895635,/g3t1_3,,fail
Status,399,11466516789,/g4t1,,success
Status,400,11472422499,/g3t1_1,,running
Status,401,11472482828,/g3t1_1,,fail
Status,402,11473454019,/g3t1_2,,running
Status,403,11473890140,/g3t1_2,,fail
Status,404,11475981229,/g3t1_3,,running
Status,405,11476338359,/g3t1_3,,success
Status,406,11522896561,/g3t1_1,,running
Status,407,11522969238,/g3t1_1,,fail
Status,408,11523685234,/g3t1_2,,running
Status,409,11523767077,/g3t1_2,,fail
Status,410,11526137443,/g3t1_3,,running
Status,411,11526201446,/g3t1_3,,fail
Status,412,11566770428,/g4t1,,success
Status,413,11572871527,/g3t1_1,,running
Status,414,11573041270,/g3t1_1,,fail
Status,415,11573806047,/g3t1_2,,running
Status,416,11574047851,/g3t1_2,,fail
Status,417,11575955019,/g3t1_3,,running
Status,418,11576407826,/g3t1_3,,success
Status,419,11623177447,/g3t1_1,,running
Status,420,11623249632,/g3t1_1,,fail
Status,421,11624146728,/g3t1_2,,running
Status,422,11624236375,/g3t1_2,,fail
Status,423,11626170159,/g3t1_3,,running
Status,424,11626617077,/g3t1_3,,success
Status,425,11666449116,/g4t1,,success
Status,426,11672887254,/g3t1_1,,running
Status,427,11673002653,/g3t1_1,,fail
Status,428,11673638151,/g3t1_2,,running
Status,429,11673687034,/g3t1_2,,fail
Status,430,11675906328,/g3t1_3,,running
Status,431,11676183492,/g3t1_3,,fail
Status,432,11723384398,/g3t1_1,,running
Status,433,11723461545,/g3t1_1,,fail
Status,434,11724204580,/g3t1_2,,running
Status,435,11724452507,/g3t1_2,,fail
Status,436,11726289920,/g3t1_3,,running
Status,437,11726655722,/g3t1_3,,fail
Status,438,11766874653,/g4t1,,success
Status,439,11773255210,/g3t1_1,,running
Status,440,11773304011,/g3t1_1,,fail
Status,441,11773895210,/g3t1_2,,running
Status,442,11774082993,/g3t1_2,,fail
Status,443,11776098910,/g3t1_3,,running
Status,444,11776362981,/g3t1_3,,success
Status,445,11823336894,/g3t1_1,,running
Status,446,11823387621,/g3t1_1,,fail
Status,447,11823935762,/g3t1_2,,running
Status,448,11824158756,/g3t1_2,,fail
Status,449,11826326265,/g3t1_3,,running
Status,450,11826366486,/g3t1_3,,fail
Status,451,11866978328,/g4t1,,success
Status,452,11873908932,/g3t1_1,,running
Status,453,11873992661,/g3t1_1,,fail
Status,454,11874838953,/g3t1_2,,running
Status,455,11874890472,/g3t1_2,,fail
Status,456,11876462424,/g3t1_3,,running
Status,457,11876969076,/g3t1_3,,success
Status,458,11923917405,/g3t1_1,,running
Status,459,11924009649,/g3t1_1,,fail
Status,460,11924531254,/g3t1_2,,running
Status,461,11924575719,/g3t1_2,,fail
Status,462,11926752527,/g3t1_3,,running
Status,463,11927400244,/g3t1_3,,success
Status,464,11966619821,/g4t1,,success
Status,465,11973351373,/g3t1_1,,running
Status,466,11973373889,/g3t1_1,,fail
Status,467,11974034951,/g3t1_2,,running
Status,468,11974062327,/g3t1_2,,fail
Status,469,11976221184,/g3t1_3,,running
Status,470,11976398690,/g3t1_3,,fail
Status,471,12023695110,/g3t1_1,,running
Status,472,12023719938,/g3t1_1,,fail
Status,473,12024306446,/g3t1_2,,running
Status,474,12024436593,/g3t1_2,,fail
Status,475,12026296033,/g3t1_3,,running
Status,476,12026410369,/g3t1_3,,fail
Status,477,12066845438,/g4t1,,success
Status,478,12074113407,/g3t1_1,,running
Status,479,12074198342,/g3t1_1,,fail
Status,480,12075008065,/g3t1_2,,running
Status,481,12075165737,/g3t1_2,,fail
Status,482,12077065317,/g3t1_3,,running
Status,483,12077132070,/g3t1_3,,success
Status,484,12124036086,/g3t1_1,,running
Status,485,12124079788,/g3t1_1,,fail
Status,486,12124463567,/g3t1_2,,running
Status,487,12124690971,/g3t1_2,,fail
Status,488,12126627021,/g3t1_3,,running
Status,489,12126822485,/g3t1_3,,success
Status,490,12167370690,/g4t1,,success
Status,491,12174089069,/g3t1_1,,running
Status,492,12174423704,/g3t1_1,,fail
Status,493,12174467089,/g3t1_2,,running
Status,494,12174686294,/g3t1_2,,fail
Status,495,12176797469,/g3t1_3,,running
Status,496,12176830530,/g3t1_3,,success
Status,497,12225178328,/g3t1_1,,running
Status,498,12225267190,/g3t1_1,,fail
Status,499,12225343625,/g3t1_2,,running
Status,500,12225664842,/g3t1_2,,fail
Status,501,12227174968,/g3t1_3,,running
Status,502,12227521658,/g3t1_3,,success
Status,503,12267327069,/g4t1,,success
Status,504,12274934738,/g3t1_1,,running
Status,505,12274994885,/g3t1_1,,fail
Status,506,12275092064,/g3t1_2,,running
Status,507,12275382544,/g3t1_2,,fail
Status,508,12277248920,/g3t1_3,,running
Status,509,12277592736,/g3t1_3,,fail
Status,510,12325539633,/g3t1_1,,running
Status,511,12325611997,/g3t1_1,,fail
Status,512,12325638411,/g3t1_2,,running
Status,513,12325680042,/g3t1_2,,fail
Status,514,12327440987,/g3t1_3,,running
Status,515,12328129869,/g3t1_3,,success
Status,516,12367391541,/g4t1,,success
Status,517,12375226177,/g3t1_1,,running
Status,518,12375330314,/g3t1_1,,fail
Status,519,12375459303,/g3t1_2,,running
Status,520,12375780045,/g3t1_2,,fail
Status,521,12377427261,/g3t1_3,,running
Status,522,12378200065,/g3t1_3,,success
Status,526,12425645073,/g3t1_1,,running
Status,527,12425758096,/g3t1_2,,running
Status,528,12425923600,/g3t1_1,,fail
Status,529,12426257830,/g3t1_2,,fail
Status,530,12427799927,/g3t1_3,,running
Status,531,12427889889,/g3t1_3,,fail
Status,532,12467130003,/g4t1,,success
Status,533,12474935651,/g3t1_1,,running
Status,534,12474974642,/g3t1_1,,fail
Status,535,12475322198,/g3t1_2,,running
Status,536,12475484462,/g3t1_2,,fail
Status,537,12477215354,/g3t1_3,,running
Status,538,12477414934,/g3t1_3,,fail
Status,539,12525006929,/g3t1_1,,running
Status,540,12525057748,/g3t1_1,,fail
Status,541,12525280183,/g3t1_2,,running
Status,542,12525351276,/g3t1_2,,fail
Status,543,12528095402,/g3t1_3,,running
Status,544,12528124783,/g3t1_3,,fail
Status,545,12567477982,/g4t1,,success
Status,546,12575591712,/g3t1_1,,running
Status,547,12576363129,/g3t1_1,,success
Status,548,12576423537,/g3t1_2,,running
Status,549,12576537777,/g3t1_2,,fail
Status,550,12578101095,/g3t1_3,,running
Status,551,12578177583,/g3t1_3,,fail
Status,555,12626152847,/g3t1_1,,running
Status,556,12626284343,/g3t1_2,,running
Status,557,12626321058,/g3t1_1,,fail
Status,558,12626610127,/g3t1_2,,success
Status,559,12627976885,/g3t1_3,,running
Status,560,12628212398,/g3t1_3,,fail
Status,561,12667391399,/g4t1,,success
Status,562,12675696505,/g3t1_1,,running
Status,563,12676100514,/g3t1_1,,success
Status,564,12676152994,/g3t1_2,,running
Status,565,12676611952,/g3t1_2,,success
Status,566,12677775124,/g3t1_3,,running
Status,567,12677815386,/g3t1_3,,fail
Status,568,12726144656,/g3t1_1,,running
Status,569,12726353531,/g3t1_2,,running
Status,570,12726777303,/g3t1_1,,fail
Status,571,12727533550,/g3t1_2,,success
Status,572,12729061862,/g3t1_3,,running
Status,573,12729160629,/g3t1_3,,fail
Status,574,12768202088,/g4t1,,success
Status,575,12776281225,/g3t1_1,,running
Status,576,12776581569,/g3t1_2,,running
Status,577,12776653916,/g3t1_1,,fail
Status,578,12777975246,/g3t1_2,,success
Status,579,12778540919,/g3t1_3,,running
Status,580,12778626082,/g3t1_3,,fail
Status,584,12826246550,/g3t1_1,,running
Status,585,12826413351,/g3t1_1,,fail
Status,586,12826841696,/g3t1_2,,running
Status,587,12826959733,/g3t1_2,,success
Status,588,12828523659,/g3t1_3,,running
Status,589,12828609639,/g3t1_3,,fail
Status,590,12868127786,/g4t1,,success
Status,591,12876094408,/g3t1_1,,running
Status,592,12876857818,/g3t1_2,,running
Status,593,12877075435,/g3t1_1,,success
Status,594,12877130840,/g3t1_2,,fail
Status,595,12878729404,/g3t1_3,,running
Status,596,12878801257,/g3t1_3,,fail
Status,597,12926468122,/g3t1_1,,running
Status,598,12926547708,/g3t1_1,,fail
Status,599,12926734257,/g3t1_2,,running
Status,600,12927254117,/g3t1_2,,fail
Status,601,12928843459,/g3t1_3,,running
Status,602,12928995347,/g3t1_3,,fail
Status,603,12967754158,/g4t1,,success
Status,604,12975958568,/g3t1_1,,running
Status,605,12975984266,/g3t1_1,,fail
Status,606,12976314968,/g3t1_2,,running
Status,607,12976480652,/g3t1_2,,fail
Status,608,12978292780,/g3t1_3,,running
Status,609,12978358639,/g3t1_3,,fail
Status,613,13026635977,/g3t1_1,,running
Status,614,13026891048,/g3t1_1,,fail
Status,615,13026947608,/g3t1_2,,running
Status,616,13027386207,/g3t1_2,,fail
Status,617,13028792959,/g3t1_3,,running
Status,618,13029385024,/g3t1_3,,success
Status,619,13068204383,/g4t1,,success
Status,620,13076819806,/g3t1_1,,running
Status,621,13077244397,/g3t1_1,,fail
Status,622,13077372606,/g3t1_2,,running
Status,623,13077609143,/g3t1_2,,fail
Status,624,13078933245,/g3t1_3,,running
Status,625,13079323503,/g3t1_3,,success
Status,626,13126998289,/g3t1_1,,running
Status,627,13127149743,/g3t1_1,,fail
Status,628,13127215512,/g3t1_2,,running
Status,629,13127755405,/g3t1_2,,fail
Status,630,13129002747,/g3t1_3,,running
Status,631,13129541194,/g3t1_3,,success
Status,632,13167915644,/g4t1,,success
Status,633,13176461895,/g3t1_1,,running
Status,634,13176504441,/g3t1_1,,fail
Status,635,13176780059,/g3t1_2,,running
Status,636,13176969990,/g3t1_2,,fail
Status,637,13178659520,/g3t1_3,,running
Status,638,13178863184,/g3t1_3,,success
Status,642,13227406210,/g3t1_1,,running
Status,643,13227494923,/g3t1_2,,running
Status,644,13227534422,/g3t1_1,,fail
Status,645,13227841476,/g3t1_2,,fail
Status,646,13229264835,/g3t1_3,,running
Status,647,13229632876,/g3t1_3,,fail
Status,648,13268747085,/g4t1,,success
Status,649,13277621579,/g3t1_1,,running
Status,650,13277723422,/g3t1_1,,fail
Status,651,13278111472,/g3t1_2,,running
Status,652,13278183579,/g3t1_2,,fail
Status,653,13279298390,/g3t1_3,,running
Status,654,13279591504,/g3t1_3,,fail
Status,655,13327720233,/g3t1_1,,running
Status,656,13327804226,/g3t1_1,,fail
Status,657,13327845969,/g3t1_2,,running
Status,658,13328287122,/g3t1_2,,fail
Status,659,13329317580,/g3t1_3,,running
Status,660,13329646850,/g3t1_3,,fail
Status,661,13368427940,/g4t1,,success
Status,662,13377690973,/g3t1_1,,running
Status,663,13378059091,/g3t1_2,,running
Status,664,13378147120,/g3t1_1,,fail
Status,665,13378188387,/g3t1_2,,fail
Status,666,13379443922,/g3t1_3,,running
Status,667,13379801497,/g3t1_3,,fail
Status,671,13428411049,/g3t1_1,,running
Status,672,13428482487,/g3t1_2,,running
Status,673,13428569532,/g3t1_1,,fail
Status,674,13428595833,/g3t1_2,,success
Status,675,13429698499,/g3t1_3,,running
Status,676,13430348363,/g3t1_3,,fail
Status,677,13468863130,/g4t1,,success
Status,678,13477271027,/g3t1_1,,running
Status,679,13477328765,/g3t1_1,,fail
Status,680,13477493702,/g3t1_2,,running
Status,681,13477706564,/g3t1_2,,success
Status,682,13479280495,/g3t1_3,,running
Status,683,13479439321,/g3t1_3,,fail
Status,684,13527973941,/g3t1_1,,running
Status,685,13528054592,/g3t1_2,,running
Status,686,13528119298,/g3t1_1,,fail
Status,687,13528597352,/g3t1_2,,success
Status,688,13529734878,/g3t1_3,,running
Status,689,13530034333,/g3t1_3,,fail
Status,690,13568780644,/g4t1,,success
Status,691,13578303167,/g3t1_1,,running
Status,692,13578393632,/g3t1_1,,fail
Status,693,13578500248,/g3t1_2,,running
Status,694,13579491469,/g3t1_2,,success
Status,695,13580097551,/g3t1_3,,running
Status,696,13580184310,/g3t1_3,,fail
Status,700,13627959109,/g3t1_1,,running
Status,701,13628061727,/g3t1_1,,success
Status,702,13628097666,/g3t1_2,,running
Status,703,13628110785,/g3t1_2,,fail
Status,704,13629564116,/g3t1_3,,running
Status,705,13629603383,/g3t1_3,,fail
Status,706,13668586475,/g4t1,,success
Status,707,13678195670,/g3t1_1,,running
Status,708,13678250499,/g3t1_1,,fail
Status,709,13678290597,/g3t1_2,,running
Status,710,13678303855,/g3t1_2,,fail
Status,711,13679809488,/g3t1_3,,running
Status,712,13679853599,/g3t1_3,,fail
Status,713,13728675761,/g3t1_1,,running
Status,714,13728749157,/g3t1_2,,running
Status,715,13728770254,/g3t1_2,,fail
Status,716,13728793466,/g3t1_1,,fail
Status,717,13730090714,/g3t1_3,,running
Status,718,13730453135,/g3t1_3,,fail
Status,719,13768337079,/g4t1,,success
Status,720,13777952693,/g3t1_1,,running
Status,721,13778087267,/g3t1_1,,success
Status,722,13778116234,/g3t1_2,,running
Status,723,13778179078,/g3t1_2,,fail
Status,724,13780145668,/g3t1_3,,running
Status,725,13780181816,/g3t1_3,,fail
Status,729,13828134661,/g3t1_1,,running
Status,730,13828174951,/g3t1_1,,fail
Status,731,13828231749,/g3t1_2,,running
Status,732,13828323421,/g3t1_2,,fail
Status,733,13830072746,/g3t1_3,,running
Status,734,13830101054,/g3t1_3,,fail
Status,735,13868527793,/g4t1,,success
Status,736,13878672691,/g3t1_1,,running
Status,737,13878738031,/g3t1_2,,running
Status,738,13878795040,/g3t1_1,,success
Status,739,13878816805,/g3t1_2,,fail
Status,740,13880524300,/g3t1_3,,running
Status,741,13880555018,/g3t1_3,,fail
Status,742,13928197315,/g3t1_1,,running
Status,743,13928249478,/g3t1_1,,fail
Status,744,13928262024,/g3t1_2,,running
Status,745,13928376702,/g3t1_2,,fail
Status,746,13930026971,/g3t1_3,,running
Status,747,13930051098,/g3t1_3,,fail
Status,748,13969171184,/g4t1,,success
Status,749,13978707173,/g3t1_1,,running
Status,750,13978812853,/g3t1_1,,fail
Status,751,13978879924,/g3t1_2,,running
Status,752,13978917665,/g3t1_2,,fail
Status,753,13980546102,/g3t1_3,,running
Status,754,13980642309,/g3t1_3,,fail
Status,758,14028782650,/g3t1_1,,running
Status,759,14028950714,/g3t1_1,,fail
Status,760,14029508707,/g3t1_2,,running
Status,761,14029583905,/g3t1_2,,fail
Status,762,14030705752,/g3t1_3,,running
Status,763,14030763123,/g3t1_3,,fail
Status,764,14068563738,/g4t1,,success
Status,765,14078550451,/g3t1_1,,running
Status,766,14078610005,/g3t1_1,,fail
Status,767,14078635648,/g3t1_2,,running
Status,768,14079193870,/g3t1_2,,fail
Status,769,14080144744,/g3t1_3,,running
Status,770,14080240131,/g3t1_3,,fail
Status,771,14128471076,/g3t1_1,,running
Status,772,14128531337,/g3t1_1,,fail
Status,773,14128558347,/g3t1_2,,running
Status,774,14128680712,/g3t1_2,,fail
Status,775,14130150930,/g3t1_3,,running
Status,776,14130261128,/g3t1_3,,fail
Status,777,14168651882,/g4t1,,success
Status,778,14178807262,/g3t1_1,,running
Status,779,14178850957,/g3t1_1,,fail
Status,780,14178939919,/g3t1_2,,running
Status,781,14179032156,/g3t1_2,,fail
Status,782,14180652696,/g3t1_3,,running
Status,783,14180692091,/g3t1_3,,fail
Status,787,14228746331,/g3t1_1,,running
Status,788,14228817508,/g3t1_1,,fail
Status,789,14228846663,/g3t1_2,,running
Status,790,14229006266,/g3t1_2,,success
Status,791,14230620267,/g3t1_3,,running
Status,792,14230646270,/g3t1_3,,fail
Status,793,14268876943,/g4t1,,success
Status,794,14278771942,/g3t1_1,,running
Status,795,14278807811,/g3t1_1,,fail
Status,796,14279009782,/g3t1_2,,running
Status,797,14279039140,/g3t1_2,,success
Status,798,14280534139,/g3t1_3,,running
Status,799,14280564351,/g3t1_3,,fail
Status,800,14329060566,/g3t1_1,,running
Status,801,14329192754,/g3t1_1,,fail
Status,802,14329218139,/g3t1_2,,running
Status,803,14329663211,/g3t1_2,,success
Status,804,14330725046,/g3t1_3,,running
Status,805,14330764681,/g3t1_3,,fail
Status,806,14369844837,/g4t1,,success
Status,807,14379494388,/g3t1_1,,running
Status,808,14380699959,/g3t1_2,,running
Status,809,14380781651,/g3t1_1,,fail
Status,810,14381431693,/g3t1_3,,running
Status,811,14381659645,/g3t1_3,,fail
Status,812,14381702738,/g3t1_2,,success
Status,816,14429565470,/g3t1_1,,running
Status,817,14429614044,/g3t1_2,,running
Status,818,14429667464,/g3t1_1,,fail
Status,819,14429798816,/g3t1_2,,fail
Status,820,14430783271,/g3t1_3,,running
Status,821,14430830465,/g3t1_3,,fail
Status,822,14469113484,/g4t1,,success
Status,823,14479427431,/g3t1_1,,running
Status,824,14479489781,/g3t1_2,,running
Status,825,14479540905,/g3t1_1,,fail
Status,826,14479720936,/g3t1_2,,fail
Status,827,14480805941,/g3t1_3,,running
Status,828,14480833606,/g3t1_3,,fail
Status,829,14529398460,/g3t1_1,,running
Status,830,14529441873,/g3t1_2,,running
Status,831,14529477323,/g3t1_1,,fail
Status,832,14529503212,/g3t1_2,,fail
Status,833,14531017359,/g3t1_3,,running
Status,834,14531045985,/g3t1_3,,fail
Status,835,14569236442,/g4t1,,success
Status,836,14579628790,/g3t1_1,,running
Status,837,14579663899,/g3t1_2,,running
Status,838,14579699824,/g3t1_1,,fail
Status,839,14579843315,/g3t1_2,,fail
Status,840,14580827869,/g3t1_3,,running
Status,841,14580948424,/g3t1_3,,fail
Status,845,14629863276,/g3t1_1,,running
Status,846,14630037544,/g3t1_2,,running
Status,847,14630059498,/g3t1_2,,fail
Status,848,14630171747,/g3t1_1,,success
Status,849,14631037045,/g3t1_3,,running
Status,850,14631062406,/g3t1_3,,fail
Status,851,14669342151,/g4t1,,success
Status,852,14679867364,/g3t1_1,,running
Status,853,14679902951,/g3t1_2,,running
Status,854,14679964045,/g3t1_1,,fail
Status,855,14680092826,/g3t1_2,,fail
Status,856,14681088904,/g3t1_3,,running
Status,857,14681116918,/g3t1_3,,fail
Status,858,14729843451,/g3t1_1,,running
Status,859,14729913137,/g3t1_2,,running
Status,860,14730096027,/g3t1_1,,fail
Status,861,14730148629,/g3t1_2,,fail
Status,862,14731450321,/g3t1_3,,running
Status,863,14731494228,/g3t1_3,,fail
Status,864,14769658329,/g4t1,,success
Status,865,14780760711,/g3t1_2,,running
Status,866,14780829911,/g3t1_1,,running
Status,867,14780975465,/g3t1_1,,fail
Status,868,14781010071,/g3t1_2,,fail
Status,869,14782236081,/g3t1_3,,running
Status,870,14782294325,/g3t1_3,,fail
Status,874,14830278857,/g3t1_1,,running
Status,875,14830329025,/g3t1_2,,running
Status,876,14830369069,/g3t1_1,,fail
Status,877,14830385294,/g3t1_2,,fail
Status,878,14831359203,/g3t1_3,,running
Status,879,14831473737,/g3t1_3,,fail
Status,880,14869708258,/g4t1,,success
Status,881,14880432376,/g3t1_2,,running
Status,882,14880467157,/g3t1_1,,running
Status,883,14880479775,/g3t1_1,,fail
Status,884,14880491624,/g3t1_2,,fail
Status,885,14881408269,/g3t1_3,,running
Status,886,14881573014,/g3t1_3,,fail
Status,887,14930463808,/g3t1_2,,running
Status,888,14930506343,/g3t1_1,,running
Status,889,14930597965,/g3t1_2,,fail
Status,890,14930622466,/g3t1_1,,success
Status,891,14931636896,/g3t1_3,,running
Status,892,14931843770,/g3t1_3,,fail
Status,893,14969999927,/g4t1,,success
Status,894,14980497078,/g3t1_1,,running
Status,895,14980555396,/g3t1_2,,running
Status,896,14980612538,/g3t1_1,,fail
Status,897,14980795239,/g3t1_2,,fail
Status,898,14981583710,/g3t1_3,,running
Status,899,14981773075,/g3t1_3,,fail
Status,903,15031188336,/g3t1_1,,running
Status,904,15031250750,/g3t1_2,,running
Status,905,15031322607,/g3t1_1,,fail
Status,906,15031337580,/g3t1_2,,fail
Status,907,15032625193,/g3t1_3,,running
Status,908,15032696900,/g3t1_3,,fail
Status,909,15070507826,/g4t1,,success
Status,910,15080957967,/g3t1_1,,running
Status,911,15081015331,/g3t1_2,,running
Status,912,15081186935,/g3t1_1,,fail
Status,913,15081222677,/g3t1_2,,fail
Status,914,15082102599,/g3t1_3,,running
Status,915,15082525611,/g3t1_3,,success
Status,916,15131007655,/g3t1_2,,running
Status,917,15131081061,/g3t1_1,,running
Status,918,15131141313,/g3t1_1,,fail
Status,919,15131175461,/g3t1_2,,fail
Status,920,15132222040,/g3t1_3,,running
Status,921,15132681809,/g3t1_3,,fail
Status,922,15170319848,/g4t1,,success
Status,923,15181056593,/g3t1_1,,running
Status,924,15181112383,/g3t1_2,,running
Status,925,15181279600,/g3t1_2,,fail
Status,926,15181667989,/g3t1_1,,fail
Status,927,15182360121,/g3t1_3,,running
Status,928,15182877405,/g3t1_3,,fail
Status,932,15230973270,/g3t1_1,,running
Status,933,15231059504,/g3t1_2,,running
Status,934,15231370739,/g3t1_2,,fail
Status,935,15231659607,/g3t1_1,,fail
Status,936,15232315777,/g3t1_3,,running
Status,937,15232879303,/g3t1_3,,success
Status,938,15270338619,/g4t1,,success
Status,939,15281154792,/g3t1_1,,running
Status,940,15281213133,/g3t1_2,,running
Status,941,15281242998,/g3t1_1,,fail
Status,942,15281522569,/g3t1_2,,success
Status,943,15282303579,/g3t1_3,,running
Status,944,15282802722,/g3t1_3,,fail
Status,945,15331332975,/g3t1_1,,running
Status,946,15331422750,/g3t1_2,,running
Status,947,15331885163,/g3t1_1,,fail
Status,948,15331965718,/g3t1_2,,success
Status,949,15332812589,/g3t1_3,,running
Status,950,15333110035,/g3t1_3,,fail
Status,951,15370997304,/g4t1,,success
Status,952,15381703855,/g3t1_1,,running
Status,953,15381772313,/g3t1_2,,running
Status,954,15381840129,/g3t1_1,,fail
Status,955,15382080080,/g3t1_2,,fail
Status,956,15382867227,/g3t1_3,,running
Status,957,15383472481,/g3t1_3,,success
Status,961,15431869545,/g3t1_1,,running
Status,962,15431999528,/g3t1_2,,running
Status,963,15432041684,/g3t1_2,,fail
Status,964,15432134390,/g3t1_1,,fail
Status,965,15432963176,/g3t1_3,,running
Status,966,15433443866,/g3t1_3,,fail
Status,967,15470894873,/g4t1,,success
Status,968,15482068547,/g3t1_1,,running
Status,969,15482131794,/g3t1_1,,fail
Status,970,15482229034,/g3t1_2,,running
Status,971,15482255791,/g3t1_2,,fail
Status,972,15483824381,/g3t1_3,,running
Status,973,15483891041,/g3t1_3,,success
Status,974,15532065599,/g3t1_1,,running
Status,975,15532173893,/g3t1_2,,running
Status,976,15532269389,/g3t1_1,,fail
Status,977,15532315047,/g3t1_2,,fail
Status,978,15533271672,/g3t1_3,,running
Status,979,15533924421,/g3t1_3,,success
Status,980,15570965841,/g4t1,,success
Status,981,15582347817,/g3t1_1,,running
Status,982,15582418855,/g3t1_2,,running
Status,983,15582466252,/g3t1_1,,fail
Status,984,15582512823,/g3t1_2,,fail
Status,985,15583740113,/g3t1_3,,running
Status,986,15584127628,/g3t1_3,,success
Status,987,15631776280,/g3t1_2,,running
Status,988,15631907417,/g3t1_1,,running
Status,989,15631942272,/g3t1_2,,fail
Status,990,15631955646,/g3t1_1,,fail
Status,991,15632839684,/g3t1_3,,running
Status,992,15633016700,/g3t1_3,,success
Status,993,15670406637,/g4t1,,success
Status,994,15682022029,/g3t1_2,,running
Status,995,15682083255,/g3t1_1,,running
Status,996,15682100871,/g3t1_1,,fail
Status,997,15682123348,/g3t1_2,,fail
Status,998,15683485260,/g3t1_3,,running
Status,999,15683522720,/g3t1_3,,fail
Status,1000,15732449658,/g3t1_1,,running
Status,1001,15732545643,/g3t1_2,,running
Status,1002,15732637119,/g3t1_2,,fail
Status,1003,15733001354,/g3t1_1,,fail
Status,1004,15733634174,/g3t1_3,,running
Status,1005,15733688762,/g3t1_3,,fail
Status,1006,15770936282,/g4t1,,success
Status,1007,15782596845,/g3t1_1,,running
Status,1008,15782705417,/g3t1_2,,running
Status,1009,15782755829,/g3t1_2,,fail
Status,1010,15782803412,/g3t1_1,,fail
Status,1011,15783897586,/g3t1_3,,running
Status,1012,15784209818,/g3t1_3,,fail
Status,1013,15832746757,/g3t1_1,,running
Status,1014,15832829107,/g3t1_2,,running
Status,1015,15832985783,/g3t1_1,,fail
Status,1016,15833029939,/g3t1_2,,fail
Status,1017,15834109732,/g3t1_3,,running
Status,1018,15834469431,/g3t1_3,,success
Status,1019,15871346760,/g4t1,,success
Status,1020,15882987570,/g3t1_2,,running
Status,1021,15883152450,/g3t1_1,,running
Status,1022,15883197986,/g3t1_1,,fail
Status,1023,15883282119,/g3t1_2,,fail
Status,1024,15884201187,/g3t1_3,,running
Status,1025,15884354179,/g3t1_3,,fail
Status,1026,15932533347,/g3t1_2,,running
Status,1027,15932579177,/g3t1_1,,running
Status,1028,15932620133,/g3t1_2,,fail
Status,1029,15932638154,/g3t1_1,,fail
Status,1030,15933488676,/g3t1_3,,running
Status,1031,15933633823,/g3t1_3,,fail
Status,1032,15970695742,/g4t1,,success
Status,1033,15982473109,/g3t1_1,,running
Status,1034,15982504063,/g3t1_1,,fail
Status,1035,15982512802,/g3t1_2,,running
Status,1036,15982520859,/g3t1_2,,fail
Status,1037,15983533346,/g3t1_3,,running
Status,1038,15983564192,/g3t1_3,,fail
Status,1039,16032804129,/g3t1_2,,running
Status,1040,16032863982,/g3t1_1,,running
Status,1041,16032881318,/g3t1_1,,fail
Status,1042,16032956452,/g3t1_2,,fail
Status,1043,16033553481,/g3t1_3,,running
Status,1044,16033635849,/g3t1_3,,fail
Status,1045,16070871432,/g4t1,,success
Status,1046,16082956524,/g3t1_1,,running
Status,1047,16083006075,/g3t1_2,,running
Status,1048,16083018015,/g3t1_1,,fail
Status,1049,16083028921,/g3t1_2,,fail
Status,1050,16083816116,/g3t1_3,,running
Status,1051,16084082501,/g3t1_3,,success
Status,1052,16133413746,/g3t1_2,,running
Status,1053,16133609834,/g3t1_2,,fail
Status,1054,16133905629,/g3t1_1,,running
Status,1055,16134052682,/g3t1_1,,fail
Status,1056,16134942603,/g3t1_3,,running
Status,1057,16135131469,/g3t1_3,,success
Status,1058,16171692845,/g4t1,,success
Status,1059,16183531241,/g3t1_2,,running
Status,1060,16183600386,/g3t1_1,,running
Status,1061,16183794634,/g3t1_1,,fail
Status,1062,16183867263,/g3t1_2,,fail
Status,1063,16184460216,/g3t1_3,,running
Status,1064,16185512340,/g3t1_3,,fail
Status,1065,16233533151,/g3t1_1,,running
Status,1066,16233610480,/g3t1_2,,running
Status,1067,16233712618,/g3t1_1,,fail
Status,1068,16233750654,/g3t1_2,,fail
Status,1069,16234558026,/g3t1_3,,running
Status,1070,16235047134,/g3t1_3,,success
Status,1071,16271820242,/g4t1,,success
Status,1072,16283765442,/g3t1_1,,running
Status,1073,16283865741,/g3t1_2,,running
Status,1074,16283897512,/g3t1_2,,fail
Status,1075,16284072125,/g3t1_1,,fail
Status,1076,16285262406,/g3t1_3,,running
Status,1077,16285614592,/g3t1_3,,success
Status,1078,16334037260,/g3t1_1,,running
Status,1079,16334121705,/g3t1_2,,running
Status,1080,16334164933,/g3t1_1,,fail
Status,1081,16334578283,/g3t1_2,,fail
Status,1082,16334652680,/g3t1_3,,running
Status,1083,16335122819,/g3t1_3,,fail
Status,1084,16372046127,/g4t1,,success
Status,1085,16384149411,/g3t1_1,,running
Status,1086,16384368579,/g3t1_2,,running
Status,1087,16384527570,/g3t1_2,,fail
Status,1088,16384567989,/g3t1_1,,fail
Status,1092,16386452770,/g3t1_3,,running
Status,1093,16386539674,/g3t1_3,,success
Status,1094,16433763260,/g3t1_1,,running
Status,1095,16433799238,/g3t1_2,,running
Status,1096,16433811738,/g3t1_2,,fail
Status,1097,16433823056,/g3t1_1,,fail
Status,1098,16434678548,/g3t1_3,,running
Status,1099,16434707570,/g3t1_3,,fail
Status,1100,16472193446,/g4t1,,success
Status,1101,16484304733,/g3t1_1,,running
Status,1102,16484399505,/g3t1_2,,running
Status,1103,16485250123,/g3t1_1,,fail
Status,1104,16485314850,/g3t1_2,,fail
Status,1105,16485635614,/g3t1_3,,running
Status,1106,16486158707,/g3t1_3,,success
Status,1107,16533769458,/g3t1_1,,running
Status,1108,16533799098,/g3t1_2,,running
Status,1109,16533865471,/g3t1_1,,fail
Status,1110,16533886845,/g3t1_2,,fail
Status,1111,16534899404,/g3t1_3,,running
Status,1112,16534923728,/g3t1_3,,success
Status,1113,16571413957,/g4t1,,success
Status,1114,16584142314,/g3t1_2,,running
Status,1115,16584198021,/g3t1_1,,running
Status,1116,16584222001,/g3t1_2,,fail
Status,1117,16585455065,/g3t1_1,,fail
Status,1121,16585568003,/g3t1_3,,running
Status,1122,16585579486,/g3t1_3,,success
Status,1123,16633797203,/g3t1_1,,running
Status,1124,16633817386,/g3t1_2,,running
Status,1125,16633827090,/g3t1_1,,fail
Status,1126,16633920863,/g3t1_2,,success
Status,1127,16634634141,/g3t1_3,,running
Status,1128,16634764135,/g3t1_3,,fail
Status,1129,16671566619,/g4t1,,success
Status,1130,16684086061,/g3t1_1,,running
Status,1131,16684113284,/g3t1_2,,running
Status,1132,16684154648,/g3t1_1,,fail
Status,1133,16684165874,/g3t1_2,,success
Status,1134,16685218099,/g3t1_3,,running
Status,1135,16685250337,/g3t1_3,,fail
Status,1136,16734871755,/g3t1_1,,running
Status,1137,16734981634,/g3t1_2,,running
Status,1138,16735104453,/g3t1_2,,fail
Status,1139,16735139777,/g3t1_1,,fail
Status,1140,16735854932,/g3t1_3,,running
Status,1141,16736319041,/g3t1_3,,fail
Status,1142,16772465039,/g4t1,,success
Status,1143,16784876425,/g3t1_1,,running
Status,1144,16785042829,/g3t1_2,,running
Status,1146,16786366697,/g3t1_1,,fail
Status,1147,16786517269,/g3t1_2,,success
Status,1148,16786637084,/g3t1_3,,running
Status,1149,16786675684,/g3t1_3,,fail
Status,1152,16835100967,/g3t1_1,,running
Status,1153,16835159280,/g3t1_2,,running
Status,1154,16835283211,/g3t1_2,,fail
Status,1155,16835324753,/g3t1_1,,success
Status,1156,16836085554,/g3t1_3,,running
Status,1157,16836753542,/g3t1_3,,fail
Status,1158,16872262815,/g4t1,,success
Status,1159,16885280770,/g3t1_1,,running
Status,1160,16885361699,/g3t1_2,,running
Status,1161,16885544360,/g3t1_1,,fail
Status,1162,16885941927,/g3t1_2,,fail
Status,1163,16886457335,/g3t1_3,,running
Status,1164,16886635153,/g3t1_3,,fail
Status,1165,16935483758,/g3t1_1,,running
Status,1166,16935577650,/g3t1_2,,running
Status,1167,16936248827,/g3t1_1,,fail
Status,1168,16936302886,/g3t1_2,,fail
Status,1169,16936364675,/g3t1_3,,running
Status,1170,16936964518,/g3t1_3,,fail
Status,1171,16972459918,/g4t1,,success
Status,1172,16985444747,/g3t1_1,,running
Status,1173,16985544116,/g3t1_2,,running
Status,1174,16985706063,/g3t1_1,,fail
Status,1175,16985752403,/g3t1_2,,fail
Status,1179,16986600644,/g3t1_3,,running
Status,1180,16986669027,/g3t1_3,,fail
Status,1181,17035703929,/g3t1_1,,running
Status,1182,17035791846,/g3t1_2,,running
Status,1183,17036238219,/g3t1_1,,success
Status,1184,17036300734,/g3t1_2,,success
Status,1185,17036467501,/g3t1_3,,running
Status,1186,17036866724,/g3t1_3,,fail
Status,1187,17072748465,/g4t1,,success
Status,1188,17085810967,/g3t1_1,,running
Status,1189,17085916372,/g3t1_2,,running
Status,1190,17085961414,/g3t1_2,,fail
Status,1191,17086459214,/g3t1_1,,success
Status,1192,17086526327,/g3t1_3,,running
Status,1193,17086676227,/g3t1_3,,fail
Status,1194,17136186520,/g3t1_1,,running
Status,1195,17136313503,/g3t1_2,,running
Status,1196,17136363378,/g3t1_1,,fail
Status,1197,17136395755,/g3t1_2,,fail
Status,1198,17136856859,/g3t1_3,,running
Status,1199,17136993912,/g3t1_3,,fail
Status,1200,17172879424,/g4t1,,success
Status,1201,17186247369,/g3t1_1,,running
Status,1202,17186326739,/g3t1_2,,running
Status,1206,17187036939,/g3t1_1,,fail
Status,1207,17187084394,/g3t1_3,,running
Status,1208,17187150851,/g3t1_3,,fail
Status,1209,17187175180,/g3t1_2,,success
Status,1210,17235600543,/g3t1_1,,running
Status,1211,17235664567,/g3t1_2,,running
Status,1212,17235686022,/g3t1_1,,fail
Status,1213,17235712516,/g3t1_2,,fail
Status,1214,17236337052,/g3t1_3,,running
Status,1215,17236462723,/g3t1_3,,fail
Status,1216,17273232003,/g4t1,,success
Status,1217,17286118656,/g3t1_2,,running
Status,1218,17286195891,/g3t1_1,,running
Status,1219,17286274104,/g3t1_2,,fail
Status,1220,17286307901,/g3t1_1,,fail
Status,1221,17286760476,/g3t1_3,,running
Status,1222,17287147693,/g3t1_3,,fail
Status,1223,17335758835,/g3t1_2,,running
Status,1224,17335809457,/g3t1_1,,running
Status,1225,17335901378,/g3t1_1,,fail
Status,1226,17335920276,/g3t1_2,,fail
Status,1227,17336732282,/g3t1_3,,running
Status,1228,17336771134,/g3t1_3,,fail
Status,1229,17372718599,/g4t1,,success
Status,1232,17386759185,/g3t1_1,,running
Status,1233,17386813969,/g3t1_2,,running
Status,1235,17387167322,/g3t1_2,,fail
Status,1236,17387241538,/g3t1_1,,fail
Status,1237,17387305504,/g3t1_3,,running
Status,1238,17387341272,/g3t1_3,,fail
Status,1239,17435936647,/g3t1_2,,running
Status,1240,17436014845,/g3t1_1,,running
Status,1241,17436141565,/g3t1_1,,fail
Status,1242,17436185810,/g3t1_2,,fail
Status,1243,17436760506,/g3t1_3,,running
Status,1244,17436939576,/g3t1_3,,fail
Status,1245,17472788315,/g4t1,,success
Status,1246,17486025153,/g3t1_1,,running
Status,1247,17486076875,/g3t1_2,,running
Status,1248,17486130231,/g3t1_2,,fail
Status,1249,17486150226,/g3t1_1,,fail
Status,1250,17486909833,/g3t1_3,,running
Status,1251,17487241707,/g3t1_3,,fail
Status,1252,17537031093,/g3t1_2,,running
Status,1253,17537157997,/g3t1_1,,running
Status,1254,17537292828,/g3t1_1,,fail
Status,1255,17537335460,/g3t1_2,,fail
Status,1256,17537645341,/g3t1_3,,running
Status,1257,17537779438,/g3t1_3,,fail
Status,1258,17573230109,/g4t1,,success
Status,1262,17587208687,/g3t1_2,,running
Status,1263,17587264202,/g3t1_1,,running
Status,1264,17587929478,/g3t1_1,,fail
Status,1265,17588215938,/g3t1_3,,running
Status,1266,17588274710,/g3t1_3,,fail
Status,1267,17588331436,/g3t1_2,,fail
Status,1268,17637134982,/g3t1_1,,running
Status,1269,17637216483,/g3t1_2,,running
Status,1270,17637324087,/g3t1_1,,fail
Status,1271,17637362385,/g3t1_2,,fail
Status,1272,17637738133,/g3t1_3,,running
Status,1273,17638088195,/g3t1_3,,fail
Status,1274,17673421794,/g4t1,,success
Status,1275,17687162688,/g3t1_2,,running
Status,1276,17687286403,/g3t1_1,,running
Status,1277,17687331192,/g3t1_1,,fail
Status,1278,17687834395,/g3t1_2,,fail
Status,1279,17687957181,/g3t1_3,,running
Status,1280,17688421705,/g3t1_3,,fail
Status,1281,17737420094,/g3t1_1,,running
Status,1282,17737517950,/g3t1_2,,running
Status,1283,17737645835,/g3t1_2,,fail
Status,1284,17737683428,/g3t1_1,,fail
Status,1285,17738046467,/g3t1_3,,running
Status,1286,17738114229,/g3t1_3,,fail
Status,1287,17773540110,/g4t1,,success
Status,1291,17787378094,/g3t1_1,,running
Status,1292,17787454290,/g3t1_2,,running
Status,1293,17787599155,/g3t1_2,,fail
Status,1294,17787972339,/g3t1_1,,fail
Status,1295,17788097258,/g3t1_3,,running
Status,1296,17788147358,/g3t1_3,,fail
Status,1297,17836867278,/g3t1_2,,running
Status,1298,17837030438,/g3t1_1,,running
Status,1299,17837056600,/g3t1_2,,fail
Status,1300,17837364498,/g3t1_1,,success
Status,1301,17837579708,/g3t1_3,,running
Status,1302,17837706223,/g3t1_3,,fail
Status,1303,17873701565,/g4t1,,success
Status,1304,17887348156,/g3t1_2,,running
Status,1305,17887435125,/g3t1_1,,running
Status,1306,17887880083,/g3t1_1,,fail
Status,1307,17888276678,/g3t1_3,,running
Status,1308,17888395142,/g3t1_2,,fail
Status,1309,17888445329,/g3t1_3,,fail
Status,1310,17937450874,/g3t1_2,,running
Status,1311,17937575202,/g3t1_1,,running
Status,1312,17937996216,/g3t1_1,,fail
Status,1313,17938178358,/g3t1_2,,fail
Status,1314,17938562224,/g3t1_3,,running
Status,1315,17938702097,/g3t1_3,,fail
Status,1316,17973905998,/g4t1,,success
Status,1320,17988048467,/g3t1_2,,running
Status,1321,17988548310,/g3t1_1,,running
Status,1322,17988611593,/g3t1_1,,fail
Status,1323,17988687319,/g3t1_2,,fail
Status,1324,17988783434,/g3t1_3,,running
Status,1325,17988811870,/g3t1_3,,fail
Status,1326,18037949454,/g3t1_2,,running
Status,1327,18038041654,/g3t1_1,,running
Status,1328,18038272934,/g3t1_1,,fail
Status,1329,18038329407,/g3t1_2,,fail
Status,1330,18038367584,/g3t1_3,,running
Status,1331,18038832605,/g3t1_3,,fail
Status,1332,18074131288,/g4t1,,success
Status,1333,18088023279,/g3t1_2,,running
Status,1334,18088123763,/g3t1_1,,running
Status,1335,18088248934,/g3t1_2,,fail
Status,1336,18088609996,/g3t1_1,,fail
Status,1337,18088700392,/g3t1_3,,running
Status,1338,18089171548,/g3t1_3,,fail
Status,1339,18137469269,/g3t1_2,,running
Status,1340,18137764635,/g3t1_1,,running
Status,1341,18137822583,/g3t1_1,,fail
Status,1342,18138178465,/g3t1_2,,fail
Status,1343,18138442118,/g3t1_3,,running
Status,1344,18138952304,/g3t1_3,,fail
Status,1345,18173639979,/g4t1,,success
Status,1349,18187203756,/g3t1_2,,running
Status,1350,18187262883,/g3t1_2,,fail
Status,1351,18187271577,/g3t1_1,,running
Status,1352,18187365633,/g3t1_1,,fail
Status,1353,18188113803,/g3t1_3,,running
Status,1354,18188321582,/g3t1_3,,fail
Status,1355,18238031103,/g3t1_2,,running
Status,1356,18238090215,/g3t1_1,,running
Status,1357,18238164993,/g3t1_1,,fail
Status,1358,18238181513,/g3t1_2,,fail
Status,1359,18238305885,/g3t1_3,,running
Status,1360,18238491593,/g3t1_3,,fail
Status,1361,18273473983,/g4t1,,success
Status,1362,18288035345,/g3t1_2,,running
Status,1363,18288062590,/g3t1_1,,running
Status,1364,18288108518,/g3t1_1,,fail
Status,1365,18288146417,/g3t1_2,,fail
Status,1366,18288425647,/g3t1_3,,running
Status,1367,18288499916,/g3t1_3,,fail
Status,1368,18337502633,/g3t1_2,,running
Status,1369,18337533685,/g3t1_2,,fail
Status,1370,18337584155,/g3t1_1,,running
Status,1371,18337732898,/g3t1_1,,fail
Status,1372,18338288402,/g3t1_3,,running
Status,1373,18338350078,/g3t1_3,,fail
Status,1374,18373592978,/g4t1,,success
Status,1378,18387604753,/g3t1_2,,running
Status,1379,18387912004,/g3t1_2,,success
Status,1380,18387933631,/g3t1_1,,running
Status,1381,18387957170,/g3t1_1,,fail
Status,1382,18388625929,/g3t1_3,,running
Status,1383,18388659350,/g3t1_3,,success
Status,1384,18437898195,/g3t1_2,,running
Status,1385,18437932084,/g3t1_1,,running
Status,1386,18438082792,/g3t1_1,,fail
Status,1387,18438110161,/g3t1_2,,success
Status,1388,18438660175,/g3t1_3,,running
Status,1389,18438690512,/g3t1_3,,fail
Status,1390,18473668945,/g4t1,,success
Status,1391,18487785766,/g3t1_2,,running
Status,1392,18487959992,/g3t1_1,,running
Status,1393,18488211199,/g3t1_1,,fail
Status,1394,18488608255,/g3t1_2,,fail
Status,1395,18488677866,/g3t1_3,,running
Status,1396,18489049690,/g3t1_3,,fail
Status,1397,18537804454,/g3t1_2,,running
Status,1398,18537962630,/g3t1_2,,success
Status,1399,18537985385,/g3t1_1,,running
Status,1400,18538240594,/g3t1_1,,fail
Status,1401,18538594325,/g3t1_3,,running
Status,1402,18538719302,/g3t1_3,,fail
Status,1403,18573811264,/g4t1,,success
Status,1407,18587733651,/g3t1_2,,running
Status,1408,18588089010,/g3t1_2,,fail
Status,1409,18588110474,/g3t1_1,,running
Status,1410,18588138545,/g3t1_1,,fail
Status,1411,18588799998,/g3t1_3,,running
Status,1412,18588820325,/g3t1_3,,success
Status,1413,18637847867,/g3t1_2,,running
Status,1414,18637877697,/g3t1_2,,fail
Status,1415,18638040747,/g3t1_1,,running
Status,1416,18638311369,/g3t1_1,,fail
Status,1417,18638679925,/g3t1_3,,running
Status,1418,18638768302,/g3t1_3,,fail
Status,1419,18673898912,/g4t1,,success
Status,1420,18687984797,/g3t1_2,,running
Status,1421,18688018365,/g3t1_2,,fail
Status,1422,18688194401,/g3t1_1,,running
Status,1423,18688266845,/g3t1_1,,fail
Status,1424,18688718179,/g3t1_3,,running
Status,1425,18688816231,/g3t1_3,,fail
Status,1426,18738056747,/g3t1_2,,running
Status,1427,18738120340,/g3t1_2,,fail
Status,1428,18738242323,/g3t1_1,,running
Status,1429,18738267233,/g3t1_1,,fail
Status,1430,18738791923,/g3t1_3,,running
Status,1431,18738872067,/g3t1_3,,fail
Status,1432,18773877075,/g4t1,,success
Status,1436,18788587789,/g3t1_2,,running
Status,1437,18788610244,/g3t1_1,,running
Status,1438,18788637503,/g3t1_1,,fail
Status,1439,18788645396,/g3t1_2,,fail
Status,1440,18789050267,/g3t1_3,,running
Status,1441,18789069535,/g3t1_3,,fail
Status,1442,18838210268,/g3t1_2,,running
Status,1443,18838238844,/g3t1_2,,fail
Status,1444,18838375541,/g3t1_1,,running
Status,1445,18838477834,/g3t1_1,,fail
Status,1446,18838904366,/g3t1_3,,running
Status,1447,18838989083,/g3t1_3,,fail
Status,1448,18873967383,/g4t1,,success
Status,1449,18888276456,/g3t1_2,,running
Status,1450,18888324171,/g3t1_2,,fail
Status,1451,18888409503,/g3t1_1,,running
Status,1452,18888527017,/g3t1_1,,fail
Status,1453,18888974698,/g3t1_3,,running
Status,1454,18889080024,/g3t1_3,,fail
Status,1455,18938531597,/g3t1_2,,running
Status,1456,18938560776,/g3t1_2,,fail
Status,1457,18938593962,/g3t1_1,,running
Status,1458,18938612454,/g3t1_1,,fail
Status,1459,18939057439,/g3t1_3,,running
Status,1460,18939217184,/g3t1_3,,fail
Status,1461,18974026326,/g4t1,,success
Status,1465,18988471517,/g3t1_2,,running
Status,1466,18988509389,/g3t1_2,,fail
Status,1467,18988654546,/g3t1_1,,running
Status,1468,18988692850,/g3t1_1,,fail
Status,1469,18989199999,/g3t1_3,,running
Status,1470,18989346950,/g3t1_3,,success
Status,1471,19038501915,/g3t1_2,,running
Status,1472,19038657676,/g3t1_2,,fail
Status,1473,19038685646,/g3t1_1,,running
Status,1474,19038912771,/g3t1_1,,success
Status,1475,19039272778,/g3t1_3,,running
Status,1476,19039403386,/g3t1_3,,success
Status,1477,19074248427,/g4t1,,success
Status,1478,19088808992,/g3t1_2,,running
Status,1479,19088846569,/g3t1_2,,fail
Status,1480,19088872435,/g3t1_1,,running
Status,1481,19089036424,/g3t1_1,,success
Status,1482,19089398994,/g3t1_3,,running
Status,1483,19089650361,/g3t1_3,,success
Status,1484,19138779754,/g3t1_2,,running
Status,1485,19138811084,/g3t1_2,,fail
Status,1486,19138838735,/g3t1_1,,running
Status,1487,19138927530,/g3t1_1,,fail
Status,1488,19139393645,/g3t1_3,,running
Status,1489,19139555799,/g3t1_3,,success
Status,1490,19174475230,/g4t1,,success
Status,1494,19189021095,/g3t1_2,,running
Status,1495,19189076187,/g3t1_2,,fail
Status,1496,19189106670,/g3t1_1,,running
Status,1497,19189118101,/g3t1_1,,fail
Status,1498,19189654221,/g3t1_3,,running
Status,1499,19189683531,/g3t1_3,,fail
Status,1500,19239213219,/g3t1_2,,running
Status,1501,19239287479,/g3t1_1,,running
Status,1502,19239324008,/g3t1_2,,fail
Status,1503,19239359313,/g3t1_1,,fail
Status,1504,19240098507,/g3t1_3,,running
Status,1505,19240151236,/g3t1_3,,fail
Status,1506,19274405532,/g4t1,,success
Status,1507,19289042485,/g3t1_2,,running
Status,1508,19289072183,/g3t1_1,,running
Status,1509,19289170706,/g3t1_1,,fail
Status,1510,19289195522,/g3t1_2,,fail
Status,1511,19289627651,/g3t1_3,,running
Status,1512,19289645256,/g3t1_3,,fail
Status,1513,19339061418,/g3t1_2,,running
Status,1514,19339085986,/g3t1_2,,fail
Status,1515,19339119487,/g3t1_1,,running
Status,1516,19339182011,/g3t1_1,,fail
Status,1517,19339660640,/g3t1_3,,running
Status,1518,19339803015,/g3t1_3,,fail
Status,1519,19374528934,/g4t1,,success
Status,1523,19389364932,/g3t1_2,,running
Status,1524,19389548709,/g3t1_1,,running
Status,1525,19389577288,/g3t1_2,,fail
Status,1526,19389615411,/g3t1_1,,fail
Status,1527,19389944411,/g3t1_3,,running
Status,1528,19390065672,/g3t1_3,,fail
Status,1529,19440161093,/g3t1_2,,running
Status,1530,19440237467,/g3t1_1,,running
Status,1531,19440380871,/g3t1_1,,fail
Status,1532,19440421685,/g3t1_3,,running
Status,1533,19441747808,/g3t1_2,,fail
Status,1534,19441835049,/g3t1_3,,fail
Status,1535,19474850095,/g4t1,,success
Status,1536,19489998742,/g3t1_2,,running
Status,1537,19490050794,/g3t1_1,,running
Status,1538,19490177049,/g3t1_1,,fail
Status,1539,19490209673,/g3t1_2,,fail
Status,1540,19490347487,/g3t1_3,,running
Status,1541,19490511062,/g3t1_3,,fail
Status,1542,19539555712,/g3t1_2,,running
Status,1543,19539586694,/g3t1_1,,running
Status,1544,19539691783,/g3t1_1,,fail
Status,1545,19539724356,/g3t1_2,,fail
Status,1546,19540268999,/g3t1_3,,running
Status,1547,19540292576,/g3t1_3,,fail
Status,1548,19574738241,/g4t1,,success
Status,1549,19589643604,/g3t1_2,,running
Status,1550,19589678439,/g3t1_1,,running
Status,1551,19589692134,/g3t1_2,,fail
Status,1552,19589713760,/g3t1_1,,fail
Status,1553,19590224149,/g3t1_3,,running
Status,1554,19590245738,/g3t1_3,,fail
Status,1555,19639916904,/g3t1_2,,running
Status,1556,19639947470,/g3t1_1,,running
Status,1557,19639983019,/g3t1_1,,fail
Status,1558,19639991687,/g3t1_2,,fail
Status,1559,19640301071,/g3t1_3,,running
Status,1560,19640451465,/g3t1_3,,fail
Status,1561,19675266826,/g4t1,,success
Status,1562,19690180428,/g3t1_2,,running
Status,1563,19690274436,/g3t1_2,,fail
Status,1564,19690336954,/g3t1_1,,running
Status,1565,19690353313,/g3t1_1,,fail
Status,1566,19691063863,/g3t1_3,,running
Status,1567,19691104472,/g3t1_3,,fail
Status,1568,19740084253,/g3t1_2,,running
Status,1569,19740116200,/g3t1_1,,running
Status,1570,19740217340,/g3t1_1,,fail
Status,1571,19740232214,/g3t1_2,,fail
Status,1572,19740579097,/g3t1_3,,running
Status,1573,19740744056,/g3t1_3,,fail
Status,1574,19775132028,/g4t1,,success
Status,1575,19790178002,/g3t1_2,,running
Status,1576,19790211308,/g3t1_2,,fail
Status,1577,19790222858,/g3t1_1,,running
Status,1578,19790375633,/g3t1_1,,fail
Status,1579,19790678605,/g3t1_3,,running
Status,1580,19790874119,/g3t1_3,,fail
Status,1581,19840785448,/g3t1_2,,running
Status,1582,19840981360,/g3t1_1,,running
Status,1583,19841058450,/g3t1_1,,fail
Status,1584,19841104460,/g3t1_2,,fail
Status,1585,19841253135,/g3t1_3,,running
Status,1586,19841301123,/g3t1_3,,fail
Status,1587,19875761115,/g4t1,,success
Status,1588,19890779662,/g3t1_1,,running
Status,1589,19890867742,/g3t1_2,,running
Status,1590,19891294648,/g3t1_1,,fail
Status,1591,19891362949,/g3t1_2,,fail
Status,1592,19891468221,/g3t1_3,,running
Status,1593,19891816164,/g3t1_3,,fail
Status,1594,19940561532,/g3t1_2,,running
Status,1595,19940593261,/g3t1_1,,running
Status,1596,19940627590,/g3t1_2,,fail
Status,1597,19940640955,/g3t1_1,,fail
Status,1598,19941122918,/g3t1_3,,running
Status,1599,19941254627,/g3t1_3,,fail
Status,1600,19975252065,/g4t1,,success
Status,1601,19990518843,/g3t1_1,,running
Status,1602,19990546319,/g3t1_2,,running
Status,1603,19990585493,/g3t1_2,,fail
Status,1604,19990595224,/g3t1_1,,fail
Status,1605,19990977271,/g3t1_3,,running
Status,1606,19991070750,/g3t1_3,,fail
Status,1607,20041364439,/g3t1_2,,running
Status,1608,20041443856,/g3t1_1,,running
Status,1609,20041542191,/g3t1_1,,fail
Status,1610,20041582155,/g3t1_2,,fail
Status,1611,20041867341,/g3t1_3,,running
Status,1612,20041932102,/g3t1_3,,fail
Status,1613,20075950869,/g4t1,,success
Status,1614,20091522282,/g3t1_1,,running
Status,1615,20091599919,/g3t1_2,,running
Status,1616,20091629223,/g3t1_2,,fail
Status,1617,20091813479,/g3t1_3,,running
Status,1618,20091907811,/g3t1_1,,fail
Status,1619,20092270947,/g3t1_3,,fail
Status,1620,20141763571,/g3t1_2,,running
Status,1621,20141919680,/g3t1_1,,running
Status,1622,20141955652,/g3t1_1,,fail
Status,1623,20142000946,/g3t1_2,,fail
Status,1624,20142091554,/g3t1_3,,running
Status,1625,20142117107,/g3t1_3,,fail
Status,1626,20175668411,/g4t1,,success
Status,1627,20191344530,/g3t1_2,,running
Status,1628,20191411890,/g3t1_1,,running
Status,1629,20191481251,/g3t1_1,,fail
Status,1630,20191506547,/g3t1_2,,fail
Status,1631,20191671689,/g3t1_3,,running
Status,1632,20191746930,/g3t1_3,,fail
Status,1633,20242190907,/g3t1_2,,running
Status,1634,20242269233,/g3t1_1,,running
Status,1635,20242450592,/g3t1_2,,fail
Status,1636,20242481394,/g3t1_3,,running
Status,1637,20242503612,/g3t1_3,,fail
Status,1638,20242544040,/g3t1_1,,fail
Status,1639,20276083115,/g4t1,,success
Status,1640,20292253815,/g3t1_1,,running
Status,1641,20292314720,/g3t1_2,,running
Status,1642,20292338880,/g3t1_3,,running
Status,1643,20292365606,/g3t1_1,,fail
Status,1644,20292392792,/g3t1_2,,fail
Status,1645,20293004454,/g3t1_3,,fail
Status,1646,20342432500,/g3t1_2,,running
Status,1647,20342495207,/g3t1_1,,running
Status,1648,20342519817,/g3t1_1,,fail
Status,1649,20342703114,/g3t1_2,,fail
Status,1650,20342765689,/g3t1_3,,running
Status,1651,20342794880,/g3t1_3,,fail
Status,1652,20376240698,/g4t1,,success
Status,1656,20392139854,/g3t1_2,,running
Status,1657,20392210189,/g3t1_1,,running
Status,1658,20392234730,/g3t1_2,,fail
Status,1659,20392268888,/g3t1_3,,running
Status,1660,20392731976,/g3t1_1,,success
Status,1661,20392802427,/g3t1_3,,fail
Status,1662,20442578225,/g3t1_1,,running
Status,1663,20442733470,/g3t1_2,,running
Status,1664,20442773689,/g3t1_3,,running
Status,1665,20443215121,/g3t1_2,,fail
Status,1666,20443287513,/g3t1_1,,fail
Status,1667,20443424186,/g3t1_3,,fail
Status,1668,20476226626,/g4t1,,success
Status,1669,20492704178,/g3t1_1,,running
Status,1670,20492877016,/g3t1_2,,running
Status,1671,20492968448,/g3t1_1,,fail
Status,1672,20492998491,/g3t1_3,,running
Status,1673,20493025398,/g3t1_2,,fail
Status,1674,20493051868,/g3t1_3,,fail
Status,1675,20543224973,/g3t1_2,,running
Status,1676,20543293364,/g3t1_1,,running
Status,1677,20543317338,/g3t1_2,,fail
Status,1678,20543342637,/g3t1_3,,running
Status,1679,20543366433,/g3t1_3,,fail
Status,1680,20543544984,/g3t1_1,,fail
Status,1681,20576189982,/g4t1,,success
Status,1685,20592826767,/g3t1_1,,running
Status,1686,20592882176,/g3t1_2,,running
