
Status,1,3586294364,/g4t1,,init
Status,3,8796217670,/g3t1_1,,init
Status,5,8814510457,/g3t1_1,,init
Status,6,8814541717,/g3t1_1,,running
Status,7,8815804893,/g3t1_1,,success
Status,8,8916988804,/g3t1_1,,running
Status,9,8917022056,/g3t1_1,,success
Status,10,9014786999,/g3t1_1,,running
Status,11,9014949499,/g3t1_1,,success
Status,12,9047731616,/g3t1_2,,init
Status,14,9074916551,/g3t1_2,,init
Status,15,9074956093,/g3t1_2,,running
Status,16,9076176577,/g3t1_2,,success
Status,17,9114741071,/g3t1_1,,running
Status,18,9114877662,/g3t1_1,,success
Status,19,9126263569,/g4t1,,success
Status,20,9174970619,/g3t1_2,,running
Status,21,9175323791,/g3t1_2,,success
Status,22,9215042891,/g3t1_1,,running
Status,23,9215077537,/g3t1_1,,success
Status,24,9226731345,/g4t1,,success
Status,25,9246928597,/g4t1,,success
Status,27,9258119471,/g3t1_3,,init
Status,28,9273720579,/g3t1_3,,init
Status,29,9273750994,/g3t1_3,,running
Status,30,9274496247,/g3t1_3,,success
Status,31,9274954992,/g3t1_2,,running
Status,32,9275620757,/g3t1_2,,success
Status,33,9315069809,/g3t1_1,,running
Status,34,9315140221,/g3t1_1,,success
Status,35,9327246490,/g4t1,,success
Status,36,9347162510,/g4t1,,success
Status,37,9367450377,/g4t1,,success
Status,38,9373744784,/g3t1_3,,running
Status,39,9373878958,/g3t1_3,,success
Status,40,9375040900,/g3t1_2,,running
Status,41,9375158366,/g3t1_2,,success
Status,42,9387534524,/g4t1,,success
Status,43,9407615411,/g4t1,,success
Status,44,9414984857,/g3t1_1,,running
Status,45,9415133787,/g3t1_1,,success
Status,46,9427667550,/g4t1,,success
Status,47,9447655451,/g4t1,,success
Status,48,9467815230,/g4t1,,success
Status,49,9473875093,/g3t1_3,,running
Status,50,9474158506,/g3t1_3,,success
Status,51,9475087697,/g3t1_2,,running
Status,52,9475264039,/g3t1_2,,success
Status,53,9487939156,/g4t1,,success
Status,54,9507997432,/g4t1,,success
Status,55,9515024943,/g3t1_1,,running
Status,56,9515231706,/g3t1_1,,success
Status,57,9528231537,/g4t1,,fail
Status,58,9548203573,/g4t1,,success
Status,59,9568254461,/g4t1,,success
Status,60,9573909042,/g3t1_3,,running
Status,61,9574076021,/g3t1_3,,success
Status,62,9575140989,/g3t1_2,,running
Status,63,9575471783,/g3t1_2,,success
Status,64,9588473366,/g4t1,,success
Status,65,9608532346,/g4t1,,success
Status,66,9615200406,/g3t1_1,,running
Status,67,9615310136,/g3t1_1,,success
Status,68,9628641355,/g4t1,,fail
Status,69,9648765994,/g4t1,,success
Status,70,9668851438,/g4t1,,success
Status,71,9674184126,/g3t1_3,,running
Status,72,9674210800,/g3t1_3,,success
Status,73,9675232259,/g3t1_2,,running
Status,74,9675382701,/g3t1_2,,success
Status,75,9688918440,/g4t1,,success
Status,76,9709003688,/g4t1,,success
Status,77,9715374737,/g3t1_1,,running
Status,78,9715425163,/g3t1_1,,success
Status,79,9729135058,/g4t1,,fail
Status,80,9749190148,/g4t1,,success
Status,81,9769398465,/g4t1,,success
Status,82,9774105562,/g3t1_3,,running
Status,83,9774157415,/g3t1_3,,success
Status,84,9775368954,/g3t1_2,,running
Status,85,9775393568,/g3t1_2,,success
Status,86,9789464377,/g4t1,,fail
Status,87,9809559823,/g4t1,,success
Status,88,9815461357,/g3t1_1,,running
Status,89,9815690550,/g3t1_1,,success
Status,90,9829608588,/g4t1,,fail
Status,91,9849755830,/g4t1,,success
Status,92,9869797667,/g4t1,,success
Status,93,9874215223,/g3t1_3,,running
Status,94,9874409836,/g3t1_3,,success
Status,95,9875323556,/g3t1_2,,running
Status,96,9875564452,/g3t1_2,,success
Status,97,9889856891,/g4t1,,fail
Status,98,9909897860,/g4t1,,success
Status,99,9915502938,/g3t1_1,,running
Status,100,9915774616,/g3t1_1,,success
Status,101,9930112287,/g4t1,,fail
Status,102,9950129493,/g4t1,,success
Status,103,9970224877,/g4t1,,success
Status,104,9974336236,/g3t1_3,,running
Status,105,9974461821,/g3t1_3,,success
Status,106,9975468803,/g3t1_2,,running
Status,107,9975614529,/g3t1_2,,success
Status,108,9990358174,/g4t1,,fail
Status,109,10010435499,/g4t1,,success
Status,110,10015433969,/g3t1_1,,running
Status,111,10015560547,/g3t1_1,,success
Status,112,10030564473,/g4t1,,fail
Status,113,10050638171,/g4t1,,success
Status,114,10070738316,/g4t1,,success
Status,115,10074402342,/g3t1_3,,running
Status,116,10074486307,/g3t1_3,,success
Status,117,10075578424,/g3t1_2,,running
Status,118,10075688232,/g3t1_2,,success
Status,119,10090786086,/g4t1,,fail
Status,120,10110927513,/g4t1,,success
Status,121,10115553214,/g3t1_1,,running
Status,122,10115607763,/g3t1_1,,success
Status,123,10131124708,/g4t1,,fail
Status,124,10151133013,/g4t1,,success
Status,125,10171206076,/g4t1,,success
Status,126,10174528512,/g3t1_3,,running
Status,127,10174676318,/g3t1_3,,success
Status,128,10175564275,/g3t1_2,,running
Status,129,10175686258,/g3t1_2,,success
Status,130,10191391524,/g4t1,,fail
Status,131,10211510316,/g4t1,,success
Status,132,10215837701,/g3t1_1,,running
Status,133,10215865286,/g3t1_1,,success
Status,134,10231467776,/g4t1,,fail
Status,135,10251696604,/g4t1,,success
Status,136,10271807685,/g4t1,,success
Status,137,10274561467,/g3t1_3,,running
Status,138,10274728775,/g3t1_3,,success
Status,139,10275636200,/g3t1_2,,running
Status,140,10275758774,/g3t1_2,,success
Status,141,10291847812,/g4t1,,fail
Status,142,10312001477,/g4t1,,success
Status,143,10315833089,/g3t1_1,,running
Status,144,10315860678,/g3t1_1,,success
Status,145,10332014819,/g4t1,,fail
Status,146,10352186783,/g4t1,,success
Status,147,10372239258,/g4t1,,success
Status,148,10374718330,/g3t1_3,,running
Status,149,10374840207,/g3t1_3,,success
Status,150,10375715483,/g3t1_2,,running
Status,151,10375964914,/g3t1_2,,success
Status,152,10392374048,/g4t1,,fail
Status,153,10412792495,/g4t1,,success
Status,154,10415895732,/g3t1_1,,running
Status,155,10415984419,/g3t1_1,,success
Status,156,10432619791,/g4t1,,fail
Status,157,10452676838,/g4t1,,success
Status,158,10472609833,/g4t1,,success
Status,159,10474777650,/g3t1_3,,running
Status,160,10474953318,/g3t1_3,,success
Status,161,10475759439,/g3t1_2,,running
Status,162,10475963496,/g3t1_2,,success
Status,163,10492903777,/g4t1,,fail
Status,164,10512907811,/g4t1,,success
Status,165,10515835675,/g3t1_1,,running
Status,166,10515985606,/g3t1_1,,success
Status,167,10533083264,/g4t1,,fail
Status,168,10553152571,/g4t1,,success
Status,169,10573137762,/g4t1,,success
Status,170,10574846082,/g3t1_3,,running
Status,171,10575024727,/g3t1_3,,success
Status,172,10575769775,/g3t1_2,,running
Status,173,10575949945,/g3t1_2,,success
Status,174,10593372446,/g4t1,,fail
Status,175,10613359196,/g4t1,,success
Status,176,10616085101,/g3t1_1,,running
Status,177,10616126217,/g3t1_1,,success
Status,178,10633625284,/g4t1,,fail
Status,179,10653701185,/g4t1,,success
Status,180,10673634022,/g4t1,,success
Status,181,10674977197,/g3t1_3,,running
Status,182,10675313816,/g3t1_3,,success
Status,183,10675868002,/g3t1_2,,running
Status,184,10676072429,/g3t1_2,,success
Status,185,10693619307,/g4t1,,fail
Status,186,10713819818,/g4t1,,success
Status,187,10716051272,/g3t1_1,,running
Status,188,10716335184,/g3t1_1,,success
Status,189,10733954134,/g4t1,,fail
Status,190,10753977134,/g4t1,,success
Status,191,10773918596,/g4t1,,success
Status,192,10775145592,/g3t1_3,,running
Status,193,10775181640,/g3t1_3,,success
Status,194,10775910785,/g3t1_2,,running
Status,195,10776098305,/g3t1_2,,success
Status,196,10794167165,/g4t1,,fail
Status,197,10814365690,/g4t1,,success
Status,198,10816186715,/g3t1_1,,running
Status,199,10816389460,/g3t1_1,,success
Status,200,10834284713,/g4t1,,fail
Status,201,10854409011,/g4t1,,success
Status,202,10874530872,/g4t1,,success
Status,203,10875147699,/g3t1_3,,running
Status,204,10875314467,/g3t1_3,,success
Status,205,10876028887,/g3t1_2,,running
Status,206,10876138764,/g3t1_2,,success
Status,207,10894577594,/g4t1,,fail
Status,208,10914814953,/g4t1,,success
Status,209,10916345064,/g3t1_1,,running
Status,210,10916368607,/g3t1_1,,success
Status,211,10934889659,/g4t1,,fail
Status,212,10954996990,/g4t1,,success
Status,213,10975108825,/g4t1,,success
Status,214,10975143986,/g3t1_3,,running
Status,215,10975505232,/g3t1_3,,success
Status,216,10976164474,/g3t1_2,,running
Status,217,10976371456,/g3t1_2,,success
Status,218,10995241918,/g4t1,,fail
Status,219,11015327243,/g4t1,,success
Status,220,11016388273,/g3t1_1,,running
Status,221,11016554673,/g3t1_1,,success
Status,222,11035380889,/g4t1,,fail
Status,223,11055372751,/g4t1,,success
Status,224,11075384572,/g3t1_3,,running
Status,225,11075516885,/g4t1,,success
Status,226,11075560347,/g3t1_3,,success
Status,227,11076174312,/g3t1_2,,running
Status,228,11076382765,/g3t1_2,,success
Status,229,11095668265,/g4t1,,fail
Status,230,11115775845,/g4t1,,success
Status,231,11116421135,/g3t1_1,,running
Status,232,11116645616,/g3t1_1,,success
Status,233,11135875781,/g4t1,,fail
Status,234,11155956827,/g4t1,,success
Status,235,11175586136,/g3t1_3,,running
Status,236,11175622029,/g3t1_3,,success
Status,237,11175973360,/g4t1,,fail
Status,238,11176329038,/g3t1_2,,running
Status,239,11176526867,/g3t1_2,,success
Status,240,11196152334,/g4t1,,fail
Status,241,11216232335,/g4t1,,success
Status,242,11216528937,/g3t1_1,,running
Status,243,11216797833,/g3t1_1,,success
Status,244,11236249574,/g4t1,,fail
Status,245,11256338371,/g4t1,,success
Status,246,11275678262,/g3t1_3,,running
Status,247,11275715759,/g3t1_3,,success
Status,248,11276399944,/g4t1,,fail
Status,249,11276448197,/g3t1_2,,running
Status,250,11276516297,/g3t1_2,,success
Status,251,11296716184,/g4t1,,fail
Status,252,11316791206,/g4t1,,success
Status,253,11316823515,/g3t1_1,,running
Status,254,11316852711,/g3t1_1,,success
Status,255,11336674847,/g4t1,,fail
Status,256,11356819848,/g4t1,,success
Status,257,11375663856,/g3t1_3,,running
Status,258,11375875576,/g3t1_3,,success
Status,259,11376402184,/g3t1_2,,running
Status,260,11376629227,/g3t1_2,,success
Status,261,11376654233,/g4t1,,fail
Status,262,11396971292,/g4t1,,fail
Status,263,11416961567,/g3t1_1,,running
Status,264,11416986041,/g4t1,,success
Status,265,11417010545,/g3t1_1,,success
Status,266,11437255924,/g4t1,,fail
Status,267,11457270076,/g4t1,,success
Status,268,11475776122,/g3t1_3,,running
Status,269,11475970027,/g3t1_3,,success
Status,270,11476441319,/g3t1_2,,running
Status,271,11476662255,/g3t1_2,,success
Status,272,11477104353,/g4t1,,fail
Status,273,11497402864,/g4t1,,success
Status,274,11516953110,/g3t1_1,,running
Status,275,11517101119,/g3t1_1,,success
Status,276,11517296233,/g4t1,,fail
Status,277,11537605993,/g4t1,,success
Status,278,11557693443,/g4t1,,success
Status,279,11575961205,/g3t1_3,,running
Status,280,11575991883,/g3t1_3,,success
Status,281,11576527916,/g3t1_2,,running
Status,282,11576667617,/g3t1_2,,success
Status,283,11577541440,/g4t1,,fail
Status,284,11597823142,/g4t1,,success
Status,285,11616985667,/g3t1_1,,running
Status,286,11617009846,/g3t1_1,,success
Status,287,11617693320,/g4t1,,fail
Status,288,11638013292,/g4t1,,success
Status,289,11658099874,/g4t1,,success
Status,290,11676005149,/g3t1_3,,running
Status,291,11676101222,/g3t1_3,,success
Status,292,11676566564,/g3t1_2,,running
Status,293,11676675627,/g3t1_2,,success
Status,294,11677987176,/g4t1,,fail
Status,295,11698222647,/g4t1,,success
Status,296,11717138786,/g3t1_1,,running
Status,297,11717401707,/g3t1_1,,success
Status,298,11718066721,/g4t1,,fail
Status,299,11738355903,/g4t1,,success
Status,300,11758423359,/g4t1,,success
Status,301,11776103147,/g3t1_3,,running
Status,302,11776127894,/g3t1_3,,success
Status,303,11776824770,/g3t1_2,,running
Status,304,11776849260,/g3t1_2,,success
Status,305,11778419635,/g4t1,,fail
Status,306,11798693373,/g4t1,,success
Status,307,11817329863,/g3t1_1,,running
Status,308,11817355792,/g3t1_1,,success
Status,309,11818564100,/g4t1,,fail
Status,310,11838813613,/g4t1,,success
Status,311,11858902576,/g4t1,,success
Status,312,11876138396,/g3t1_3,,running
Status,313,11876252836,/g3t1_3,,success
Status,314,11876853626,/g3t1_2,,running
Status,315,11876908869,/g3t1_2,,success
Status,316,11878812019,/g4t1,,fail
Status,317,11899018444,/g4t1,,success
Status,318,11917346767,/g3t1_1,,running
Status,319,11917477473,/g3t1_1,,success
Status,320,11919034871,/g4t1,,fail
Status,321,11939310975,/g4t1,,success
Status,322,11959401800,/g4t1,,success
Status,323,11976211166,/g3t1_3,,running
Status,324,11976526564,/g3t1_3,,success
Status,325,11976766422,/g3t1_2,,running
Status,326,11976907493,/g3t1_2,,success
Status,327,11979251906,/g4t1,,fail
Status,328,11999570433,/g4t1,,success
Status,329,12017468281,/g3t1_1,,running
Status,330,12017496467,/g3t1_1,,success
Status,331,12019406538,/g4t1,,fail
Status,332,12039701093,/g4t1,,success
Status,333,12059761511,/g4t1,,success
Status,334,12076366116,/g3t1_3,,running
Status,335,12076457692,/g3t1_3,,success
Status,336,12076851568,/g3t1_2,,running
Status,337,12076985267,/g3t1_2,,success
Status,338,12079636275,/g4t1,,fail
Status,339,12099994262,/g4t1,,success
Status,340,12117453142,/g3t1_1,,running
Status,341,12117726543,/g3t1_1,,success
Status,342,12119831064,/g4t1,,fail
Status,343,12140241473,/g4t1,,success
Status,344,12160296321,/g4t1,,success
Status,345,12176436269,/g3t1_3,,running
Status,346,12176472177,/g3t1_3,,success
Status,347,12176878328,/g3t1_2,,running
Status,348,12177084455,/g3t1_2,,success
Status,349,12180203415,/g4t1,,fail
Status,350,12200334691,/g4t1,,success
Status,351,12217530856,/g3t1_1,,running
Status,352,12217556076,/g3t1_1,,success
Status,353,12220259492,/g4t1,,fail
Status,354,12240458604,/g4t1,,success
Status,355,12260516502,/g4t1,,success
Status,356,12276550948,/g3t1_3,,running
Status,357,12276577560,/g3t1_3,,success
Status,358,12277071232,/g3t1_2,,running
Status,359,12277094077,/g3t1_2,,success
Status,360,12280549561,/g4t1,,fail
Status,361,12300783935,/g4t1,,success
Status,362,12317683588,/g3t1_1,,running
Status,363,12317710318,/g3t1_1,,success
Status,364,12320779225,/g4t1,,fail
Status,365,12340884324,/g4t1,,success
Status,366,12361019699,/g4t1,,success
Status,367,12376669570,/g3t1_3,,running
Status,368,12376827258,/g3t1_3,,success
Status,369,12376996416,/g3t1_2,,running
Status,370,12377225837,/g3t1_2,,success
Status,371,12381142569,/g4t1,,fail
Status,372,12401187905,/g4t1,,success
Status,373,12417685544,/g3t1_1,,running
Status,374,12417792880,/g3t1_1,,success
Status,375,12421268268,/g4t1,,fail
Status,376,12441505299,/g4t1,,success
Status,377,12461542147,/g4t1,,success
Status,378,12476728977,/g3t1_3,,running
Status,379,12476818613,/g3t1_3,,success
Status,380,12477053935,/g3t1_2,,running
Status,381,12477303276,/g3t1_2,,success
Status,382,12481571993,/g4t1,,fail
Status,383,12501664128,/g4t1,,success
Status,384,12517791490,/g3t1_1,,running
Status,385,12517816718,/g3t1_1,,success
Status,386,12521627389,/g4t1,,fail
Status,387,12541746967,/g4t1,,success
Status,388,12561882308,/g4t1,,success
Status,389,12576817570,/g3t1_3,,running
Status,390,12576842631,/g3t1_3,,success
Status,391,12577172547,/g3t1_2,,running
Status,392,12577350781,/g3t1_2,,success
Status,393,12581831457,/g4t1,,fail
Status,394,12601973110,/g4t1,,success
Status,395,12617786622,/g3t1_1,,running
Status,396,12617957047,/g3t1_1,,success
Status,397,12622091095,/g4t1,,fail
Status,398,12642173438,/g4t1,,success
Status,399,12662342905,/g4t1,,success
Status,400,12676851480,/g3t1_3,,running
Status,401,12676946298,/g3t1_3,,success
Status,402,12677163737,/g3t1_2,,running
Status,403,12677367240,/g3t1_2,,success
Status,404,12682208424,/g4t1,,fail
Status,405,12702510077,/g4t1,,success
Status,406,12717957564,/g3t1_1,,running
Status,407,12717993094,/g3t1_1,,success
Status,408,12722456834,/g4t1,,fail
Status,409,12742661881,/g4t1,,success
Status,410,12762842398,/g4t1,,success
Status,411,12777126024,/g3t1_3,,running
Status,412,12777153589,/g3t1_3,,success
Status,413,12777245713,/g3t1_2,,running
Status,414,12777458752,/g3t1_2,,success
Status,415,12782604209,/g4t1,,fail
Status,416,12802850011,/g4t1,,success
Status,417,12818183604,/g3t1_1,,running
Status,418,12818205717,/g3t1_1,,success
Status,419,12822995340,/g4t1,,fail
Status,420,12843211358,/g4t1,,success
Status,421,12863262999,/g4t1,,success
Status,422,12877071301,/g3t1_3,,running
Status,423,12877177918,/g3t1_3,,success
Status,424,12877501625,/g3t1_2,,running
Status,425,12877518959,/g3t1_2,,success
Status,426,12883253828,/g4t1,,fail
Status,427,12903458216,/g4t1,,success
Status,428,12918183545,/g3t1_1,,running
Status,429,12918205076,/g3t1_1,,success
Status,430,12923459579,/g4t1,,fail
Status,431,12943633703,/g4t1,,success
Status,432,12963754620,/g4t1,,success
Status,433,12977165966,/g3t1_3,,running
Status,434,12977451964,/g3t1_3,,success
Status,435,12977471010,/g3t1_2,,running
Status,436,12977576628,/g3t1_2,,success
Status,437,12983753948,/g4t1,,fail
Status,438,13003874953,/g4t1,,success
Status,439,13018313497,/g3t1_1,,running
Status,440,13018337644,/g3t1_1,,success
Status,441,13023933964,/g4t1,,fail
Status,442,13044101714,/g4t1,,success
Status,443,13064154827,/g4t1,,success
Status,444,13077252564,/g3t1_3,,running
Status,445,13077453000,/g3t1_3,,success
Status,446,13077478755,/g3t1_2,,running
Status,447,13077640873,/g3t1_2,,success
Status,448,13084112506,/g4t1,,fail
Status,449,13104363737,/g4t1,,success
Status,450,13118374057,/g3t1_1,,running
Status,451,13118399619,/g3t1_1,,success
Status,452,13124378161,/g4t1,,fail
Status,453,13144493718,/g4t1,,success
Status,454,13164647034,/g4t1,,success
Status,455,13177295907,/g3t1_3,,running
Status,456,13177411455,/g3t1_3,,success
Status,457,13177558291,/g3t1_2,,running
Status,458,13177738497,/g3t1_2,,success
Status,459,13184539179,/g4t1,,fail
Status,460,13204678971,/g4t1,,success
Status,461,13218580758,/g3t1_1,,running
Status,462,13218602109,/g3t1_1,,success
Status,463,13224776673,/g4t1,,success
Status,464,13244967086,/g4t1,,success
Status,465,13265060309,/g4t1,,success
Status,466,13277496770,/g3t1_3,,running
Status,467,13277726206,/g3t1_3,,success
Status,468,13277760102,/g3t1_2,,running
Status,469,13277897438,/g3t1_2,,success
Status,470,13285021957,/g4t1,,fail
Status,471,13305144753,/g4t1,,success
Status,472,13318629911,/g3t1_1,,running
Status,473,13318654135,/g3t1_1,,success
Status,474,13325210569,/g4t1,,fail
Status,475,13345385865,/g4t1,,success
Status,476,13365476877,/g4t1,,success
Status,477,13377582526,/g3t1_3,,running
Status,478,13377622694,/g3t1_3,,success
Status,479,13377730434,/g3t1_2,,running
Status,480,13377968881,/g3t1_2,,success
Status,481,13385558350,/g4t1,,fail
Status,482,13405575174,/g4t1,,success
Status,483,13418580414,/g3t1_1,,running
Status,484,13418643129,/g3t1_1,,success
Status,485,13425666156,/g4t1,,success
Status,486,13445873876,/g4t1,,success
Status,487,13465872021,/g4t1,,success
Status,488,13477592716,/g3t1_3,,running
Status,489,13477709319,/g3t1_3,,success
Status,490,13477755671,/g3t1_2,,running
Status,491,13477902837,/g3t1_2,,success
Status,492,13485875509,/g4t1,,fail
Status,493,13505882563,/g4t1,,success
Status,494,13518782048,/g3t1_1,,running
Status,495,13518803715,/g3t1_1,,success
Status,496,13526051030,/g4t1,,fail
Status,497,13546324381,/g4t1,,success
Status,498,13566310102,/g4t1,,success
Status,499,13577707598,/g3t1_3,,running
Status,500,13577739422,/g3t1_3,,success
Status,501,13577785943,/g3t1_2,,running
Status,502,13578038299,/g3t1_2,,success
Status,503,13586399568,/g4t1,,fail
Status,504,13606461113,/g4t1,,success
Status,505,13618874447,/g3t1_1,,running
Status,506,13618945061,/g3t1_1,,success
Status,507,13626600281,/g4t1,,success
Status,508,13646674566,/g4t1,,success
Status,509,13666769578,/g4t1,,success
Status,510,13677719464,/g3t1_3,,running
Status,511,13677744671,/g3t1_3,,success
Status,512,13677890644,/g3t1_2,,running
Status,513,13678389021,/g3t1_2,,success
Status,514,13686722422,/g4t1,,fail
Status,515,13706836833,/g4t1,,success
Status,516,13718894545,/g3t1_1,,running
Status,517,13718923400,/g3t1_1,,success
Status,518,13727035712,/g4t1,,fail
Status,519,13747163274,/g4t1,,success
Status,520,13767272880,/g4t1,,success
Status,521,13777859832,/g3t1_3,,running
Status,522,13778153626,/g3t1_3,,success
Status,523,13778175061,/g3t1_2,,running
Status,524,13778232085,/g3t1_2,,success
Status,525,13787335646,/g4t1,,fail
Status,526,13807417166,/g4t1,,success
Status,527,13819080324,/g3t1_1,,running
Status,528,13819176474,/g3t1_1,,success
Status,529,13827509435,/g4t1,,success
Status,530,13847721283,/g4t1,,success
Status,531,13867667390,/g4t1,,success
Status,532,13878174308,/g3t1_3,,running
Status,533,13878203154,/g3t1_2,,running
Status,534,13878215771,/g3t1_3,,success
Status,535,13878451948,/g3t1_2,,success
Status,536,13887740138,/g4t1,,fail
Status,537,13907901573,/g4t1,,success
Status,538,13919104206,/g3t1_1,,running
Status,539,13919129040,/g3t1_1,,success
Status,540,13927901284,/g4t1,,fail
Status,541,13948083286,/g4t1,,success
Status,542,13968143053,/g4t1,,success
Status,543,13978339046,/g3t1_3,,running
Status,544,13978453183,/g3t1_2,,running
Status,545,13978470542,/g3t1_3,,success
Status,546,13978570113,/g3t1_2,,success
Status,547,13988340498,/g4t1,,fail
Status,548,14008445328,/g4t1,,success
Status,549,14019203470,/g3t1_1,,running
Status,550,14019248899,/g3t1_1,,success
Status,551,14028345109,/g4t1,,success
Status,552,14048449318,/g4t1,,success
Status,553,14068559129,/g4t1,,success
Status,554,14078336026,/g3t1_3,,running
Status,555,14078379243,/g3t1_3,,success
Status,556,14078391254,/g3t1_2,,running
Status,557,14078401281,/g3t1_2,,success
Status,558,14088556285,/g4t1,,fail
Status,559,14108745692,/g4t1,,success
Status,560,14119307150,/g3t1_1,,running
Status,561,14119411872,/g3t1_1,,success
Status,562,14128806088,/g4t1,,fail
Status,563,14148925555,/g4t1,,success
Status,564,14169004291,/g4t1,,success
Status,565,14178243475,/g3t1_3,,running
Status,566,14178439209,/g3t1_3,,success
Status,567,14178456771,/g3t1_2,,running
Status,568,14178647854,/g3t1_2,,success
Status,569,14189083182,/g4t1,,fail
Status,570,14209109440,/g4t1,,success
Status,571,14219472391,/g3t1_1,,running
Status,572,14219494629,/g3t1_1,,success
Status,573,14229380265,/g4t1,,success
Status,574,14249482446,/g4t1,,success
Status,575,14269521746,/g4t1,,success
Status,576,14278303232,/g3t1_3,,running
Status,577,14278456107,/g3t1_2,,running
Status,578,14278572582,/g3t1_3,,success
Status,579,14278589053,/g3t1_2,,success
Status,580,14289598254,/g4t1,,fail
Status,581,14309715651,/g4t1,,success
Status,582,14319606531,/g3t1_1,,running
Status,583,14319627905,/g3t1_1,,success
Status,584,14329789159,/g4t1,,fail
Status,585,14349865518,/g4t1,,success
Status,586,14369897605,/g4t1,,success
Status,587,14378496658,/g3t1_3,,running
Status,588,14378520730,/g3t1_2,,running
Status,589,14378558338,/g3t1_2,,success
Status,590,14378690791,/g3t1_3,,success
Status,591,14389943185,/g4t1,,fail
Status,592,14410076171,/g4t1,,success
Status,593,14419602825,/g3t1_1,,running
Status,594,14419629078,/g3t1_1,,success
Status,595,14430072390,/g4t1,,success
Status,596,14450206746,/g4t1,,success
Status,597,14470319859,/g4t1,,success
Status,598,14478645335,/g3t1_3,,running
Status,599,14478746034,/g3t1_2,,running
Status,600,14478843365,/g3t1_3,,success
Status,601,14478860894,/g3t1_2,,success
Status,602,14490375313,/g4t1,,fail
Status,603,14510518804,/g4t1,,success
Status,604,14519692686,/g3t1_1,,running
Status,605,14519714238,/g3t1_1,,success
Status,606,14530692457,/g4t1,,fail
Status,607,14550759883,/g4t1,,success
Status,608,14570866826,/g4t1,,success
Status,609,14578577397,/g3t1_3,,running
Status,610,14578618009,/g3t1_3,,success
Status,611,14578637178,/g3t1_2,,running
Status,612,14578831267,/g3t1_2,,success
Status,613,14590976861,/g4t1,,fail
Status,614,14611056406,/g4t1,,success
Status,615,14619798292,/g3t1_1,,running
Status,616,14619819246,/g3t1_1,,success
Status,617,14631085358,/g4t1,,success
Status,618,14651230085,/g4t1,,success
Status,619,14671295544,/g4t1,,success
Status,620,14678677631,/g3t1_3,,running
Status,621,14678705060,/g3t1_2,,running
Status,622,14678744078,/g3t1_3,,success
Status,623,14678823521,/g3t1_2,,success
Status,624,14691461179,/g4t1,,fail
Status,625,14711579929,/g4t1,,success
Status,626,14719871601,/g3t1_1,,running
Status,627,14719906953,/g3t1_1,,success
Status,628,14731659785,/g4t1,,fail
Status,629,14751748218,/g4t1,,success
Status,630,14771834954,/g4t1,,success
Status,631,14778804989,/g3t1_3,,running
Status,632,14778827432,/g3t1_2,,running
Status,633,14778857343,/g3t1_3,,success
Status,634,14778931284,/g3t1_2,,success
Status,635,14791891118,/g4t1,,fail
Status,636,14812006769,/g4t1,,success
Status,637,14819940592,/g3t1_1,,running
Status,638,14820074946,/g3t1_1,,success
Status,639,14832099243,/g4t1,,success
Status,640,14852201400,/g4t1,,success
Status,641,14872354725,/g4t1,,success
Status,642,14879103660,/g3t1_3,,running
Status,643,14879140569,/g3t1_2,,running
Status,644,14879415416,/g3t1_3,,success
Status,645,14879440874,/g3t1_2,,success
Status,646,14892394375,/g4t1,,fail
Status,647,14912592271,/g4t1,,success
Status,648,14920128648,/g3t1_1,,running
Status,649,14920150072,/g3t1_1,,success
Status,650,14932634233,/g4t1,,fail
Status,651,14952653191,/g4t1,,success
Status,652,14972836739,/g4t1,,success
Status,653,14979084595,/g3t1_3,,running
Status,654,14979114044,/g3t1_2,,running
Status,655,14979130574,/g3t1_3,,success
Status,656,14979143135,/g3t1_2,,success
Status,657,14992743322,/g4t1,,fail
Status,658,15012899176,/g4t1,,success
Status,659,15020280148,/g3t1_1,,running
Status,660,15020373514,/g3t1_1,,success
Status,661,15033157475,/g4t1,,success
Status,662,15053106735,/g4t1,,success
Status,663,15073203228,/g4t1,,success
Status,664,15079095545,/g3t1_3,,running
Status,665,15079114437,/g3t1_2,,running
Status,666,15079133953,/g3t1_3,,success
Status,667,15079245054,/g3t1_2,,success
Status,668,15093327649,/g4t1,,fail
Status,669,15113431804,/g4t1,,success
Status,670,15120369153,/g3t1_1,,running
Status,671,15120392438,/g3t1_1,,success
Status,672,15133553229,/g4t1,,fail
Status,673,15153609559,/g4t1,,success
Status,674,15173627096,/g4t1,,success
Status,675,15179141825,/g3t1_3,,running
Status,676,15179242441,/g3t1_2,,running
Status,677,15179347505,/g3t1_3,,success
Status,678,15179454792,/g3t1_2,,success
Status,679,15193763507,/g4t1,,fail
Status,680,15213896203,/g4t1,,success
Status,681,15220313242,/g3t1_1,,running
Status,682,15220421183,/g3t1_1,,success
Status,683,15233912232,/g4t1,,success
Status,684,15254032348,/g4t1,,success
Status,685,15274050866,/g4t1,,success
Status,686,15279305842,/g3t1_2,,running
Status,687,15279331251,/g3t1_3,,running
Status,688,15279412011,/g3t1_2,,success
Status,689,15279427283,/g3t1_3,,success
Status,690,15294210313,/g4t1,,fail
Status,691,15314376949,/g4t1,,success
Status,692,15320407647,/g3t1_1,,running
Status,693,15320577880,/g3t1_1,,success
Status,694,15334364509,/g4t1,,fail
Status,695,15354495243,/g4t1,,success
Status,696,15374611023,/g4t1,,success
Status,697,15379519563,/g3t1_3,,running
Status,698,15379548319,/g3t1_2,,running
Status,699,15379579776,/g3t1_3,,success
Status,700,15379903193,/g3t1_2,,success
Status,701,15394708451,/g4t1,,fail
Status,702,15414854360,/g4t1,,success
Status,703,15420470591,/g3t1_1,,running
Status,704,15420635236,/g3t1_1,,success
Status,705,15434971948,/g4t1,,success
Status,706,15454935799,/g4t1,,success
Status,707,15475111023,/g4t1,,success
Status,708,15479696731,/g3t1_2,,running
Status,709,15479730940,/g3t1_3,,running
Status,710,15479746438,/g3t1_3,,success
Status,711,15479872137,/g3t1_2,,success
Status,712,15495061701,/g4t1,,fail
Status,713,15515174770,/g4t1,,success
Status,714,15520596329,/g3t1_1,,running
Status,715,15520697904,/g3t1_1,,success
Status,716,15535198915,/g4t1,,fail
Status,717,15555243212,/g4t1,,success
Status,718,15575356582,/g4t1,,success
Status,719,15579590830,/g3t1_3,,running
Status,720,15579611514,/g3t1_3,,success
Status,721,15579622024,/g3t1_2,,running
Status,722,15579641065,/g3t1_2,,success
Status,723,15595617726,/g4t1,,fail
Status,724,15615573218,/g4t1,,success
Status,725,15620723626,/g3t1_1,,running
Status,726,15620747506,/g3t1_1,,success
Status,727,15635741320,/g4t1,,success
Status,728,15655761540,/g4t1,,success
Status,729,15675864080,/g4t1,,success
Status,730,15679678809,/g3t1_2,,running
Status,731,15679705684,/g3t1_3,,running
Status,732,15679734816,/g3t1_3,,success
Status,733,15679783112,/g3t1_2,,success
Status,734,15696097654,/g4t1,,fail
Status,735,15716153446,/g4t1,,success
Status,736,15720673255,/g3t1_1,,running
Status,737,15720870953,/g3t1_1,,success
Status,738,15736250052,/g4t1,,fail
Status,739,15756306908,/g4t1,,success
Status,740,15776461316,/g4t1,,success
Status,741,15779784643,/g3t1_3,,running
Status,742,15779816466,/g3t1_2,,running
Status,743,15779898269,/g3t1_3,,success
Status,744,15779913376,/g3t1_2,,success
Status,745,15796538643,/g4t1,,fail
Status,746,15816648610,/g4t1,,success
Status,747,15820765055,/g3t1_1,,running
Status,748,15820913955,/g3t1_1,,success
Status,749,15836673164,/g4t1,,success
Status,750,15856793272,/g4t1,,success
Status,751,15876948596,/g4t1,,success
Status,752,15879840676,/g3t1_2,,running
Status,753,15879870010,/g3t1_3,,running
Status,754,15880049009,/g3t1_3,,success
Status,755,15880068338,/g3t1_2,,success
Status,756,15896966042,/g4t1,,fail
Status,757,15917079272,/g4t1,,success
Status,758,15920910387,/g3t1_1,,running
Status,759,15920960713,/g3t1_1,,success
Status,760,15937274726,/g4t1,,fail
Status,761,15957156097,/g4t1,,success
Status,762,15977457425,/g4t1,,success
Status,763,15980147884,/g3t1_2,,running
Status,764,15980170618,/g3t1_3,,running
Status,765,15980181816,/g3t1_3,,success
Status,766,15980189120,/g3t1_2,,success
Status,767,15997558742,/g4t1,,fail
Status,768,16017613971,/g4t1,,success
Status,769,16021003223,/g3t1_1,,running
Status,770,16021051537,/g3t1_1,,success
Status,771,16037701244,/g4t1,,success
Status,772,16057817904,/g4t1,,success
Status,773,16077808935,/g4t1,,success
Status,774,16080029622,/g3t1_2,,running
Status,775,16080053532,/g3t1_3,,running
Status,776,16080136245,/g3t1_2,,success
Status,777,16080154735,/g3t1_3,,success
Status,778,16097876958,/g4t1,,fail
Status,779,16117961411,/g4t1,,success
Status,780,16121183751,/g3t1_1,,running
Status,781,16121203298,/g3t1_1,,success
Status,782,16138079014,/g4t1,,fail
Status,783,16158190588,/g4t1,,success
Status,784,16178314112,/g4t1,,success
Status,785,16180121214,/g3t1_3,,running
Status,786,16180142462,/g3t1_2,,running
Status,787,16180259377,/g3t1_3,,success
Status,788,16180292129,/g3t1_2,,success
Status,789,16198396449,/g4t1,,fail
Status,790,16218520919,/g4t1,,success
Status,791,16221234378,/g3t1_1,,running
Status,792,16221364442,/g3t1_1,,success
Status,793,16238569354,/g4t1,,success
Status,794,16258629310,/g4t1,,success
Status,795,16278730554,/g4t1,,success
Status,796,16280176995,/g3t1_2,,running
Status,797,16280282699,/g3t1_3,,running
Status,798,16280299489,/g3t1_3,,success
Status,799,16280315261,/g3t1_2,,success
Status,800,16298889775,/g4t1,,fail
Status,801,16319007073,/g4t1,,success
Status,802,16321338969,/g3t1_1,,running
Status,803,16321485776,/g3t1_1,,success
Status,804,16339096585,/g4t1,,fail
Status,805,16359170528,/g4t1,,success
Status,806,16379391394,/g4t1,,success
Status,807,16380335271,/g3t1_2,,running
Status,808,16380367630,/g3t1_3,,running
Status,809,16380443263,/g3t1_2,,success
Status,810,16380457576,/g3t1_3,,success
Status,811,16399355447,/g4t1,,fail
Status,812,16419454646,/g4t1,,success
Status,813,16421408377,/g3t1_1,,running
Status,814,16421576525,/g3t1_1,,success
Status,815,16439592365,/g4t1,,success
Status,816,16459678994,/g4t1,,success
Status,817,16479812886,/g4t1,,success
Status,818,16480381440,/g3t1_2,,running
Status,819,16480414870,/g3t1_3,,running
Status,820,16480534196,/g3t1_3,,success
Status,821,16480552092,/g3t1_2,,success
Status,822,16499888175,/g4t1,,fail
Status,823,16520041265,/g4t1,,success
Status,824,16521459769,/g3t1_1,,running
Status,825,16521606997,/g3t1_1,,success
Status,826,16540157021,/g4t1,,fail
Status,827,16560265890,/g4t1,,success
Status,828,16580311288,/g4t1,,success
Status,829,16580348718,/g3t1_2,,running
Status,830,16580363193,/g3t1_3,,running
Status,831,16580429683,/g3t1_2,,success
Status,832,16580707586,/g3t1_3,,success
Status,833,16600436384,/g4t1,,fail
Status,834,16620481712,/g4t1,,success
Status,835,16621504137,/g3t1_1,,running
Status,836,16621648364,/g3t1_1,,success
Status,837,16640620187,/g4t1,,success
Status,838,16660831156,/g4t1,,success
Status,839,16680660312,/g3t1_3,,running
Status,840,16680684300,/g3t1_2,,running
Status,841,16680694403,/g3t1_2,,success
Status,842,16680811479,/g4t1,,success
Status,843,16680829234,/g3t1_3,,success
Status,844,16700813553,/g4t1,,fail
Status,845,16720960713,/g4t1,,success
Status,846,16721631520,/g3t1_1,,running
Status,847,16721647957,/g3t1_1,,success
Status,848,16741094853,/g4t1,,fail
Status,849,16761351527,/g4t1,,success
Status,850,16780709576,/g3t1_2,,running
Status,851,16780775172,/g3t1_3,,running
Status,852,16780872110,/g3t1_2,,success
Status,853,16780890781,/g3t1_3,,success
Status,854,16781083090,/g4t1,,fail
Status,855,16801225590,/g4t1,,success
Status,856,16821363541,/g4t1,,success
Status,857,16821638181,/g3t1_1,,running
Status,858,16821873040,/g3t1_1,,success
Status,859,16841524637,/g4t1,,success
Status,860,16861543096,/g4t1,,success
Status,861,16880720892,/g3t1_2,,running
Status,862,16880742419,/g3t1_3,,running
Status,863,16880750819,/g3t1_3,,success
Status,864,16880773621,/g3t1_2,,success
Status,865,16881463719,/g4t1,,fail
Status,866,16901535704,/g4t1,,success
Status,867,16921695717,/g4t1,,success
Status,868,16921720210,/g3t1_1,,running
Status,869,16921891444,/g3t1_1,,success
Status,870,16941776401,/g4t1,,fail
Status,871,16961858595,/g4t1,,success
Status,872,16980954530,/g3t1_2,,running
Status,873,16980978219,/g3t1_3,,running
Status,874,16981001345,/g3t1_3,,success
Status,875,16981008633,/g3t1_2,,success
Status,876,16981757740,/g4t1,,fail
Status,877,17001960917,/g4t1,,success
Status,878,17021928425,/g3t1_1,,running
Status,879,17021952084,/g3t1_1,,success
Status,880,17021961526,/g4t1,,success
Status,881,17042069327,/g4t1,,success
Status,882,17062191742,/g4t1,,success
Status,883,17080889459,/g3t1_3,,running
Status,884,17080916640,/g3t1_2,,running
Status,885,17080929446,/g3t1_2,,success
Status,886,17080939498,/g3t1_3,,success
Status,887,17082022553,/g4t1,,fail
Status,888,17102358813,/g4t1,,success
Status,889,17121958351,/g3t1_1,,running
Status,890,17122105562,/g3t1_1,,success
Status,891,17122228036,/g4t1,,success
Status,892,17142446759,/g4t1,,fail
Status,893,17162577154,/g4t1,,success
Status,894,17180977189,/g3t1_2,,running
Status,895,17181002147,/g3t1_3,,running
Status,896,17181114887,/g3t1_2,,success
Status,897,17181142345,/g3t1_3,,success
Status,898,17182422131,/g4t1,,fail
Status,899,17202699687,/g4t1,,success
Status,900,17222053208,/g3t1_1,,running
Status,901,17222214843,/g3t1_1,,success
Status,902,17222512853,/g4t1,,success
Status,903,17242815265,/g4t1,,success
Status,904,17262970585,/g4t1,,success
Status,905,17281366634,/g3t1_2,,running
Status,906,17281423732,/g3t1_3,,running
Status,907,17281436431,/g3t1_3,,success
Status,908,17281442934,/g3t1_2,,success
Status,909,17282933777,/g4t1,,fail
Status,910,17302970079,/g4t1,,success
Status,911,17322139698,/g3t1_1,,running
Status,912,17322287599,/g3t1_1,,success
Status,913,17323012903,/g4t1,,fail
Status,914,17343136057,/g4t1,,success
Status,915,17363225519,/g4t1,,success
Status,916,17381181552,/g3t1_2,,running
Status,917,17381217885,/g3t1_3,,running
Status,918,17381285433,/g3t1_2,,success
Status,919,17381305588,/g3t1_3,,success
Status,920,17383062363,/g4t1,,fail
Status,921,17403395667,/g4t1,,success
Status,922,17422209015,/g3t1_1,,running
Status,923,17422350898,/g3t1_1,,success
Status,924,17423280695,/g4t1,,success
Status,925,17443445367,/g4t1,,success
Status,926,17463570041,/g4t1,,success
Status,927,17481339578,/g3t1_2,,running
Status,928,17481365223,/g3t1_3,,running
Status,929,17481396026,/g3t1_2,,success
Status,930,17481448005,/g3t1_3,,success
Status,931,17483406859,/g4t1,,fail
Status,932,17503698170,/g4t1,,success
Status,933,17522350055,/g3t1_1,,running
Status,934,17522446028,/g3t1_1,,success
Status,935,17523602616,/g4t1,,fail
Status,936,17543921716,/g4t1,,success
Status,937,17563954381,/g4t1,,success
Status,938,17581388389,/g3t1_2,,running
Status,939,17581412162,/g3t1_3,,running
Status,940,17581421663,/g3t1_2,,success
Status,941,17581430152,/g3t1_3,,success
Status,942,17583848528,/g4t1,,fail
Status,943,17604174758,/g4t1,,success
Status,944,17622505817,/g3t1_1,,running
Status,945,17622595814,/g3t1_1,,success
Status,946,17624141472,/g4t1,,success
Status,947,17644363215,/g4t1,,success
Status,948,17664479838,/g4t1,,success
Status,949,17681389809,/g3t1_2,,running
Status,950,17681418121,/g3t1_3,,running
Status,951,17681506219,/g3t1_2,,success
Status,952,17681524645,/g3t1_3,,success
Status,953,17684433255,/g4t1,,fail
Status,954,17704536142,/g4t1,,success
Status,955,17722595280,/g3t1_1,,running
Status,956,17722679571,/g3t1_1,,success
Status,957,17724481567,/g4t1,,fail
Status,958,17744774469,/g4t1,,success
Status,959,17764880179,/g4t1,,success
Status,960,17781602117,/g3t1_3,,running
Status,961,17781624460,/g3t1_2,,running
Status,962,17781632318,/g3t1_2,,success
Status,963,17781695442,/g3t1_3,,success
Status,964,17784754492,/g4t1,,fail
Status,965,17804978831,/g4t1,,success
Status,966,17822706243,/g3t1_1,,running
Status,967,17822727479,/g3t1_1,,success
Status,968,17824975547,/g4t1,,success
Status,969,17845181144,/g4t1,,success
Status,970,17865359297,/g4t1,,success
Status,971,17881586523,/g3t1_3,,running
Status,972,17881701368,/g3t1_2,,running
Status,973,17881721369,/g3t1_2,,success
Status,974,17881746511,/g3t1_3,,success
Status,975,17885307699,/g4t1,,fail
Status,976,17905610570,/g4t1,,success
Status,977,17922760184,/g3t1_1,,running
Status,978,17922970795,/g3t1_1,,success
Status,979,17925500204,/g4t1,,fail
Status,980,17945865577,/g4t1,,success
Status,981,17965820154,/g4t1,,success
Status,982,17981779225,/g3t1_2,,running
Status,983,17981865935,/g3t1_3,,running
Status,984,17981886884,/g3t1_2,,success
Status,985,17981909851,/g3t1_3,,success
Status,986,17985705790,/g4t1,,fail
Status,987,18006004594,/g4t1,,success
Status,988,18022910474,/g3t1_1,,running
Status,989,18022932402,/g3t1_1,,success
Status,990,18025957639,/g4t1,,success
Status,991,18046299122,/g4t1,,success
Status,992,18066225410,/g4t1,,success
Status,993,18081866611,/g3t1_3,,running
Status,994,18081887134,/g3t1_2,,running
Status,995,18081893588,/g3t1_3,,success
Status,996,18081899322,/g3t1_2,,success
Status,997,18086309081,/g4t1,,fail
Status,998,18106495266,/g4t1,,success
Status,999,18123030771,/g3t1_1,,running
Status,1000,18123051812,/g3t1_1,,success
Status,1001,18126448800,/g4t1,,fail
Status,1002,18146559668,/g4t1,,success
Status,1003,18166674432,/g4t1,,success
Status,1004,18182122487,/g3t1_2,,running
Status,1005,18182143721,/g3t1_3,,running
Status,1006,18182150390,/g3t1_3,,success
Status,1007,18182155984,/g3t1_2,,success
Status,1008,18186780217,/g4t1,,fail
Status,1009,18206889367,/g4t1,,success
Status,1010,18223072941,/g3t1_1,,running
Status,1011,18223169145,/g3t1_1,,success
Status,1012,18227022781,/g4t1,,success
Status,1013,18247183090,/g4t1,,success
Status,1014,18267217158,/g4t1,,success
Status,1015,18282016459,/g3t1_2,,running
Status,1016,18282037597,/g3t1_3,,running
Status,1017,18282044274,/g3t1_2,,success
Status,1018,18282049789,/g3t1_3,,success
Status,1019,18287247292,/g4t1,,fail
Status,1020,18307306353,/g4t1,,success
Status,1021,18323179348,/g3t1_1,,running
Status,1022,18323279737,/g3t1_1,,success
Status,1023,18327267576,/g4t1,,fail
Status,1024,18347483390,/g4t1,,success
Status,1025,18367537354,/g4t1,,success
Status,1026,18382211622,/g3t1_2,,running
Status,1027,18382232015,/g3t1_3,,running
Status,1028,18382238512,/g3t1_2,,success
Status,1029,18382243991,/g3t1_3,,success
Status,1030,18387650188,/g4t1,,fail
Status,1031,18407836479,/g4t1,,success
Status,1032,18423205207,/g3t1_1,,running
Status,1033,18423291412,/g3t1_1,,success
Status,1034,18427740320,/g4t1,,success
Status,1035,18448098034,/g4t1,,success
Status,1036,18468020788,/g4t1,,success
Status,1037,18482224799,/g3t1_2,,running
Status,1038,18482242310,/g3t1_3,,running
Status,1039,18482253850,/g3t1_2,,success
Status,1040,18482331840,/g3t1_3,,success
Status,1041,18488080751,/g4t1,,fail
Status,1042,18508228796,/g4t1,,success
Status,1043,18523304887,/g3t1_1,,running
Status,1044,18523325377,/g3t1_1,,success
Status,1045,18528308449,/g4t1,,fail
Status,1046,18548430925,/g4t1,,success
Status,1047,18568434199,/g4t1,,success
Status,1048,18582275083,/g3t1_3,,running
Status,1049,18582295127,/g3t1_2,,running
Status,1050,18582302914,/g3t1_2,,success
Status,1051,18582414572,/g3t1_3,,success
Status,1052,18588439650,/g4t1,,fail
Status,1053,18608674689,/g4t1,,success
Status,1054,18623419836,/g3t1_1,,running
Status,1055,18623441044,/g3t1_1,,success
Status,1056,18628883431,/g4t1,,success
Status,1057,18648838696,/g4t1,,success
Status,1058,18668953330,/g4t1,,success
Status,1059,18682430519,/g3t1_2,,running
Status,1060,18682448511,/g3t1_3,,running
Status,1061,18682455167,/g3t1_3,,success
Status,1062,18682553275,/g3t1_2,,success
Status,1063,18688985876,/g4t1,,fail
Status,1064,18709097319,/g4t1,,success
Status,1065,18723528855,/g3t1_1,,running
Status,1066,18723644649,/g3t1_1,,success
Status,1067,18729356696,/g4t1,,fail
Status,1068,18749369602,/g4t1,,success
Status,1069,18769537151,/g4t1,,success
Status,1070,18782523796,/g3t1_2,,running
Status,1071,18782544632,/g3t1_3,,running
Status,1072,18782551270,/g3t1_3,,success
Status,1073,18782556914,/g3t1_2,,success
Status,1074,18789498606,/g4t1,,fail
Status,1075,18809626540,/g4t1,,success
Status,1077,18823543528,/g3t1_1,,running
Status,1078,18823706787,/g3t1_1,,fail
Status,1079,18829762318,/g4t1,,success
Status,1080,18849879141,/g4t1,,success
Status,1081,18869873514,/g4t1,,success
Status,1082,18882636438,/g3t1_2,,running
Status,1083,18882658925,/g3t1_3,,running
Status,1084,18882667513,/g3t1_2,,success
Status,1085,18882706296,/g3t1_3,,success
Status,1086,18889841371,/g4t1,,fail
Status,1087,18909998642,/g4t1,,success
Status,1088,18923701430,/g3t1_1,,running
Status,1089,18923723862,/g3t1_1,,fail
Status,1090,18930011037,/g4t1,,success
Status,1091,18950175424,/g4t1,,success
Status,1092,18970274544,/g4t1,,success
Status,1093,18982645547,/g3t1_2,,running
Status,1094,18982700638,/g3t1_3,,running
Status,1095,18982737500,/g3t1_3,,success
Status,1096,18982857080,/g3t1_2,,success
Status,1097,18990365406,/g4t1,,success
Status,1098,19010547309,/g4t1,,success
Status,1100,19023677198,/g3t1_1,,running
Status,1101,19023793918,/g3t1_1,,fail
Status,1102,19030526863,/g4t1,,success
Status,1103,19050624507,/g4t1,,success
Status,1104,19070772392,/g4t1,,success
Status,1105,19082774690,/g3t1_2,,running
Status,1106,19082792439,/g3t1_3,,running
Status,1107,19082800658,/g3t1_2,,success
Status,1108,19082818767,/g3t1_3,,success
Status,1109,19090748905,/g4t1,,success
Status,1110,19110885920,/g4t1,,success
Status,1111,19123892258,/g3t1_1,,running
Status,1112,19123928407,/g3t1_1,,fail
Status,1113,19130893568,/g4t1,,success
Status,1114,19151014781,/g4t1,,success
Status,1115,19171176245,/g4t1,,success
Status,1116,19182930780,/g3t1_3,,running
Status,1117,19182977229,/g3t1_2,,running
Status,1118,19182987000,/g3t1_3,,success
Status,1119,19183819239,/g3t1_2,,success
Status,1120,19191220770,/g4t1,,success
Status,1121,19211386995,/g4t1,,success
Status,1123,19223952486,/g3t1_1,,running
Status,1124,19223980167,/g3t1_1,,fail
Status,1125,19231404582,/g4t1,,success
Status,1126,19251536232,/g4t1,,success
Status,1127,19271539702,/g4t1,,success
Status,1128,19282919409,/g3t1_2,,running
Status,1129,19283074122,/g3t1_3,,running
Status,1130,19283091915,/g3t1_2,,success
Status,1131,19283128932,/g3t1_3,,success
Status,1132,19291672118,/g4t1,,success
Status,1133,19311826550,/g4t1,,success
Status,1134,19324016274,/g3t1_1,,running
Status,1135,19324041003,/g3t1_1,,fail
Status,1136,19331861198,/g4t1,,success
Status,1137,19352149933,/g4t1,,success
Status,1138,19372134720,/g4t1,,success
Status,1139,19383114509,/g3t1_2,,running
Status,1140,19383141384,/g3t1_3,,running
Status,1141,19383152155,/g3t1_2,,success
Status,1142,19383334835,/g3t1_3,,success
Status,1143,19392175579,/g4t1,,success
Status,1144,19412636895,/g4t1,,success
Status,1146,19424123392,/g3t1_1,,running
Status,1147,19424143436,/g3t1_1,,fail
Status,1148,19432394676,/g4t1,,success
Status,1149,19452562423,/g4t1,,success
Status,1150,19472630296,/g4t1,,success
Status,1151,19483147571,/g3t1_2,,running
Status,1152,19483234560,/g3t1_3,,running
Status,1153,19483255355,/g3t1_2,,success
Status,1154,19483371991,/g3t1_3,,success
Status,1155,19492750142,/g4t1,,success
Status,1156,19512831678,/g4t1,,success
Status,1157,19524288092,/g3t1_1,,running
Status,1158,19524309137,/g3t1_1,,fail
Status,1159,19532903354,/g4t1,,success
Status,1160,19552948205,/g4t1,,success
Status,1161,19573049889,/g4t1,,success
Status,1162,19583185884,/g3t1_3,,running
Status,1163,19583211433,/g3t1_2,,running
Status,1164,19583306668,/g3t1_3,,success
Status,1165,19583343403,/g3t1_2,,success
Status,1166,19593244190,/g4t1,,success
Status,1167,19613247197,/g4t1,,success
Status,1169,19624316995,/g3t1_1,,running
Status,1170,19624449708,/g3t1_1,,fail
Status,1171,19633250836,/g4t1,,success
Status,1172,19653566417,/g4t1,,success
Status,1173,19673644542,/g4t1,,success
Status,1174,19683457176,/g3t1_2,,running
Status,1175,19683479373,/g3t1_3,,running
Status,1176,19683510306,/g3t1_3,,success
Status,1177,19683518467,/g3t1_2,,success
Status,1178,19693667658,/g4t1,,success
Status,1179,19713724056,/g4t1,,success
Status,1180,19724379844,/g3t1_1,,running
Status,1181,19724404711,/g3t1_1,,fail
Status,1182,19733797768,/g4t1,,success
Status,1183,19753909037,/g4t1,,success
Status,1184,19774041389,/g4t1,,success
Status,1185,19783546787,/g3t1_2,,running
Status,1186,19783568455,/g3t1_3,,running
Status,1187,19783575371,/g3t1_2,,success
Status,1188,19783581172,/g3t1_3,,success
Status,1189,19794090786,/g4t1,,success
Status,1190,19814137131,/g4t1,,success
Status,1192,19824449609,/g3t1_1,,running
Status,1193,19824543350,/g3t1_1,,fail
Status,1194,19834276338,/g4t1,,success
Status,1195,19854410218,/g4t1,,success
Status,1196,19874563839,/g4t1,,success
Status,1197,19883498149,/g3t1_2,,running
Status,1198,19883528080,/g3t1_3,,running
Status,1199,19883749072,/g3t1_2,,success
Status,1200,19883762949,/g3t1_3,,success
Status,1201,19894591506,/g4t1,,success
Status,1202,19914665940,/g4t1,,success
Status,1203,19924538540,/g3t1_1,,running
Status,1204,19924559548,/g3t1_1,,fail
Status,1205,19934738962,/g4t1,,success
Status,1206,19954795362,/g4t1,,success
Status,1207,19974952194,/g4t1,,success
Status,1208,19983623244,/g3t1_2,,running
Status,1209,19983652119,/g3t1_3,,running
Status,1210,19983950494,/g3t1_2,,success
Status,1211,19983974353,/g3t1_3,,success
Status,1212,19994976939,/g4t1,,success
Status,1213,20015065622,/g4t1,,success
Status,1215,20024637325,/g3t1_1,,running
Status,1216,20024657480,/g3t1_1,,fail
Status,1217,20035129226,/g4t1,,success
Status,1218,20055260775,/g4t1,,success
Status,1219,20075284946,/g4t1,,success
Status,1220,20083860852,/g3t1_2,,running
Status,1221,20083883323,/g3t1_2,,success
Status,1222,20083891263,/g3t1_3,,running
Status,1223,20083897057,/g3t1_3,,success
Status,1224,20095511755,/g4t1,,success
Status,1225,20115575810,/g4t1,,success
Status,1226,20124721344,/g3t1_1,,running
Status,1227,20124783007,/g3t1_1,,fail
Status,1228,20135552624,/g4t1,,success
Status,1229,20155731217,/g4t1,,success
Status,1230,20175786682,/g4t1,,success
Status,1231,20183734738,/g3t1_2,,running
Status,1232,20183759819,/g3t1_3,,running
Status,1233,20183771650,/g3t1_3,,success
Status,1234,20183891112,/g3t1_2,,success
Status,1235,20195977259,/g4t1,,success
Status,1236,20215947574,/g4t1,,success
Status,1238,20224879636,/g3t1_1,,running
Status,1239,20224901799,/g3t1_1,,fail
Status,1240,20236077966,/g4t1,,success
Status,1241,20256204157,/g4t1,,success
Status,1242,20276202519,/g4t1,,success
Status,1243,20283971616,/g3t1_2,,running
Status,1244,20283992643,/g3t1_3,,running
Status,1245,20284000908,/g3t1_2,,success
Status,1246,20284007066,/g3t1_3,,success
Status,1247,20296454211,/g4t1,,success
Status,1248,20316540777,/g4t1,,success
Status,1249,20324893780,/g3t1_1,,running
Status,1250,20324968894,/g3t1_1,,fail
Status,1251,20336537804,/g4t1,,success
Status,1252,20356610922,/g4t1,,success
Status,1253,20376858892,/g4t1,,success
Status,1254,20383976680,/g3t1_3,,running
Status,1255,20384010972,/g3t1_2,,running
Status,1256,20384090640,/g3t1_3,,success
Status,1257,20384104891,/g3t1_2,,success
Status,1258,20396835672,/g4t1,,success
Status,1259,20416890796,/g4t1,,success
Status,1261,20424896042,/g3t1_1,,running
Status,1262,20424951168,/g3t1_1,,fail
Status,1263,20437076439,/g4t1,,success
Status,1264,20457156094,/g4t1,,success
Status,1265,20477475440,/g4t1,,success
Status,1266,20484191611,/g3t1_2,,running
Status,1267,20484211811,/g3t1_3,,running
Status,1268,20484218151,/g3t1_3,,success
Status,1269,20484223878,/g3t1_2,,success
Status,1270,20497348643,/g4t1,,success
Status,1271,20517424535,/g4t1,,success
Status,1272,20524977621,/g3t1_1,,running
Status,1273,20524999012,/g3t1_1,,fail
Status,1274,20537516078,/g4t1,,success
Status,1275,20557564937,/g4t1,,success
Status,1276,20577786797,/g4t1,,success
Status,1277,20584216602,/g3t1_2,,running
Status,1278,20584346699,/g3t1_3,,running
Status,1279,20584367673,/g3t1_3,,success
Status,1280,20584375494,/g3t1_2,,success
Status,1281,20597782582,/g4t1,,success
Status,1282,20617785795,/g4t1,,success
Status,1284,20625101101,/g3t1_1,,running
Status,1285,20625122068,/g3t1_1,,fail
Status,1286,20637828440,/g4t1,,success
Status,1287,20658038841,/g4t1,,success
Status,1288,20678051759,/g4t1,,success
Status,1289,20684230584,/g3t1_3,,running
Status,1290,20684256852,/g3t1_2,,running
Status,1291,20684368679,/g3t1_2,,success
Status,1292,20684385750,/g3t1_3,,success
Status,1293,20698017775,/g4t1,,success
Status,1294,20718201613,/g4t1,,success
Status,1295,20725145121,/g3t1_1,,running
Status,1296,20725282508,/g3t1_1,,fail
Status,1297,20738282375,/g4t1,,success
Status,1298,20758360147,/g4t1,,success
Status,1299,20778451314,/g4t1,,success
Status,1300,20784370618,/g3t1_2,,running
Status,1301,20784396792,/g3t1_3,,running
Status,1302,20784497045,/g3t1_2,,success
Status,1303,20784512366,/g3t1_3,,success
Status,1304,20798508690,/g4t1,,success
Status,1306,20818559368,/g4t1,,success
Status,1307,20825217530,/g3t1_1,,running
Status,1308,20825249992,/g3t1_1,,fail
Status,1309,20838827005,/g4t1,,success
Status,1310,20858831134,/g4t1,,success
Status,1311,20878925234,/g4t1,,success
Status,1312,20884518815,/g3t1_2,,running
Status,1313,20884568642,/g3t1_2,,success
Status,1314,20884579415,/g3t1_3,,running
Status,1315,20884588125,/g3t1_3,,success
Status,1316,20899033240,/g4t1,,success
Status,1317,20919155339,/g4t1,,success
Status,1318,20925340271,/g3t1_1,,running
Status,1319,20925436281,/g3t1_1,,fail
Status,1320,20939291571,/g4t1,,success
Status,1321,20959353949,/g4t1,,success
Status,1322,20979519768,/g4t1,,success
Status,1323,20984626932,/g3t1_3,,running
Status,1324,20984646582,/g3t1_2,,running
Status,1325,20984652850,/g3t1_2,,success
Status,1326,20984658557,/g3t1_3,,success
Status,1327,20999486158,/g4t1,,success
Status,1329,21019511066,/g4t1,,success
Status,1330,21025414385,/g3t1_1,,running
Status,1331,21025435319,/g3t1_1,,fail
Status,1332,21039762274,/g4t1,,success
Status,1333,21059770609,/g4t1,,success
Status,1334,21080014442,/g4t1,,success
Status,1335,21084534401,/g3t1_2,,running
Status,1336,21084643054,/g3t1_3,,running
Status,1337,21084662672,/g3t1_2,,success
Status,1338,21084817138,/g3t1_3,,success
Status,1339,21100069296,/g4t1,,success
Status,1340,21120134652,/g4t1,,success
Status,1341,21125582001,/g3t1_1,,running
Status,1342,21125603473,/g3t1_1,,fail
Status,1343,21140246946,/g4t1,,success
Status,1344,21160372746,/g4t1,,success
Status,1345,21180466391,/g4t1,,success
Status,1346,21184860080,/g3t1_2,,running
Status,1347,21184903780,/g3t1_3,,running
Status,1348,21184912523,/g3t1_3,,success
Status,1349,21184918525,/g3t1_2,,success
Status,1350,21200509264,/g4t1,,success
Status,1352,21220585326,/g4t1,,success
Status,1353,21225619623,/g3t1_1,,running
Status,1354,21225641925,/g3t1_1,,fail
Status,1355,21240658274,/g4t1,,success
Status,1356,21260878148,/g4t1,,success
Status,1357,21280808078,/g4t1,,success
Status,1358,21284851033,/g3t1_2,,running
Status,1359,21284880908,/g3t1_3,,running
Status,1360,21284976798,/g3t1_2,,success
Status,1361,21285104368,/g3t1_3,,success
Status,1362,21300993561,/g4t1,,success
Status,1363,21321073570,/g4t1,,success
Status,1364,21325540284,/g3t1_1,,running
Status,1365,21325642843,/g3t1_1,,fail
Status,1366,21341198222,/g4t1,,success
Status,1367,21361374784,/g4t1,,success
Status,1368,21381443762,/g4t1,,success
Status,1369,21384885297,/g3t1_3,,running
Status,1370,21384914906,/g3t1_2,,running
Status,1371,21384967851,/g3t1_3,,success
Status,1372,21384976303,/g3t1_2,,success
Status,1373,21401476736,/g4t1,,success
Status,1375,21421509523,/g4t1,,success
Status,1376,21425669551,/g3t1_1,,running
Status,1377,21425689065,/g3t1_1,,fail
Status,1378,21441713805,/g4t1,,success
Status,1379,21461642093,/g4t1,,success
Status,1380,21481828501,/g4t1,,success
Status,1381,21485055409,/g3t1_3,,running
Status,1382,21485095029,/g3t1_2,,running
Status,1383,21485106589,/g3t1_2,,success
Status,1384,21485235428,/g3t1_3,,success
Status,1385,21502014841,/g4t1,,success
Status,1386,21522072329,/g4t1,,success
Status,1387,21525715252,/g3t1_1,,running
Status,1388,21525761780,/g3t1_1,,fail
Status,1389,21542070373,/g4t1,,success
Status,1390,21562028848,/g4t1,,success
Status,1391,21582188826,/g4t1,,success
Status,1392,21585027211,/g3t1_3,,running
Status,1393,21585069804,/g3t1_2,,running
Status,1394,21585161384,/g3t1_3,,success
Status,1395,21585181155,/g3t1_2,,success
Status,1396,21602327848,/g4t1,,success
Status,1398,21622344467,/g4t1,,success
Status,1399,21626088981,/g3t1_1,,running
Status,1400,21626111560,/g3t1_1,,fail
Status,1401,21642386269,/g4t1,,success
Status,1402,21662457715,/g4t1,,success
Status,1403,21682515816,/g4t1,,success
Status,1404,21685181761,/g3t1_2,,running
Status,1405,21685207229,/g3t1_3,,running
Status,1406,21685336769,/g3t1_2,,success
Status,1407,21685432076,/g3t1_3,,success
Status,1408,21702617809,/g4t1,,success
Status,1409,21722766597,/g4t1,,success
Status,1410,21725893922,/g3t1_1,,running
Status,1411,21726019569,/g3t1_1,,fail
Status,1412,21742788473,/g4t1,,success
Status,1413,21762823179,/g4t1,,success
Status,1414,21782918711,/g4t1,,success
Status,1415,21785361767,/g3t1_2,,running
Status,1416,21785379607,/g3t1_3,,running
Status,1417,21785385760,/g3t1_3,,success
Status,1418,21785509763,/g3t1_2,,success
Status,1419,21803020113,/g4t1,,success
Status,1421,21823081485,/g4t1,,success
Status,1422,21826025584,/g3t1_1,,running
Status,1423,21826104203,/g3t1_1,,fail
Status,1424,21843092425,/g4t1,,success
Status,1425,21863242735,/g4t1,,success
Status,1426,21883301931,/g4t1,,success
Status,1427,21885331262,/g3t1_2,,running
Status,1428,21885353518,/g3t1_3,,running
Status,1429,21885565227,/g3t1_2,,success
Status,1430,21885585408,/g3t1_3,,success
Status,1431,21903326162,/g4t1,,success
Status,1432,21923413690,/g4t1,,success
Status,1433,21926135129,/g3t1_1,,running
Status,1434,21926241245,/g3t1_1,,fail
Status,1435,21943527350,/g4t1,,success
Status,1436,21963592054,/g4t1,,success
Status,1437,21983661637,/g4t1,,success
Status,1438,21985411956,/g3t1_3,,running
Status,1439,21985434587,/g3t1_2,,running
Status,1440,21985545295,/g3t1_2,,success
Status,1441,21985561256,/g3t1_3,,success
Status,1442,22003688601,/g4t1,,success
Status,1444,22023685720,/g4t1,,success
Status,1445,22026123942,/g3t1_1,,running
Status,1446,22026255538,/g3t1_1,,fail
Status,1447,22043785201,/g4t1,,success
Status,1448,22063875548,/g4t1,,success
Status,1449,22083984973,/g4t1,,success
Status,1450,22085433267,/g3t1_3,,running
Status,1451,22085487575,/g3t1_2,,running
Status,1452,22085608330,/g3t1_3,,success
Status,1453,22085627209,/g3t1_2,,success
Status,1454,22104032572,/g4t1,,success
Status,1455,22124239803,/g4t1,,success
Status,1456,22126377040,/g3t1_1,,running
Status,1457,22126397933,/g3t1_1,,fail
Status,1458,22144303184,/g4t1,,success
Status,1459,22164402012,/g4t1,,success
Status,1460,22184323598,/g4t1,,success
Status,1461,22185609705,/g3t1_3,,running
Status,1462,22185709521,/g3t1_2,,running
Status,1463,22185735010,/g3t1_3,,success
Status,1464,22185746303,/g3t1_2,,success
Status,1465,22204426799,/g4t1,,success
Status,1467,22224469233,/g4t1,,success
Status,1468,22226405230,/g3t1_1,,running
Status,1469,22226591977,/g3t1_1,,fail
Status,1470,22244569956,/g4t1,,success
Status,1471,22264641085,/g4t1,,success
Status,1472,22284723672,/g4t1,,success
Status,1473,22285548075,/g3t1_3,,running
Status,1474,22285570445,/g3t1_2,,running
Status,1475,22285793335,/g3t1_3,,success
Status,1476,22285817242,/g3t1_2,,success
Status,1477,22304716500,/g4t1,,success
Status,1478,22324758286,/g4t1,,success
Status,1479,22326486956,/g3t1_1,,running
Status,1480,22326615779,/g3t1_1,,fail
Status,1481,22344807405,/g4t1,,success
Status,1482,22385781595,/g3t1_2,,running
Status,1483,22385830731,/g3t1_3,,running
Status,1484,22385843161,/g3t1_2,,success
Status,1485,22385934823,/g3t1_3,,success
Status,1487,22426625678,/g3t1_1,,running
Status,1488,22426646575,/g3t1_1,,fail
Status,1489,22485909596,/g3t1_2,,running
Status,1490,22485930421,/g3t1_3,,running
Status,1491,22485936621,/g3t1_2,,success
Status,1492,22485942012,/g3t1_3,,success
Status,1493,22526782239,/g3t1_1,,running
Status,1494,22526802750,/g3t1_1,,fail
Status,1495,22585947988,/g3t1_2,,running
Status,1496,22585974450,/g3t1_3,,running
Status,1497,22585981418,/g3t1_3,,success
Status,1498,22586092650,/g3t1_2,,success
Status,1500,22626769688,/g3t1_1,,running
Status,1501,22626856251,/g3t1_1,,fail
Status,1502,22686049044,/g3t1_2,,running
Status,1503,22686074396,/g3t1_3,,running
Status,1504,22686084773,/g3t1_2,,success
Status,1505,22686092474,/g3t1_3,,success
Status,1506,22726965741,/g3t1_1,,running
Status,1507,22726993258,/g3t1_1,,fail
Status,1508,22786307556,/g3t1_2,,running
Status,1509,22786328902,/g3t1_3,,running
Status,1510,22786335763,/g3t1_3,,success
Status,1511,22786341774,/g3t1_2,,success
Status,1513,22827120574,/g3t1_1,,running
Status,1514,22827141142,/g3t1_1,,fail
Status,1515,22886272296,/g3t1_2,,running
Status,1516,22886291773,/g3t1_3,,running
Status,1517,22886298125,/g3t1_3,,success
Status,1518,22886303773,/g3t1_2,,success
Status,1519,22927198347,/g3t1_1,,running
Status,1520,22927223627,/g3t1_1,,fail
Status,1521,22986272951,/g3t1_2,,running
Status,1522,22986293384,/g3t1_3,,running
Status,1523,22986378891,/g3t1_2,,success
Status,1524,22986386268,/g3t1_3,,success
Status,1526,23027223125,/g3t1_1,,running
Status,1527,23027248065,/g3t1_1,,fail
Status,1528,23086414596,/g3t1_3,,running
Status,1529,23086439870,/g3t1_2,,running
Status,1530,23086452228,/g3t1_3,,success
Status,1531,23086460406,/g3t1_2,,success
Status,1532,23127344611,/g3t1_1,,running
Status,1533,23127371631,/g3t1_1,,fail
Status,1534,23186549668,/g3t1_2,,running
Status,1535,23186576841,/g3t1_3,,running
Status,1536,23186589687,/g3t1_3,,success
Status,1537,23186674910,/g3t1_2,,success
Status,1539,23227464787,/g3t1_1,,running
Status,1540,23227505175,/g3t1_1,,fail
Status,1541,23286646812,/g3t1_3,,running
Status,1542,23286668160,/g3t1_2,,running
Status,1543,23286678314,/g3t1_2,,success
Status,1544,23286707845,/g3t1_3,,success
Status,1545,23327505393,/g3t1_1,,running
Status,1546,23327533631,/g3t1_1,,fail
Status,1547,23386759472,/g3t1_3,,running
Status,1548,23386781144,/g3t1_2,,running
Status,1549,23386791146,/g3t1_2,,success
Status,1550,23386820035,/g3t1_3,,success
Status,1552,23427660415,/g3t1_1,,running
Status,1553,23427681062,/g3t1_1,,fail
Status,1554,23486846397,/g3t1_2,,running
Status,1555,23486874652,/g3t1_3,,running
Status,1556,23486949784,/g3t1_3,,success
Status,1557,23487024718,/g3t1_2,,success
Status,1558,23527885437,/g3t1_1,,running
Status,1559,23527906909,/g3t1_1,,fail
Status,1560,23586904694,/g3t1_3,,running
Status,1561,23586935905,/g3t1_2,,running
Status,1562,23586947103,/g3t1_2,,success
Status,1563,23586955905,/g3t1_3,,success
Status,1565,23627802430,/g3t1_1,,running
Status,1566,23627913602,/g3t1_1,,fail
Status,1567,23686962732,/g3t1_3,,running
Status,1568,23687011764,/g3t1_2,,running
Status,1569,23687024180,/g3t1_3,,success
