
Status,2,3567767799,/g4t1,,init
Status,3,8578840344,/g3t1_1,,init
Status,5,8589739205,/g3t1_1,,init
Status,6,8589756866,/g3t1_1,,running
Status,7,8590111485,/g3t1_1,,success
Status,8,8689911707,/g3t1_1,,running
Status,9,8690022396,/g3t1_1,,success
Status,11,8784642689,/g3t1_3,,init
Status,12,8784683579,/g3t1_2,,init
Status,14,8789890516,/g3t1_1,,running
Status,15,8789963515,/g3t1_1,,success
Status,16,8795269368,/g3t1_3,,init
Status,17,8795282924,/g3t1_3,,running
Status,18,8795735111,/g3t1_2,,init
Status,19,8795746372,/g3t1_2,,running
Status,20,8795794781,/g3t1_3,,success
Status,21,8796252665,/g3t1_2,,success
Status,22,8890952440,/g3t1_1,,running
Status,23,8891600014,/g3t1_1,,success
Status,24,8896432478,/g3t1_3,,running
Status,25,8896481003,/g3t1_3,,success
Status,26,8896544807,/g3t1_2,,running
Status,27,8896964154,/g3t1_2,,success
Status,28,8911354034,/g4t1,,success
Status,29,8991313800,/g3t1_1,,running
Status,30,8992019414,/g3t1_1,,success
Status,31,8996300631,/g3t1_3,,running
Status,32,8996723143,/g3t1_2,,running
Status,33,8997194017,/g3t1_3,,success
Status,34,8997924016,/g3t1_2,,success
Status,35,9011869587,/g4t1,,success
Status,36,9032084061,/g4t1,,success
Status,37,9090697948,/g3t1_1,,running
Status,38,9090724496,/g3t1_1,,success
Status,39,9091535954,/g4t1,,success
Status,40,9095833501,/g3t1_3,,running
Status,41,9095918731,/g3t1_3,,success
Status,42,9096245625,/g3t1_2,,running
Status,43,9096352585,/g3t1_2,,success
Status,44,9111770963,/g4t1,,success
Status,45,9131949948,/g4t1,,success
Status,46,9152238710,/g4t1,,success
Status,47,9172856730,/g4t1,,success
Status,48,9191615745,/g3t1_1,,running
Status,49,9191677632,/g3t1_1,,success
Status,50,9192860684,/g4t1,,success
Status,51,9196379644,/g3t1_3,,running
Status,52,9196998750,/g3t1_2,,running
Status,53,9197280645,/g3t1_3,,success
Status,54,9197628183,/g3t1_2,,success
Status,55,9213184993,/g4t1,,success
Status,56,9233255783,/g4t1,,success
Status,57,9253450665,/g4t1,,success
Status,58,9273552602,/g4t1,,success
Status,59,9291728990,/g3t1_1,,running
Status,60,9291791262,/g3t1_1,,success
Status,61,9293631578,/g4t1,,fail
Status,62,9296853659,/g3t1_3,,running
Status,63,9296923687,/g3t1_2,,running
Status,64,9297702980,/g3t1_3,,success
Status,65,9297815833,/g3t1_2,,success
Status,66,9313823966,/g4t1,,success
Status,67,9333940648,/g4t1,,success
Status,68,9353986450,/g4t1,,success
Status,69,9373745897,/g4t1,,success
Status,70,9391015766,/g3t1_1,,running
Status,71,9391081138,/g3t1_1,,success
Status,72,9393433592,/g4t1,,fail
Status,73,9396294702,/g3t1_3,,running
Status,74,9396321149,/g3t1_3,,success
Status,75,9396483978,/g3t1_2,,running
Status,76,9396504276,/g3t1_2,,success
Status,77,9413648642,/g4t1,,success
Status,78,9433825884,/g4t1,,success
Status,79,9453992312,/g4t1,,success
Status,80,9474152807,/g4t1,,success
Status,81,9491887210,/g3t1_1,,running
Status,82,9492482066,/g3t1_1,,success
Status,83,9494793264,/g4t1,,fail
Status,84,9497140200,/g3t1_3,,running
Status,85,9497695547,/g3t1_2,,running
Status,86,9497748090,/g3t1_2,,success
Status,87,9497781680,/g3t1_3,,success
Status,88,9514969059,/g4t1,,fail
Status,89,9535186319,/g4t1,,success
Status,90,9555707345,/g4t1,,success
Status,91,9575460647,/g4t1,,success
Status,92,9592134470,/g3t1_1,,running
Status,93,9592199026,/g3t1_1,,success
Status,94,9595316200,/g4t1,,fail
Status,95,9597128077,/g3t1_3,,running
Status,96,9597194578,/g3t1_2,,running
Status,97,9597504161,/g3t1_3,,success
Status,98,9598030011,/g3t1_2,,success
Status,99,9615595936,/g4t1,,fail
Status,100,9635548092,/g4t1,,success
Status,101,9655212676,/g4t1,,success
Status,102,9675296570,/g4t1,,success
Status,103,9691640552,/g3t1_1,,running
Status,104,9691763769,/g3t1_1,,success
Status,105,9695220089,/g4t1,,fail
Status,106,9696491390,/g3t1_3,,running
Status,107,9696769835,/g3t1_3,,success
Status,108,9696845554,/g3t1_2,,running
Status,109,9697057256,/g3t1_2,,success
Status,110,9715566997,/g4t1,,fail
Status,111,9736099605,/g4t1,,success
Status,112,9756429294,/g4t1,,success
Status,113,9776454703,/g4t1,,success
Status,114,9792279939,/g3t1_1,,running
Status,115,9793055901,/g3t1_1,,success
Status,116,9796744130,/g4t1,,fail
Status,117,9797113155,/g3t1_3,,running
Status,118,9797802112,/g3t1_2,,running
Status,119,9797869362,/g3t1_3,,success
Status,120,9798966581,/g3t1_2,,success
Status,121,9816751879,/g4t1,,fail
Status,122,9836712540,/g4t1,,success
Status,123,9857289432,/g4t1,,success
Status,124,9876764212,/g4t1,,success
Status,125,9891920236,/g3t1_1,,running
Status,126,9891951571,/g3t1_1,,success
Status,127,9896473934,/g4t1,,fail
Status,128,9896658311,/g3t1_3,,running
Status,129,9896940073,/g3t1_2,,running
Status,130,9897056260,/g3t1_3,,success
Status,131,9897069894,/g3t1_2,,success
Status,132,9916714267,/g4t1,,fail
Status,133,9936689309,/g4t1,,success
Status,134,9957502596,/g4t1,,success
Status,135,9977606616,/g4t1,,success
Status,136,9992345106,/g3t1_1,,running
Status,137,9992957952,/g3t1_1,,success
Status,138,9997533144,/g3t1_3,,running
Status,139,9998238231,/g4t1,,fail
Status,140,9998348210,/g3t1_3,,success
Status,141,9998433608,/g3t1_2,,running
Status,142,9998698446,/g3t1_2,,success
Status,143,10017736018,/g4t1,,fail
Status,144,10037914131,/g4t1,,success
Status,145,10057835971,/g4t1,,success
Status,146,10078125146,/g4t1,,success
Status,147,10092525475,/g3t1_1,,running
Status,148,10093202744,/g3t1_1,,success
Status,149,10097757352,/g3t1_3,,running
Status,150,10098473148,/g3t1_2,,running
Status,151,10098558619,/g4t1,,fail
Status,152,10098595869,/g3t1_3,,success
Status,153,10098624012,/g3t1_2,,success
Status,154,10118397433,/g4t1,,fail
Status,155,10138681303,/g4t1,,success
Status,156,10158744364,/g4t1,,success
Status,157,10178103852,/g4t1,,success
Status,158,10192155714,/g3t1_1,,running
Status,159,10192292472,/g3t1_1,,success
Status,160,10197492597,/g3t1_3,,running
Status,161,10197516183,/g3t1_3,,success
Status,162,10197597069,/g3t1_2,,running
Status,163,10197617690,/g3t1_2,,success
Status,164,10197994672,/g4t1,,fail
Status,165,10219148801,/g4t1,,success
Status,166,10239295093,/g4t1,,success
Status,167,10258339109,/g4t1,,success
Status,168,10279048716,/g4t1,,success
Status,169,10292424704,/g3t1_1,,running
Status,170,10292445878,/g3t1_1,,success
Status,171,10297363520,/g3t1_3,,running
Status,172,10297661518,/g3t1_3,,success
Status,173,10297928991,/g3t1_2,,running
Status,174,10297987083,/g3t1_2,,success
Status,175,10298796704,/g4t1,,fail
Status,176,10319319365,/g4t1,,success
Status,177,10338875704,/g4t1,,success
Status,178,10359000593,/g4t1,,success
Status,179,10379002538,/g4t1,,success
Status,180,10392393416,/g3t1_1,,running
Status,181,10392524421,/g3t1_1,,success
Status,182,10397333263,/g3t1_3,,running
Status,183,10397739064,/g3t1_2,,running
Status,184,10397758870,/g3t1_3,,success
Status,185,10397802303,/g3t1_2,,success
Status,186,10399841748,/g4t1,,fail
Status,187,10419278679,/g4t1,,success
Status,188,10439328787,/g4t1,,success
Status,189,10459316977,/g4t1,,success
Status,190,10479384966,/g4t1,,success
Status,191,10492460635,/g3t1_1,,running
Status,192,10493099575,/g3t1_1,,success
Status,193,10497506358,/g3t1_3,,running
Status,194,10497606515,/g3t1_2,,running
Status,195,10497648066,/g3t1_3,,success
Status,196,10497916169,/g3t1_2,,success
Status,197,10499347745,/g4t1,,fail
Status,198,10519695351,/g4t1,,success
Status,199,10539690150,/g4t1,,success
Status,200,10559815094,/g4t1,,success
Status,201,10579786330,/g4t1,,success
Status,202,10592521611,/g3t1_1,,running
Status,203,10592568820,/g3t1_1,,success
Status,204,10597672144,/g3t1_3,,running
Status,205,10597703138,/g3t1_2,,running
Status,206,10597798680,/g3t1_2,,success
Status,207,10597899735,/g3t1_3,,success
Status,208,10599908017,/g4t1,,fail
Status,209,10619957707,/g4t1,,success
Status,210,10640176891,/g4t1,,success
Status,211,10660193795,/g4t1,,success
Status,212,10680186276,/g4t1,,success
Status,213,10692561170,/g3t1_1,,running
Status,214,10692674133,/g3t1_1,,success
Status,215,10697746889,/g3t1_3,,running
Status,216,10697778745,/g3t1_3,,success
Status,217,10698020024,/g3t1_2,,running
Status,218,10698231965,/g3t1_2,,success
Status,219,10700451784,/g4t1,,fail
Status,220,10720478766,/g4t1,,success
Status,221,10740586531,/g4t1,,success
Status,222,10760478180,/g4t1,,success
Status,223,10780748626,/g4t1,,success
Status,224,10792680420,/g3t1_1,,running
Status,225,10792809727,/g3t1_1,,success
Status,226,10797696512,/g3t1_3,,running
Status,227,10797733922,/g3t1_3,,success
Status,228,10797744348,/g3t1_2,,running
Status,229,10798132363,/g3t1_2,,success
Status,230,10800844873,/g4t1,,fail
Status,231,10820877207,/g4t1,,success
Status,232,10841028938,/g4t1,,success
Status,233,10861055491,/g4t1,,success
Status,234,10881657581,/g4t1,,success
Status,235,10893158534,/g3t1_1,,running
Status,236,10893436910,/g3t1_1,,success
Status,237,10898144411,/g3t1_3,,running
Status,238,10898678573,/g3t1_2,,running
Status,239,10899186450,/g3t1_3,,success
Status,240,10899246840,/g3t1_2,,success
Status,241,10901938928,/g4t1,,fail
Status,242,10922052094,/g4t1,,success
Status,243,10942125936,/g4t1,,success
Status,244,10962734985,/g4t1,,success
Status,245,10981960693,/g4t1,,success
Status,246,10992907387,/g3t1_1,,running
Status,247,10992928962,/g3t1_1,,success
Status,248,10997882415,/g3t1_3,,running
Status,249,10997998810,/g3t1_3,,success
Status,250,10998062971,/g3t1_2,,running
Status,251,10998206104,/g3t1_2,,success
Status,252,11001790659,/g4t1,,fail
Status,253,11022029993,/g4t1,,success
Status,254,11042149117,/g4t1,,success
Status,255,11063041430,/g4t1,,success
Status,256,11083145628,/g4t1,,success
Status,257,11093778857,/g3t1_1,,running
Status,258,11094064758,/g3t1_1,,success
Status,259,11098514304,/g3t1_3,,running
Status,260,11098644081,/g3t1_2,,running
Status,261,11099165917,/g3t1_3,,success
Status,262,11099486583,/g3t1_2,,success
Status,263,11103113255,/g4t1,,fail
Status,264,11123631422,/g4t1,,success
Status,265,11143664371,/g4t1,,success
Status,266,11163442091,/g4t1,,success
Status,267,11183862416,/g4t1,,success
Status,268,11193467893,/g3t1_1,,running
Status,269,11193843686,/g3t1_1,,success
Status,270,11198683070,/g3t1_3,,running
Status,271,11198746198,/g3t1_2,,running
Status,272,11199431385,/g3t1_3,,success
Status,273,11199512072,/g3t1_2,,success
Status,274,11203517917,/g4t1,,fail
Status,275,11223916058,/g4t1,,success
Status,276,11244123280,/g4t1,,success
Status,277,11264138599,/g4t1,,success
Status,278,11283806978,/g4t1,,success
Status,279,11293216565,/g3t1_1,,running
Status,280,11293277007,/g3t1_1,,success
Status,281,11298416472,/g3t1_3,,running
Status,282,11298445895,/g3t1_3,,success
Status,283,11298479626,/g3t1_2,,running
Status,284,11298548329,/g3t1_2,,success
Status,285,11303788923,/g4t1,,fail
Status,286,11323876250,/g4t1,,success
Status,287,11344156805,/g4t1,,success
Status,288,11364801352,/g4t1,,success
Status,289,11384889482,/g4t1,,success
Status,290,11394036597,/g3t1_1,,running
Status,291,11394096020,/g3t1_1,,success
Status,292,11399156252,/g3t1_3,,running
Status,293,11399215535,/g3t1_2,,running
Status,294,11399238623,/g3t1_3,,success
Status,295,11399513414,/g3t1_2,,success
Status,296,11404833445,/g4t1,,fail
Status,297,11425186686,/g4t1,,success
Status,298,11445317269,/g4t1,,success
Status,299,11465288084,/g4t1,,success
Status,300,11485917080,/g4t1,,success
Status,301,11494192191,/g3t1_1,,running
Status,302,11494250658,/g3t1_1,,success
Status,303,11499311198,/g3t1_3,,running
Status,304,11499427801,/g3t1_2,,running
Status,305,11500656517,/g3t1_2,,success
Status,306,11500702994,/g3t1_3,,success
Status,307,11505486952,/g4t1,,fail
Status,308,11525103995,/g4t1,,success
Status,309,11545658385,/g4t1,,success
Status,310,11565442280,/g4t1,,success
Status,311,11585575411,/g4t1,,success
Status,312,11593663497,/g3t1_1,,running
Status,313,11593688240,/g3t1_1,,success
Status,314,11598695441,/g3t1_3,,running
Status,315,11598722682,/g3t1_2,,running
Status,316,11598751372,/g3t1_3,,success
Status,317,11598842676,/g3t1_2,,success
Status,318,11605508539,/g4t1,,fail
Status,319,11625708998,/g4t1,,success
Status,320,11646514715,/g4t1,,success
Status,321,11666557307,/g4t1,,success
Status,322,11686983348,/g4t1,,success
Status,323,11694370383,/g3t1_1,,running
Status,324,11694719079,/g3t1_1,,success
Status,325,11699380173,/g3t1_3,,running
Status,326,11699439925,/g3t1_2,,running
Status,327,11700573180,/g3t1_3,,success
Status,328,11700636783,/g3t1_2,,success
Status,329,11706463861,/g4t1,,fail
Status,330,11726480152,/g4t1,,success
Status,331,11746779368,/g4t1,,success
Status,332,11766730789,/g4t1,,success
Status,333,11786635826,/g4t1,,success
Status,334,11793708102,/g3t1_1,,running
Status,335,11793836615,/g3t1_1,,success
Status,336,11799309787,/g3t1_3,,running
Status,337,11799342072,/g3t1_2,,running
Status,338,11799349552,/g3t1_3,,success
Status,339,11799355551,/g3t1_2,,success
Status,340,11806596744,/g4t1,,fail
Status,341,11827078023,/g4t1,,success
Status,342,11846959337,/g4t1,,success
Status,343,11867597051,/g4t1,,success
Status,344,11887625043,/g4t1,,success
Status,345,11894465819,/g3t1_1,,running
Status,346,11894518734,/g3t1_1,,success
Status,347,11899404749,/g3t1_3,,running
Status,348,11899454876,/g3t1_2,,running
Status,349,11899776651,/g3t1_3,,success
Status,350,11900131160,/g3t1_2,,success
Status,351,11907567515,/g4t1,,fail
Status,352,11927775328,/g4t1,,success
Status,353,11948076989,/g4t1,,success
Status,354,11968077765,/g4t1,,success
Status,355,11988386025,/g4t1,,success
Status,356,11994534939,/g3t1_1,,running
Status,357,11994896502,/g3t1_1,,success
Status,358,11999626099,/g3t1_3,,running
Status,359,11999707030,/g3t1_2,,running
Status,360,11999996866,/g3t1_3,,success
Status,361,12000694230,/g3t1_2,,success
Status,362,12008046771,/g4t1,,fail
Status,363,12028368778,/g4t1,,success
Status,364,12048522420,/g4t1,,success
Status,365,12068553310,/g4t1,,success
Status,366,12088160375,/g4t1,,success
Status,367,12094175040,/g3t1_1,,running
Status,368,12094330139,/g3t1_1,,success
Status,369,12099227972,/g3t1_3,,running
Status,370,12099292103,/g3t1_2,,running
Status,371,12099357214,/g3t1_3,,success
Status,372,12099370562,/g3t1_2,,success
Status,373,12108280525,/g4t1,,fail
Status,374,12128412343,/g4t1,,success
Status,375,12148748748,/g4t1,,success
Status,376,12168893513,/g4t1,,success
Status,377,12188875886,/g4t1,,success
Status,378,12194201827,/g3t1_1,,running
Status,379,12194522741,/g3t1_1,,success
Status,380,12199672489,/g3t1_3,,running
Status,381,12199701547,/g3t1_2,,running
Status,382,12199809063,/g3t1_3,,success
Status,383,12199820637,/g3t1_2,,success
Status,384,12208921223,/g4t1,,fail
Status,385,12229686989,/g4t1,,success
Status,386,12249795626,/g4t1,,success
Status,387,12269908784,/g4t1,,success
Status,388,12289998637,/g4t1,,success
Status,389,12294930152,/g3t1_1,,running
Status,390,12295611573,/g3t1_1,,success
Status,391,12300698180,/g3t1_3,,running
Status,392,12300771538,/g3t1_2,,running
Status,393,12300794595,/g3t1_2,,success
Status,394,12300812703,/g3t1_3,,success
Status,395,12310069180,/g4t1,,fail
Status,396,12330405975,/g4t1,,success
Status,397,12350610470,/g4t1,,success
Status,398,12370758046,/g4t1,,success
Status,399,12390004777,/g4t1,,success
Status,400,12394331643,/g3t1_1,,running
Status,401,12394549567,/g3t1_1,,success
Status,402,12399499780,/g3t1_3,,running
Status,403,12399744878,/g3t1_2,,running
Status,404,12399793785,/g3t1_3,,success
Status,405,12399806861,/g3t1_2,,success
Status,406,12409946948,/g4t1,,fail
Status,407,12430104992,/g4t1,,success
Status,408,12451176365,/g4t1,,success
Status,409,12471422129,/g4t1,,success
Status,410,12491207350,/g4t1,,success
Status,411,12495453912,/g3t1_1,,running
Status,412,12495742951,/g3t1_1,,success
Status,413,12500278139,/g3t1_3,,running
Status,414,12500377978,/g3t1_2,,running
Status,415,12500890196,/g3t1_2,,success
Status,416,12500965976,/g3t1_3,,success
Status,417,12511581570,/g4t1,,fail
Status,418,12531546088,/g4t1,,success
Status,419,12551759170,/g4t1,,success
Status,420,12571724556,/g4t1,,success
Status,421,12591689579,/g4t1,,success
Status,422,12595100740,/g3t1_1,,running
Status,423,12595449456,/g3t1_1,,success
Status,424,12600778726,/g3t1_3,,running
Status,425,12600841207,/g3t1_2,,running
Status,426,12600861684,/g3t1_2,,success
Status,427,12600878872,/g3t1_3,,success
Status,428,12611884458,/g4t1,,fail
Status,429,12632176915,/g4t1,,success
Status,430,12651770047,/g4t1,,success
Status,431,12671574453,/g4t1,,success
Status,432,12692690847,/g4t1,,success
Status,433,12695815141,/g3t1_1,,running
Status,434,12695883255,/g3t1_1,,success
Status,435,12700620392,/g3t1_2,,running
Status,436,12700974208,/g3t1_3,,running
Status,437,12701256755,/g3t1_2,,success
Status,438,12701301369,/g3t1_3,,success
Status,439,12712496031,/g4t1,,fail
Status,440,12732702102,/g4t1,,success
Status,441,12752807586,/g4t1,,success
Status,442,12773015939,/g4t1,,success
Status,443,12793221647,/g4t1,,success
Status,444,12795445662,/g3t1_1,,running
Status,445,12796070878,/g3t1_1,,success
Status,446,12800928246,/g3t1_2,,running
Status,447,12800989515,/g3t1_3,,running
Status,448,12801009813,/g3t1_3,,success
Status,449,12801028995,/g3t1_2,,success
Status,450,12813139756,/g4t1,,fail
Status,451,12833337037,/g4t1,,success
Status,452,12853411029,/g4t1,,success
Status,453,12873567762,/g4t1,,success
Status,454,12893237354,/g4t1,,success
Status,455,12895074101,/g3t1_1,,running
Status,456,12895251956,/g3t1_1,,success
Status,457,12900299850,/g3t1_2,,running
Status,458,12900339569,/g3t1_3,,running
Status,459,12900353052,/g3t1_3,,success
Status,460,12900363255,/g3t1_2,,success
Status,461,12913040327,/g4t1,,fail
Status,462,12933054642,/g4t1,,success
Status,463,12953910997,/g4t1,,success
Status,464,12974044534,/g4t1,,success
Status,465,12994189711,/g4t1,,success
Status,466,12995591920,/g3t1_1,,running
Status,467,12996195744,/g3t1_1,,success
Status,468,13000746707,/g3t1_3,,running
Status,469,13000827845,/g3t1_2,,running
Status,470,13001045808,/g3t1_2,,success
Status,471,13001151356,/g3t1_3,,success
Status,472,13014032307,/g4t1,,fail
Status,473,13034364994,/g4t1,,success
Status,474,13054489279,/g4t1,,success
Status,475,13074588051,/g4t1,,success
Status,476,13094963609,/g4t1,,success
Status,477,13095955187,/g3t1_1,,running
Status,478,13096030653,/g3t1_1,,success
Status,479,13100939605,/g3t1_3,,running
Status,480,13101009761,/g3t1_2,,running
Status,481,13101278436,/g3t1_2,,success
Status,482,13101340837,/g3t1_3,,success
Status,483,13115052982,/g4t1,,fail
Status,484,13134493234,/g4t1,,success
Status,485,13155278956,/g4t1,,success
Status,486,13174663060,/g4t1,,success
Status,487,13194810794,/g4t1,,success
Status,488,13195361255,/g3t1_1,,running
Status,489,13195754423,/g3t1_1,,success
Status,490,13200630469,/g3t1_3,,running
Status,491,13200652660,/g3t1_2,,running
Status,492,13200659388,/g3t1_2,,success
Status,493,13200665370,/g3t1_3,,success
Status,494,13214900088,/g4t1,,fail
Status,495,13234948436,/g4t1,,success
Status,496,13255347555,/g4t1,,success
Status,497,13275879122,/g4t1,,success
Status,498,13295877470,/g3t1_1,,running
Status,499,13296199190,/g4t1,,success
Status,500,13296260513,/g3t1_1,,success
Status,501,13301136305,/g3t1_3,,running
Status,502,13301202480,/g3t1_2,,running
Status,503,13301365283,/g3t1_3,,success
Status,504,13301429553,/g3t1_2,,success
Status,505,13316077198,/g4t1,,fail
Status,506,13336150798,/g4t1,,success
Status,507,13356302132,/g4t1,,success
Status,508,13376473871,/g4t1,,success
Status,509,13396096739,/g3t1_1,,running
Status,510,13396610081,/g4t1,,success
Status,511,13396678716,/g3t1_1,,success
Status,512,13401710416,/g3t1_2,,running
Status,513,13401783639,/g3t1_3,,running
Status,514,13401964859,/g3t1_2,,success
Status,515,13402049081,/g3t1_3,,success
Status,516,13416623575,/g4t1,,fail
Status,517,13436841839,/g4t1,,success
Status,518,13456923623,/g4t1,,success
Status,519,13476649504,/g4t1,,success
Status,520,13495877698,/g3t1_1,,running
Status,521,13495906614,/g3t1_1,,success
Status,522,13496187251,/g4t1,,success
Status,523,13500917231,/g3t1_2,,running
Status,524,13500941196,/g3t1_3,,running
Status,525,13500964687,/g3t1_2,,success
Status,526,13500972827,/g3t1_3,,success
Status,527,13516573671,/g4t1,,fail
Status,528,13537434623,/g4t1,,success
Status,529,13557351861,/g4t1,,success
Status,530,13577674365,/g4t1,,success
Status,531,13596465400,/g3t1_1,,running
Status,532,13596887846,/g3t1_1,,success
Status,533,13597697628,/g4t1,,success
Status,534,13601486900,/g3t1_2,,running
Status,535,13601563407,/g3t1_3,,running
Status,536,13601888390,/g3t1_3,,success
Status,537,13602167868,/g3t1_2,,success
Status,538,13617800345,/g4t1,,fail
Status,539,13638005161,/g4t1,,success
Status,540,13658375581,/g4t1,,success
Status,541,13678469973,/g4t1,,success
Status,542,13696809629,/g3t1_1,,running
Status,543,13696873477,/g3t1_1,,success
Status,544,13698373457,/g4t1,,fail
Status,545,13701942436,/g3t1_3,,running
Status,546,13702156454,/g3t1_2,,running
Status,547,13702390213,/g3t1_2,,success
Status,548,13702477865,/g3t1_3,,success
Status,549,13718680202,/g4t1,,fail
Status,550,13738225371,/g4t1,,success
Status,551,13758032009,/g4t1,,success
Status,552,13778970429,/g4t1,,success
Status,553,13796744658,/g3t1_1,,running
Status,554,13797069045,/g3t1_1,,success
Status,555,13798857919,/g4t1,,success
Status,556,13801759167,/g3t1_2,,running
Status,557,13801826530,/g3t1_3,,running
Status,558,13802358992,/g3t1_2,,success
Status,559,13802416011,/g3t1_3,,success
Status,560,13818990796,/g4t1,,fail
Status,561,13839495254,/g4t1,,success
Status,562,13859664553,/g4t1,,success
Status,563,13879605751,/g4t1,,success
Status,564,13897189519,/g3t1_1,,running
Status,565,13897251901,/g3t1_1,,success
Status,566,13899598806,/g4t1,,fail
Status,567,13901935724,/g3t1_3,,running
Status,568,13902163875,/g3t1_2,,running
Status,569,13902210247,/g3t1_2,,success
Status,570,13902233722,/g3t1_3,,success
Status,571,13919820241,/g4t1,,fail
Status,572,13939949032,/g4t1,,success
Status,573,13960091479,/g4t1,,success
Status,574,13979797716,/g4t1,,success
Status,575,13996370940,/g3t1_1,,running
Status,576,13996457089,/g3t1_1,,success
Status,577,13999558668,/g4t1,,success
Status,578,14001600156,/g3t1_2,,running
Status,579,14001622239,/g3t1_3,,running
Status,580,14001631513,/g3t1_3,,success
Status,581,14001998839,/g3t1_2,,success
Status,582,14019720718,/g4t1,,fail
Status,583,14039864903,/g4t1,,success
Status,584,14060755473,/g4t1,,success
Status,585,14080913614,/g4t1,,success
Status,586,14097064483,/g3t1_1,,running
Status,587,14097678303,/g3t1_1,,success
Status,588,14100754044,/g4t1,,fail
Status,589,14102095924,/g3t1_3,,running
Status,590,14102163743,/g3t1_2,,running
Status,591,14102565821,/g3t1_2,,success
Status,592,14102622582,/g3t1_3,,success
Status,593,14121123384,/g4t1,,fail
Status,594,14141133666,/g4t1,,success
Status,595,14161315530,/g4t1,,success
Status,596,14181461734,/g4t1,,success
Status,597,14197153531,/g3t1_1,,running
Status,598,14197431339,/g3t1_1,,success
Status,599,14201254821,/g4t1,,success
Status,600,14202456189,/g3t1_3,,running
Status,601,14202511143,/g3t1_2,,running
Status,602,14202552530,/g3t1_3,,success
Status,603,14203319756,/g3t1_2,,success
Status,604,14221617371,/g4t1,,fail
Status,605,14241788072,/g4t1,,success
Status,606,14261848702,/g4t1,,success
Status,607,14282076491,/g4t1,,success
Status,608,14297128575,/g3t1_1,,running
Status,609,14297155735,/g3t1_1,,success
Status,610,14301361993,/g4t1,,fail
Status,611,14301568411,/g3t1_3,,running
Status,612,14301593359,/g3t1_2,,running
Status,613,14301827725,/g3t1_2,,success
Status,614,14301850230,/g3t1_3,,success
Status,615,14321401860,/g4t1,,fail
Status,616,14342383945,/g4t1,,success
Status,617,14362470912,/g4t1,,success
Status,618,14382744630,/g4t1,,success
Status,619,14397421737,/g3t1_1,,running
Status,620,14397909811,/g3t1_1,,success
Status,621,14403146701,/g3t1_3,,running
Status,622,14403221474,/g3t1_3,,success
Status,623,14403243657,/g3t1_2,,running
Status,624,14403263434,/g3t1_2,,success
Status,625,14403280133,/g4t1,,success
Status,626,14422900530,/g4t1,,fail
Status,627,14443182590,/g4t1,,success
Status,628,14463304328,/g4t1,,success
Status,629,14483619559,/g4t1,,success
Status,630,14497474824,/g3t1_1,,running
Status,631,14498662035,/g3t1_1,,success
Status,632,14503519595,/g3t1_2,,running
Status,633,14503720953,/g3t1_3,,running
Status,634,14503784391,/g3t1_2,,success
Status,635,14503818370,/g4t1,,fail
Status,636,14503848934,/g3t1_3,,success
Status,637,14523762127,/g4t1,,fail
Status,638,14544038897,/g4t1,,success
Status,639,14564181203,/g4t1,,success
Status,640,14583635168,/g4t1,,success
Status,641,14596986130,/g3t1_1,,running
Status,642,14597009276,/g3t1_1,,success
Status,643,14602208381,/g3t1_3,,running
Status,644,14602265324,/g3t1_2,,running
Status,645,14602518472,/g3t1_3,,success
Status,646,14602542306,/g3t1_2,,success
Status,647,14603535883,/g4t1,,fail
Status,648,14624541216,/g4t1,,success
Status,649,14644721391,/g4t1,,success
Status,650,14664857759,/g4t1,,success
Status,651,14684955268,/g4t1,,success
Status,652,14697559384,/g3t1_1,,running
Status,653,14698187194,/g3t1_1,,success
Status,654,14703134448,/g3t1_3,,running
Status,655,14703303779,/g3t1_2,,running
Status,656,14704115781,/g3t1_2,,success
Status,657,14704210368,/g3t1_3,,success
Status,658,14705028489,/g4t1,,fail
Status,659,14725122522,/g4t1,,success
Status,660,14745239211,/g4t1,,success
Status,661,14765184596,/g4t1,,success
Status,662,14785424766,/g4t1,,success
Status,663,14798131418,/g3t1_1,,running
Status,664,14798200255,/g3t1_1,,success
Status,665,14804121664,/g3t1_3,,running
Status,666,14804264304,/g3t1_3,,success
Status,667,14804470605,/g3t1_2,,running
Status,668,14804670174,/g3t1_2,,success
Status,669,14805854544,/g4t1,,fail
Status,670,14825097072,/g4t1,,success
Status,671,14845114920,/g4t1,,success
Status,672,14865270214,/g4t1,,success
Status,673,14885449985,/g4t1,,success
Status,674,14897933519,/g3t1_1,,running
Status,675,14898181899,/g3t1_1,,success
Status,676,14903066088,/g3t1_3,,running
Status,677,14903172260,/g3t1_2,,running
Status,678,14903886245,/g3t1_3,,success
Status,679,14903957014,/g3t1_2,,success
Status,680,14905663547,/g4t1,,fail
Status,681,14926241184,/g4t1,,success
Status,682,14946237605,/g4t1,,success
Status,683,14966678605,/g4t1,,success
Status,684,14986883760,/g4t1,,success
Status,685,14998041087,/g3t1_1,,running
Status,686,14998222090,/g3t1_1,,success
Status,687,15003363286,/g3t1_3,,running
Status,688,15003469551,/g3t1_2,,running
Status,689,15003758803,/g3t1_3,,success
Status,690,15003817962,/g3t1_2,,success
Status,691,15006385215,/g4t1,,fail
Status,692,15026777814,/g4t1,,success
Status,693,15046916645,/g4t1,,success
Status,694,15067288640,/g4t1,,success
Status,695,15086944131,/g4t1,,success
Status,696,15097709589,/g3t1_1,,running
Status,697,15097740014,/g3t1_1,,success
Status,698,15102917373,/g3t1_3,,running
Status,699,15102953971,/g3t1_2,,running
Status,700,15102962413,/g3t1_3,,success
Status,701,15103262917,/g3t1_2,,success
Status,702,15106543109,/g4t1,,fail
Status,703,15127501544,/g4t1,,success
Status,704,15147648358,/g4t1,,success
Status,705,15167596216,/g4t1,,success
Status,706,15187176533,/g4t1,,success
Status,707,15197722561,/g3t1_1,,running
Status,708,15197914670,/g3t1_1,,success
Status,709,15202956749,/g3t1_3,,running
Status,710,15202981359,/g3t1_2,,running
Status,711,15203093383,/g3t1_3,,success
Status,712,15203113693,/g3t1_2,,success
Status,713,15207123135,/g4t1,,fail
Status,714,15227530702,/g4t1,,success
Status,715,15248117519,/g4t1,,success
Status,716,15268294240,/g4t1,,success
Status,717,15288388248,/g4t1,,success
Status,718,15298397797,/g3t1_1,,running
Status,719,15298695912,/g3t1_1,,success
Status,720,15304022736,/g3t1_3,,running
Status,721,15304086577,/g3t1_2,,running
Status,722,15304124122,/g3t1_3,,success
Status,723,15304164309,/g3t1_2,,success
Status,724,15308266070,/g4t1,,fail
Status,725,15328480784,/g4t1,,success
Status,726,15348695553,/g4t1,,success
Status,727,15368994839,/g4t1,,success
Status,728,15388316145,/g4t1,,success
Status,729,15397839657,/g3t1_1,,running
Status,730,15398016331,/g3t1_1,,success
Status,731,15403042686,/g3t1_3,,running
Status,732,15403258121,/g3t1_2,,running
Status,733,15403275334,/g3t1_3,,success
Status,734,15403418853,/g3t1_2,,success
Status,735,15407974596,/g4t1,,fail
Status,736,15428359068,/g4t1,,success
Status,737,15448686424,/g4t1,,success
Status,738,15469400424,/g4t1,,success
Status,739,15489467652,/g4t1,,success
Status,740,15498605813,/g3t1_1,,running
Status,741,15498886525,/g3t1_1,,success
Status,742,15504268000,/g3t1_3,,running
Status,743,15504382707,/g3t1_2,,running
Status,744,15504634696,/g3t1_3,,success
Status,745,15504715803,/g3t1_2,,success
Status,746,15509517814,/g4t1,,fail
Status,747,15529637318,/g4t1,,success
Status,748,15549853228,/g4t1,,success
Status,749,15570035326,/g4t1,,success
Status,750,15590088956,/g4t1,,success
Status,751,15598578593,/g3t1_1,,running
Status,752,15598991133,/g3t1_1,,success
Status,753,15604174069,/g3t1_3,,running
Status,754,15604263018,/g3t1_2,,running
Status,755,15604505672,/g3t1_3,,success
Status,756,15605026834,/g3t1_2,,success
Status,757,15610063905,/g4t1,,fail
Status,758,15630248439,/g4t1,,success
Status,759,15650617135,/g4t1,,success
Status,760,15670058584,/g4t1,,success
Status,761,15690079808,/g4t1,,success
Status,762,15698205889,/g3t1_1,,running
Status,763,15698358749,/g3t1_1,,success
Status,764,15703576930,/g3t1_3,,running
Status,765,15703608436,/g3t1_2,,running
Status,766,15703734795,/g3t1_3,,success
Status,767,15703765470,/g3t1_2,,success
Status,768,15710846948,/g4t1,,fail
Status,769,15731050436,/g4t1,,success
Status,770,15751169239,/g4t1,,success
Status,771,15771642276,/g4t1,,success
Status,772,15791464007,/g4t1,,success
Status,773,15798885336,/g3t1_1,,running
Status,774,15799328680,/g3t1_1,,success
Status,775,15805058219,/g3t1_3,,running
Status,776,15805138904,/g3t1_2,,running
Status,777,15805214844,/g3t1_2,,success
Status,778,15805238375,/g3t1_3,,success
Status,779,15811613851,/g4t1,,fail
Status,780,15831745798,/g4t1,,success
Status,781,15851905182,/g4t1,,success
Status,782,15871948389,/g4t1,,success
Status,783,15892115109,/g4t1,,success
Status,784,15899262072,/g3t1_1,,running
Status,785,15899743898,/g3t1_1,,success
Status,786,15904749778,/g3t1_3,,running
Status,787,15904799570,/g3t1_2,,running
Status,788,15904822932,/g3t1_2,,success
Status,789,15904862402,/g3t1_3,,success
Status,790,15911711339,/g4t1,,fail
Status,791,15931508634,/g4t1,,success
Status,792,15951666671,/g4t1,,success
Status,793,15972656894,/g4t1,,success
Status,794,15992719809,/g4t1,,success
Status,795,15999149594,/g3t1_1,,running
Status,796,15999788870,/g3t1_1,,success
Status,797,16005301436,/g3t1_3,,running
Status,798,16005366515,/g3t1_2,,running
Status,799,16005392352,/g3t1_2,,success
Status,800,16005672226,/g3t1_3,,success
Status,801,16012785846,/g4t1,,fail
Status,802,16032964264,/g4t1,,success
Status,803,16053021082,/g4t1,,success
Status,804,16073368469,/g4t1,,success
Status,805,16093406947,/g4t1,,success
Status,806,16099494812,/g3t1_1,,running
Status,807,16099837846,/g3t1_1,,success
Status,808,16104676879,/g3t1_3,,running
Status,809,16104747627,/g3t1_2,,running
Status,810,16104785087,/g3t1_3,,success
Status,811,16105050441,/g3t1_2,,success
Status,812,16113303176,/g4t1,,fail
Status,813,16133626220,/g4t1,,success
Status,814,16153884044,/g4t1,,success
Status,815,16173595036,/g4t1,,success
Status,816,16193220011,/g4t1,,success
Status,817,16198850954,/g3t1_1,,running
Status,818,16198875498,/g3t1_1,,success
Status,819,16204234879,/g3t1_3,,running
Status,820,16204272467,/g3t1_2,,running
Status,821,16204293985,/g3t1_3,,success
Status,822,16204467632,/g3t1_2,,success
Status,823,16213381987,/g4t1,,fail
Status,824,16233565801,/g4t1,,success
Status,825,16254224388,/g4t1,,success
Status,826,16274548267,/g4t1,,success
Status,827,16294719282,/g4t1,,success
Status,828,16299398869,/g3t1_1,,running
Status,829,16299730803,/g3t1_1,,success
Status,830,16304972206,/g3t1_3,,running
Status,831,16305033451,/g3t1_2,,running
Status,832,16305111186,/g3t1_3,,success
Status,833,16305353058,/g3t1_2,,success
Status,834,16314830292,/g4t1,,fail
Status,835,16334961614,/g4t1,,success
Status,836,16355139411,/g4t1,,success
Status,837,16375301168,/g4t1,,success
Status,838,16395444222,/g4t1,,success
Status,839,16399521673,/g3t1_1,,running
Status,840,16399958106,/g3t1_1,,success
Status,841,16405385860,/g3t1_3,,running
Status,842,16405441088,/g3t1_3,,success
Status,843,16405473302,/g3t1_2,,running
Status,844,16405556901,/g3t1_2,,success
Status,845,16415306283,/g4t1,,fail
Status,846,16435590089,/g4t1,,success
Status,847,16455690415,/g4t1,,success
Status,848,16475253481,/g4t1,,success
Status,849,16495848852,/g4t1,,success
Status,850,16499529715,/g3t1_1,,running
Status,851,16499580368,/g3t1_1,,success
Status,852,16505019807,/g3t1_2,,running
Status,853,16505050756,/g3t1_2,,success
Status,854,16505060431,/g3t1_3,,running
Status,855,16505069032,/g3t1_3,,success
Status,856,16515551331,/g4t1,,fail
Status,857,16535687178,/g4t1,,success
Status,858,16556161022,/g4t1,,success
Status,859,16576200573,/g4t1,,success
Status,860,16596504706,/g4t1,,success
Status,861,16599815482,/g3t1_1,,running
Status,862,16600164826,/g3t1_1,,success
Status,863,16605410986,/g3t1_2,,running
Status,864,16605501130,/g3t1_3,,running
Status,865,16605559644,/g3t1_3,,success
Status,866,16605696379,/g3t1_2,,success
Status,867,16616525094,/g4t1,,fail
Status,868,16636318296,/g4t1,,success
Status,869,16656313581,/g4t1,,success
Status,870,16676761763,/g4t1,,success
Status,871,16696922996,/g4t1,,success
Status,872,16699721461,/g3t1_1,,running
Status,873,16700364850,/g3t1_1,,success
Status,874,16705704221,/g3t1_2,,running
Status,875,16705872389,/g3t1_3,,running
Status,876,16705926588,/g3t1_2,,success
Status,877,16705973680,/g3t1_3,,success
Status,878,16717153184,/g4t1,,fail
Status,879,16737145042,/g4t1,,success
Status,880,16756627639,/g4t1,,success
Status,881,16776761326,/g4t1,,success
Status,882,16796840603,/g4t1,,success
Status,883,16799598856,/g3t1_1,,running
Status,884,16799624129,/g3t1_1,,success
Status,885,16804909835,/g3t1_3,,running
Status,886,16804937470,/g3t1_2,,running
Status,887,16805023163,/g3t1_3,,success
Status,888,16805135914,/g3t1_2,,success
Status,889,16817073619,/g4t1,,fail
Status,890,16837923596,/g4t1,,success
Status,891,16858015075,/g4t1,,success
Status,892,16878541446,/g4t1,,success
Status,893,16898257633,/g4t1,,success
Status,894,16900112425,/g3t1_1,,running
Status,895,16900448934,/g3t1_1,,success
Status,896,16906441514,/g3t1_3,,running
Status,897,16906511780,/g3t1_2,,running
Status,898,16906537287,/g3t1_2,,success
Status,899,16906559083,/g3t1_3,,success
Status,900,16918409760,/g4t1,,fail
Status,901,16938705347,/g4t1,,success
Status,902,16958851744,/g4t1,,success
Status,903,16978935745,/g4t1,,success
Status,904,16998506413,/g4t1,,success
Status,905,17000031523,/g3t1_1,,running
Status,906,17000063960,/g3t1_1,,success
Status,907,17005256000,/g3t1_3,,running
Status,908,17005277674,/g3t1_2,,running
Status,909,17005307122,/g3t1_3,,success
Status,910,17005385699,/g3t1_2,,success
Status,911,17018462494,/g4t1,,fail
Status,912,17038525051,/g4t1,,success
Status,913,17059510996,/g4t1,,success
Status,914,17079884446,/g4t1,,success
Status,915,17099475892,/g4t1,,success
Status,916,17100385448,/g3t1_1,,running
Status,917,17100688220,/g3t1_1,,success
Status,918,17105546259,/g3t1_3,,running
Status,919,17105918248,/g3t1_2,,running
Status,920,17106387898,/g3t1_2,,success
Status,921,17106453105,/g3t1_3,,success
Status,922,17119805849,/g4t1,,fail
Status,923,17139812164,/g4t1,,success
Status,924,17159919638,/g4t1,,success
Status,925,17180046926,/g4t1,,success
Status,926,17200297475,/g4t1,,success
Status,927,17200726427,/g3t1_1,,running
Status,928,17201071856,/g3t1_1,,success
Status,929,17206062691,/g3t1_3,,running
Status,930,17206116197,/g3t1_2,,running
Status,931,17206536233,/g3t1_2,,success
Status,932,17206609632,/g3t1_3,,success
Status,933,17220305830,/g4t1,,fail
Status,934,17240375992,/g4t1,,success
Status,935,17260621371,/g4t1,,success
Status,936,17280762530,/g4t1,,success
Status,937,17300231343,/g3t1_1,,running
Status,938,17300258195,/g4t1,,success
Status,939,17300277616,/g3t1_1,,success
Status,940,17305391374,/g3t1_3,,running
Status,941,17305416846,/g3t1_2,,running
Status,942,17305513139,/g3t1_3,,success
Status,943,17305544967,/g3t1_2,,success
Status,944,17320286932,/g4t1,,fail
Status,945,17340275141,/g4t1,,success
Status,946,17360279163,/g4t1,,success
Status,947,17380418027,/g4t1,,success
Status,948,17400401650,/g3t1_1,,running
Status,949,17400432535,/g4t1,,success
Status,950,17400445561,/g3t1_1,,success
Status,951,17405498150,/g3t1_3,,running
Status,952,17405573830,/g3t1_2,,running
Status,953,17405659973,/g3t1_3,,success
Status,954,17405682584,/g3t1_2,,success
Status,955,17420610002,/g4t1,,fail
Status,956,17440730698,/g4t1,,success
Status,957,17460718995,/g4t1,,success
Status,958,17480887510,/g4t1,,success
Status,959,17500688447,/g3t1_1,,running
Status,960,17500912413,/g3t1_1,,success
Status,961,17501069795,/g4t1,,success
Status,962,17505454664,/g3t1_3,,running
Status,963,17505484122,/g3t1_2,,running
Status,964,17505559735,/g3t1_3,,success
Status,965,17505589275,/g3t1_2,,success
Status,966,17521010944,/g4t1,,fail
Status,967,17541167405,/g4t1,,success
Status,968,17561413999,/g4t1,,success
Status,969,17581244617,/g4t1,,success
Status,970,17600559681,/g3t1_1,,running
Status,971,17600847730,/g3t1_1,,success
Status,972,17601226176,/g4t1,,success
Status,973,17605632852,/g3t1_3,,running
Status,974,17605660269,/g3t1_2,,running
Status,975,17605687627,/g3t1_3,,success
Status,976,17605714855,/g3t1_2,,success
Status,977,17621514126,/g4t1,,fail
Status,978,17641548075,/g4t1,,success
Status,979,17661801550,/g4t1,,success
Status,980,17681909066,/g4t1,,success
Status,981,17700760778,/g3t1_1,,running
Status,982,17700968296,/g3t1_1,,success
Status,983,17701763954,/g4t1,,fail
Status,984,17705755186,/g3t1_3,,running
Status,985,17705781029,/g3t1_3,,success
Status,986,17705802605,/g3t1_2,,running
Status,987,17705812030,/g3t1_2,,success
Status,988,17721968659,/g4t1,,fail
Status,989,17741989407,/g4t1,,success
Status,990,17762468244,/g4t1,,success
Status,991,17782131125,/g4t1,,success
Status,992,17801164040,/g3t1_1,,running
Status,993,17801211354,/g3t1_1,,success
Status,994,17802211988,/g4t1,,success
Status,995,17805817316,/g3t1_3,,running
Status,996,17805898566,/g3t1_2,,running
Status,997,17805950926,/g3t1_3,,success
Status,998,17805961422,/g3t1_2,,success
Status,999,17822287190,/g4t1,,fail
Status,1000,17842321875,/g4t1,,success
Status,1001,17862380971,/g4t1,,success
Status,1002,17882861145,/g4t1,,success
Status,1003,17900648384,/g3t1_1,,running
Status,1004,17900688775,/g3t1_1,,success
Status,1005,17902680809,/g4t1,,fail
Status,1006,17905803889,/g3t1_3,,running
Status,1007,17905827008,/g3t1_2,,running
Status,1008,17905890785,/g3t1_3,,success
Status,1009,17906111752,/g3t1_2,,success
Status,1010,17922794526,/g4t1,,fail
Status,1011,17942957071,/g4t1,,success
Status,1012,17963017279,/g4t1,,success
Status,1013,17983252005,/g4t1,,success
Status,1014,18001056140,/g3t1_1,,running
Status,1015,18001087072,/g3t1_1,,success
Status,1016,18003194899,/g4t1,,success
Status,1017,18005927675,/g3t1_3,,running
Status,1018,18005970921,/g3t1_2,,running
Status,1019,18005983879,/g3t1_3,,success
Status,1020,18006042887,/g3t1_2,,success
Status,1021,18023138597,/g4t1,,fail
Status,1022,18043324093,/g4t1,,success
Status,1023,18063340975,/g4t1,,success
Status,1024,18083475574,/g4t1,,success
Status,1025,18101083847,/g3t1_1,,running
Status,1026,18101176882,/g3t1_1,,success
Status,1027,18103666804,/g4t1,,fail
Status,1028,18106074325,/g3t1_3,,running
Status,1029,18106103520,/g3t1_2,,running
Status,1030,18106113818,/g3t1_3,,success
Status,1031,18106230325,/g3t1_2,,success
Status,1032,18123770705,/g4t1,,fail
Status,1033,18143842775,/g4t1,,success
Status,1034,18163987292,/g4t1,,success
Status,1035,18184260054,/g4t1,,success
Status,1036,18201260846,/g3t1_1,,running
Status,1037,18201376939,/g3t1_1,,success
Status,1038,18204244583,/g4t1,,success
Status,1039,18206154321,/g3t1_3,,running
Status,1040,18206182437,/g3t1_2,,running
Status,1041,18206220256,/g3t1_3,,success
Status,1042,18206548565,/g3t1_2,,success
Status,1043,18224712871,/g4t1,,fail
Status,1044,18245081955,/g4t1,,success
Status,1045,18265256145,/g4t1,,success
Status,1046,18286256393,/g4t1,,success
Status,1047,18301521431,/g3t1_1,,running
Status,1048,18301614819,/g3t1_1,,success
Status,1049,18305013411,/g4t1,,fail
Status,1050,18306516155,/g3t1_3,,running
Status,1051,18306546478,/g3t1_2,,running
Status,1052,18306642016,/g3t1_2,,success
Status,1053,18306712162,/g3t1_3,,success
Status,1054,18325538841,/g4t1,,fail
Status,1055,18345632751,/g4t1,,success
Status,1056,18365914044,/g4t1,,success
Status,1057,18385306145,/g4t1,,success
Status,1059,18401257193,/g3t1_1,,running
Status,1060,18401382774,/g3t1_1,,fail
Status,1061,18405399882,/g4t1,,success
Status,1062,18406204092,/g3t1_3,,running
Status,1063,18406226408,/g3t1_2,,running
Status,1064,18406516660,/g3t1_2,,success
Status,1065,18406537562,/g3t1_3,,success
Status,1066,18425434304,/g4t1,,fail
Status,1067,18445685240,/g4t1,,success
Status,1068,18465672449,/g4t1,,success
Status,1069,18486048730,/g4t1,,success
Status,1070,18501923618,/g3t1_1,,running
Status,1071,18502253000,/g3t1_1,,fail
Status,1072,18507150378,/g4t1,,success
Status,1073,18507269784,/g3t1_3,,running
Status,1074,18507308157,/g3t1_2,,running
Status,1075,18507391846,/g3t1_3,,success
Status,1076,18507490183,/g3t1_2,,success
Status,1077,18526671153,/g4t1,,success
Status,1078,18546387860,/g4t1,,success
Status,1079,18567051241,/g4t1,,success
Status,1080,18587485759,/g4t1,,success
Status,1082,18602235483,/g3t1_1,,running
Status,1083,18602394764,/g3t1_1,,fail
Status,1084,18607922951,/g3t1_3,,running
Status,1085,18608026633,/g4t1,,success
Status,1086,18608119152,/g3t1_2,,running
Status,1087,18608147909,/g3t1_3,,success
Status,1088,18608433972,/g3t1_2,,success
Status,1089,18627517149,/g4t1,,success
Status,1090,18647806695,/g4t1,,success
Status,1091,18667102559,/g4t1,,success
Status,1092,18687043965,/g4t1,,success
Status,1093,18701741409,/g3t1_1,,running
Status,1094,18701831443,/g3t1_1,,fail
Status,1095,18706806233,/g3t1_3,,running
Status,1096,18706834774,/g3t1_2,,running
Status,1097,18707342653,/g3t1_2,,success
Status,1098,18707365160,/g3t1_3,,success
Status,1099,18707593696,/g4t1,,success
Status,1100,18727428457,/g4t1,,success
Status,1101,18747345813,/g4t1,,success
Status,1102,18767506151,/g4t1,,success
Status,1103,18787517335,/g4t1,,success
Status,1105,18801970376,/g3t1_1,,running
Status,1106,18801992869,/g3t1_1,,fail
Status,1107,18806807770,/g3t1_3,,running
Status,1108,18806828534,/g3t1_2,,running
Status,1109,18806835388,/g3t1_3,,success
Status,1110,18806997957,/g3t1_2,,success
Status,1111,18807394550,/g4t1,,success
Status,1112,18827842638,/g4t1,,success
Status,1113,18847897302,/g4t1,,success
Status,1114,18868210455,/g4t1,,success
Status,1115,18888066292,/g4t1,,success
Status,1116,18901991355,/g3t1_1,,running
Status,1117,18902131558,/g3t1_1,,fail
Status,1118,18906839181,/g3t1_3,,running
Status,1119,18906865149,/g3t1_2,,running
Status,1120,18906955990,/g3t1_2,,success
Status,1121,18906995707,/g3t1_3,,success
Status,1122,18907886613,/g4t1,,success
Status,1123,18928097106,/g4t1,,success
Status,1124,18948432846,/g4t1,,success
Status,1125,18968570954,/g4t1,,success
Status,1126,18988478127,/g4t1,,success
Status,1128,19002053290,/g3t1_1,,running
Status,1129,19002073555,/g3t1_1,,fail
Status,1130,19007009372,/g3t1_3,,running
Status,1131,19007031506,/g3t1_2,,running
Status,1132,19007054862,/g3t1_2,,success
Status,1133,19007061034,/g3t1_3,,success
Status,1134,19008338246,/g4t1,,success
Status,1135,19029161082,/g4t1,,success
Status,1136,19049063322,/g4t1,,success
Status,1137,19068872030,/g4t1,,success
Status,1138,19088919667,/g4t1,,success
Status,1139,19101935156,/g3t1_1,,running
Status,1140,19101958446,/g3t1_1,,fail
Status,1141,19107062031,/g3t1_2,,running
Status,1142,19107094577,/g3t1_3,,running
Status,1143,19107182032,/g3t1_2,,success
Status,1144,19107308057,/g3t1_3,,success
Status,1145,19108841295,/g4t1,,success
Status,1146,19129191219,/g4t1,,success
Status,1147,19149195963,/g4t1,,success
Status,1148,19169158750,/g4t1,,success
Status,1149,19189329331,/g4t1,,success
Status,1151,19202151932,/g3t1_1,,running
Status,1152,19202173709,/g3t1_1,,fail
Status,1153,19207265312,/g3t1_3,,running
Status,1154,19207288777,/g3t1_2,,running
Status,1155,19207295319,/g3t1_2,,success
Status,1156,19207300923,/g3t1_3,,success
Status,1157,19209314820,/g4t1,,success
Status,1158,19229473377,/g4t1,,success
Status,1159,19249533460,/g4t1,,success
Status,1160,19270409418,/g4t1,,success
Status,1161,19290664963,/g4t1,,success
Status,1162,19302599452,/g3t1_1,,running
Status,1163,19302649297,/g3t1_1,,fail
Status,1164,19307450241,/g3t1_3,,running
Status,1165,19307551365,/g3t1_2,,running
Status,1166,19308120272,/g3t1_2,,success
Status,1167,19308170604,/g3t1_3,,success
Status,1168,19310279279,/g4t1,,success
Status,1169,19330463385,/g4t1,,success
Status,1170,19350624532,/g4t1,,success
Status,1171,19370281640,/g4t1,,success
Status,1172,19390484221,/g4t1,,success
Status,1174,19402238976,/g3t1_1,,running
Status,1175,19402275135,/g3t1_1,,fail
Status,1176,19407201017,/g3t1_3,,running
Status,1177,19407224317,/g3t1_2,,running
Status,1178,19407327078,/g3t1_2,,success
Status,1179,19407339172,/g3t1_3,,success
Status,1180,19410271080,/g4t1,,success
Status,1181,19430587800,/g4t1,,success
Status,1182,19450959218,/g4t1,,success
Status,1183,19470901773,/g4t1,,success
Status,1184,19491235235,/g4t1,,success
Status,1185,19503529179,/g3t1_1,,running
Status,1186,19503742540,/g3t1_1,,fail
Status,1187,19508326471,/g3t1_2,,running
Status,1188,19508376383,/g3t1_3,,running
Status,1189,19508445991,/g3t1_3,,success
Status,1190,19508464665,/g3t1_2,,success
Status,1191,19511367749,/g4t1,,success
Status,1192,19531676895,/g4t1,,success
Status,1193,19551614446,/g4t1,,success
Status,1194,19571823714,/g4t1,,success
Status,1195,19591973606,/g4t1,,success
Status,1197,19603694597,/g3t1_1,,running
Status,1198,19603758915,/g3t1_1,,fail
Status,1199,19608042681,/g3t1_3,,running
Status,1200,19608117565,/g3t1_2,,running
Status,1201,19608369415,/g3t1_3,,success
Status,1202,19608428511,/g3t1_2,,success
Status,1203,19611995193,/g4t1,,success
Status,1204,19632041397,/g4t1,,success
Status,1205,19652185146,/g4t1,,success
Status,1206,19672440411,/g4t1,,success
Status,1207,19691959367,/g4t1,,success
Status,1208,19702639890,/g3t1_1,,running
Status,1209,19702667837,/g3t1_1,,fail
Status,1210,19707571664,/g3t1_2,,running
Status,1211,19707708601,/g3t1_3,,running
Status,1212,19707727009,/g3t1_3,,success
Status,1213,19707805078,/g3t1_2,,success
Status,1214,19712055570,/g4t1,,success
Status,1215,19732782228,/g4t1,,success
Status,1216,19752923502,/g4t1,,success
Status,1217,19773095262,/g4t1,,success
Status,1219,19793151700,/g4t1,,success
Status,1220,19803893004,/g3t1_1,,running
Status,1221,19803981961,/g3t1_1,,fail
Status,1222,19808823777,/g3t1_2,,running
Status,1223,19808903334,/g3t1_3,,running
Status,1224,19808997158,/g3t1_2,,success
Status,1225,19809028027,/g3t1_3,,success
Status,1226,19813108134,/g4t1,,success
Status,1227,19833571145,/g4t1,,success
Status,1228,19853705691,/g4t1,,success
Status,1229,19873768461,/g4t1,,success
Status,1230,19894080804,/g4t1,,success
Status,1231,19903744994,/g3t1_1,,running
Status,1232,19903801691,/g3t1_1,,fail
Status,1233,19908398809,/g3t1_2,,running
Status,1234,19908497317,/g3t1_3,,running
Status,1235,19908882776,/g3t1_2,,success
Status,1236,19908954446,/g3t1_3,,success
Status,1237,19913935969,/g4t1,,success
Status,1238,19934568394,/g4t1,,success
Status,1239,19954271939,/g4t1,,success
Status,1240,19973790358,/g4t1,,success
Status,1242,19993728972,/g4t1,,success
Status,1243,20002947672,/g3t1_1,,running
Status,1244,20003113186,/g3t1_1,,fail
Status,1245,20007932895,/g3t1_3,,running
Status,1246,20007957530,/g3t1_2,,running
Status,1247,20007976726,/g3t1_2,,success
Status,1248,20008056888,/g3t1_3,,success
Status,1249,20013895524,/g4t1,,success
Status,1250,20034057620,/g4t1,,success
Status,1251,20055245915,/g4t1,,success
Status,1252,20074895317,/g4t1,,success
Status,1253,20095545396,/g4t1,,success
Status,1254,20103750656,/g3t1_1,,running
Status,1255,20103940238,/g3t1_1,,fail
Status,1256,20108677537,/g3t1_3,,running
Status,1257,20108757959,/g3t1_2,,running
Status,1258,20109076289,/g3t1_3,,success
Status,1259,20109130148,/g3t1_2,,success
Status,1260,20115140976,/g4t1,,success
Status,1261,20135357045,/g4t1,,success
Status,1262,20155671656,/g4t1,,success
Status,1263,20175177435,/g4t1,,success
Status,1265,20194969359,/g4t1,,success
Status,1266,20203332196,/g3t1_1,,running
Status,1267,20203353598,/g3t1_1,,fail
Status,1268,20208223546,/g3t1_2,,running
Status,1269,20208249445,/g3t1_3,,running
Status,1270,20208398530,/g3t1_3,,success
Status,1271,20208420108,/g3t1_2,,success
Status,1272,20215016444,/g4t1,,success
Status,1273,20235111729,/g4t1,,success
Status,1274,20256159671,/g4t1,,success
Status,1275,20275536004,/g4t1,,success
Status,1276,20295494818,/g4t1,,success
Status,1277,20303411313,/g3t1_1,,running
Status,1278,20303438207,/g3t1_1,,fail
Status,1279,20308444884,/g3t1_2,,running
Status,1280,20308467790,/g3t1_3,,running
Status,1281,20308478112,/g3t1_2,,success
Status,1282,20308602328,/g3t1_3,,success
Status,1283,20315578194,/g4t1,,success
Status,1284,20335638581,/g4t1,,success
Status,1285,20355722988,/g4t1,,success
Status,1286,20375902741,/g4t1,,success
Status,1288,20396500771,/g4t1,,success
Status,1289,20404426013,/g3t1_1,,running
Status,1290,20404755865,/g3t1_1,,fail
Status,1291,20409216822,/g3t1_2,,running
Status,1292,20409297749,/g3t1_3,,running
Status,1293,20409690262,/g3t1_3,,success
Status,1294,20410216584,/g3t1_2,,success
Status,1295,20416459365,/g4t1,,success
Status,1296,20436899738,/g4t1,,success
Status,1297,20457022470,/g4t1,,success
Status,1298,20476607627,/g4t1,,success
Status,1299,20496453824,/g4t1,,success
Status,1300,20503647105,/g3t1_1,,running
Status,1301,20503668504,/g3t1_1,,fail
Status,1302,20508414970,/g3t1_2,,running
Status,1303,20508533350,/g3t1_3,,running
Status,1304,20508558810,/g3t1_3,,success
Status,1305,20508581432,/g3t1_2,,success
Status,1306,20516431095,/g4t1,,success
Status,1307,20537512601,/g4t1,,success
Status,1308,20557561285,/g4t1,,success
Status,1309,20577652161,/g4t1,,success
Status,1311,20597764977,/g4t1,,success
Status,1312,20604591408,/g3t1_1,,running
Status,1313,20604921077,/g3t1_1,,fail
Status,1314,20609510983,/g3t1_2,,running
Status,1315,20609561110,/g3t1_3,,running
Status,1316,20609642638,/g3t1_3,,success
Status,1317,20610008535,/g3t1_2,,success
Status,1318,20617890762,/g4t1,,success
Status,1319,20638538705,/g4t1,,success
Status,1320,20658483384,/g4t1,,success
Status,1321,20678575021,/g4t1,,success
Status,1322,20698852604,/g4t1,,success
Status,1323,20704420451,/g3t1_1,,running
Status,1324,20704862052,/g3t1_1,,fail
Status,1325,20709651718,/g3t1_3,,running
Status,1326,20709830661,/g3t1_2,,running
Status,1327,20709870364,/g3t1_3,,success
Status,1328,20709913043,/g3t1_2,,success
Status,1329,20718712165,/g4t1,,success
Status,1330,20738419154,/g4t1,,success
Status,1331,20758310609,/g4t1,,success
Status,1332,20778425780,/g4t1,,success
Status,1334,20798866802,/g4t1,,success
Status,1335,20804278438,/g3t1_1,,running
Status,1336,20804377595,/g3t1_1,,fail
Status,1337,20809325154,/g3t1_2,,running
Status,1338,20809370281,/g3t1_3,,running
Status,1339,20809436903,/g3t1_2,,success
Status,1340,20809622270,/g3t1_3,,success
Status,1341,20819463641,/g4t1,,success
Status,1342,20839683950,/g4t1,,success
Status,1343,20905162419,/g3t1_1,,running
Status,1344,20905231288,/g3t1_1,,fail
Status,1345,20909711806,/g3t1_3,,running
Status,1346,20909783137,/g3t1_2,,running
Status,1347,20910171906,/g3t1_2,,success
Status,1348,20910486543,/g3t1_3,,success
Status,1350,21005023726,/g3t1_1,,running
Status,1351,21005296341,/g3t1_1,,fail
Status,1352,21009948766,/g3t1_2,,running
Status,1353,21010011779,/g3t1_3,,running
Status,1354,21010143088,/g3t1_2,,success
Status,1355,21010911349,/g3t1_3,,success
Status,1356,21104547657,/g3t1_1,,running
Status,1357,21104576506,/g3t1_1,,fail
Status,1358,21110106272,/g3t1_2,,running
Status,1359,21110159758,/g3t1_3,,running
Status,1360,21110225125,/g3t1_3,,success
Status,1361,21110247516,/g3t1_2,,success
Status,1363,21205423589,/g3t1_1,,running
Status,1364,21205813509,/g3t1_1,,fail
Status,1365,21210196733,/g3t1_2,,running
Status,1366,21210261544,/g3t1_3,,running
Status,1367,21210345870,/g3t1_2,,success
Status,1368,21210428200,/g3t1_3,,success
Status,1369,21305488761,/g3t1_1,,running
Status,1370,21305795652,/g3t1_1,,fail
Status,1371,21310124825,/g3t1_2,,running
Status,1372,21310227409,/g3t1_3,,running
Status,1373,21310571165,/g3t1_2,,success
Status,1374,21310618998,/g3t1_3,,success
Status,1376,21405032682,/g3t1_1,,running
Status,1377,21405167016,/g3t1_1,,fail
Status,1378,21409799549,/g3t1_2,,running
Status,1379,21409826228,/g3t1_3,,running
Status,1380,21409851213,/g3t1_2,,success
Status,1381,21409859953,/g3t1_3,,success
Status,1382,21505133576,/g3t1_1,,running
Status,1383,21505158872,/g3t1_1,,fail
Status,1384,21509702928,/g3t1_3,,running
Status,1385,21509726948,/g3t1_2,,running
Status,1386,21509790317,/g3t1_2,,success
Status,1387,21509804087,/g3t1_3,,success
Status,1389,21605712727,/g3t1_1,,running
Status,1390,21606135825,/g3t1_1,,fail
Status,1391,21610684115,/g3t1_3,,running
Status,1392,21610742076,/g3t1_2,,running
Status,1393,21611049677,/g3t1_3,,success
Status,1394,21611126011,/g3t1_2,,success
Status,1395,21706429108,/g3t1_1,,running
Status,1396,21706526350,/g3t1_1,,fail
Status,1397,21710907845,/g3t1_2,,running
Status,1398,21710998360,/g3t1_3,,running
Status,1399,21711396394,/g3t1_3,,success
Status,1400,21711462254,/g3t1_2,,success
Status,1402,21806408897,/g3t1_1,,running
Status,1403,21806781883,/g3t1_1,,fail
Status,1404,21810865539,/g3t1_2,,running
Status,1405,21810938156,/g3t1_3,,running
Status,1406,21811221269,/g3t1_3,,success
Status,1407,21811250340,/g3t1_2,,success
Status,1408,21906811276,/g3t1_1,,running
Status,1409,21907257428,/g3t1_1,,fail
Status,1410,21911206279,/g3t1_3,,running
Status,1411,21911293428,/g3t1_2,,running
Status,1412,21911516987,/g3t1_2,,success
Status,1413,21911605365,/g3t1_3,,success
Status,1415,22005994921,/g3t1_1,,running
Status,1416,22006025659,/g3t1_1,,fail
Status,1417,22010341980,/g3t1_3,,running
Status,1418,22010415026,/g3t1_2,,running
Status,1419,22010461958,/g3t1_3,,success
Status,1420,22010474242,/g3t1_2,,success
Status,1421,22107113046,/g3t1_1,,running
Status,1422,22107449726,/g3t1_1,,fail
Status,1423,22111656409,/g3t1_3,,running
Status,1424,22111720507,/g3t1_2,,running
Status,1425,22111743272,/g3t1_2,,success
Status,1426,22111762673,/g3t1_3,,success
Status,1428,22207040728,/g3t1_1,,running
Status,1429,22207275279,/g3t1_1,,fail
Status,1430,22211624010,/g3t1_2,,running
Status,1431,22211695540,/g3t1_3,,running
Status,1432,22211727942,/g3t1_2,,success
Status,1433,22211998372,/g3t1_3,,success
Status,1434,22307306879,/g3t1_1,,running
Status,1435,22308002613,/g3t1_1,,fail
Status,1436,22311700613,/g3t1_2,,running
Status,1437,22311913796,/g3t1_3,,running
Status,1438,22311960869,/g3t1_2,,success
Status,1439,22312649781,/g3t1_3,,success
Status,1441,22407357599,/g3t1_1,,running
Status,1442,22407440032,/g3t1_1,,fail
Status,1443,22411859304,/g3t1_2,,running
Status,1444,22411988044,/g3t1_3,,running
Status,1445,22412019946,/g3t1_2,,success
Status,1446,22412221470,/g3t1_3,,success
Status,1447,22507089241,/g3t1_1,,running
Status,1448,22507143848,/g3t1_1,,fail
Status,1449,22511511056,/g3t1_2,,running
Status,1450,22511544102,/g3t1_3,,running
Status,1451,22511558063,/g3t1_2,,success
Status,1452,22511602377,/g3t1_3,,success
Status,1454,22607460008,/g3t1_1,,running
Status,1455,22607901186,/g3t1_1,,fail
Status,1456,22611588750,/g3t1_2,,running
Status,1457,22611664720,/g3t1_3,,running
Status,1458,22612349528,/g3t1_2,,success
Status,1459,22612591228,/g3t1_3,,success
Status,1460,22707481745,/g3t1_1,,running
Status,1461,22707774249,/g3t1_1,,fail
Status,1462,22711745183,/g3t1_2,,running
Status,1463,22711878526,/g3t1_3,,running
Status,1464,22711972678,/g3t1_2,,success
Status,1465,22712461579,/g3t1_3,,success
Status,1467,22807682654,/g3t1_1,,running
Status,1468,22807744351,/g3t1_1,,fail
Status,1469,22811920917,/g3t1_2,,running
Status,1470,22812182526,/g3t1_3,,running
Status,1471,22812657810,/g3t1_2,,success
Status,1472,22812712858,/g3t1_3,,success
Status,1473,22907257358,/g3t1_1,,running
Status,1474,22907281988,/g3t1_1,,fail
Status,1475,22911275167,/g3t1_2,,running
Status,1476,22911461037,/g3t1_3,,running
Status,1477,22911479555,/g3t1_2,,success
Status,1478,22911709243,/g3t1_3,,success
Status,1480,23007702506,/g3t1_1,,running
Status,1481,23008031822,/g3t1_1,,fail
Status,1482,23012097529,/g3t1_2,,running
Status,1483,23012168485,/g3t1_3,,running
Status,1484,23012619593,/g3t1_2,,success
Status,1485,23012994453,/g3t1_3,,success
Status,1486,23108325048,/g3t1_1,,running
Status,1487,23108736244,/g3t1_1,,fail
Status,1488,23112507384,/g3t1_2,,running
Status,1489,23112582083,/g3t1_3,,running
Status,1490,23112654076,/g3t1_3,,success
Status,1491,23112679841,/g3t1_2,,success
Status,1493,23208135348,/g3t1_1,,running
Status,1494,23208560838,/g3t1_1,,fail
Status,1495,23212241389,/g3t1_2,,running
Status,1496,23212317555,/g3t1_3,,running
Status,1497,23213222875,/g3t1_3,,success
Status,1498,23213851814,/g3t1_2,,success
Status,1499,23308659827,/g3t1_1,,running
Status,1500,23308730497,/g3t1_1,,fail
Status,1501,23313335946,/g3t1_2,,running
Status,1502,23313426932,/g3t1_3,,running
Status,1503,23313490813,/g3t1_2,,success
Status,1504,23313526634,/g3t1_3,,success
Status,1508,23407733061,/g3t1_1,,running
Status,1509,23407764260,/g3t1_1,,fail
Status,1510,23412320486,/g3t1_2,,running
Status,1511,23412349734,/g3t1_3,,running
Status,1512,23412374973,/g3t1_2,,fail
Status,1513,23412384018,/g3t1_3,,fail
Status,1514,23509056618,/g3t1_1,,running
Status,1515,23509156799,/g3t1_1,,fail
Status,1516,23513024581,/g3t1_3,,running
Status,1517,23513108043,/g3t1_2,,running
Status,1518,23513150902,/g3t1_3,,fail
Status,1519,23513525654,/g3t1_2,,fail
Status,1523,23608909592,/g3t1_1,,running
Status,1524,23609260097,/g3t1_1,,fail
Status,1525,23612897226,/g3t1_2,,running
Status,1526,23612955871,/g3t1_3,,running
Status,1527,23613020599,/g3t1_3,,fail
Status,1528,23613045154,/g3t1_2,,fail
Status,1529,23709070076,/g3t1_1,,running
Status,1530,23709451227,/g3t1_1,,fail
Status,1531,23713142398,/g3t1_2,,running
Status,1532,23713273595,/g3t1_3,,running
Status,1533,23713336717,/g3t1_2,,fail
Status,1534,23713408707,/g3t1_3,,fail
Status,1538,23808517092,/g3t1_1,,running
Status,1539,23808543439,/g3t1_1,,fail
Status,1540,23812651694,/g3t1_3,,running
Status,1541,23812685387,/g3t1_2,,running
Status,1542,23812818404,/g3t1_3,,fail
Status,1543,23812831443,/g3t1_2,,fail
Status,1544,23909855533,/g3t1_1,,running
Status,1545,23910175999,/g3t1_1,,fail
Status,1546,23913442595,/g3t1_2,,running
Status,1547,23913514292,/g3t1_3,,running
Status,1548,23913574965,/g3t1_3,,fail
Status,1549,23913644457,/g3t1_2,,fail
Status,1553,24009625256,/g3t1_1,,running
Status,1554,24009728977,/g3t1_1,,fail
Status,1555,24013413447,/g3t1_2,,running
Status,1556,24013462282,/g3t1_3,,running
Status,1557,24013483831,/g3t1_2,,fail
Status,1558,24013675479,/g3t1_3,,fail
Status,1559,24109459983,/g3t1_1,,running
Status,1560,24109911522,/g3t1_1,,fail
Status,1561,24113366618,/g3t1_2,,running
Status,1562,24113503606,/g3t1_3,,running
Status,1563,24113555852,/g3t1_2,,fail
Status,1564,24113890898,/g3t1_3,,fail
Status,1568,24209803331,/g3t1_1,,running
Status,1569,24209877800,/g3t1_1,,fail
Status,1570,24213635335,/g3t1_2,,running
Status,1571,24214268536,/g3t1_3,,running
Status,1572,24214429679,/g3t1_2,,fail
Status,1573,24214467798,/g3t1_3,,fail
Status,1574,24309978034,/g3t1_1,,running
Status,1575,24310092608,/g3t1_1,,fail
Status,1576,24314572588,/g3t1_3,,running
Status,1577,24314648464,/g3t1_3,,fail
Status,1578,24314671107,/g3t1_2,,running
Status,1579,24314690945,/g3t1_2,,fail
Status,1583,24409863805,/g3t1_1,,running
