
Status,2,3339447469,/g4t1,,init
Status,3,8551835317,/g3t1_1,,init
Status,5,8558740496,/g3t1_1,,init
Status,6,8558754678,/g3t1_1,,running
Status,7,8559169537,/g3t1_1,,success
Status,8,8608999868,/g3t1_1,,running
Status,9,8609021732,/g3t1_1,,success
Status,11,8658194323,/g3t1_2,,init
Status,12,8658932548,/g3t1_1,,running
Status,13,8659008449,/g3t1_1,,success
Status,14,8664625554,/g3t1_2,,init
Status,15,8664639756,/g3t1_2,,running
Status,16,8665045699,/g3t1_2,,success
Status,17,8709124947,/g3t1_1,,running
Status,18,8709143895,/g3t1_1,,success
Status,19,8714707046,/g3t1_2,,running
Status,20,8715015385,/g3t1_2,,success
Status,22,8758668176,/g3t1_3,,init
Status,23,8759067612,/g3t1_1,,running
Status,24,8759211171,/g3t1_1,,success
Status,25,8764848239,/g3t1_2,,running
Status,26,8764869127,/g3t1_2,,success
Status,27,8765041747,/g3t1_3,,init
Status,28,8765055293,/g3t1_3,,running
Status,29,8765668054,/g3t1_3,,success
Status,30,8809702174,/g3t1_1,,running
Status,31,8809913468,/g3t1_1,,success
Status,32,8815689867,/g3t1_2,,running
Status,33,8815748123,/g3t1_3,,running
Status,34,8815793561,/g3t1_2,,success
Status,35,8815841341,/g3t1_3,,success
Status,36,8859914602,/g3t1_1,,running
Status,37,8860508951,/g3t1_1,,success
Status,38,8865687872,/g3t1_2,,running
Status,39,8866158217,/g3t1_2,,success
Status,40,8866222249,/g3t1_3,,running
Status,41,8866438624,/g3t1_3,,success
Status,42,8910295492,/g3t1_1,,running
Status,43,8910558626,/g3t1_1,,success
Status,44,8915766330,/g3t1_2,,running
Status,45,8915943749,/g3t1_3,,running
Status,46,8916654210,/g3t1_2,,success
Status,47,8916709695,/g3t1_3,,success
Status,48,8958926652,/g4t1,,success
Status,49,8960309818,/g3t1_1,,running
Status,50,8960615094,/g3t1_1,,success
Status,51,8966048443,/g3t1_2,,running
Status,52,8966200353,/g3t1_3,,running
Status,53,8966300453,/g3t1_2,,success
Status,54,8966739687,/g3t1_3,,success
Status,55,9010512028,/g3t1_1,,running
Status,56,9011030661,/g3t1_1,,success
Status,57,9016306797,/g3t1_2,,running
Status,58,9016704169,/g3t1_3,,running
Status,59,9016794824,/g3t1_2,,success
Status,60,9016925027,/g3t1_3,,success
Status,61,9059077019,/g4t1,,success
Status,62,9060556400,/g3t1_1,,running
Status,63,9061119921,/g3t1_1,,success
Status,64,9066261486,/g3t1_2,,running
Status,65,9066379335,/g3t1_3,,running
Status,66,9067123708,/g3t1_2,,success
Status,67,9067186149,/g3t1_3,,success
Status,68,9110729356,/g3t1_1,,running
Status,69,9111090018,/g3t1_1,,success
Status,70,9116320077,/g3t1_2,,running
Status,71,9116423425,/g3t1_3,,running
Status,72,9116673683,/g3t1_2,,success
Status,73,9117238379,/g3t1_3,,success
Status,74,9159308503,/g4t1,,success
Status,75,9160922121,/g3t1_1,,running
Status,76,9161387021,/g3t1_1,,success
Status,77,9166270914,/g3t1_2,,running
Status,78,9167411995,/g3t1_3,,running
Status,79,9167510029,/g3t1_2,,success
Status,80,9167607676,/g3t1_3,,success
Status,81,9211580124,/g3t1_1,,running
Status,82,9211653068,/g3t1_1,,success
Status,83,9216817164,/g3t1_2,,running
Status,84,9216870174,/g3t1_3,,running
Status,85,9216969902,/g3t1_2,,success
Status,86,9217594296,/g3t1_3,,success
Status,87,9259723336,/g4t1,,fail
Status,88,9261532789,/g3t1_1,,running
Status,89,9261600328,/g3t1_1,,success
Status,90,9266804266,/g3t1_2,,running
Status,91,9266979492,/g3t1_3,,running
Status,92,9267093478,/g3t1_2,,success
Status,93,9268052621,/g3t1_3,,success
Status,94,9311420154,/g3t1_1,,running
Status,95,9312025757,/g3t1_1,,success
Status,96,9317134652,/g3t1_2,,running
Status,97,9317204746,/g3t1_3,,running
Status,98,9317378312,/g3t1_2,,success
Status,99,9317746066,/g3t1_3,,success
Status,100,9359660178,/g4t1,,fail
Status,101,9361506376,/g3t1_1,,running
Status,102,9361858867,/g3t1_1,,success
Status,103,9367391140,/g3t1_2,,running
Status,104,9367642524,/g3t1_3,,running
Status,105,9368130857,/g3t1_2,,success
Status,106,9368219813,/g3t1_3,,success
Status,107,9411758273,/g3t1_1,,running
Status,108,9412159331,/g3t1_1,,success
Status,109,9417220395,/g3t1_2,,running
Status,110,9417461028,/g3t1_3,,running
Status,111,9418388182,/g3t1_2,,success
Status,112,9418447702,/g3t1_3,,success
Status,113,9459884325,/g4t1,,fail
Status,114,9461626941,/g3t1_1,,running
Status,115,9462006582,/g3t1_1,,success
Status,116,9467534069,/g3t1_2,,running
Status,117,9467775398,/g3t1_3,,running
Status,118,9467863250,/g3t1_2,,success
Status,119,9468553102,/g3t1_3,,success
Status,120,9512152715,/g3t1_1,,running
Status,121,9512242241,/g3t1_1,,success
Status,122,9517518018,/g3t1_2,,running
Status,123,9517585363,/g3t1_3,,running
Status,124,9518444974,/g3t1_2,,success
Status,125,9518559547,/g3t1_3,,success
Status,126,9560131260,/g4t1,,fail
Status,127,9561919752,/g3t1_1,,running
Status,128,9562331436,/g3t1_1,,success
Status,129,9568272016,/g3t1_2,,running
Status,130,9568366901,/g3t1_3,,running
Status,131,9568563434,/g3t1_2,,success
Status,132,9568772955,/g3t1_3,,success
Status,133,9612197836,/g3t1_1,,running
Status,134,9612495225,/g3t1_1,,success
Status,135,9617925663,/g3t1_2,,running
Status,136,9617984747,/g3t1_3,,running
Status,137,9618389363,/g3t1_2,,success
Status,138,9618463332,/g3t1_3,,success
Status,139,9660204505,/g4t1,,fail
Status,140,9662170209,/g3t1_1,,running
Status,141,9662577290,/g3t1_1,,success
Status,142,9668445249,/g3t1_2,,running
Status,143,9668643891,/g3t1_3,,running
Status,144,9668746193,/g3t1_3,,success
Status,145,9668768946,/g3t1_2,,success
Status,146,9712531229,/g3t1_1,,running
Status,147,9712875526,/g3t1_1,,success
Status,148,9718061125,/g3t1_2,,running
Status,149,9718441462,/g3t1_3,,running
Status,150,9718644473,/g3t1_3,,success
Status,151,9719409514,/g3t1_2,,success
Status,152,9760345160,/g4t1,,fail
Status,153,9762344800,/g3t1_1,,running
Status,154,9763076506,/g3t1_1,,success
Status,155,9768151487,/g3t1_2,,running
Status,156,9768293687,/g3t1_3,,running
Status,157,9768800204,/g3t1_2,,success
Status,158,9768907968,/g3t1_3,,success
Status,159,9812891365,/g3t1_1,,running
Status,160,9813127907,/g3t1_1,,success
Status,161,9818871044,/g3t1_2,,running
Status,162,9818940096,/g3t1_3,,running
Status,163,9819006175,/g3t1_2,,success
Status,164,9819030043,/g3t1_3,,success
Status,165,9860456856,/g4t1,,fail
Status,166,9862732967,/g3t1_1,,running
Status,167,9863208047,/g3t1_1,,success
Status,168,9868688204,/g3t1_3,,running
Status,169,9868802963,/g3t1_2,,running
Status,170,9869183848,/g3t1_2,,success
Status,171,9869254968,/g3t1_3,,success
Status,172,9913033531,/g3t1_1,,running
Status,173,9913498112,/g3t1_1,,success
Status,174,9918758055,/g3t1_3,,running
Status,175,9918841618,/g3t1_2,,running
Status,176,9919476557,/g3t1_2,,success
Status,177,9919552066,/g3t1_3,,success
Status,178,9960619352,/g4t1,,fail
Status,179,9962887564,/g3t1_1,,running
Status,180,9963207493,/g3t1_1,,success
Status,181,9968976847,/g3t1_3,,running
Status,182,9969050624,/g3t1_2,,running
Status,183,9969641060,/g3t1_2,,success
Status,184,9969727153,/g3t1_3,,success
Status,185,10013787493,/g3t1_1,,running
Status,186,10013855625,/g3t1_1,,success
Status,187,10019512050,/g3t1_3,,running
Status,188,10019576692,/g3t1_2,,running
Status,189,10019600927,/g3t1_2,,success
Status,190,10019624258,/g3t1_3,,success
Status,191,10060733455,/g4t1,,fail
Status,192,10063349622,/g3t1_1,,running
Status,193,10063791257,/g3t1_1,,success
Status,194,10069256261,/g3t1_3,,running
Status,195,10069403478,/g3t1_2,,running
Status,196,10069465666,/g3t1_2,,success
Status,197,10069561201,/g3t1_3,,success
Status,198,10113827785,/g3t1_1,,running
Status,199,10114256856,/g3t1_1,,success
Status,200,10119854975,/g3t1_3,,running
Status,201,10119916500,/g3t1_2,,running
Status,202,10119941993,/g3t1_2,,success
Status,203,10119964903,/g3t1_3,,success
Status,204,10160915904,/g4t1,,fail
Status,205,10163639210,/g3t1_1,,running
Status,206,10164062658,/g3t1_1,,success
Status,207,10169418824,/g3t1_3,,running
Status,208,10169506697,/g3t1_2,,running
Status,209,10170043789,/g3t1_3,,success
Status,210,10170414957,/g3t1_2,,success
Status,211,10213925497,/g3t1_1,,running
Status,212,10214307569,/g3t1_1,,success
Status,213,10219269410,/g3t1_3,,running
Status,214,10219391985,/g3t1_2,,running
Status,215,10220088318,/g3t1_3,,success
Status,216,10220173801,/g3t1_2,,success
Status,217,10261027422,/g4t1,,fail
Status,218,10263874898,/g3t1_1,,running
Status,219,10264263404,/g3t1_1,,success
Status,220,10269685776,/g3t1_3,,running
Status,221,10269746687,/g3t1_2,,running
Status,222,10269863224,/g3t1_3,,success
Status,223,10270168577,/g3t1_2,,success
Status,224,10314375567,/g3t1_1,,running
Status,225,10314912926,/g3t1_1,,success
Status,226,10319738533,/g3t1_3,,running
Status,227,10319896734,/g3t1_2,,running
Status,228,10320149506,/g3t1_3,,success
Status,229,10320221943,/g3t1_2,,success
Status,230,10361262439,/g4t1,,fail
Status,231,10364392154,/g3t1_1,,running
Status,232,10364456522,/g3t1_1,,success
Status,233,10369756261,/g3t1_3,,running
Status,234,10369849906,/g3t1_2,,running
Status,235,10370078591,/g3t1_3,,success
Status,236,10370140863,/g3t1_2,,success
Status,237,10414381730,/g3t1_1,,running
Status,238,10414600280,/g3t1_1,,success
Status,239,10419784013,/g3t1_3,,running
Status,240,10419955521,/g3t1_2,,running
Status,241,10420363266,/g3t1_3,,success
Status,242,10420458597,/g3t1_2,,success
Status,243,10461109919,/g4t1,,fail
Status,244,10464649516,/g3t1_1,,running
Status,245,10465009202,/g3t1_1,,success
Status,246,10470151026,/g3t1_3,,running
Status,247,10470375369,/g3t1_2,,running
Status,248,10470426779,/g3t1_3,,success
Status,249,10470784397,/g3t1_2,,success
Status,250,10514811015,/g3t1_1,,running
Status,251,10515237684,/g3t1_1,,success
Status,252,10520103995,/g3t1_3,,running
Status,253,10520185875,/g3t1_2,,running
Status,254,10520693542,/g3t1_2,,success
Status,255,10520772652,/g3t1_3,,success
Status,256,10561601981,/g4t1,,fail
Status,257,10564749762,/g3t1_1,,running
Status,258,10565182777,/g3t1_1,,success
Status,259,10570237595,/g3t1_3,,running
Status,260,10570319920,/g3t1_2,,running
Status,261,10571059958,/g3t1_2,,success
Status,262,10571153746,/g3t1_3,,success
Status,263,10615062108,/g3t1_1,,running
Status,264,10615346353,/g3t1_1,,success
Status,265,10620321927,/g3t1_2,,running
Status,266,10620410028,/g3t1_3,,running
Status,267,10620966634,/g3t1_3,,success
Status,268,10621043712,/g3t1_2,,success
Status,269,10661727098,/g4t1,,fail
Status,270,10665071646,/g3t1_1,,running
Status,271,10665454723,/g3t1_1,,success
Status,272,10670496262,/g3t1_2,,running
Status,273,10670611315,/g3t1_3,,running
Status,274,10670702011,/g3t1_3,,success
Status,275,10670732693,/g3t1_2,,success
Status,276,10715365186,/g3t1_1,,running
Status,277,10715831133,/g3t1_1,,success
Status,278,10720569027,/g3t1_2,,running
Status,279,10720676822,/g3t1_3,,running
Status,280,10721264522,/g3t1_2,,success
Status,281,10721398521,/g3t1_3,,success
Status,282,10761780837,/g4t1,,fail
Status,283,10765179548,/g3t1_1,,running
Status,284,10765563612,/g3t1_1,,success
Status,285,10770616375,/g3t1_2,,running
Status,286,10770895852,/g3t1_3,,running
Status,287,10771013868,/g3t1_2,,success
Status,288,10771366160,/g3t1_3,,success
Status,289,10815665330,/g3t1_1,,running
Status,290,10816106076,/g3t1_1,,success
Status,291,10820806208,/g3t1_2,,running
Status,292,10820955919,/g3t1_3,,running
Status,293,10821168390,/g3t1_2,,success
Status,294,10821236398,/g3t1_3,,success
Status,295,10862062720,/g4t1,,fail
Status,296,10865797048,/g3t1_1,,running
Status,297,10866240889,/g3t1_1,,success
Status,298,10870869252,/g3t1_2,,running
Status,299,10870969328,/g3t1_3,,running
Status,300,10871817947,/g3t1_2,,success
Status,301,10871920137,/g3t1_3,,success
Status,302,10915935392,/g3t1_1,,running
Status,303,10916371541,/g3t1_1,,success
Status,304,10921272454,/g3t1_2,,running
Status,305,10921423152,/g3t1_3,,running
Status,306,10921628604,/g3t1_3,,success
Status,307,10921660880,/g3t1_2,,success
Status,308,10962169977,/g4t1,,fail
Status,309,10965844265,/g3t1_1,,running
Status,310,10966309103,/g3t1_1,,success
Status,311,10971335584,/g3t1_2,,running
Status,312,10971416120,/g3t1_3,,running
Status,313,10971664516,/g3t1_2,,success
Status,314,10971720546,/g3t1_3,,success
Status,315,11016323197,/g3t1_1,,running
Status,316,11016391983,/g3t1_1,,success
Status,317,11021597954,/g3t1_2,,running
Status,318,11021672172,/g3t1_3,,running
Status,319,11021733420,/g3t1_2,,success
Status,320,11021825859,/g3t1_3,,success
Status,321,11062297507,/g4t1,,fail
Status,322,11066349958,/g3t1_1,,running
Status,323,11066782969,/g3t1_1,,success
Status,324,11071650801,/g3t1_2,,running
Status,325,11071708642,/g3t1_3,,running
Status,326,11071747864,/g3t1_2,,success
Status,327,11072186441,/g3t1_3,,success
Status,328,11116562879,/g3t1_1,,running
Status,329,11116794613,/g3t1_1,,success
Status,330,11121970860,/g3t1_2,,running
Status,331,11122056744,/g3t1_3,,running
Status,332,11122127441,/g3t1_2,,success
Status,333,11122160749,/g3t1_3,,success
Status,334,11162454384,/g4t1,,fail
Status,335,11166557296,/g3t1_1,,running
Status,336,11166942141,/g3t1_1,,success
Status,337,11172433522,/g3t1_2,,running
Status,338,11172572363,/g3t1_3,,running
Status,339,11172655969,/g3t1_3,,success
Status,340,11172760718,/g3t1_2,,success
Status,341,11216863245,/g3t1_1,,running
Status,342,11217517253,/g3t1_1,,success
Status,343,11222190803,/g3t1_2,,running
Status,344,11222248678,/g3t1_3,,running
Status,345,11222290769,/g3t1_2,,success
Status,346,11222378460,/g3t1_3,,success
Status,347,11262649877,/g4t1,,fail
Status,348,11266924189,/g3t1_1,,running
Status,349,11267312095,/g3t1_1,,success
Status,350,11272247021,/g3t1_2,,running
Status,351,11272303970,/g3t1_3,,running
Status,352,11272331303,/g3t1_3,,success
Status,353,11272680813,/g3t1_2,,success
Status,354,11317221084,/g3t1_1,,running
Status,355,11317623466,/g3t1_1,,success
Status,356,11322402674,/g3t1_2,,running
Status,357,11322464165,/g3t1_3,,running
Status,358,11322490626,/g3t1_2,,success
Status,359,11322514348,/g3t1_3,,success
Status,360,11362816834,/g4t1,,fail
Status,361,11367032190,/g3t1_1,,running
Status,362,11367387940,/g3t1_1,,success
Status,363,11372291634,/g3t1_3,,running
Status,364,11372372577,/g3t1_2,,running
Status,365,11372947375,/g3t1_2,,success
Status,366,11373135497,/g3t1_3,,success
Status,367,11417689145,/g3t1_1,,running
Status,368,11417757080,/g3t1_1,,success
Status,369,11422695764,/g3t1_2,,running
Status,370,11422767943,/g3t1_3,,running
Status,371,11422802300,/g3t1_2,,success
Status,372,11422860922,/g3t1_3,,success
Status,373,11462658412,/g4t1,,fail
Status,374,11467486658,/g3t1_1,,running
Status,375,11467917665,/g3t1_1,,success
Status,376,11472966768,/g3t1_3,,running
Status,377,11473019390,/g3t1_2,,running
Status,378,11473205846,/g3t1_2,,success
Status,379,11473278775,/g3t1_3,,success
Status,380,11517598627,/g3t1_1,,running
Status,381,11518092549,/g3t1_1,,success
Status,382,11522829567,/g3t1_3,,running
Status,383,11522922836,/g3t1_2,,running
Status,384,11523037953,/g3t1_3,,success
Status,385,11523407028,/g3t1_2,,success
Status,386,11562271543,/g4t1,,fail
Status,387,11567187522,/g3t1_1,,running
Status,388,11567435514,/g3t1_1,,success
Status,389,11572459633,/g3t1_2,,running
Status,390,11572514984,/g3t1_3,,running
Status,391,11572591849,/g3t1_3,,success
Status,392,11572619575,/g3t1_2,,success
Status,393,11617693920,/g3t1_1,,running
Status,394,11617951493,/g3t1_1,,success
Status,395,11622679216,/g3t1_2,,running
Status,396,11622723023,/g3t1_3,,running
Status,397,11622787851,/g3t1_3,,success
Status,398,11622812240,/g3t1_2,,success
Status,399,11662643389,/g4t1,,fail
Status,400,11667899057,/g3t1_1,,running
Status,401,11668125063,/g3t1_1,,success
Status,402,11673268493,/g3t1_3,,running
Status,403,11673438395,/g3t1_2,,running
Status,404,11673477359,/g3t1_2,,success
Status,405,11674300986,/g3t1_3,,success
Status,406,11718078358,/g3t1_1,,running
Status,407,11718465887,/g3t1_1,,success
Status,408,11722603029,/g3t1_2,,running
Status,409,11722625961,/g3t1_3,,running
Status,410,11722653243,/g3t1_3,,success
Status,411,11722661680,/g3t1_2,,success
Status,412,11762657184,/g4t1,,fail
Status,413,11768792091,/g3t1_1,,running
Status,414,11768874696,/g3t1_1,,success
Status,415,11773230450,/g3t1_2,,running
Status,416,11773350649,/g3t1_3,,running
Status,417,11773442440,/g3t1_2,,success
Status,418,11773503782,/g3t1_3,,success
Status,419,11818834425,/g3t1_1,,running
Status,420,11819288886,/g3t1_1,,success
Status,421,11823063938,/g3t1_3,,running
Status,422,11823135933,/g3t1_2,,running
Status,423,11823384652,/g3t1_2,,success
Status,424,11823451461,/g3t1_3,,success
Status,425,11862866103,/g4t1,,fail
Status,426,11868910206,/g3t1_1,,running
Status,427,11869286042,/g3t1_1,,success
Status,428,11873415332,/g3t1_3,,running
Status,429,11873480698,/g3t1_2,,running
Status,430,11873519241,/g3t1_2,,success
Status,431,11873594536,/g3t1_3,,success
Status,432,11918708147,/g3t1_1,,running
Status,433,11919191530,/g3t1_1,,success
Status,434,11923723913,/g3t1_2,,running
Status,435,11923807723,/g3t1_3,,running
Status,436,11923878759,/g3t1_2,,success
Status,437,11924125924,/g3t1_3,,success
Status,438,11962903779,/g4t1,,fail
Status,439,11969247321,/g3t1_1,,running
Status,440,11969861595,/g3t1_1,,success
Status,441,11973498828,/g3t1_2,,running
Status,442,11973572276,/g3t1_3,,running
Status,443,11973673196,/g3t1_3,,success
Status,444,11974497001,/g3t1_2,,success
Status,445,12019243835,/g3t1_1,,running
Status,446,12020045159,/g3t1_1,,success
Status,447,12023597316,/g3t1_2,,running
Status,448,12023683064,/g3t1_3,,running
Status,449,12023943139,/g3t1_2,,success
Status,450,12023999958,/g3t1_3,,success
Status,451,12063237262,/g4t1,,fail
Status,452,12068937513,/g3t1_1,,running
Status,453,12069235324,/g3t1_1,,success
Status,454,12073558359,/g3t1_2,,running
Status,455,12073633372,/g3t1_3,,running
Status,456,12074066986,/g3t1_2,,success
Status,457,12074128745,/g3t1_3,,success
Status,458,12119471795,/g3t1_1,,running
Status,459,12119686911,/g3t1_1,,success
Status,460,12123627529,/g3t1_3,,running
Status,461,12123701608,/g3t1_2,,running
Status,462,12123942147,/g3t1_2,,success
Status,463,12124622306,/g3t1_3,,success
Status,464,12163343693,/g4t1,,fail
Status,465,12169698320,/g3t1_1,,running
Status,466,12170180874,/g3t1_1,,success
Status,467,12173723891,/g3t1_3,,running
Status,468,12174370703,/g3t1_2,,running
Status,469,12174442174,/g3t1_3,,success
Status,470,12174521944,/g3t1_2,,success
Status,471,12219623115,/g3t1_1,,running
Status,472,12220140180,/g3t1_1,,success
Status,473,12224635018,/g3t1_3,,running
Status,474,12224779435,/g3t1_3,,success
Status,475,12224817023,/g3t1_2,,running
Status,476,12225465284,/g3t1_2,,success
Status,477,12263381607,/g4t1,,fail
Status,478,12269967855,/g3t1_1,,running
Status,479,12270519213,/g3t1_1,,success
Status,480,12274221301,/g3t1_2,,running
Status,481,12275030614,/g3t1_3,,running
Status,482,12275117235,/g3t1_3,,success
Status,483,12276048185,/g3t1_2,,success
Status,484,12319633005,/g3t1_1,,running
Status,485,12319684161,/g3t1_1,,success
Status,486,12324634120,/g3t1_3,,running
Status,487,12324687623,/g3t1_2,,running
Status,488,12324708028,/g3t1_2,,success
Status,489,12324725141,/g3t1_3,,success
Status,490,12363393326,/g4t1,,fail
Status,491,12370031926,/g3t1_1,,running
Status,492,12370315839,/g3t1_1,,success
Status,493,12374772617,/g3t1_3,,running
Status,494,12374883945,/g3t1_2,,running
Status,495,12374940624,/g3t1_3,,success
Status,496,12375074427,/g3t1_2,,success
Status,497,12419992224,/g3t1_1,,running
Status,498,12420181832,/g3t1_1,,success
Status,499,12424357083,/g3t1_3,,running
Status,500,12424431128,/g3t1_2,,running
Status,501,12424832385,/g3t1_3,,success
Status,502,12424881662,/g3t1_2,,success
Status,503,12463567191,/g4t1,,fail
Status,504,12470007732,/g3t1_1,,running
Status,505,12470255268,/g3t1_1,,success
Status,506,12475009353,/g3t1_2,,running
Status,507,12475108011,/g3t1_3,,running
Status,508,12475336254,/g3t1_2,,success
Status,509,12475781514,/g3t1_3,,success
Status,510,12520187623,/g3t1_1,,running
Status,511,12520490085,/g3t1_1,,success
Status,512,12524481505,/g3t1_2,,running
Status,513,12524551092,/g3t1_3,,running
Status,514,12525130598,/g3t1_3,,success
Status,515,12525224912,/g3t1_2,,success
Status,516,12563665808,/g4t1,,fail
Status,517,12570315493,/g3t1_1,,running
Status,518,12570655387,/g3t1_1,,success
Status,519,12574614787,/g3t1_2,,running
Status,520,12574685038,/g3t1_3,,running
Status,521,12575046387,/g3t1_3,,success
Status,522,12575136831,/g3t1_2,,success
Status,523,12620305932,/g3t1_1,,running
Status,524,12620599327,/g3t1_1,,success
Status,525,12624676140,/g3t1_2,,running
Status,526,12624968984,/g3t1_3,,running
Status,527,12625117341,/g3t1_3,,success
Status,528,12625453542,/g3t1_2,,success
Status,529,12663896016,/g4t1,,fail
Status,530,12670565231,/g3t1_1,,running
Status,531,12670786613,/g3t1_1,,success
Status,532,12674733952,/g3t1_2,,running
Status,533,12674828550,/g3t1_3,,running
Status,534,12674854898,/g3t1_2,,success
Status,535,12675075780,/g3t1_3,,success
Status,536,12720312379,/g3t1_1,,running
Status,537,12720342203,/g3t1_1,,success
Status,538,12725239896,/g3t1_2,,running
Status,539,12725371782,/g3t1_3,,running
Status,540,12725396936,/g3t1_3,,success
Status,541,12725741679,/g3t1_2,,success
Status,542,12763256432,/g4t1,,fail
Status,543,12770377757,/g3t1_1,,running
Status,544,12770549493,/g3t1_1,,success
Status,545,12775244932,/g3t1_3,,running
Status,546,12775418054,/g3t1_2,,running
Status,547,12775446200,/g3t1_3,,success
Status,548,12775763180,/g3t1_2,,success
Status,549,12820924363,/g3t1_1,,running
Status,550,12821228378,/g3t1_1,,success
Status,551,12826199599,/g3t1_3,,running
Status,552,12826302723,/g3t1_3,,success
Status,553,12826381843,/g3t1_2,,running
Status,554,12826863934,/g3t1_2,,success
Status,555,12863960956,/g4t1,,fail
Status,556,12871302387,/g3t1_1,,running
Status,557,12871463492,/g3t1_1,,success
Status,558,12875373385,/g3t1_2,,running
Status,559,12875438000,/g3t1_3,,running
Status,560,12875499208,/g3t1_2,,success
Status,561,12875523051,/g3t1_3,,success
Status,562,12921046901,/g3t1_1,,running
Status,563,12921345275,/g3t1_1,,success
Status,564,12925588104,/g3t1_2,,running
Status,565,12925652217,/g3t1_3,,running
Status,566,12925742943,/g3t1_2,,success
Status,567,12926020337,/g3t1_3,,success
Status,568,12964060143,/g4t1,,fail
Status,569,12971220047,/g3t1_1,,running
Status,570,12971482974,/g3t1_1,,success
Status,571,12976293610,/g3t1_3,,running
Status,572,12976412262,/g3t1_2,,running
Status,573,12976868468,/g3t1_3,,success
Status,574,12977572072,/g3t1_2,,success
Status,575,13021199752,/g3t1_1,,running
Status,576,13021542696,/g3t1_1,,success
Status,577,13026045686,/g3t1_2,,running
Status,578,13026194754,/g3t1_3,,running
Status,579,13026235792,/g3t1_3,,success
Status,580,13026378898,/g3t1_2,,success
Status,581,13064254480,/g4t1,,fail
Status,582,13071393474,/g3t1_1,,running
Status,583,13071764114,/g3t1_1,,success
Status,584,13075926054,/g3t1_2,,running
Status,585,13075984590,/g3t1_3,,running
Status,586,13076017810,/g3t1_2,,success
Status,587,13076290594,/g3t1_3,,success
Status,588,13121732929,/g3t1_1,,running
Status,589,13122156087,/g3t1_1,,success
Status,590,13126163189,/g3t1_2,,running
Status,591,13126268857,/g3t1_3,,running
Status,592,13126720419,/g3t1_2,,success
Status,593,13126781925,/g3t1_3,,success
Status,594,13163907977,/g4t1,,fail
Status,595,13171858712,/g3t1_1,,running
Status,596,13171904444,/g3t1_1,,success
Status,597,13175765466,/g3t1_2,,running
Status,598,13175792221,/g3t1_3,,running
Status,599,13175801833,/g3t1_2,,success
Status,600,13175811084,/g3t1_3,,success
Status,601,13222017334,/g3t1_1,,running
Status,602,13222462187,/g3t1_1,,success
Status,603,13226239291,/g3t1_3,,running
Status,604,13226357869,/g3t1_2,,running
Status,605,13226949601,/g3t1_3,,success
Status,606,13227295552,/g3t1_2,,success
Status,607,13264927070,/g4t1,,fail
Status,608,13272101741,/g3t1_1,,running
Status,609,13272549191,/g3t1_1,,success
Status,610,13277430568,/g3t1_2,,running
Status,611,13277516597,/g3t1_3,,running
Status,612,13277601430,/g3t1_3,,success
Status,613,13277635253,/g3t1_2,,success
Status,614,13322126943,/g3t1_1,,running
Status,615,13322538340,/g3t1_1,,success
Status,616,13326482646,/g3t1_3,,running
Status,617,13326704213,/g3t1_2,,running
Status,618,13326806810,/g3t1_3,,success
Status,619,13327204595,/g3t1_2,,success
Status,620,13365101224,/g4t1,,fail
Status,621,13372165841,/g3t1_1,,running
Status,622,13372737153,/g3t1_1,,success
Status,623,13376621383,/g3t1_3,,running
Status,624,13377571084,/g3t1_3,,success
Status,625,13377666468,/g3t1_2,,running
Status,626,13377768760,/g3t1_2,,success
Status,627,13422491923,/g3t1_1,,running
Status,628,13422930475,/g3t1_1,,success
Status,629,13426395532,/g3t1_3,,running
Status,630,13426681496,/g3t1_3,,success
Status,631,13426739339,/g3t1_2,,running
Status,632,13427363455,/g3t1_2,,success
Status,633,13465117962,/g4t1,,fail
Status,634,13472616739,/g3t1_1,,running
Status,635,13472991137,/g3t1_1,,success
Status,636,13476954090,/g3t1_3,,running
Status,637,13477033404,/g3t1_2,,running
Status,638,13477112883,/g3t1_3,,success
Status,639,13477473488,/g3t1_2,,success
Status,640,13522901503,/g3t1_1,,running
Status,641,13522973236,/g3t1_1,,success
Status,642,13527167624,/g3t1_3,,running
Status,643,13527293850,/g3t1_2,,running
Status,644,13527395279,/g3t1_3,,success
Status,645,13527738853,/g3t1_2,,success
Status,646,13565214695,/g4t1,,fail
Status,647,13572727562,/g3t1_1,,running
Status,648,13573178524,/g3t1_1,,success
Status,649,13577037150,/g3t1_3,,running
Status,650,13577174725,/g3t1_2,,running
Status,651,13577655471,/g3t1_3,,success
Status,652,13577807247,/g3t1_2,,success
Status,653,13623107640,/g3t1_1,,running
Status,654,13623394169,/g3t1_1,,success
Status,655,13627312147,/g3t1_3,,running
Status,656,13627644774,/g3t1_2,,running
Status,657,13627742320,/g3t1_3,,success
Status,658,13628274404,/g3t1_2,,success
Status,659,13665562619,/g4t1,,fail
Status,660,13673544597,/g3t1_1,,running
Status,661,13673963494,/g3t1_1,,success
Status,662,13677639577,/g3t1_3,,running
Status,663,13677712882,/g3t1_2,,running
Status,664,13677808754,/g3t1_3,,success
Status,665,13678259982,/g3t1_2,,success
Status,666,13723644765,/g3t1_1,,running
Status,667,13723751220,/g3t1_1,,success
Status,668,13728250940,/g3t1_2,,running
Status,669,13728378819,/g3t1_3,,running
Status,670,13729133655,/g3t1_3,,success
Status,671,13729226021,/g3t1_2,,success
Status,672,13765273433,/g4t1,,fail
Status,673,13773469926,/g3t1_1,,running
Status,674,13773865543,/g3t1_1,,success
Status,675,13777872899,/g3t1_3,,running
Status,676,13777953618,/g3t1_2,,running
Status,677,13778049849,/g3t1_3,,success
Status,678,13778392536,/g3t1_2,,success
Status,679,13824053539,/g3t1_1,,running
Status,680,13824382201,/g3t1_1,,success
Status,681,13827824243,/g3t1_3,,running
Status,682,13827985453,/g3t1_2,,running
Status,683,13828030463,/g3t1_3,,success
Status,684,13828607327,/g3t1_2,,success
Status,685,13865591957,/g4t1,,fail
Status,686,13873937464,/g3t1_1,,running
Status,687,13874377978,/g3t1_1,,success
Status,688,13878151250,/g3t1_3,,running
Status,689,13878248322,/g3t1_2,,running
Status,690,13878622146,/g3t1_3,,success
Status,691,13878688628,/g3t1_2,,success
Status,692,13923735320,/g3t1_1,,running
Status,693,13923941019,/g3t1_1,,success
Status,694,13927652735,/g3t1_3,,running
Status,695,13927716170,/g3t1_2,,running
Status,696,13927934351,/g3t1_3,,success
Status,697,13927990917,/g3t1_2,,success
Status,698,13965144853,/g4t1,,fail
Status,699,13974067560,/g3t1_1,,running
Status,700,13974115845,/g3t1_1,,success
Status,701,13977839023,/g3t1_3,,running
Status,702,13977906318,/g3t1_2,,running
Status,703,13978224227,/g3t1_3,,success
Status,704,13978274460,/g3t1_2,,success
Status,705,14023903181,/g3t1_1,,running
Status,706,14024159558,/g3t1_1,,success
Status,707,14028035184,/g3t1_3,,running
Status,708,14028092985,/g3t1_2,,running
Status,709,14028226990,/g3t1_3,,success
Status,710,14028621218,/g3t1_2,,success
Status,711,14065014282,/g4t1,,fail
Status,712,14073716252,/g3t1_1,,running
Status,713,14073822896,/g3t1_1,,success
Status,714,14078098011,/g3t1_3,,running
Status,715,14078126227,/g3t1_2,,running
Status,716,14078365950,/g3t1_3,,success
Status,717,14078400385,/g3t1_2,,success
Status,718,14124562513,/g3t1_1,,running
Status,719,14124604126,/g3t1_1,,success
Status,720,14127815045,/g3t1_3,,running
Status,721,14128084456,/g3t1_2,,running
Status,722,14128115490,/g3t1_2,,success
Status,723,14128129391,/g3t1_3,,success
Status,724,14165326133,/g4t1,,fail
Status,725,14174751821,/g3t1_1,,running
Status,726,14175184237,/g3t1_1,,success
Status,727,14178236608,/g3t1_3,,running
Status,728,14178307286,/g3t1_2,,running
Status,729,14178605253,/g3t1_3,,success
Status,730,14178716813,/g3t1_2,,success
Status,731,14224410837,/g3t1_1,,running
Status,732,14224806475,/g3t1_1,,success
Status,733,14228376360,/g3t1_3,,running
Status,734,14228445992,/g3t1_2,,running
Status,735,14228560624,/g3t1_2,,success
Status,736,14228827369,/g3t1_3,,success
Status,737,14265822567,/g4t1,,fail
Status,738,14274996856,/g3t1_1,,running
Status,739,14275397008,/g3t1_1,,success
Status,740,14278675291,/g3t1_3,,running
Status,741,14278732863,/g3t1_2,,running
Status,742,14278880223,/g3t1_3,,success
Status,743,14278905939,/g3t1_2,,success
Status,744,14325029417,/g3t1_1,,running
Status,745,14325630805,/g3t1_1,,success
Status,746,14329063935,/g3t1_3,,running
Status,747,14329171489,/g3t1_2,,running
Status,748,14329261729,/g3t1_3,,success
Status,749,14329687628,/g3t1_2,,success
Status,750,14366096901,/g4t1,,fail
Status,751,14375547965,/g3t1_1,,running
Status,752,14375635218,/g3t1_1,,success
Status,753,14378956463,/g3t1_3,,running
Status,754,14379109018,/g3t1_2,,running
Status,755,14379152012,/g3t1_3,,success
Status,756,14379552236,/g3t1_2,,success
Status,757,14425070418,/g3t1_1,,running
Status,758,14425130558,/g3t1_1,,success
Status,759,14428981158,/g3t1_3,,running
Status,760,14429074171,/g3t1_2,,running
Status,761,14429633618,/g3t1_3,,success
Status,762,14429712498,/g3t1_2,,success
Status,763,14466438829,/g4t1,,fail
Status,764,14475419886,/g3t1_1,,running
Status,765,14475854860,/g3t1_1,,success
Status,766,14478976397,/g3t1_3,,running
Status,767,14479077193,/g3t1_2,,running
Status,768,14479532862,/g3t1_3,,success
Status,769,14479601039,/g3t1_2,,success
Status,770,14525855188,/g3t1_1,,running
Status,771,14525922306,/g3t1_1,,success
Status,772,14529280430,/g3t1_3,,running
Status,773,14529477712,/g3t1_2,,running
Status,774,14529529750,/g3t1_3,,success
Status,775,14530340476,/g3t1_2,,success
Status,776,14566519323,/g4t1,,fail
Status,777,14576057161,/g3t1_1,,running
Status,778,14576141460,/g3t1_1,,success
Status,779,14579295992,/g3t1_3,,running
Status,780,14579374216,/g3t1_3,,success
Status,781,14579474449,/g3t1_2,,running
Status,782,14579504886,/g3t1_2,,success
Status,783,14626233645,/g3t1_1,,running
Status,784,14626482882,/g3t1_1,,success
Status,785,14629508187,/g3t1_3,,running
Status,786,14629622758,/g3t1_2,,running
Status,787,14630338282,/g3t1_3,,success
Status,788,14630447851,/g3t1_2,,success
Status,789,14667048905,/g4t1,,fail
Status,790,14676390523,/g3t1_1,,running
Status,791,14676479814,/g3t1_1,,success
Status,792,14679622086,/g3t1_3,,running
Status,793,14679679095,/g3t1_2,,running
Status,794,14679746607,/g3t1_3,,success
Status,795,14679771698,/g3t1_2,,success
Status,796,14726240824,/g3t1_1,,running
Status,797,14726870001,/g3t1_1,,success
Status,798,14729790910,/g3t1_3,,running
Status,799,14729894713,/g3t1_2,,running
Status,800,14730074983,/g3t1_2,,success
Status,801,14730418392,/g3t1_3,,success
Status,802,14766781183,/g4t1,,fail
Status,803,14776173625,/g3t1_1,,running
Status,804,14776569237,/g3t1_1,,success
Status,805,14779656447,/g3t1_3,,running
Status,806,14779746522,/g3t1_2,,running
Status,807,14780163255,/g3t1_3,,success
Status,808,14780501867,/g3t1_2,,success
Status,809,14826349190,/g3t1_1,,running
Status,810,14826816127,/g3t1_1,,success
Status,811,14830002088,/g3t1_3,,running
Status,812,14830082488,/g3t1_2,,running
Status,813,14830359636,/g3t1_2,,success
Status,814,14830461770,/g3t1_3,,success
Status,815,14866930372,/g4t1,,fail
Status,816,14876659555,/g3t1_1,,running
Status,817,14876730179,/g3t1_1,,success
Status,818,14880205106,/g3t1_2,,running
Status,819,14880305753,/g3t1_3,,running
Status,820,14880788400,/g3t1_2,,success
Status,821,14881264995,/g3t1_3,,success
Status,822,14926429827,/g3t1_1,,running
Status,823,14926822985,/g3t1_1,,success
Status,824,14930512572,/g3t1_2,,running
Status,825,14930577713,/g3t1_3,,running
Status,826,14930680574,/g3t1_2,,success
Status,827,14930711162,/g3t1_3,,success
Status,828,14966955978,/g4t1,,fail
Status,829,14976447533,/g3t1_1,,running
Status,830,14976965109,/g3t1_1,,success
Status,831,14980208878,/g3t1_2,,running
Status,832,14980305670,/g3t1_3,,running
Status,833,14980592075,/g3t1_3,,success
Status,834,14980687743,/g3t1_2,,success
Status,835,15026991193,/g3t1_1,,running
Status,836,15027059763,/g3t1_1,,success
Status,837,15030444390,/g3t1_2,,running
Status,838,15030824031,/g3t1_3,,running
Status,839,15031013084,/g3t1_3,,success
Status,840,15031118743,/g3t1_2,,success
Status,841,15067025366,/g4t1,,fail
Status,842,15076908545,/g3t1_1,,running
Status,843,15077420383,/g3t1_1,,success
Status,844,15080938093,/g3t1_2,,running
Status,845,15080999219,/g3t1_3,,running
Status,846,15081024155,/g3t1_2,,success
Status,847,15081069792,/g3t1_3,,success
Status,848,15127080748,/g3t1_1,,running
Status,849,15127461099,/g3t1_1,,success
Status,850,15131223397,/g3t1_2,,running
Status,851,15131286338,/g3t1_3,,running
Status,852,15131389474,/g3t1_2,,success
Status,853,15131414550,/g3t1_3,,success
Status,854,15167282412,/g4t1,,fail
Status,855,15177271110,/g3t1_1,,running
Status,856,15177778783,/g3t1_1,,success
Status,857,15180678269,/g3t1_3,,running
Status,858,15181072807,/g3t1_2,,running
Status,859,15181127494,/g3t1_2,,success
Status,860,15181609735,/g3t1_3,,success
Status,861,15227307839,/g3t1_1,,running
Status,862,15227364310,/g3t1_1,,success
Status,863,15231430462,/g3t1_3,,running
Status,864,15231492510,/g3t1_2,,running
Status,865,15231516945,/g3t1_3,,success
Status,866,15231540090,/g3t1_2,,success
Status,867,15267476764,/g4t1,,fail
Status,868,15277463468,/g3t1_1,,running
Status,869,15278041653,/g3t1_1,,success
Status,870,15281088577,/g3t1_2,,running
Status,871,15281173717,/g3t1_3,,running
Status,872,15281761463,/g3t1_2,,success
Status,873,15281835334,/g3t1_3,,success
Status,874,15327126200,/g3t1_1,,running
Status,875,15327162666,/g3t1_1,,success
Status,876,15331059478,/g3t1_2,,running
Status,877,15331097722,/g3t1_3,,running
Status,878,15331155070,/g3t1_3,,success
Status,879,15331170305,/g3t1_2,,success
Status,880,15367550537,/g4t1,,fail
Status,881,15377840079,/g3t1_1,,running
Status,882,15378136465,/g3t1_1,,success
Status,883,15381458287,/g3t1_3,,running
Status,884,15381533197,/g3t1_2,,running
Status,885,15381639685,/g3t1_3,,success
Status,886,15381669725,/g3t1_2,,success
Status,887,15428125722,/g3t1_1,,running
Status,888,15428195555,/g3t1_1,,success
Status,889,15431746856,/g3t1_2,,running
Status,890,15431807735,/g3t1_3,,running
Status,891,15431832249,/g3t1_3,,success
Status,892,15431856155,/g3t1_2,,success
Status,893,15467573963,/g4t1,,fail
Status,894,15477921423,/g3t1_1,,running
Status,895,15478482836,/g3t1_1,,success
Status,896,15481635550,/g3t1_2,,running
Status,897,15481716307,/g3t1_3,,running
Status,898,15481856328,/g3t1_3,,success
Status,899,15481883302,/g3t1_2,,success
Status,900,15528128988,/g3t1_1,,running
Status,901,15529245529,/g3t1_1,,success
Status,902,15531775818,/g3t1_3,,running
Status,903,15531855820,/g3t1_2,,running
Status,904,15532141743,/g3t1_2,,success
Status,905,15532213820,/g3t1_3,,success
Status,906,15568122535,/g4t1,,fail
Status,907,15578300721,/g3t1_1,,running
Status,908,15578714578,/g3t1_1,,success
Status,909,15582471285,/g3t1_3,,running
Status,910,15582536961,/g3t1_2,,running
Status,911,15582564293,/g3t1_3,,success
Status,912,15582606301,/g3t1_2,,success
Status,913,15628669117,/g3t1_1,,running
Status,914,15629005271,/g3t1_1,,success
Status,915,15632168730,/g3t1_3,,running
Status,916,15632231022,/g3t1_2,,running
Status,917,15632460825,/g3t1_3,,success
Status,918,15632830746,/g3t1_2,,success
Status,919,15667969823,/g4t1,,fail
Status,920,15678571242,/g3t1_1,,running
Status,921,15679196859,/g3t1_1,,success
Status,922,15682113269,/g3t1_3,,running
Status,923,15682202060,/g3t1_2,,running
Status,924,15682707065,/g3t1_3,,success
Status,925,15683003735,/g3t1_2,,success
Status,926,15728880962,/g3t1_1,,running
Status,927,15728968388,/g3t1_1,,success
Status,928,15732181421,/g3t1_3,,running
Status,929,15732272132,/g3t1_2,,running
Status,930,15732710490,/g3t1_2,,success
Status,931,15732775675,/g3t1_3,,success
Status,932,15768024741,/g4t1,,fail
Status,933,15778925427,/g3t1_1,,running
Status,934,15779255946,/g3t1_1,,success
Status,935,15782283641,/g3t1_3,,running
Status,936,15782407167,/g3t1_2,,running
Status,937,15782941109,/g3t1_3,,success
Status,938,15783025118,/g3t1_2,,success
Status,939,15828981828,/g3t1_1,,running
Status,940,15829273317,/g3t1_1,,success
Status,941,15832445676,/g3t1_2,,running
Status,942,15832525281,/g3t1_3,,running
Status,943,15833101208,/g3t1_3,,success
Status,944,15833178211,/g3t1_2,,success
Status,945,15868466883,/g4t1,,fail
Status,946,15879088109,/g3t1_1,,running
Status,947,15879640716,/g3t1_1,,success
Status,948,15882895755,/g3t1_2,,running
Status,949,15882985032,/g3t1_3,,running
Status,950,15883389158,/g3t1_3,,success
Status,951,15883449961,/g3t1_2,,success
Status,952,15929373715,/g3t1_1,,running
Status,953,15929781684,/g3t1_1,,success
Status,954,15932997188,/g3t1_3,,running
Status,955,15933072287,/g3t1_2,,running
Status,956,15933596226,/g3t1_2,,success
Status,957,15933669286,/g3t1_3,,success
Status,958,15968343526,/g4t1,,fail
Status,959,15979414993,/g3t1_1,,running
Status,960,15979765247,/g3t1_1,,success
Status,961,15983027225,/g3t1_2,,running
Status,962,15983395508,/g3t1_3,,running
Status,963,15983445254,/g3t1_3,,success
Status,964,15983620375,/g3t1_2,,success
Status,965,16029611631,/g3t1_1,,running
Status,966,16030018431,/g3t1_1,,success
Status,967,16033078430,/g3t1_3,,running
Status,968,16033164051,/g3t1_2,,running
Status,969,16033700030,/g3t1_3,,success
Status,970,16033777850,/g3t1_2,,success
Status,971,16068974430,/g4t1,,fail
Status,972,16079778323,/g3t1_1,,running
Status,973,16080257118,/g3t1_1,,success
Status,974,16083282967,/g3t1_2,,running
Status,975,16083371650,/g3t1_3,,running
Status,976,16083856881,/g3t1_2,,success
Status,977,16083907260,/g3t1_3,,success
Status,978,16130073265,/g3t1_1,,running
Status,979,16130524380,/g3t1_1,,success
Status,980,16133903943,/g3t1_3,,running
Status,981,16134030835,/g3t1_2,,running
Status,982,16134460471,/g3t1_3,,success
Status,983,16134549256,/g3t1_2,,success
Status,984,16168658545,/g4t1,,fail
Status,985,16180022553,/g3t1_1,,running
Status,986,16180447172,/g3t1_1,,success
Status,987,16183263492,/g3t1_3,,running
Status,988,16183346232,/g3t1_2,,running
Status,989,16184330033,/g3t1_2,,success
Status,990,16184429400,/g3t1_3,,success
Status,991,16230286793,/g3t1_1,,running
Status,992,16230652749,/g3t1_1,,success
Status,993,16233673290,/g3t1_2,,running
Status,994,16233761055,/g3t1_3,,running
Status,995,16234176155,/g3t1_3,,success
Status,996,16234254991,/g3t1_2,,success
Status,997,16269492315,/g4t1,,fail
Status,998,16280295776,/g3t1_1,,running
Status,999,16280539021,/g3t1_1,,success
Status,1000,16283755138,/g3t1_2,,running
Status,1001,16283883432,/g3t1_3,,running
Status,1002,16284164565,/g3t1_3,,success
Status,1003,16284225381,/g3t1_2,,success
Status,1004,16330512833,/g3t1_1,,running
Status,1005,16330998419,/g3t1_1,,success
Status,1006,16333909586,/g3t1_2,,running
Status,1007,16333971384,/g3t1_3,,running
Status,1008,16334390327,/g3t1_3,,success
Status,1009,16334590377,/g3t1_2,,success
Status,1010,16369109932,/g4t1,,fail
Status,1011,16380589567,/g3t1_1,,running
Status,1012,16381096117,/g3t1_1,,success
Status,1013,16384197497,/g3t1_2,,running
Status,1014,16384279944,/g3t1_3,,running
Status,1015,16384311802,/g3t1_3,,success
Status,1016,16384676192,/g3t1_2,,success
Status,1017,16430490948,/g3t1_1,,running
Status,1018,16430560323,/g3t1_1,,success
Status,1019,16434140277,/g3t1_3,,running
Status,1020,16434256952,/g3t1_2,,running
Status,1021,16434627176,/g3t1_3,,success
Status,1022,16434745408,/g3t1_2,,success
Status,1023,16469217149,/g4t1,,fail
Status,1024,16480883129,/g3t1_1,,running
Status,1025,16481422437,/g3t1_1,,success
Status,1026,16484272945,/g3t1_3,,running
Status,1027,16484362586,/g3t1_2,,running
Status,1028,16484803505,/g3t1_2,,success
Status,1029,16484872409,/g3t1_3,,success
Status,1030,16531099941,/g3t1_1,,running
Status,1031,16531528485,/g3t1_1,,success
Status,1032,16534401310,/g3t1_2,,running
Status,1033,16534489198,/g3t1_3,,running
Status,1034,16534965598,/g3t1_2,,success
Status,1035,16535055425,/g3t1_3,,success
Status,1036,16569277058,/g4t1,,fail
Status,1037,16581407698,/g3t1_1,,running
Status,1038,16581925234,/g3t1_1,,success
Status,1039,16584409157,/g3t1_2,,running
Status,1040,16584539563,/g3t1_3,,running
Status,1041,16585106814,/g3t1_2,,success
Status,1042,16585173063,/g3t1_3,,success
Status,1043,16631834927,/g3t1_1,,running
Status,1044,16632171478,/g3t1_1,,success
Status,1045,16635434264,/g3t1_3,,running
Status,1046,16635494409,/g3t1_2,,running
Status,1047,16635597763,/g3t1_3,,success
Status,1048,16635623066,/g3t1_2,,success
Status,1049,16669912372,/g4t1,,fail
Status,1050,16681834607,/g3t1_1,,running
Status,1051,16682465625,/g3t1_1,,success
Status,1052,16685084018,/g3t1_2,,running
Status,1053,16685166429,/g3t1_3,,running
Status,1054,16685811086,/g3t1_2,,success
Status,1055,16685900860,/g3t1_3,,success
Status,1056,16732073817,/g3t1_1,,running
Status,1057,16732411426,/g3t1_1,,success
Status,1058,16734969993,/g3t1_2,,running
Status,1059,16735151669,/g3t1_3,,running
Status,1060,16735357341,/g3t1_2,,success
Status,1061,16735504093,/g3t1_3,,success
Status,1062,16769937903,/g4t1,,fail
Status,1063,16782253943,/g3t1_1,,running
Status,1064,16782936685,/g3t1_1,,success
Status,1065,16785124040,/g3t1_2,,running
Status,1066,16785197187,/g3t1_3,,running
Status,1067,16785352791,/g3t1_2,,success
Status,1068,16785885814,/g3t1_3,,success
Status,1069,16832673459,/g3t1_1,,running
Status,1070,16832971271,/g3t1_1,,success
Status,1071,16835228441,/g3t1_2,,running
Status,1072,16835327870,/g3t1_3,,running
Status,1073,16835368038,/g3t1_2,,success
Status,1074,16835775902,/g3t1_3,,success
Status,1075,16870045732,/g4t1,,fail
Status,1076,16882526179,/g3t1_1,,running
Status,1077,16883151348,/g3t1_1,,success
Status,1078,16885247440,/g3t1_2,,running
Status,1079,16885401800,/g3t1_3,,running
Status,1080,16885674167,/g3t1_2,,success
Status,1081,16885722893,/g3t1_3,,success
Status,1082,16932927395,/g3t1_1,,running
Status,1083,16933267617,/g3t1_1,,success
Status,1084,16935694473,/g3t1_2,,running
Status,1085,16935757541,/g3t1_3,,running
Status,1086,16935781566,/g3t1_2,,success
Status,1087,16935809291,/g3t1_3,,success
Status,1088,16969910331,/g4t1,,fail
Status,1089,16982960835,/g3t1_1,,running
Status,1090,16983738716,/g3t1_1,,success
Status,1091,16985422167,/g3t1_2,,running
Status,1092,16985502145,/g3t1_3,,running
Status,1093,16985896266,/g3t1_3,,success
Status,1094,16986195885,/g3t1_2,,success
Status,1095,17033076436,/g3t1_1,,running
Status,1096,17033373363,/g3t1_1,,success
Status,1097,17035376167,/g3t1_2,,running
Status,1098,17035505211,/g3t1_3,,running
Status,1099,17035644570,/g3t1_2,,success
Status,1100,17036096477,/g3t1_3,,success
Status,1101,17070004869,/g4t1,,fail
Status,1102,17083268933,/g3t1_1,,running
Status,1103,17083713107,/g3t1_1,,success
Status,1104,17085715827,/g3t1_2,,running
Status,1105,17085796726,/g3t1_3,,running
Status,1106,17086019992,/g3t1_2,,success
Status,1107,17086080105,/g3t1_3,,success
Status,1108,17133380689,/g3t1_1,,running
Status,1109,17133931154,/g3t1_1,,success
Status,1110,17135824467,/g3t1_2,,running
Status,1111,17135907081,/g3t1_3,,running
Status,1112,17136016168,/g3t1_3,,success
Status,1113,17136093117,/g3t1_2,,success
Status,1114,17170159822,/g4t1,,fail
Status,1115,17183788240,/g3t1_1,,running
Status,1116,17183855764,/g3t1_1,,success
Status,1117,17185855607,/g3t1_2,,running
Status,1118,17185983492,/g3t1_3,,running
Status,1119,17186035156,/g3t1_2,,success
Status,1120,17186433335,/g3t1_3,,success
Status,1121,17233877164,/g3t1_1,,running
Status,1122,17234389977,/g3t1_1,,success
Status,1123,17235896084,/g3t1_3,,running
Status,1124,17236181077,/g3t1_2,,running
Status,1125,17236233727,/g3t1_3,,success
Status,1126,17236474271,/g3t1_2,,success
Status,1127,17270319683,/g4t1,,fail
Status,1128,17284044803,/g3t1_1,,running
Status,1129,17284539981,/g3t1_1,,success
Status,1130,17286109919,/g3t1_2,,running
Status,1131,17286187053,/g3t1_3,,running
Status,1132,17286631127,/g3t1_3,,success
Status,1133,17286970976,/g3t1_2,,success
Status,1134,17334239620,/g3t1_1,,running
Status,1135,17334699223,/g3t1_1,,success
Status,1136,17336086207,/g3t1_2,,running
Status,1137,17336166166,/g3t1_3,,running
Status,1138,17336662397,/g3t1_2,,success
Status,1139,17336758565,/g3t1_3,,success
Status,1140,17370547937,/g4t1,,fail
Status,1141,17384241574,/g3t1_1,,running
Status,1142,17384840222,/g3t1_1,,success
Status,1143,17386269160,/g3t1_2,,running
Status,1144,17386337245,/g3t1_3,,running
Status,1145,17386460935,/g3t1_3,,success
Status,1146,17386800702,/g3t1_2,,success
Status,1147,17434795282,/g3t1_1,,running
Status,1148,17434896856,/g3t1_1,,success
Status,1149,17436494189,/g3t1_2,,running
Status,1150,17436572130,/g3t1_3,,running
Status,1151,17436768534,/g3t1_2,,success
Status,1152,17436812579,/g3t1_3,,success
Status,1153,17470543925,/g4t1,,fail
Status,1154,17484770669,/g3t1_1,,running
Status,1155,17485171547,/g3t1_1,,success
Status,1156,17486390395,/g3t1_3,,running
Status,1157,17486914318,/g3t1_2,,running
Status,1158,17486986446,/g3t1_2,,success
Status,1159,17487109874,/g3t1_3,,success
Status,1160,17535135743,/g3t1_1,,running
Status,1161,17535704047,/g3t1_1,,success
Status,1162,17536745845,/g3t1_2,,running
Status,1163,17536845372,/g3t1_3,,running
Status,1164,17536940764,/g3t1_2,,success
Status,1165,17537963128,/g3t1_3,,success
Status,1166,17570719353,/g4t1,,fail
Status,1167,17585197712,/g3t1_1,,running
Status,1168,17585730344,/g3t1_1,,success
Status,1169,17586725121,/g3t1_2,,running
Status,1170,17586804901,/g3t1_3,,running
Status,1171,17587198796,/g3t1_3,,success
Status,1172,17587248684,/g3t1_2,,success
Status,1173,17635371290,/g3t1_1,,running
Status,1174,17635830949,/g3t1_1,,success
Status,1175,17637036430,/g3t1_2,,running
Status,1176,17637150940,/g3t1_2,,success
Status,1177,17637227747,/g3t1_3,,running
Status,1178,17637408083,/g3t1_3,,success
Status,1179,17670852771,/g4t1,,fail
Status,1180,17685850101,/g3t1_1,,running
Status,1181,17686132781,/g3t1_1,,success
Status,1182,17686970984,/g3t1_2,,running
Status,1183,17687030196,/g3t1_3,,running
Status,1184,17687142163,/g3t1_3,,success
Status,1185,17687166626,/g3t1_2,,success
Status,1186,17735563207,/g3t1_1,,running
Status,1187,17735978437,/g3t1_1,,success
Status,1188,17737113872,/g3t1_2,,running
Status,1189,17737230312,/g3t1_3,,running
Status,1190,17737362234,/g3t1_2,,success
Status,1191,17737574540,/g3t1_3,,success
Status,1192,17770811585,/g4t1,,fail
Status,1193,17785877745,/g3t1_1,,running
Status,1194,17786285597,/g3t1_1,,success
Status,1195,17787094876,/g3t1_2,,running
Status,1196,17787216377,/g3t1_3,,running
Status,1197,17787937169,/g3t1_3,,success
Status,1198,17788019935,/g3t1_2,,success
Status,1199,17835841842,/g3t1_1,,running
Status,1200,17836275251,/g3t1_1,,success
Status,1201,17837512454,/g3t1_2,,running
Status,1202,17837689997,/g3t1_3,,running
Status,1203,17837965965,/g3t1_3,,success
Status,1204,17838028778,/g3t1_2,,success
Status,1205,17870905179,/g4t1,,fail
Status,1206,17886085148,/g3t1_1,,running
Status,1207,17886610420,/g3t1_1,,success
Status,1208,17887483667,/g3t1_2,,running
Status,1209,17887850824,/g3t1_2,,success
Status,1210,17887947511,/g3t1_3,,running
Status,1211,17887991495,/g3t1_3,,success
Status,1212,17936059203,/g3t1_1,,running
Status,1213,17936510737,/g3t1_1,,success
Status,1214,17938049414,/g3t1_3,,running
Status,1215,17938132659,/g3t1_2,,running
Status,1216,17938276316,/g3t1_2,,success
Status,1217,17938305725,/g3t1_3,,success
Status,1218,17971094693,/g4t1,,fail
Status,1219,17986346190,/g3t1_1,,running
Status,1220,17986770140,/g3t1_1,,success
Status,1221,17987788407,/g3t1_3,,running
Status,1222,17987858872,/g3t1_2,,running
Status,1223,17988007166,/g3t1_3,,success
Status,1224,17988051555,/g3t1_2,,success
Status,1225,18036302707,/g3t1_1,,running
Status,1226,18036806434,/g3t1_1,,success
Status,1227,18038020785,/g3t1_3,,running
Status,1228,18038104802,/g3t1_2,,running
Status,1229,18038198724,/g3t1_3,,success
Status,1230,18038884764,/g3t1_2,,success
Status,1231,18070979773,/g4t1,,fail
Status,1232,18086197195,/g3t1_1,,running
Status,1233,18086616253,/g3t1_1,,success
Status,1234,18088151297,/g3t1_2,,running
Status,1235,18088232202,/g3t1_3,,running
Status,1236,18088704353,/g3t1_2,,success
Status,1237,18088886877,/g3t1_3,,success
Status,1238,18136411596,/g3t1_1,,running
Status,1239,18136776123,/g3t1_1,,success
Status,1240,18137790928,/g3t1_3,,running
Status,1241,18137855844,/g3t1_2,,running
Status,1242,18138237911,/g3t1_3,,success
Status,1243,18138279219,/g3t1_2,,success
Status,1244,18171075474,/g4t1,,fail
Status,1245,18186709905,/g3t1_1,,running
Status,1246,18186777839,/g3t1_1,,success
Status,1247,18187841669,/g3t1_2,,running
Status,1248,18187987144,/g3t1_3,,running
Status,1249,18188418908,/g3t1_2,,success
Status,1250,18189155502,/g3t1_3,,success
Status,1251,18236727340,/g3t1_1,,running
Status,1252,18237567922,/g3t1_1,,success
Status,1253,18238186442,/g3t1_2,,running
Status,1254,18238314786,/g3t1_3,,running
Status,1255,18238713192,/g3t1_3,,success
Status,1256,18238766188,/g3t1_2,,success
Status,1257,18271429539,/g4t1,,fail
Status,1258,18286743021,/g3t1_1,,running
Status,1259,18287093456,/g3t1_1,,success
Status,1260,18288316392,/g3t1_3,,running
Status,1261,18288390527,/g3t1_2,,running
Status,1262,18288481334,/g3t1_3,,success
Status,1263,18288521280,/g3t1_2,,success
Status,1264,18336917453,/g3t1_1,,running
Status,1265,18337493894,/g3t1_1,,success
Status,1266,18338033052,/g3t1_3,,running
Status,1267,18338744490,/g3t1_2,,running
Status,1268,18338965567,/g3t1_2,,success
Status,1269,18339035625,/g3t1_3,,success
Status,1270,18371341143,/g4t1,,fail
Status,1271,18387054399,/g3t1_1,,running
Status,1272,18387745913,/g3t1_1,,success
Status,1273,18388765345,/g3t1_2,,running
Status,1274,18388911826,/g3t1_3,,running
Status,1275,18388998689,/g3t1_3,,success
Status,1276,18389287744,/g3t1_2,,success
Status,1277,18436540396,/g3t1_1,,running
Status,1278,18436571124,/g3t1_1,,success
Status,1279,18437780467,/g3t1_2,,running
Status,1280,18437807561,/g3t1_3,,running
Status,1281,18437825286,/g3t1_3,,success
Status,1282,18437836570,/g3t1_2,,success
Status,1283,18470967665,/g4t1,,fail
Status,1284,18487200873,/g3t1_1,,running
Status,1285,18487227700,/g3t1_1,,success
Status,1286,18487930076,/g3t1_2,,running
Status,1287,18487964344,/g3t1_2,,success
Status,1288,18487982369,/g3t1_3,,running
Status,1289,18488005621,/g3t1_3,,success
Status,1290,18536601181,/g3t1_1,,running
Status,1291,18536682783,/g3t1_1,,success
Status,1292,18537805703,/g3t1_2,,running
Status,1293,18537835011,/g3t1_3,,running
Status,1294,18538034354,/g3t1_2,,success
Status,1295,18538054669,/g3t1_3,,success
Status,1296,18571204107,/g4t1,,fail
Status,1297,18586739744,/g3t1_1,,running
Status,1298,18586766046,/g3t1_1,,success
Status,1299,18587825201,/g3t1_2,,running
Status,1300,18587857727,/g3t1_3,,running
Status,1301,18588049322,/g3t1_2,,success
Status,1302,18588077337,/g3t1_3,,success
Status,1303,18637858564,/g3t1_1,,running
Status,1304,18638029754,/g3t1_1,,success
Status,1305,18638521839,/g3t1_2,,running
Status,1306,18638606051,/g3t1_3,,running
Status,1307,18639197495,/g3t1_3,,success
Status,1308,18639315757,/g3t1_2,,success
Status,1309,18671610773,/g4t1,,fail
Status,1310,18687250572,/g3t1_1,,running
Status,1311,18687508668,/g3t1_1,,success
Status,1312,18688241153,/g3t1_2,,running
Status,1313,18688632515,/g3t1_2,,success
Status,1314,18688694667,/g3t1_3,,running
Status,1315,18688718925,/g3t1_3,,success
Status,1316,18737219430,/g3t1_1,,running
Status,1317,18737243063,/g3t1_1,,success
Status,1318,18738101508,/g3t1_2,,running
Status,1319,18738124347,/g3t1_3,,running
Status,1320,18738242201,/g3t1_2,,success
Status,1321,18738266014,/g3t1_3,,success
Status,1322,18771661377,/g4t1,,fail
Status,1323,18787313051,/g3t1_1,,running
Status,1324,18787358550,/g3t1_1,,success
Status,1325,18788190702,/g3t1_2,,running
Status,1326,18788224847,/g3t1_3,,running
Status,1327,18788494982,/g3t1_3,,success
Status,1328,18788518101,/g3t1_2,,success
Status,1329,18837799300,/g3t1_1,,running
Status,1330,18838608977,/g3t1_1,,success
Status,1331,18839702622,/g3t1_3,,running
Status,1332,18839769434,/g3t1_3,,success
Status,1333,18839835699,/g3t1_2,,running
Status,1334,18839862107,/g3t1_2,,success
Status,1335,18871654733,/g4t1,,fail
Status,1336,18887899830,/g3t1_1,,running
Status,1337,18887998688,/g3t1_1,,success
Status,1338,18889197543,/g3t1_2,,running
Status,1339,18889250477,/g3t1_2,,success
Status,1340,18889336408,/g3t1_3,,running
Status,1341,18889372534,/g3t1_3,,success
Status,1342,18938035352,/g3t1_1,,running
Status,1343,18938865417,/g3t1_1,,success
Status,1344,18939185040,/g3t1_3,,running
Status,1345,18939638065,/g3t1_2,,running
Status,1346,18939757434,/g3t1_2,,success
Status,1347,18940352428,/g3t1_3,,success
Status,1348,18971524924,/g4t1,,fail
Status,1349,18988267745,/g3t1_1,,running
Status,1350,18988325744,/g3t1_1,,success
Status,1351,18988932132,/g3t1_2,,running
Status,1352,18989000113,/g3t1_3,,running
Status,1353,18989026586,/g3t1_3,,success
Status,1354,18989063664,/g3t1_2,,success
Status,1355,19037829994,/g3t1_1,,running
Status,1356,19037998919,/g3t1_1,,success
Status,1357,19038910284,/g3t1_2,,running
Status,1358,19038956826,/g3t1_2,,success
Status,1359,19038981100,/g3t1_3,,running
Status,1360,19039005610,/g3t1_3,,success
Status,1361,19071468374,/g4t1,,fail
Status,1362,19088177778,/g3t1_1,,running
Status,1363,19089491462,/g3t1_1,,success
Status,1364,19089536348,/g3t1_2,,running
Status,1365,19089603589,/g3t1_2,,success
Status,1366,19089618530,/g3t1_3,,running
Status,1367,19089923988,/g3t1_3,,success
Status,1368,19138346593,/g3t1_1,,running
Status,1369,19140400264,/g3t1_1,,success
Status,1370,19140508007,/g3t1_2,,running
Status,1371,19140990788,/g3t1_3,,running
Status,1372,19141078296,/g3t1_3,,success
Status,1373,19142286588,/g3t1_2,,success
Status,1374,19172054094,/g4t1,,fail
Status,1375,19188397125,/g3t1_1,,running
Status,1376,19189436841,/g3t1_1,,success
Status,1377,19189667088,/g3t1_2,,running
Status,1378,19189734683,/g3t1_3,,running
Status,1379,19190093924,/g3t1_3,,success
Status,1380,19190158302,/g3t1_2,,success
Status,1381,19238962635,/g3t1_1,,running
Status,1382,19239072693,/g3t1_1,,success
Status,1383,19241284458,/g3t1_2,,running
Status,1384,19241482273,/g3t1_3,,running
Status,1385,19241564468,/g3t1_3,,success
Status,1386,19241587938,/g3t1_2,,success
Status,1387,19272252468,/g4t1,,fail
Status,1388,19288574606,/g3t1_1,,running
Status,1389,19289519301,/g3t1_1,,success
Status,1390,19289589011,/g3t1_2,,running
Status,1391,19290780843,/g3t1_3,,running
Status,1392,19290848581,/g3t1_2,,success
Status,1393,19290967348,/g3t1_3,,success
Status,1394,19338819168,/g3t1_1,,running
Status,1395,19339546893,/g3t1_1,,success
Status,1396,19339620433,/g3t1_2,,running
Status,1397,19340448970,/g3t1_3,,running
Status,1398,19340528493,/g3t1_3,,success
Status,1399,19340583575,/g3t1_2,,success
Status,1400,19372312831,/g4t1,,fail
Status,1401,19388832686,/g3t1_1,,running
Status,1402,19389387329,/g3t1_1,,success
Status,1403,19389838448,/g3t1_2,,running
Status,1404,19391083281,/g3t1_3,,running
Status,1405,19391148579,/g3t1_2,,success
Status,1406,19391232545,/g3t1_3,,success
Status,1407,19438838801,/g3t1_1,,running
Status,1408,19439334624,/g3t1_1,,success
Status,1409,19440017681,/g3t1_2,,running
Status,1410,19441561280,/g3t1_3,,running
Status,1411,19441687456,/g3t1_3,,success
Status,1412,19441725636,/g3t1_2,,success
Status,1413,19472146418,/g4t1,,fail
Status,1414,19488758682,/g3t1_1,,running
Status,1415,19488804190,/g3t1_1,,success
Status,1416,19489843711,/g3t1_2,,running
Status,1417,19490097426,/g3t1_2,,success
Status,1418,19490602573,/g3t1_3,,running
Status,1419,19490636809,/g3t1_3,,success
Status,1420,19539534786,/g3t1_1,,running
Status,1421,19539608440,/g3t1_1,,success
Status,1422,19539734650,/g3t1_2,,running
Status,1423,19540229580,/g3t1_2,,success
Status,1424,19540568436,/g3t1_3,,running
Status,1425,19540644306,/g3t1_3,,success
Status,1426,19572014583,/g4t1,,fail
Status,1427,19589661901,/g3t1_1,,running
Status,1428,19589755718,/g3t1_1,,success
Status,1429,19590335529,/g3t1_2,,running
Status,1430,19590979034,/g3t1_3,,running
Status,1431,19591300204,/g3t1_3,,success
Status,1432,19591332324,/g3t1_2,,success
Status,1433,19639664643,/g3t1_1,,running
Status,1434,19640237853,/g3t1_1,,success
Status,1435,19640708491,/g3t1_2,,running
Status,1436,19641912969,/g3t1_3,,running
Status,1437,19641983526,/g3t1_2,,success
Status,1438,19643076502,/g3t1_3,,success
Status,1439,19672751309,/g4t1,,fail
Status,1440,19689071484,/g3t1_1,,running
Status,1441,19689317096,/g3t1_1,,success
Status,1442,19689861592,/g3t1_2,,running
Status,1443,19690050036,/g3t1_2,,success
Status,1444,19690473171,/g3t1_3,,running
Status,1445,19690502563,/g3t1_3,,success
Status,1446,19739097691,/g3t1_1,,running
Status,1447,19739322157,/g3t1_1,,success
Status,1448,19739875736,/g3t1_2,,running
Status,1449,19740080153,/g3t1_2,,success
Status,1450,19740324486,/g3t1_3,,running
Status,1451,19740623023,/g3t1_3,,success
Status,1452,19772273935,/g4t1,,fail
Status,1453,19789339233,/g3t1_1,,running
Status,1454,19789366205,/g3t1_1,,success
Status,1455,19790063543,/g3t1_2,,running
Status,1456,19790214577,/g3t1_2,,success
Status,1457,19790394101,/g3t1_3,,running
Status,1458,19790698958,/g3t1_3,,success
Status,1459,19839373006,/g3t1_1,,running
Status,1460,19839399149,/g3t1_1,,success
Status,1461,19840036835,/g3t1_2,,running
Status,1462,19840195776,/g3t1_2,,success
Status,1463,19840510699,/g3t1_3,,running
Status,1464,19840631232,/g3t1_3,,success
Status,1465,19872707955,/g4t1,,fail
Status,1466,19890668257,/g3t1_1,,running
Status,1467,19890771423,/g3t1_1,,success
Status,1468,19890811129,/g3t1_2,,running
Status,1469,19891666032,/g3t1_3,,running
Status,1470,19891750618,/g3t1_2,,success
Status,1471,19892008742,/g3t1_3,,success
Status,1472,19940430069,/g3t1_1,,running
Status,1473,19940761745,/g3t1_2,,running
Status,1474,19940893619,/g3t1_1,,success
Status,1475,19941449710,/g3t1_3,,running
Status,1476,19941506880,/g3t1_3,,success
Status,1477,19941542452,/g3t1_2,,success
Status,1478,19972848698,/g4t1,,fail
Status,1479,19990109963,/g3t1_1,,running
Status,1480,19990408448,/g3t1_1,,success
Status,1481,19990982408,/g3t1_2,,running
Status,1482,19991468687,/g3t1_3,,running
Status,1483,19991669181,/g3t1_2,,success
Status,1484,19991704103,/g3t1_3,,success
Status,1485,20040389980,/g3t1_1,,running
Status,1486,20040751152,/g3t1_1,,success
Status,1487,20040845122,/g3t1_2,,running
Status,1488,20041451649,/g3t1_2,,success
Status,1489,20041567000,/g3t1_3,,running
Status,1490,20042105265,/g3t1_3,,success
Status,1491,20072847913,/g4t1,,fail
Status,1492,20090357904,/g3t1_1,,running
Status,1493,20090675962,/g3t1_1,,success
Status,1494,20090842561,/g3t1_2,,running
Status,1495,20091574181,/g3t1_2,,success
Status,1496,20091656413,/g3t1_3,,running
Status,1497,20092141224,/g3t1_3,,success
Status,1498,20140555163,/g3t1_1,,running
Status,1499,20140866259,/g3t1_1,,success
Status,1500,20141090056,/g3t1_2,,running
Status,1501,20141825132,/g3t1_2,,success
Status,1502,20141886354,/g3t1_3,,running
Status,1503,20142202948,/g3t1_3,,success
Status,1504,20173118560,/g4t1,,fail
Status,1505,20191139312,/g3t1_1,,running
Status,1506,20191391178,/g3t1_1,,success
Status,1507,20191438109,/g3t1_2,,running
Status,1508,20192371702,/g3t1_3,,running
Status,1509,20192427803,/g3t1_2,,success
Status,1510,20192523282,/g3t1_3,,success
Status,1511,20241239949,/g3t1_1,,running
Status,1512,20241584341,/g3t1_2,,running
