
Status,1,3425223558,/g4t1,,init
Status,3,8457468664,/g3t1_1,,init
Status,5,8464061735,/g3t1_1,,init
Status,6,8464081024,/g3t1_1,,running
Status,7,8464418027,/g3t1_1,,success
Status,8,8514425753,/g3t1_1,,running
Status,9,8514448227,/g3t1_1,,success
Status,10,8564344706,/g3t1_1,,running
Status,11,8564481524,/g3t1_1,,success
Status,12,8614520326,/g3t1_1,,running
Status,13,8614537795,/g3t1_1,,success
Status,14,8664514243,/g3t1_1,,running
Status,15,8664590010,/g3t1_1,,success
Status,16,8714637503,/g3t1_1,,running
Status,17,8714665962,/g3t1_1,,success
Status,18,8736191273,/g3t1_2,,init
Status,20,8736770151,/g3t1_3,,init
Status,22,8748036699,/g3t1_2,,init
Status,23,8748054339,/g3t1_2,,running
Status,24,8748251414,/g3t1_3,,init
Status,25,8748269199,/g3t1_3,,running
Status,26,8748746901,/g3t1_2,,success
Status,27,8748895760,/g3t1_3,,success
Status,28,8764844785,/g3t1_1,,running
Status,29,8764877219,/g3t1_1,,success
Status,30,8798615259,/g3t1_2,,running
Status,31,8798664172,/g3t1_3,,running
Status,32,8798927253,/g3t1_2,,success
Status,33,8798959821,/g3t1_3,,success
Status,34,8815146477,/g3t1_1,,running
Status,35,8815418002,/g3t1_1,,success
Status,36,8843437030,/g4t1,,success
Status,37,8849036410,/g3t1_2,,running
Status,38,8849109690,/g3t1_3,,running
Status,39,8849965985,/g3t1_3,,success
Status,40,8850051659,/g3t1_2,,success
Status,41,8865779544,/g3t1_1,,running
Status,42,8866152222,/g3t1_1,,success
Status,43,8899082057,/g3t1_2,,running
Status,44,8899167445,/g3t1_3,,running
Status,45,8899698249,/g3t1_2,,success
Status,46,8899753229,/g3t1_3,,success
Status,47,8916055664,/g3t1_1,,running
Status,48,8916351081,/g3t1_1,,success
Status,49,8943388609,/g4t1,,success
Status,50,8949236129,/g3t1_2,,running
Status,51,8949321609,/g3t1_3,,running
Status,52,8949457574,/g3t1_2,,success
Status,53,8949867431,/g3t1_3,,success
Status,54,8966062040,/g3t1_1,,running
Status,55,8966513579,/g3t1_1,,success
Status,56,8999563280,/g3t1_2,,running
Status,57,8999684959,/g3t1_3,,running
Status,58,9000035722,/g3t1_2,,success
Status,59,9000142682,/g3t1_3,,success
Status,60,9017387972,/g3t1_1,,running
Status,61,9017591816,/g3t1_1,,success
Status,62,9042830185,/g4t1,,success
Status,63,9048870710,/g3t1_2,,running
Status,64,9049158002,/g3t1_2,,success
Status,65,9049540816,/g3t1_3,,running
Status,66,9049938488,/g3t1_3,,success
Status,67,9065719308,/g3t1_1,,running
Status,68,9065755506,/g3t1_1,,success
Status,69,9099445920,/g3t1_2,,running
Status,70,9099723366,/g3t1_2,,success
Status,71,9099822242,/g3t1_3,,running
Status,72,9099943421,/g3t1_3,,success
Status,73,9116166255,/g3t1_1,,running
Status,74,9116206450,/g3t1_1,,success
Status,75,9143987093,/g4t1,,fail
Status,76,9149179190,/g3t1_2,,running
Status,77,9149358175,/g3t1_2,,success
Status,78,9149751717,/g3t1_3,,running
Status,79,9149926724,/g3t1_3,,success
Status,80,9165868942,/g3t1_1,,running
Status,81,9166235890,/g3t1_1,,success
Status,82,9199227122,/g3t1_2,,running
Status,83,9199375560,/g3t1_2,,success
Status,84,9199823922,/g3t1_3,,running
Status,85,9199927018,/g3t1_3,,success
Status,86,9215972705,/g3t1_1,,running
Status,87,9216196527,/g3t1_1,,success
Status,88,9243616038,/g4t1,,fail
Status,89,9249497409,/g3t1_2,,running
Status,90,9249644734,/g3t1_2,,success
Status,91,9249990331,/g3t1_3,,running
Status,92,9250016588,/g3t1_3,,success
Status,93,9266044586,/g3t1_1,,running
Status,94,9266124771,/g3t1_1,,success
Status,95,9299417515,/g3t1_2,,running
Status,96,9299456801,/g3t1_2,,success
Status,97,9300059216,/g3t1_3,,running
Status,98,9300261773,/g3t1_3,,success
Status,99,9316138740,/g3t1_1,,running
Status,100,9316167094,/g3t1_1,,success
Status,101,9345535521,/g4t1,,fail
Status,102,9349522469,/g3t1_2,,running
Status,103,9349589295,/g3t1_2,,success
Status,104,9350251270,/g3t1_3,,running
Status,105,9350277127,/g3t1_3,,success
Status,106,9366252590,/g3t1_1,,running
Status,107,9366298877,/g3t1_1,,success
Status,108,9399638716,/g3t1_2,,running
Status,109,9399800433,/g3t1_2,,success
Status,110,9400207166,/g3t1_3,,running
Status,111,9400412858,/g3t1_3,,success
Status,112,9416696665,/g3t1_1,,running
Status,113,9416734118,/g3t1_1,,success
Status,114,9446228256,/g4t1,,fail
Status,115,9449592792,/g3t1_2,,running
Status,116,9449725828,/g3t1_2,,success
Status,117,9450152075,/g3t1_3,,running
Status,118,9450299192,/g3t1_3,,success
Status,119,9466555789,/g3t1_1,,running
Status,120,9466612986,/g3t1_1,,success
Status,121,9499683363,/g3t1_2,,running
Status,122,9499824166,/g3t1_2,,success
Status,123,9500306990,/g3t1_3,,running
Status,124,9500369570,/g3t1_3,,success
Status,125,9516528787,/g3t1_1,,running
Status,126,9516553960,/g3t1_1,,success
Status,127,9546260240,/g4t1,,fail
Status,128,9549946087,/g3t1_2,,running
Status,129,9549980384,/g3t1_2,,success
Status,130,9550486138,/g3t1_3,,running
Status,131,9550512416,/g3t1_3,,success
Status,132,9566601092,/g3t1_1,,running
Status,133,9566710702,/g3t1_1,,success
Status,134,9599794346,/g3t1_2,,running
Status,135,9600013874,/g3t1_2,,success
Status,136,9600337796,/g3t1_3,,running
Status,137,9600562076,/g3t1_3,,success
Status,138,9616576866,/g3t1_1,,running
Status,139,9616750839,/g3t1_1,,success
Status,140,9645701921,/g4t1,,fail
Status,141,9649782797,/g3t1_2,,running
Status,142,9649904582,/g3t1_2,,success
Status,143,9650410497,/g3t1_3,,running
Status,144,9650512937,/g3t1_3,,success
Status,145,9666655281,/g3t1_1,,running
Status,146,9666742720,/g3t1_1,,success
Status,147,9699895236,/g3t1_2,,running
Status,148,9699974693,/g3t1_2,,success
Status,149,9700472558,/g3t1_3,,running
Status,150,9700593171,/g3t1_3,,success
Status,151,9716806008,/g3t1_1,,running
Status,152,9716830543,/g3t1_1,,success
Status,153,9745883682,/g4t1,,fail
Status,154,9750001766,/g3t1_2,,running
Status,155,9750236248,/g3t1_2,,success
Status,156,9750535646,/g3t1_3,,running
Status,157,9750652509,/g3t1_3,,success
Status,158,9766943621,/g3t1_1,,running
Status,159,9767075640,/g3t1_1,,success
Status,160,9800750261,/g3t1_2,,running
Status,161,9801297508,/g3t1_2,,success
Status,162,9801409785,/g3t1_3,,running
Status,163,9801871106,/g3t1_3,,success
Status,164,9817654837,/g3t1_1,,running
Status,165,9818423858,/g3t1_1,,success
Status,166,9846872928,/g4t1,,fail
Status,167,9850806675,/g3t1_2,,running
Status,168,9851457021,/g3t1_3,,running
Status,169,9851584620,/g3t1_2,,success
Status,170,9851815794,/g3t1_3,,success
Status,171,9867941931,/g3t1_1,,running
Status,172,9868035441,/g3t1_1,,success
Status,173,9900994037,/g3t1_2,,running
Status,174,9901472598,/g3t1_2,,success
Status,175,9901525029,/g3t1_3,,running
Status,176,9901949558,/g3t1_3,,success
Status,177,9918173922,/g3t1_1,,running
Status,178,9918630164,/g3t1_1,,success
Status,179,9946767834,/g4t1,,fail
Status,180,9951631569,/g3t1_2,,running
Status,181,9951704943,/g3t1_3,,running
Status,182,9951747094,/g3t1_2,,success
Status,183,9951971540,/g3t1_3,,success
Status,184,9968077219,/g3t1_1,,running
Status,185,9968162848,/g3t1_1,,success
Status,186,10001831101,/g3t1_2,,running
Status,187,10001908092,/g3t1_2,,success
Status,188,10001934440,/g3t1_3,,running
Status,189,10002288389,/g3t1_3,,success
Status,190,10017981196,/g3t1_1,,running
Status,191,10018306683,/g3t1_1,,success
Status,192,10046927042,/g4t1,,fail
Status,193,10051976921,/g3t1_2,,running
Status,194,10052064136,/g3t1_3,,running
Status,195,10052240323,/g3t1_2,,success
Status,196,10052367623,/g3t1_3,,success
Status,197,10068345863,/g3t1_1,,running
Status,198,10068876418,/g3t1_1,,success
Status,199,10101869115,/g3t1_2,,running
Status,200,10101950134,/g3t1_3,,running
Status,201,10102363378,/g3t1_2,,success
Status,202,10102964249,/g3t1_3,,success
Status,203,10118683340,/g3t1_1,,running
Status,204,10119411216,/g3t1_1,,success
Status,205,10147300612,/g4t1,,fail
Status,206,10152273520,/g3t1_2,,running
Status,207,10152353659,/g3t1_2,,success
Status,208,10152472027,/g3t1_3,,running
Status,209,10152857993,/g3t1_3,,success
Status,210,10168554925,/g3t1_1,,running
Status,211,10169315155,/g3t1_1,,success
Status,212,10202098289,/g3t1_2,,running
Status,213,10202179493,/g3t1_3,,running
Status,214,10202249200,/g3t1_2,,success
Status,215,10202814527,/g3t1_3,,success
Status,216,10218753461,/g3t1_1,,running
Status,217,10219195175,/g3t1_1,,success
Status,218,10246881606,/g4t1,,fail
Status,219,10251553889,/g3t1_2,,running
Status,220,10251600748,/g3t1_2,,success
Status,221,10251738149,/g3t1_3,,running
Status,222,10252042231,/g3t1_3,,success
Status,223,10268148223,/g3t1_1,,running
Status,224,10268249640,/g3t1_1,,success
Status,225,10301436167,/g3t1_2,,running
Status,226,10301593115,/g3t1_2,,success
Status,227,10301714895,/g3t1_3,,running
Status,228,10301988153,/g3t1_3,,success
Status,229,10318238501,/g3t1_1,,running
Status,230,10318407479,/g3t1_1,,success
Status,231,10346912278,/g4t1,,fail
Status,232,10351542453,/g3t1_2,,running
Status,233,10351574042,/g3t1_2,,success
Status,234,10351870632,/g3t1_3,,running
Status,235,10351893850,/g3t1_3,,success
Status,236,10368455062,/g3t1_1,,running
Status,237,10368483009,/g3t1_1,,success
Status,238,10401682793,/g3t1_2,,running
Status,239,10401716713,/g3t1_2,,success
Status,240,10401876012,/g3t1_3,,running
Status,241,10402188666,/g3t1_3,,success
Status,242,10418537017,/g3t1_1,,running
Status,243,10418561936,/g3t1_1,,success
Status,244,10446936752,/g4t1,,fail
Status,245,10451733511,/g3t1_2,,running
Status,246,10451827906,/g3t1_2,,success
Status,247,10452025137,/g3t1_3,,running
Status,248,10452175231,/g3t1_3,,success
Status,249,10468578366,/g3t1_1,,running
Status,250,10468608064,/g3t1_1,,success
Status,251,10501860053,/g3t1_2,,running
Status,252,10501898886,/g3t1_2,,success
Status,253,10502171047,/g3t1_3,,running
Status,254,10502200904,/g3t1_3,,success
Status,255,10519090182,/g3t1_1,,running
Status,256,10519387841,/g3t1_1,,success
Status,257,10547502763,/g4t1,,fail
Status,258,10552865798,/g3t1_2,,running
Status,259,10553052789,/g3t1_3,,running
Status,260,10553134107,/g3t1_2,,success
Status,261,10553492823,/g3t1_3,,success
Status,262,10569791676,/g3t1_1,,running
Status,263,10569856754,/g3t1_1,,success
Status,264,10602812840,/g3t1_2,,running
Status,265,10602913767,/g3t1_3,,running
Status,266,10603673409,/g3t1_2,,success
Status,267,10603765735,/g3t1_3,,success
Status,268,10619272375,/g3t1_1,,running
Status,269,10619756886,/g3t1_1,,success
Status,270,10647981792,/g4t1,,fail
Status,271,10653267062,/g3t1_2,,running
Status,272,10653353380,/g3t1_3,,running
Status,273,10653501436,/g3t1_2,,success
Status,274,10653538751,/g3t1_3,,success
Status,275,10669620948,/g3t1_1,,running
Status,276,10670193712,/g3t1_1,,success
Status,277,10703174798,/g3t1_2,,running
Status,278,10703253262,/g3t1_3,,running
Status,279,10703352756,/g3t1_2,,success
Status,280,10703382285,/g3t1_3,,success
Status,281,10719467945,/g3t1_1,,running
Status,282,10720063941,/g3t1_1,,success
Status,283,10747629466,/g4t1,,fail
Status,284,10752773174,/g3t1_2,,running
Status,285,10752842045,/g3t1_3,,running
Status,286,10752861721,/g3t1_2,,success
Status,287,10752971211,/g3t1_3,,success
Status,288,10769404523,/g3t1_1,,running
Status,289,10769443975,/g3t1_1,,success
Status,290,10802787152,/g3t1_2,,running
Status,291,10802837760,/g3t1_2,,success
Status,292,10802855773,/g3t1_3,,running
Status,293,10802937634,/g3t1_3,,success
Status,294,10819531597,/g3t1_1,,running
Status,295,10819567919,/g3t1_1,,success
Status,296,10847424216,/g4t1,,fail
Status,297,10852896678,/g3t1_2,,running
Status,298,10853012810,/g3t1_3,,running
Status,299,10853476908,/g3t1_3,,success
Status,300,10853508946,/g3t1_2,,success
Status,301,10869395853,/g3t1_1,,running
Status,302,10869526419,/g3t1_1,,success
Status,303,10902789742,/g3t1_2,,running
Status,304,10902937039,/g3t1_3,,running
Status,305,10902957752,/g3t1_2,,success
Status,306,10902983570,/g3t1_3,,success
Status,307,10919451521,/g3t1_1,,running
Status,308,10919621032,/g3t1_1,,success
Status,309,10947329469,/g4t1,,fail
Status,310,10952960087,/g3t1_2,,running
Status,311,10952993071,/g3t1_2,,success
Status,312,10953029505,/g3t1_3,,running
Status,313,10953116856,/g3t1_3,,success
Status,314,10969573878,/g3t1_1,,running
Status,315,10969603972,/g3t1_1,,success
Status,316,11002956023,/g3t1_2,,running
Status,317,11003008543,/g3t1_2,,success
Status,318,11003097854,/g3t1_3,,running
Status,319,11003140723,/g3t1_3,,success
Status,320,11019679255,/g3t1_1,,running
Status,321,11019791316,/g3t1_1,,success
Status,322,11047441350,/g4t1,,fail
Status,323,11053073787,/g3t1_2,,running
Status,324,11053168142,/g3t1_3,,running
Status,325,11053179039,/g3t1_2,,success
Status,326,11053209245,/g3t1_3,,success
Status,327,11069818714,/g3t1_1,,running
Status,328,11069842810,/g3t1_1,,success
Status,329,11103876123,/g3t1_2,,running
Status,330,11103965662,/g3t1_3,,running
Status,331,11104330286,/g3t1_3,,success
Status,332,11104384506,/g3t1_2,,success
Status,333,11120398717,/g3t1_1,,running
Status,334,11120705712,/g3t1_1,,success
Status,335,11148228132,/g4t1,,fail
Status,336,11153880217,/g3t1_2,,running
Status,337,11153967261,/g3t1_3,,running
Status,338,11154379505,/g3t1_3,,success
Status,339,11154641046,/g3t1_2,,success
Status,340,11170549660,/g3t1_1,,running
Status,341,11171002406,/g3t1_1,,success
Status,342,11204339069,/g3t1_2,,running
Status,343,11204406376,/g3t1_3,,running
Status,344,11204579604,/g3t1_3,,success
Status,345,11204845503,/g3t1_2,,success
Status,346,11220670798,/g3t1_1,,running
Status,347,11221007626,/g3t1_1,,success
Status,348,11248453253,/g4t1,,fail
Status,349,11254253043,/g3t1_2,,running
Status,350,11254725239,/g3t1_3,,running
Status,351,11254807623,/g3t1_2,,success
Status,352,11254894265,/g3t1_3,,success
Status,353,11270953827,/g3t1_1,,running
Status,354,11271430207,/g3t1_1,,success
Status,355,11304716000,/g3t1_2,,running
Status,356,11304793105,/g3t1_3,,running
Status,357,11304861594,/g3t1_3,,success
Status,358,11304885749,/g3t1_2,,success
Status,359,11321333187,/g3t1_1,,running
Status,360,11321402916,/g3t1_1,,success
Status,361,11347907530,/g4t1,,fail
Status,362,11354312657,/g3t1_2,,running
Status,363,11354403385,/g3t1_3,,running
Status,364,11355267863,/g3t1_2,,success
Status,365,11355330307,/g3t1_3,,success
Status,366,11371042409,/g3t1_1,,running
Status,367,11371591361,/g3t1_1,,success
Status,368,11404057069,/g3t1_2,,running
Status,369,11404116209,/g3t1_3,,running
Status,370,11404555175,/g3t1_2,,success
Status,371,11404610910,/g3t1_3,,success
Status,372,11420828850,/g3t1_1,,running
Status,373,11421383272,/g3t1_1,,success
Status,374,11448628178,/g4t1,,fail
Status,375,11454236877,/g3t1_2,,running
Status,376,11454288064,/g3t1_3,,running
Status,377,11454535298,/g3t1_2,,success
Status,378,11454560582,/g3t1_3,,success
Status,379,11470675508,/g3t1_1,,running
Status,380,11470827886,/g3t1_1,,success
Status,381,11505419223,/g3t1_2,,running
Status,382,11505482221,/g3t1_3,,running
Status,383,11505518894,/g3t1_2,,success
Status,384,11505552794,/g3t1_3,,success
Status,385,11521528035,/g3t1_1,,running
Status,386,11522018173,/g3t1_1,,success
Status,387,11548768910,/g4t1,,fail
Status,388,11555021516,/g3t1_2,,running
Status,389,11555159352,/g3t1_3,,running
Status,390,11557716061,/g3t1_2,,success
Status,391,11557772382,/g3t1_3,,success
Status,392,11571467285,/g3t1_1,,running
Status,393,11571805338,/g3t1_1,,success
Status,394,11605162183,/g3t1_2,,running
Status,395,11605296705,/g3t1_3,,running
Status,396,11605793083,/g3t1_3,,success
Status,397,11605838906,/g3t1_2,,success
Status,398,11621872119,/g3t1_1,,running
Status,399,11622409611,/g3t1_1,,success
Status,400,11649016485,/g4t1,,fail
Status,401,11655029499,/g3t1_2,,running
Status,402,11655092086,/g3t1_3,,running
Status,403,11655392308,/g3t1_2,,success
Status,404,11655447954,/g3t1_3,,success
Status,405,11671780541,/g3t1_1,,running
Status,406,11672325831,/g3t1_1,,success
Status,407,11705551419,/g3t1_2,,running
Status,408,11705618978,/g3t1_3,,running
Status,409,11706036495,/g3t1_3,,success
Status,410,11706128897,/g3t1_2,,success
Status,411,11722083509,/g3t1_1,,running
Status,412,11722384557,/g3t1_1,,success
Status,413,11749138023,/g4t1,,fail
Status,414,11755622264,/g3t1_2,,running
Status,415,11755699864,/g3t1_3,,running
Status,416,11755786760,/g3t1_3,,success
Status,417,11756145850,/g3t1_2,,success
Status,418,11771979668,/g3t1_1,,running
Status,419,11772707011,/g3t1_1,,success
Status,420,11806182711,/g3t1_2,,running
Status,421,11806345862,/g3t1_3,,running
Status,422,11806394138,/g3t1_2,,success
Status,423,11806878817,/g3t1_3,,success
Status,424,11822178485,/g3t1_1,,running
Status,425,11822892983,/g3t1_1,,success
Status,426,11849660967,/g4t1,,fail
Status,427,11855616501,/g3t1_2,,running
Status,428,11855732658,/g3t1_3,,running
Status,429,11856753045,/g3t1_2,,success
Status,430,11856812041,/g3t1_3,,success
Status,431,11872341614,/g3t1_1,,running
Status,432,11872777540,/g3t1_1,,success
Status,433,11905504503,/g3t1_2,,running
Status,434,11905591500,/g3t1_3,,running
Status,435,11905850130,/g3t1_2,,success
Status,436,11905884631,/g3t1_3,,success
Status,437,11922332415,/g3t1_1,,running
Status,438,11922378745,/g3t1_1,,success
Status,439,11949687269,/g4t1,,fail
Status,440,11955718123,/g3t1_2,,running
Status,441,11955806405,/g3t1_3,,running
Status,442,11955883306,/g3t1_2,,success
Status,443,11956004527,/g3t1_3,,success
Status,444,11972454854,/g3t1_1,,running
Status,445,11972754549,/g3t1_1,,success
Status,446,12006467217,/g3t1_2,,running
Status,447,12006541221,/g3t1_3,,running
Status,448,12006564445,/g3t1_2,,success
Status,449,12006588071,/g3t1_3,,success
Status,450,12022781931,/g3t1_1,,running
Status,451,12023191507,/g3t1_1,,success
Status,452,12048770802,/g4t1,,fail
Status,453,12055633463,/g3t1_2,,running
Status,454,12055827487,/g3t1_2,,success
Status,455,12055855978,/g3t1_3,,running
Status,456,12055887427,/g3t1_3,,success
Status,457,12072334928,/g3t1_1,,running
Status,458,12072464707,/g3t1_1,,success
Status,459,12106812867,/g3t1_3,,running
Status,460,12106882493,/g3t1_2,,running
Status,461,12106905657,/g3t1_3,,success
Status,462,12106928930,/g3t1_2,,success
Status,463,12122968350,/g3t1_1,,running
Status,464,12123080354,/g3t1_1,,success
Status,465,12149687186,/g4t1,,fail
Status,466,12156245223,/g3t1_2,,running
Status,467,12156350679,/g3t1_3,,running
Status,468,12156818422,/g3t1_2,,success
Status,469,12156897039,/g3t1_3,,success
Status,470,12173467069,/g3t1_1,,running
Status,471,12173755668,/g3t1_1,,success
Status,472,12207100824,/g3t1_3,,running
Status,473,12207171417,/g3t1_2,,running
Status,474,12207198358,/g3t1_3,,success
Status,475,12207225578,/g3t1_2,,success
Status,476,12223171488,/g3t1_1,,running
Status,477,12223934125,/g3t1_1,,success
Status,478,12250890963,/g4t1,,fail
Status,479,12258019344,/g3t1_2,,running
Status,480,12258093941,/g3t1_3,,running
Status,481,12258138616,/g3t1_3,,success
Status,482,12258322036,/g3t1_2,,success
Status,483,12273641511,/g3t1_1,,running
Status,484,12273712702,/g3t1_1,,success
Status,485,12306194286,/g3t1_2,,running
Status,486,12306296408,/g3t1_3,,running
Status,487,12306320324,/g3t1_3,,success
Status,488,12306533549,/g3t1_2,,success
Status,489,12323096485,/g3t1_1,,running
Status,490,12323298020,/g3t1_1,,success
Status,491,12349889050,/g4t1,,fail
Status,492,12356417723,/g3t1_3,,running
Status,493,12356507439,/g3t1_2,,running
Status,494,12356537767,/g3t1_2,,success
Status,495,12356781168,/g3t1_3,,success
Status,496,12373149411,/g3t1_1,,running
Status,497,12373223131,/g3t1_1,,success
Status,498,12407586883,/g3t1_3,,running
Status,499,12407678577,/g3t1_2,,running
Status,500,12408002671,/g3t1_2,,success
Status,501,12408107525,/g3t1_3,,success
Status,502,12423609279,/g3t1_1,,running
Status,503,12424004231,/g3t1_1,,success
Status,504,12450510077,/g4t1,,fail
Status,505,12457110430,/g3t1_3,,running
Status,506,12457193274,/g3t1_2,,running
Status,507,12457663297,/g3t1_2,,success
Status,508,12457780059,/g3t1_3,,success
Status,509,12473881910,/g3t1_1,,running
Status,510,12474228704,/g3t1_1,,success
Status,511,12507936026,/g3t1_2,,running
Status,512,12508005875,/g3t1_3,,running
Status,513,12508029070,/g3t1_3,,success
Status,514,12508054051,/g3t1_2,,success
Status,515,12523838221,/g3t1_1,,running
Status,516,12524129775,/g3t1_1,,success
Status,517,12550349511,/g4t1,,fail
Status,518,12557722880,/g3t1_3,,running
Status,519,12557788170,/g3t1_2,,running
Status,520,12557832445,/g3t1_2,,success
Status,521,12558001228,/g3t1_3,,success
Status,522,12574008514,/g3t1_1,,running
Status,523,12574238254,/g3t1_1,,success
Status,524,12607538058,/g3t1_3,,running
Status,525,12607746469,/g3t1_2,,running
Status,526,12608208145,/g3t1_2,,success
Status,527,12608286082,/g3t1_3,,success
Status,528,12624407261,/g3t1_1,,running
Status,529,12624506566,/g3t1_1,,success
Status,530,12650301319,/g4t1,,fail
Status,531,12657951926,/g3t1_2,,running
Status,532,12658021420,/g3t1_3,,running
Status,533,12658195839,/g3t1_2,,success
Status,534,12658236080,/g3t1_3,,success
Status,535,12674499770,/g3t1_1,,running
Status,536,12674570328,/g3t1_1,,success
Status,537,12707592036,/g3t1_2,,running
Status,538,12707882337,/g3t1_3,,running
Status,539,12708580311,/g3t1_2,,success
Status,540,12708779402,/g3t1_3,,success
Status,541,12724179632,/g3t1_1,,running
Status,542,12724441549,/g3t1_1,,success
Status,543,12750501033,/g4t1,,fail
Status,544,12758086613,/g3t1_3,,running
Status,545,12758183819,/g3t1_2,,running
Status,546,12758286871,/g3t1_2,,success
Status,547,12758562122,/g3t1_3,,success
Status,548,12774622584,/g3t1_1,,running
Status,549,12774918377,/g3t1_1,,success
Status,550,12808088683,/g3t1_2,,running
Status,551,12808175068,/g3t1_3,,running
Status,552,12808736427,/g3t1_2,,success
Status,553,12808836045,/g3t1_3,,success
Status,554,12824609142,/g3t1_1,,running
Status,555,12824806067,/g3t1_1,,success
Status,556,12850651529,/g4t1,,fail
Status,557,12858081512,/g3t1_2,,running
Status,558,12858198230,/g3t1_3,,running
Status,559,12858702532,/g3t1_2,,success
Status,560,12858777837,/g3t1_3,,success
Status,561,12874955194,/g3t1_1,,running
Status,562,12875189491,/g3t1_1,,success
Status,563,12908465512,/g3t1_2,,running
Status,564,12908589879,/g3t1_3,,running
Status,565,12908636662,/g3t1_3,,success
Status,566,12908680352,/g3t1_2,,success
Status,567,12925079539,/g3t1_1,,running
Status,568,12925530368,/g3t1_1,,success
Status,569,12950679577,/g4t1,,fail
Status,570,12958895779,/g3t1_2,,running
Status,571,12959020781,/g3t1_3,,running
Status,572,12959072631,/g3t1_2,,success
Status,573,12959394170,/g3t1_3,,success
Status,574,12974920194,/g3t1_1,,running
Status,575,12975389933,/g3t1_1,,success
Status,576,13008630689,/g3t1_3,,running
Status,577,13008717597,/g3t1_2,,running
Status,578,13008835068,/g3t1_3,,success
Status,579,13009002677,/g3t1_2,,success
Status,580,13025384535,/g3t1_1,,running
Status,581,13025467852,/g3t1_1,,success
Status,582,13050794465,/g4t1,,fail
Status,583,13058904786,/g3t1_3,,running
Status,584,13058973942,/g3t1_2,,running
Status,585,13059155505,/g3t1_2,,success
Status,586,13059343135,/g3t1_3,,success
Status,587,13075196427,/g3t1_1,,running
Status,588,13075639893,/g3t1_1,,success
Status,589,13109397574,/g3t1_3,,running
Status,590,13109482227,/g3t1_2,,running
Status,591,13109514240,/g3t1_3,,success
Status,592,13109566246,/g3t1_2,,success
Status,593,13125472423,/g3t1_1,,running
Status,594,13125876775,/g3t1_1,,success
Status,595,13150951692,/g4t1,,fail
Status,596,13159110606,/g3t1_3,,running
Status,597,13159199033,/g3t1_2,,running
Status,598,13159391357,/g3t1_3,,success
Status,599,13159422921,/g3t1_2,,success
Status,600,13175439526,/g3t1_1,,running
Status,601,13175914681,/g3t1_1,,success
Status,602,13209428316,/g3t1_2,,running
Status,603,13210062105,/g3t1_3,,running
Status,604,13210164052,/g3t1_2,,success
Status,605,13210207576,/g3t1_3,,success
Status,606,13225488053,/g3t1_1,,running
Status,607,13225698693,/g3t1_1,,success
Status,608,13251129429,/g4t1,,fail
Status,609,13259256077,/g3t1_2,,running
Status,610,13259388311,/g3t1_3,,running
Status,611,13259700407,/g3t1_3,,success
Status,612,13259793720,/g3t1_2,,success
Status,613,13276143707,/g3t1_1,,running
Status,614,13276594496,/g3t1_1,,success
Status,615,13309894339,/g3t1_3,,running
Status,616,13309994601,/g3t1_2,,running
Status,617,13310600728,/g3t1_3,,success
Status,618,13310681318,/g3t1_2,,success
Status,619,13325957929,/g3t1_1,,running
Status,620,13326827526,/g3t1_1,,success
Status,621,13350576227,/g4t1,,fail
Status,622,13359212548,/g3t1_2,,running
Status,623,13359256400,/g3t1_3,,running
Status,624,13359273716,/g3t1_3,,success
Status,625,13359557356,/g3t1_2,,success
Status,626,13375410383,/g3t1_1,,running
Status,627,13375603570,/g3t1_1,,success
Status,628,13409919501,/g3t1_2,,running
Status,629,13410027945,/g3t1_3,,running
Status,630,13410458773,/g3t1_3,,success
Status,631,13410528157,/g3t1_2,,success
Status,632,13426012534,/g3t1_1,,running
Status,633,13426332259,/g3t1_1,,success
Status,634,13451066763,/g4t1,,fail
Status,635,13460361805,/g3t1_2,,running
Status,636,13460429125,/g3t1_3,,running
Status,637,13460453511,/g3t1_3,,success
Status,638,13460478050,/g3t1_2,,success
Status,639,13476197029,/g3t1_1,,running
Status,640,13476504132,/g3t1_1,,success
Status,641,13510025415,/g3t1_3,,running
Status,642,13510125316,/g3t1_2,,running
Status,643,13510377974,/g3t1_2,,success
Status,644,13510439699,/g3t1_3,,success
Status,645,13526366204,/g3t1_1,,running
Status,646,13526436686,/g3t1_1,,success
Status,647,13551535395,/g4t1,,fail
Status,648,13560237610,/g3t1_2,,running
Status,649,13560312006,/g3t1_3,,running
Status,650,13560790450,/g3t1_3,,success
Status,651,13561131596,/g3t1_2,,success
Status,652,13576168313,/g3t1_1,,running
Status,653,13576617844,/g3t1_1,,success
Status,654,13610561512,/g3t1_2,,running
Status,655,13610679520,/g3t1_3,,running
Status,656,13610707422,/g3t1_2,,success
Status,657,13610735875,/g3t1_3,,success
Status,658,13626723717,/g3t1_1,,running
Status,659,13627127490,/g3t1_1,,success
Status,660,13651657604,/g4t1,,fail
Status,661,13661201084,/g3t1_3,,running
Status,662,13661265153,/g3t1_2,,running
Status,663,13661290198,/g3t1_2,,success
Status,664,13661313525,/g3t1_3,,success
Status,665,13676525350,/g3t1_1,,running
Status,666,13677253720,/g3t1_1,,success
Status,667,13710752068,/g3t1_3,,running
Status,668,13710823150,/g3t1_2,,running
Status,669,13710855054,/g3t1_2,,success
Status,670,13711081425,/g3t1_3,,success
Status,671,13726879041,/g3t1_1,,running
Status,672,13727356549,/g3t1_1,,success
Status,673,13751798931,/g4t1,,fail
Status,674,13760580063,/g3t1_3,,running
Status,675,13760691322,/g3t1_2,,running
Status,676,13761190114,/g3t1_2,,success
Status,677,13761272135,/g3t1_3,,success
Status,678,13777026068,/g3t1_1,,running
Status,679,13777404754,/g3t1_1,,success
Status,680,13811088145,/g3t1_3,,running
Status,681,13811161191,/g3t1_2,,running
Status,682,13811187165,/g3t1_2,,success
Status,683,13811409518,/g3t1_3,,success
Status,684,13827160203,/g3t1_1,,running
Status,685,13827607210,/g3t1_1,,success
Status,686,13851924813,/g4t1,,fail
Status,687,13860807895,/g3t1_2,,running
Status,688,13861010151,/g3t1_3,,running
Status,689,13861058195,/g3t1_2,,success
Status,690,13861336923,/g3t1_3,,success
Status,691,13877248913,/g3t1_1,,running
Status,692,13877582457,/g3t1_1,,success
Status,693,13911768421,/g3t1_3,,running
Status,694,13911913347,/g3t1_2,,running
Status,695,13911990427,/g3t1_3,,success
Status,696,13912021696,/g3t1_2,,success
Status,697,13927307161,/g3t1_1,,running
Status,698,13927625883,/g3t1_1,,success
Status,699,13951354168,/g4t1,,fail
Status,700,13960819368,/g3t1_3,,running
Status,701,13960879202,/g3t1_3,,success
Status,702,13961205782,/g3t1_2,,running
Status,703,13961256219,/g3t1_2,,success
Status,704,13977076223,/g3t1_1,,running
Status,705,13977306966,/g3t1_1,,success
Status,706,14011471466,/g3t1_3,,running
Status,707,14011551136,/g3t1_2,,running
Status,708,14011926484,/g3t1_3,,success
Status,709,14013094686,/g3t1_2,,success
Status,710,14027761288,/g3t1_1,,running
Status,711,14028234917,/g3t1_1,,success
Status,712,14052261315,/g4t1,,fail
Status,713,14061806740,/g3t1_3,,running
Status,714,14061868873,/g3t1_2,,running
Status,715,14061892790,/g3t1_3,,success
Status,716,14061920274,/g3t1_2,,success
Status,717,14078346485,/g3t1_1,,running
Status,718,14078421538,/g3t1_1,,success
Status,719,14111811519,/g3t1_3,,running
Status,720,14111944228,/g3t1_2,,running
Status,721,14112854846,/g3t1_2,,success
Status,722,14113078470,/g3t1_3,,success
Status,723,14128122774,/g3t1_1,,running
Status,724,14128731712,/g3t1_1,,success
Status,725,14152354869,/g4t1,,fail
Status,726,14162289779,/g3t1_3,,running
Status,727,14162361716,/g3t1_2,,running
Status,728,14162385086,/g3t1_2,,success
Status,729,14162410234,/g3t1_3,,success
Status,730,14178009482,/g3t1_1,,running
Status,731,14178303090,/g3t1_1,,success
Status,732,14212050688,/g3t1_3,,running
Status,733,14212127911,/g3t1_2,,running
Status,734,14212588377,/g3t1_3,,success
Status,735,14212680493,/g3t1_2,,success
Status,736,14228097592,/g3t1_1,,running
Status,737,14228405895,/g3t1_1,,success
Status,738,14252450464,/g4t1,,fail
Status,739,14262280580,/g3t1_3,,running
Status,740,14262352786,/g3t1_2,,running
Status,741,14262535708,/g3t1_2,,success
Status,742,14262568500,/g3t1_3,,success
Status,743,14278711700,/g3t1_1,,running
Status,744,14278934993,/g3t1_1,,success
Status,745,14312561547,/g3t1_3,,running
Status,746,14312633884,/g3t1_2,,running
Status,747,14312659472,/g3t1_3,,success
Status,748,14312899768,/g3t1_2,,success
Status,749,14328546544,/g3t1_1,,running
Status,750,14329067782,/g3t1_1,,success
Status,751,14352648276,/g4t1,,fail
Status,752,14362492981,/g3t1_3,,running
Status,753,14362590392,/g3t1_2,,running
Status,754,14362674519,/g3t1_3,,success
Status,755,14363094255,/g3t1_2,,success
Status,756,14378854877,/g3t1_1,,running
Status,757,14378933267,/g3t1_1,,success
Status,758,14412834940,/g3t1_3,,running
Status,759,14413072524,/g3t1_2,,running
Status,760,14413580007,/g3t1_2,,success
Status,761,14413665908,/g3t1_3,,success
Status,762,14428628496,/g3t1_1,,running
Status,763,14428765549,/g3t1_1,,success
Status,764,14452761314,/g4t1,,fail
Status,765,14462303634,/g3t1_3,,running
Status,766,14462483662,/g3t1_2,,running
Status,767,14462956071,/g3t1_3,,success
Status,768,14463123867,/g3t1_2,,success
Status,769,14478968168,/g3t1_1,,running
Status,770,14479042789,/g3t1_1,,success
Status,771,14513167338,/g3t1_3,,running
Status,772,14513334304,/g3t1_2,,running
Status,773,14513388249,/g3t1_3,,success
Status,774,14513838619,/g3t1_2,,success
Status,775,14528833901,/g3t1_1,,running
Status,776,14529345020,/g3t1_1,,success
Status,777,14552907015,/g4t1,,fail
Status,778,14563221005,/g3t1_3,,running
Status,779,14563407218,/g3t1_2,,running
Status,780,14564045831,/g3t1_3,,success
Status,781,14564140065,/g3t1_2,,success
Status,782,14579177940,/g3t1_1,,running
Status,783,14580004674,/g3t1_1,,success
Status,784,14613611470,/g3t1_3,,running
Status,785,14613713423,/g3t1_2,,running
Status,786,14613879571,/g3t1_3,,success
Status,787,14613926297,/g3t1_2,,success
Status,788,14629115020,/g3t1_1,,running
Status,789,14629641664,/g3t1_1,,success
Status,790,14653284980,/g4t1,,fail
Status,791,14663188880,/g3t1_3,,running
Status,792,14663407265,/g3t1_2,,running
Status,793,14663869121,/g3t1_3,,success
Status,794,14664330138,/g3t1_2,,success
Status,795,14679409713,/g3t1_1,,running
Status,796,14679888358,/g3t1_1,,success
Status,797,14713797743,/g3t1_3,,running
Status,798,14713898434,/g3t1_2,,running
Status,799,14714297063,/g3t1_2,,success
Status,800,14714382413,/g3t1_3,,success
Status,801,14729445656,/g3t1_1,,running
Status,802,14729888236,/g3t1_1,,success
Status,803,14753466772,/g4t1,,fail
Status,804,14763608122,/g3t1_3,,running
Status,805,14763697779,/g3t1_2,,running
Status,806,14763882156,/g3t1_3,,success
Status,807,14764171137,/g3t1_2,,success
Status,808,14779825467,/g3t1_1,,running
Status,809,14780271926,/g3t1_1,,success
Status,810,14814019284,/g3t1_2,,running
Status,811,14814109793,/g3t1_3,,running
Status,812,14814537145,/g3t1_3,,success
Status,813,14814607861,/g3t1_2,,success
Status,814,14829572919,/g3t1_1,,running
Status,815,14830041985,/g3t1_1,,success
Status,816,14853655506,/g4t1,,fail
Status,817,14863819423,/g3t1_3,,running
Status,818,14863922750,/g3t1_2,,running
Status,819,14863964884,/g3t1_3,,success
Status,820,14864301358,/g3t1_2,,success
Status,821,14879982253,/g3t1_1,,running
Status,822,14880802321,/g3t1_1,,success
Status,823,14914464529,/g3t1_3,,running
Status,824,14914566584,/g3t1_2,,running
Status,825,14914739076,/g3t1_3,,success
Status,826,14915058893,/g3t1_2,,success
Status,827,14930055635,/g3t1_1,,running
Status,828,14930594107,/g3t1_1,,success
Status,829,14953846671,/g4t1,,fail
Status,830,14964206626,/g3t1_3,,running
Status,831,14964313880,/g3t1_2,,running
Status,832,14964340164,/g3t1_2,,success
Status,833,14964364310,/g3t1_3,,success
Status,834,14980327978,/g3t1_1,,running
Status,835,14981199034,/g3t1_1,,success
Status,836,15014518864,/g3t1_3,,running
Status,837,15014619286,/g3t1_2,,running
Status,838,15015388075,/g3t1_2,,success
Status,839,15015628403,/g3t1_3,,success
Status,840,15030603026,/g3t1_1,,running
Status,841,15030707280,/g3t1_1,,success
Status,842,15053036842,/g4t1,,fail
Status,843,15063661961,/g3t1_2,,running
Status,844,15063803959,/g3t1_2,,success
Status,845,15063820817,/g3t1_3,,running
Status,846,15064082770,/g3t1_3,,success
Status,847,15079662089,/g3t1_1,,running
Status,848,15079781965,/g3t1_1,,success
Status,849,15113786198,/g3t1_2,,running
Status,850,15113817716,/g3t1_3,,running
Status,851,15113920019,/g3t1_2,,success
Status,852,15113942293,/g3t1_3,,success
Status,853,15129731118,/g3t1_1,,running
Status,854,15129836826,/g3t1_1,,success
Status,855,15153098819,/g4t1,,fail
Status,856,15164367884,/g3t1_2,,running
Status,857,15165623670,/g3t1_3,,running
Status,858,15165652536,/g3t1_3,,success
Status,859,15165662933,/g3t1_2,,success
Status,860,15179890910,/g3t1_1,,running
Status,861,15179925405,/g3t1_1,,success
Status,862,15214113591,/g3t1_2,,running
Status,863,15214141792,/g3t1_3,,running
Status,864,15214173622,/g3t1_3,,success
Status,865,15214185784,/g3t1_2,,success
Status,866,15229950736,/g3t1_1,,running
Status,867,15230033541,/g3t1_1,,success
Status,868,15253231932,/g4t1,,fail
Status,869,15263992149,/g3t1_2,,running
Status,870,15264026132,/g3t1_3,,running
Status,871,15264129770,/g3t1_2,,success
Status,872,15264267529,/g3t1_3,,success
Status,873,15280312805,/g3t1_1,,running
Status,874,15280347566,/g3t1_1,,success
Status,875,15314208530,/g3t1_2,,running
Status,876,15314489258,/g3t1_3,,running
Status,877,15314512201,/g3t1_3,,success
Status,878,15314525423,/g3t1_2,,success
Status,879,15330205041,/g3t1_1,,running
Status,880,15330299815,/g3t1_1,,success
Status,881,15353329956,/g4t1,,fail
Status,882,15364352711,/g3t1_2,,running
Status,883,15364401549,/g3t1_3,,running
Status,884,15364672316,/g3t1_2,,success
Status,885,15364703368,/g3t1_3,,success
Status,886,15380761443,/g3t1_1,,running
Status,887,15381065362,/g3t1_1,,success
Status,888,15414342843,/g3t1_2,,running
Status,889,15414404112,/g3t1_3,,running
Status,890,15414505640,/g3t1_3,,success
Status,891,15414547372,/g3t1_2,,success
Status,892,15430758952,/g3t1_1,,running
Status,893,15430917264,/g3t1_1,,success
Status,894,15453423801,/g4t1,,fail
Status,895,15464441792,/g3t1_2,,running
Status,896,15464627445,/g3t1_2,,success
Status,897,15464710987,/g3t1_3,,running
Status,898,15464728477,/g3t1_3,,success
Status,899,15480525464,/g3t1_1,,running
Status,900,15480644828,/g3t1_1,,success
Status,901,15515059284,/g3t1_2,,running
Status,902,15515102058,/g3t1_3,,running
Status,903,15515128498,/g3t1_2,,success
Status,904,15515323669,/g3t1_3,,success
Status,905,15530544646,/g3t1_1,,running
Status,906,15530627639,/g3t1_1,,success
Status,907,15553389375,/g4t1,,fail
Status,908,15564998577,/g3t1_2,,running
Status,909,15565030201,/g3t1_2,,success
Status,910,15565077579,/g3t1_3,,running
Status,911,15565092155,/g3t1_3,,success
Status,912,15580861470,/g3t1_1,,running
Status,913,15580902794,/g3t1_1,,success
Status,914,15614656769,/g3t1_2,,running
Status,915,15614744632,/g3t1_3,,running
Status,916,15614775900,/g3t1_2,,success
Status,917,15615100290,/g3t1_3,,success
Status,918,15630712687,/g3t1_1,,running
Status,919,15630835499,/g3t1_1,,success
Status,920,15653500140,/g4t1,,fail
Status,921,15665103744,/g3t1_3,,running
Status,922,15665129781,/g3t1_2,,running
Status,923,15665137879,/g3t1_3,,success
Status,924,15665145289,/g3t1_2,,success
Status,925,15681221983,/g3t1_1,,running
Status,926,15681253582,/g3t1_1,,success
Status,927,15714831461,/g3t1_2,,running
Status,928,15714871447,/g3t1_3,,running
Status,929,15714950174,/g3t1_2,,success
Status,930,15714966144,/g3t1_3,,success
Status,931,15732014518,/g3t1_1,,running
Status,932,15732119358,/g3t1_1,,success
Status,933,15753545624,/g4t1,,fail
Status,934,15764862004,/g3t1_2,,running
Status,935,15764899770,/g3t1_3,,running
Status,936,15765003384,/g3t1_2,,success
Status,937,15765318021,/g3t1_3,,success
Status,938,15781034650,/g3t1_1,,running
Status,939,15781268377,/g3t1_1,,success
Status,940,15815057950,/g3t1_2,,running
Status,941,15815094494,/g3t1_2,,success
Status,942,15815134958,/g3t1_3,,running
Status,943,15815402519,/g3t1_3,,success
Status,944,15830964953,/g3t1_1,,running
Status,945,15831072503,/g3t1_1,,success
Status,946,15853587199,/g4t1,,fail
Status,947,15865157935,/g3t1_2,,running
Status,948,15865198626,/g3t1_3,,running
Status,949,15865377061,/g3t1_2,,success
Status,950,15865398249,/g3t1_3,,success
Status,951,15881161630,/g3t1_1,,running
Status,952,15881242336,/g3t1_1,,success
Status,953,15915228928,/g3t1_2,,running
Status,954,15915290966,/g3t1_3,,running
Status,955,15915350376,/g3t1_2,,success
Status,956,15915538430,/g3t1_3,,success
Status,957,15931515203,/g3t1_1,,running
Status,958,15931582059,/g3t1_1,,success
Status,959,15953639167,/g4t1,,fail
Status,960,15965291956,/g3t1_2,,running
Status,961,15965320088,/g3t1_3,,running
Status,962,15965353113,/g3t1_2,,success
Status,963,15965440419,/g3t1_3,,success
Status,964,15981583881,/g3t1_1,,running
Status,965,15981645538,/g3t1_1,,success
Status,966,16015324735,/g3t1_2,,running
Status,967,16015359509,/g3t1_3,,running
Status,968,16015378241,/g3t1_2,,success
Status,969,16015565101,/g3t1_3,,success
Status,970,16031351120,/g3t1_1,,running
Status,971,16031512231,/g3t1_1,,success
Status,972,16053686960,/g4t1,,fail
Status,973,16065591779,/g3t1_3,,running
Status,974,16065631981,/g3t1_2,,running
Status,975,16065757490,/g3t1_2,,success
Status,976,16065777189,/g3t1_3,,success
Status,977,16081609162,/g3t1_1,,running
Status,978,16081631406,/g3t1_1,,success
Status,979,16115550629,/g3t1_3,,running
Status,980,16115594860,/g3t1_2,,running
Status,981,16115705656,/g3t1_2,,success
Status,982,16115828209,/g3t1_3,,success
Status,983,16131511575,/g3t1_1,,running
Status,984,16131701275,/g3t1_1,,success
Status,985,16153856368,/g4t1,,fail
Status,986,16165589884,/g3t1_2,,running
Status,987,16165615586,/g3t1_3,,running
Status,988,16165654249,/g3t1_2,,success
Status,989,16165704003,/g3t1_3,,success
Status,990,16181672634,/g3t1_1,,running
Status,991,16181694040,/g3t1_1,,success
Status,992,16215792903,/g3t1_2,,running
Status,993,16215818325,/g3t1_3,,running
Status,994,16215839216,/g3t1_3,,success
Status,995,16215848505,/g3t1_2,,success
Status,996,16231669148,/g3t1_1,,running
Status,997,16231768321,/g3t1_1,,success
Status,998,16253808265,/g4t1,,fail
Status,999,16265755773,/g3t1_2,,running
Status,1000,16265783497,/g3t1_3,,running
Status,1001,16265982394,/g3t1_2,,success
Status,1002,16266010055,/g3t1_3,,success
Status,1003,16281712864,/g3t1_1,,running
Status,1004,16281735256,/g3t1_1,,success
Status,1005,16315828430,/g3t1_2,,running
Status,1006,16315854679,/g3t1_3,,running
Status,1007,16315880075,/g3t1_2,,success
Status,1008,16315889368,/g3t1_3,,success
Status,1009,16331809068,/g3t1_1,,running
Status,1010,16331836711,/g3t1_1,,success
Status,1011,16353982927,/g4t1,,fail
Status,1012,16366130631,/g3t1_3,,running
Status,1013,16366255759,/g3t1_2,,running
Status,1014,16366268434,/g3t1_2,,success
Status,1015,16366278832,/g3t1_3,,success
Status,1016,16381995861,/g3t1_1,,running
Status,1017,16382020179,/g3t1_1,,success
Status,1018,16416013616,/g3t1_2,,running
Status,1019,16416037749,/g3t1_3,,running
Status,1020,16416044579,/g3t1_2,,success
Status,1021,16416162052,/g3t1_3,,success
Status,1022,16432129398,/g3t1_1,,running
Status,1023,16432149860,/g3t1_1,,success
Status,1024,16454067839,/g4t1,,fail
Status,1025,16466170660,/g3t1_3,,running
Status,1026,16466190087,/g3t1_2,,running
Status,1027,16466208971,/g3t1_2,,success
Status,1028,16466216584,/g3t1_3,,success
Status,1029,16482169364,/g3t1_1,,running
Status,1030,16482214071,/g3t1_1,,success
Status,1031,16516326302,/g3t1_3,,running
Status,1032,16516353790,/g3t1_2,,running
Status,1033,16516362815,/g3t1_3,,success
Status,1034,16516441808,/g3t1_2,,success
Status,1035,16532179418,/g3t1_1,,running
Status,1036,16532335979,/g3t1_1,,success
Status,1037,16554135771,/g4t1,,fail
Status,1038,16566349217,/g3t1_3,,running
Status,1039,16566375451,/g3t1_2,,running
Status,1040,16566440083,/g3t1_2,,success
Status,1041,16566456546,/g3t1_3,,success
Status,1042,16582375017,/g3t1_1,,running
Status,1043,16582405034,/g3t1_1,,success
Status,1044,16616417159,/g3t1_2,,running
Status,1045,16616439950,/g3t1_3,,running
Status,1046,16616525465,/g3t1_3,,success
Status,1047,16616551524,/g3t1_2,,success
Status,1048,16632444661,/g3t1_1,,running
Status,1049,16632468153,/g3t1_1,,success
Status,1050,16654080907,/g4t1,,fail
Status,1051,16666582869,/g3t1_3,,running
Status,1052,16666606841,/g3t1_2,,running
Status,1053,16666630832,/g3t1_2,,success
Status,1054,16666641303,/g3t1_3,,success
Status,1055,16682515594,/g3t1_1,,running
Status,1056,16682538126,/g3t1_1,,success
Status,1057,16716730876,/g3t1_3,,running
Status,1058,16716762160,/g3t1_2,,running
Status,1059,16716779235,/g3t1_3,,success
Status,1060,16716788206,/g3t1_2,,success
Status,1061,16732655078,/g3t1_1,,running
Status,1062,16732681919,/g3t1_1,,success
Status,1063,16754326341,/g4t1,,fail
Status,1064,16766853703,/g3t1_3,,running
Status,1065,16766901971,/g3t1_2,,running
Status,1066,16767185936,/g3t1_2,,success
Status,1067,16767217527,/g3t1_3,,success
Status,1068,16783205272,/g3t1_1,,running
Status,1069,16783462429,/g3t1_1,,success
Status,1070,16817539002,/g3t1_3,,running
Status,1071,16817595530,/g3t1_2,,running
Status,1072,16817614160,/g3t1_2,,success
Status,1073,16817756510,/g3t1_3,,success
Status,1074,16833344488,/g3t1_1,,running
Status,1075,16833622068,/g3t1_1,,success
Status,1076,16855329591,/g4t1,,fail
Status,1077,16868047905,/g3t1_3,,running
Status,1078,16868147253,/g3t1_2,,running
Status,1079,16868284193,/g3t1_2,,success
Status,1080,16868315468,/g3t1_3,,success
Status,1081,16883619656,/g3t1_1,,running
Status,1082,16883913178,/g3t1_1,,success
Status,1083,16917212505,/g3t1_3,,running
Status,1084,16917262052,/g3t1_2,,running
Status,1085,16917428952,/g3t1_2,,success
Status,1086,16917599014,/g3t1_3,,success
Status,1087,16933357010,/g3t1_1,,running
Status,1088,16933397816,/g3t1_1,,success
Status,1089,16954703166,/g4t1,,fail
Status,1090,16967216690,/g3t1_3,,running
Status,1091,16967252288,/g3t1_2,,running
Status,1092,16967416998,/g3t1_3,,success
Status,1093,16967583845,/g3t1_2,,success
Status,1094,16983223120,/g3t1_1,,running
Status,1095,16983407032,/g3t1_1,,success
Status,1096,17017631638,/g3t1_2,,running
Status,1097,17017657487,/g3t1_3,,running
Status,1098,17017666589,/g3t1_3,,success
Status,1099,17017675649,/g3t1_2,,success
Status,1100,17033340790,/g3t1_1,,running
Status,1101,17033371379,/g3t1_1,,success
Status,1102,17054808215,/g4t1,,fail
Status,1103,17068027680,/g3t1_3,,running
Status,1104,17068233927,/g3t1_2,,running
Status,1105,17068308811,/g3t1_3,,success
Status,1106,17068487038,/g3t1_2,,success
Status,1107,17084111877,/g3t1_1,,running
Status,1108,17084212001,/g3t1_1,,success
Status,1109,17118194579,/g3t1_2,,running
Status,1110,17118284237,/g3t1_3,,running
Status,1111,17118791912,/g3t1_3,,success
Status,1112,17118872687,/g3t1_2,,success
Status,1113,17134052878,/g3t1_1,,running
Status,1114,17134563620,/g3t1_1,,success
Status,1115,17155611692,/g4t1,,fail
Status,1116,17168770665,/g3t1_2,,running
Status,1117,17168842835,/g3t1_3,,running
Status,1118,17168915921,/g3t1_3,,success
Status,1119,17169153475,/g3t1_2,,success
Status,1120,17184209852,/g3t1_1,,running
Status,1121,17184635399,/g3t1_1,,success
Status,1122,17218506154,/g3t1_2,,running
Status,1123,17218611133,/g3t1_3,,running
Status,1124,17218880550,/g3t1_3,,success
Status,1125,17218943601,/g3t1_2,,success
Status,1126,17234592869,/g3t1_1,,running
Status,1127,17234672841,/g3t1_1,,success
Status,1128,17255899222,/g4t1,,fail
Status,1129,17268586833,/g3t1_2,,running
Status,1130,17268676862,/g3t1_3,,running
Status,1131,17268850593,/g3t1_2,,success
Status,1132,17269219511,/g3t1_3,,success
Status,1133,17284442055,/g3t1_1,,running
Status,1134,17284812375,/g3t1_1,,success
Status,1135,17319068806,/g3t1_2,,running
Status,1136,17319153121,/g3t1_3,,running
Status,1137,17319392223,/g3t1_3,,success
Status,1138,17319450030,/g3t1_2,,success
Status,1139,17334601850,/g3t1_1,,running
Status,1140,17334834213,/g3t1_1,,success
Status,1141,17356213181,/g4t1,,fail
Status,1142,17369119890,/g3t1_3,,running
Status,1143,17369220233,/g3t1_2,,running
Status,1144,17369252827,/g3t1_3,,success
Status,1145,17369326016,/g3t1_2,,success
Status,1146,17384870581,/g3t1_1,,running
Status,1147,17385046579,/g3t1_1,,success
Status,1148,17419009389,/g3t1_3,,running
Status,1149,17419227202,/g3t1_2,,running
Status,1150,17420040237,/g3t1_3,,success
Status,1151,17420114049,/g3t1_2,,success
Status,1152,17434854578,/g3t1_1,,running
Status,1153,17435176549,/g3t1_1,,success
Status,1154,17456400047,/g4t1,,fail
Status,1155,17469042976,/g3t1_2,,running
Status,1156,17469693979,/g3t1_3,,running
Status,1157,17469812904,/g3t1_3,,success
Status,1158,17469857570,/g3t1_2,,success
Status,1159,17485075556,/g3t1_1,,running
Status,1160,17485368000,/g3t1_1,,success
Status,1161,17519305681,/g3t1_3,,running
Status,1162,17519523400,/g3t1_2,,running
Status,1163,17519866608,/g3t1_3,,success
Status,1164,17519924942,/g3t1_2,,success
Status,1165,17534986627,/g3t1_1,,running
Status,1166,17535735893,/g3t1_1,,success
Status,1167,17556453601,/g4t1,,fail
Status,1168,17569413840,/g3t1_2,,running
Status,1169,17569839143,/g3t1_3,,running
Status,1170,17569956559,/g3t1_2,,success
Status,1171,17570049830,/g3t1_3,,success
Status,1172,17585096142,/g3t1_1,,running
Status,1173,17585675293,/g3t1_1,,success
Status,1174,17619684859,/g3t1_3,,running
Status,1175,17619882998,/g3t1_2,,running
Status,1176,17619935416,/g3t1_3,,success
Status,1177,17619958431,/g3t1_2,,success
Status,1178,17635202698,/g3t1_1,,running
Status,1179,17635779478,/g3t1_1,,success
Status,1180,17656587328,/g4t1,,fail
Status,1181,17669703467,/g3t1_3,,running
Status,1182,17669780964,/g3t1_2,,running
Status,1183,17670111338,/g3t1_2,,success
Status,1184,17670202146,/g3t1_3,,success
Status,1185,17685287956,/g3t1_1,,running
Status,1186,17685711373,/g3t1_1,,success
Status,1187,17719841268,/g3t1_2,,running
Status,1188,17719913826,/g3t1_3,,running
Status,1189,17719965135,/g3t1_3,,success
Status,1190,17720147177,/g3t1_2,,success
Status,1191,17735509107,/g3t1_1,,running
Status,1192,17736205289,/g3t1_1,,success
Status,1193,17756616025,/g4t1,,fail
Status,1194,17770321025,/g3t1_3,,running
Status,1195,17770407518,/g3t1_2,,running
Status,1196,17770868078,/g3t1_2,,success
Status,1197,17770951796,/g3t1_3,,success
Status,1198,17786113130,/g3t1_1,,running
Status,1199,17786330795,/g3t1_1,,success
Status,1200,17819979227,/g3t1_2,,running
Status,1201,17820091356,/g3t1_3,,running
Status,1202,17820643656,/g3t1_2,,success
Status,1203,17821364966,/g3t1_3,,success
Status,1204,17835738252,/g3t1_1,,running
Status,1205,17836165728,/g3t1_1,,success
Status,1206,17856786137,/g4t1,,fail
Status,1207,17870362682,/g3t1_2,,running
Status,1208,17870485851,/g3t1_3,,running
Status,1209,17871261920,/g3t1_3,,success
Status,1210,17871352788,/g3t1_2,,success
Status,1211,17886159255,/g3t1_1,,running
Status,1212,17886244561,/g3t1_1,,success
Status,1213,17920452045,/g3t1_3,,running
Status,1214,17920522818,/g3t1_2,,running
Status,1215,17920547668,/g3t1_3,,success
Status,1216,17920571085,/g3t1_2,,success
Status,1217,17936059727,/g3t1_1,,running
Status,1218,17936473582,/g3t1_1,,success
Status,1219,17956809789,/g4t1,,fail
Status,1220,17970611077,/g3t1_3,,running
Status,1221,17970709866,/g3t1_2,,running
Status,1222,17971228581,/g3t1_2,,success
Status,1223,17971314130,/g3t1_3,,success
Status,1224,17986110556,/g3t1_1,,running
Status,1225,17986659892,/g3t1_1,,success
Status,1226,18020716214,/g3t1_3,,running
Status,1227,18020817071,/g3t1_2,,running
Status,1228,18021326049,/g3t1_3,,success
Status,1229,18021403282,/g3t1_2,,success
Status,1230,18036346140,/g3t1_1,,running
Status,1231,18036851976,/g3t1_1,,success
Status,1232,18056963616,/g4t1,,fail
Status,1233,18070886460,/g3t1_3,,running
Status,1234,18070997404,/g3t1_2,,running
Status,1235,18071183316,/g3t1_2,,success
Status,1236,18071565011,/g3t1_3,,success
Status,1237,18086528603,/g3t1_1,,running
Status,1238,18086876090,/g3t1_1,,success
Status,1239,18120871934,/g3t1_3,,running
Status,1240,18121036805,/g3t1_2,,running
Status,1241,18121081729,/g3t1_3,,success
Status,1242,18121307440,/g3t1_2,,success
Status,1243,18136487606,/g3t1_1,,running
Status,1244,18137031823,/g3t1_1,,success
Status,1245,18157079423,/g4t1,,fail
Status,1246,18171223011,/g3t1_2,,running
Status,1247,18171332197,/g3t1_3,,running
Status,1248,18171824260,/g3t1_3,,success
Status,1249,18171886678,/g3t1_2,,success
Status,1250,18186653151,/g3t1_1,,running
Status,1251,18187035105,/g3t1_1,,success
Status,1252,18221682039,/g3t1_2,,running
Status,1253,18221745641,/g3t1_3,,running
Status,1254,18221879346,/g3t1_3,,success
Status,1255,18221913523,/g3t1_2,,success
Status,1256,18236693490,/g3t1_1,,running
Status,1257,18237539824,/g3t1_1,,success
Status,1258,18256649075,/g4t1,,fail
Status,1259,18270552938,/g3t1_2,,running
Status,1260,18270574983,/g3t1_3,,running
Status,1261,18270583759,/g3t1_3,,success
Status,1262,18270591236,/g3t1_2,,success
Status,1263,18286239860,/g3t1_1,,running
Status,1264,18286392747,/g3t1_1,,success
Status,1265,18320628215,/g3t1_2,,running
Status,1266,18320666315,/g3t1_3,,running
Status,1267,18320726460,/g3t1_3,,success
Status,1268,18320794540,/g3t1_2,,success
Status,1269,18336298814,/g3t1_1,,running
Status,1270,18336323146,/g3t1_1,,success
Status,1271,18356417744,/g4t1,,fail
Status,1272,18370789621,/g3t1_2,,running
Status,1273,18370875521,/g3t1_3,,running
Status,1274,18370886773,/g3t1_2,,success
Status,1275,18370894503,/g3t1_3,,success
Status,1276,18386402279,/g3t1_1,,running
Status,1277,18386556990,/g3t1_1,,success
Status,1278,18420923255,/g3t1_2,,running
Status,1279,18420978778,/g3t1_3,,running
Status,1280,18420987712,/g3t1_2,,success
Status,1281,18420994977,/g3t1_3,,success
Status,1282,18436568338,/g3t1_1,,running
Status,1283,18436592180,/g3t1_1,,success
Status,1284,18456570880,/g4t1,,fail
Status,1285,18471016987,/g3t1_2,,running
Status,1286,18471040398,/g3t1_3,,running
Status,1287,18471048682,/g3t1_2,,success
Status,1288,18471055968,/g3t1_3,,success
Status,1289,18486661692,/g3t1_1,,running
Status,1290,18486692653,/g3t1_1,,success
Status,1291,18521064879,/g3t1_2,,running
Status,1292,18521101027,/g3t1_3,,running
Status,1293,18521205320,/g3t1_2,,success
Status,1294,18521222412,/g3t1_3,,success
Status,1295,18536697897,/g3t1_1,,running
Status,1296,18536756630,/g3t1_1,,success
Status,1297,18556659896,/g4t1,,fail
Status,1298,18571095053,/g3t1_2,,running
Status,1299,18571126655,/g3t1_3,,running
Status,1300,18571214228,/g3t1_2,,success
Status,1301,18571230695,/g3t1_3,,success
Status,1302,18586805369,/g3t1_1,,running
Status,1303,18586828937,/g3t1_1,,success
Status,1304,18621230737,/g3t1_2,,running
Status,1305,18621259032,/g3t1_3,,running
Status,1306,18621338016,/g3t1_3,,success
Status,1307,18621347866,/g3t1_2,,success
Status,1308,18636880821,/g3t1_1,,running
Status,1309,18636909186,/g3t1_1,,success
Status,1310,18656763921,/g4t1,,fail
Status,1311,18671254276,/g3t1_2,,running
Status,1312,18671279969,/g3t1_3,,running
Status,1313,18671366681,/g3t1_2,,success
Status,1314,18671432558,/g3t1_3,,success
Status,1315,18686869956,/g3t1_1,,running
Status,1316,18686961610,/g3t1_1,,success
Status,1317,18721426823,/g3t1_2,,running
Status,1318,18721450852,/g3t1_3,,running
Status,1319,18721459587,/g3t1_2,,success
Status,1320,18721630126,/g3t1_3,,success
Status,1321,18737012870,/g3t1_1,,running
Status,1322,18737151053,/g3t1_1,,success
Status,1323,18756883897,/g4t1,,fail
Status,1324,18771630972,/g3t1_2,,running
Status,1325,18771663396,/g3t1_3,,running
Status,1326,18771692780,/g3t1_3,,success
Status,1327,18771706352,/g3t1_2,,success
Status,1328,18787120463,/g3t1_1,,running
Status,1329,18787209057,/g3t1_1,,success
Status,1330,18821495765,/g3t1_2,,running
Status,1331,18821536558,/g3t1_3,,running
Status,1332,18821549057,/g3t1_2,,success
Status,1333,18821686182,/g3t1_3,,success
Status,1334,18837211409,/g3t1_1,,running
Status,1335,18837242999,/g3t1_1,,success
Status,1336,18856853340,/g4t1,,fail
Status,1337,18871633697,/g3t1_2,,running
Status,1338,18871663698,/g3t1_3,,running
Status,1339,18871702103,/g3t1_2,,success
Status,1340,18871725315,/g3t1_3,,success
Status,1341,18887378020,/g3t1_1,,running
Status,1342,18887539993,/g3t1_1,,success
Status,1343,18921719128,/g3t1_2,,running
Status,1344,18921751364,/g3t1_3,,running
Status,1345,18921791014,/g3t1_2,,success
Status,1346,18921913274,/g3t1_3,,success
Status,1347,18937352005,/g3t1_1,,running
Status,1348,18937502095,/g3t1_1,,success
Status,1349,18957101198,/g4t1,,fail
Status,1350,18971911701,/g3t1_2,,running
Status,1351,18971943177,/g3t1_3,,running
Status,1352,18971988170,/g3t1_2,,success
Status,1353,18971999057,/g3t1_3,,success
Status,1354,18987535522,/g3t1_1,,running
Status,1355,18987568306,/g3t1_1,,success
Status,1356,19021895550,/g3t1_2,,running
Status,1357,19021927367,/g3t1_3,,running
Status,1358,19022059523,/g3t1_2,,success
Status,1359,19022083178,/g3t1_3,,success
Status,1360,19037564784,/g3t1_1,,running
Status,1361,19037589746,/g3t1_1,,success
Status,1362,19057038068,/g4t1,,fail
Status,1363,19072084158,/g3t1_2,,running
Status,1364,19072125562,/g3t1_3,,running
Status,1365,19072165231,/g3t1_3,,success
Status,1366,19072219029,/g3t1_2,,success
Status,1367,19087666139,/g3t1_1,,running
Status,1368,19087697379,/g3t1_1,,success
Status,1369,19122283835,/g3t1_3,,running
Status,1370,19122318567,/g3t1_2,,running
Status,1371,19122479268,/g3t1_2,,success
Status,1372,19122507793,/g3t1_3,,success
Status,1373,19137736359,/g3t1_1,,running
Status,1374,19137765559,/g3t1_1,,success
Status,1375,19157035180,/g4t1,,fail
Status,1376,19172162469,/g3t1_3,,running
Status,1377,19172274132,/g3t1_2,,running
Status,1378,19172316357,/g3t1_3,,success
Status,1379,19172387954,/g3t1_2,,success
Status,1380,19187839357,/g3t1_1,,running
Status,1381,19187873054,/g3t1_1,,success
Status,1382,19222400320,/g3t1_2,,running
Status,1383,19222442754,/g3t1_3,,running
Status,1384,19222470253,/g3t1_3,,success
Status,1385,19222607848,/g3t1_2,,success
Status,1386,19237965641,/g3t1_1,,running
Status,1387,19237990112,/g3t1_1,,success
Status,1388,19257136797,/g4t1,,fail
Status,1389,19272557829,/g3t1_3,,running
Status,1390,19272597655,/g3t1_2,,running
Status,1391,19272613624,/g3t1_2,,success
Status,1392,19272785216,/g3t1_3,,success
Status,1393,19288167755,/g3t1_1,,running
Status,1394,19288192357,/g3t1_1,,success
Status,1395,19322532817,/g3t1_3,,running
Status,1396,19322576829,/g3t1_2,,running
Status,1397,19322643215,/g3t1_3,,success
Status,1398,19322785484,/g3t1_2,,success
Status,1399,19338084589,/g3t1_1,,running
Status,1400,19338107395,/g3t1_1,,success
Status,1401,19357234089,/g4t1,,fail
Status,1402,19372962355,/g3t1_2,,running
Status,1403,19373022627,/g3t1_2,,success
Status,1404,19373738930,/g3t1_3,,running
Status,1405,19373767466,/g3t1_3,,success
Status,1406,19388348782,/g3t1_1,,running
Status,1407,19388380701,/g3t1_1,,success
Status,1408,19422674555,/g3t1_3,,running
Status,1409,19422709925,/g3t1_2,,running
Status,1410,19422739631,/g3t1_2,,success
Status,1411,19422750277,/g3t1_3,,success
Status,1412,19438331340,/g3t1_1,,running
Status,1413,19438392897,/g3t1_1,,success
Status,1414,19457356337,/g4t1,,fail
Status,1415,19472690803,/g3t1_3,,running
Status,1416,19472723732,/g3t1_2,,running
Status,1417,19472860551,/g3t1_3,,success
Status,1418,19472914820,/g3t1_2,,success
Status,1419,19488470837,/g3t1_1,,running
Status,1420,19488495483,/g3t1_1,,success
Status,1421,19522715950,/g3t1_3,,running
Status,1422,19522740481,/g3t1_2,,running
Status,1423,19522753589,/g3t1_2,,success
Status,1424,19522938218,/g3t1_3,,success
Status,1425,19538483101,/g3t1_1,,running
Status,1426,19538513417,/g3t1_1,,success
Status,1427,19557422939,/g4t1,,fail
Status,1428,19572854313,/g3t1_2,,running
Status,1429,19572885911,/g3t1_3,,running
Status,1430,19572919196,/g3t1_2,,success
Status,1431,19573057389,/g3t1_3,,success
Status,1432,19588626945,/g3t1_1,,running
Status,1433,19588650839,/g3t1_1,,success
Status,1434,19622853425,/g3t1_3,,running
Status,1435,19622883970,/g3t1_2,,running
Status,1436,19622949711,/g3t1_3,,success
Status,1437,19623178123,/g3t1_2,,success
Status,1438,19638712808,/g3t1_1,,running
Status,1439,19638755762,/g3t1_1,,success
Status,1440,19657431773,/g4t1,,fail
Status,1441,19673196985,/g3t1_3,,running
Status,1442,19673232972,/g3t1_2,,running
Status,1443,19673415298,/g3t1_3,,success
Status,1444,19673452180,/g3t1_2,,success
Status,1445,19688716948,/g3t1_1,,running
Status,1446,19688741030,/g3t1_1,,success
Status,1447,19723265252,/g3t1_3,,running
Status,1448,19723300735,/g3t1_2,,running
Status,1449,19723397299,/g3t1_3,,success
Status,1450,19723429407,/g3t1_2,,success
Status,1451,19738928775,/g3t1_1,,running
Status,1452,19738953211,/g3t1_1,,success
Status,1453,19757548478,/g4t1,,fail
Status,1454,19773513312,/g3t1_3,,running
Status,1455,19773544732,/g3t1_2,,running
Status,1456,19773573518,/g3t1_3,,success
Status,1457,19773780383,/g3t1_2,,success
Status,1458,19788839737,/g3t1_1,,running
Status,1459,19788874630,/g3t1_1,,success
Status,1460,19823443706,/g3t1_3,,running
Status,1461,19823490825,/g3t1_2,,running
Status,1462,19823692860,/g3t1_3,,success
Status,1463,19823714934,/g3t1_2,,success
Status,1464,19839120406,/g3t1_1,,running
Status,1465,19839166801,/g3t1_1,,success
Status,1466,19857591227,/g4t1,,fail
Status,1467,19873511536,/g3t1_3,,running
Status,1468,19873565887,/g3t1_2,,running
Status,1469,19873579224,/g3t1_3,,success
Status,1470,19873682041,/g3t1_2,,success
Status,1471,19889492267,/g3t1_1,,running
Status,1472,19889566114,/g3t1_1,,success
Status,1473,19923499743,/g3t1_3,,running
Status,1474,19923530299,/g3t1_2,,running
Status,1475,19923772633,/g3t1_2,,success
Status,1476,19923799296,/g3t1_3,,success
Status,1477,19939189463,/g3t1_1,,running
Status,1478,19939355685,/g3t1_1,,success
Status,1479,19957560484,/g4t1,,fail
Status,1480,19973530875,/g3t1_3,,running
Status,1481,19973903453,/g3t1_2,,running
Status,1482,19973928135,/g3t1_2,,success
Status,1483,19974110825,/g3t1_3,,success
Status,1484,19989421335,/g3t1_1,,running
Status,1485,19989579437,/g3t1_1,,success
Status,1486,20023510134,/g3t1_3,,running
Status,1487,20023606493,/g3t1_2,,running
Status,1488,20023623930,/g3t1_3,,success
Status,1489,20023929108,/g3t1_2,,success
Status,1490,20039334588,/g3t1_1,,running
Status,1491,20039567514,/g3t1_1,,success
Status,1492,20057672416,/g4t1,,fail
Status,1493,20073683973,/g3t1_3,,running
Status,1494,20073713883,/g3t1_3,,success
Status,1495,20073803097,/g3t1_2,,running
Status,1496,20073891914,/g3t1_2,,success
Status,1497,20089427158,/g3t1_1,,running
Status,1498,20089477549,/g3t1_1,,success
Status,1499,20123751747,/g3t1_3,,running
Status,1500,20123817950,/g3t1_3,,success
Status,1501,20123863851,/g3t1_2,,running
Status,1502,20124050056,/g3t1_2,,success
Status,1503,20139509294,/g3t1_1,,running
Status,1504,20139576820,/g3t1_1,,success
Status,1505,20157842701,/g4t1,,fail
Status,1506,20173859885,/g3t1_3,,running
Status,1507,20173899840,/g3t1_3,,success
Status,1508,20173938793,/g3t1_2,,running
Status,1509,20174050213,/g3t1_2,,success
Status,1510,20189551296,/g3t1_1,,running
Status,1511,20189581458,/g3t1_1,,success
Status,1512,20223857846,/g3t1_3,,running
