
Status,2,3350979160,/g4t1,,init
Status,4,8162777279,/g3t1_1,,init
Status,5,8168819586,/g3t1_1,,init
Status,6,8168837505,/g3t1_1,,running
Status,7,8169277899,/g3t1_1,,success
Status,8,8263140599,/g3t1_2,,init
Status,10,8268880294,/g3t1_1,,running
Status,11,8268993503,/g3t1_1,,success
Status,12,8270296609,/g3t1_2,,init
Status,13,8270306927,/g3t1_2,,running
Status,14,8270778256,/g3t1_2,,success
Status,15,8369008912,/g3t1_1,,running
Status,16,8369199282,/g3t1_1,,success
Status,17,8370430598,/g3t1_2,,running
Status,18,8370548678,/g3t1_2,,success
Status,20,8464034600,/g3t1_3,,init
Status,21,8469082603,/g3t1_1,,running
Status,22,8469112271,/g3t1_1,,success
Status,23,8470560485,/g3t1_2,,running
Status,24,8470684353,/g3t1_2,,success
Status,25,8470697689,/g3t1_3,,init
Status,26,8470711835,/g3t1_3,,running
Status,27,8471140480,/g3t1_3,,success
Status,28,8488643380,/g4t1,,success
Status,29,8508886788,/g4t1,,success
Status,30,8569757159,/g3t1_1,,running
Status,31,8570220057,/g3t1_1,,success
Status,32,8571698678,/g3t1_2,,running
Status,33,8571740422,/g3t1_3,,running
Status,34,8571799486,/g3t1_2,,success
Status,35,8572071754,/g3t1_3,,success
Status,36,8589724742,/g4t1,,success
Status,37,8610099508,/g4t1,,success
Status,38,8630094090,/g4t1,,success
Status,39,8650700345,/g4t1,,success
Status,40,8669832671,/g3t1_1,,running
Status,41,8670321290,/g3t1_1,,success
Status,42,8671590662,/g3t1_2,,running
Status,43,8671938540,/g3t1_3,,running
Status,44,8672013979,/g3t1_2,,success
Status,45,8672306678,/g3t1_3,,success
Status,46,8690732377,/g4t1,,success
Status,47,8710717943,/g4t1,,success
Status,48,8730925306,/g4t1,,success
Status,49,8751177181,/g4t1,,success
Status,50,8770076997,/g3t1_1,,running
Status,51,8770498859,/g3t1_1,,success
Status,52,8771270929,/g4t1,,success
Status,53,8771389556,/g3t1_2,,running
Status,54,8772079542,/g3t1_3,,running
Status,55,8772423167,/g3t1_3,,success
Status,56,8772491659,/g3t1_2,,success
Status,57,8791447318,/g4t1,,success
Status,58,8811483630,/g4t1,,success
Status,59,8831519346,/g4t1,,success
Status,60,8851778286,/g4t1,,success
Status,61,8870218459,/g3t1_1,,running
Status,62,8870445538,/g3t1_1,,success
Status,63,8871732273,/g3t1_2,,running
Status,64,8871792599,/g3t1_3,,running
Status,65,8871820938,/g4t1,,fail
Status,66,8871951114,/g3t1_2,,success
Status,67,8872304079,/g3t1_3,,success
Status,68,8891917011,/g4t1,,fail
Status,69,8912001674,/g4t1,,success
Status,70,8932377966,/g4t1,,success
Status,71,8952455869,/g4t1,,success
Status,72,8970453937,/g3t1_1,,running
Status,73,8970725814,/g3t1_1,,success
Status,74,8971614158,/g3t1_2,,running
Status,75,8971901093,/g3t1_3,,running
Status,76,8972560718,/g4t1,,fail
Status,77,8972670349,/g3t1_3,,success
Status,78,8972707726,/g3t1_2,,success
Status,79,8992537302,/g4t1,,fail
Status,80,9012802842,/g4t1,,success
Status,81,9033153035,/g4t1,,success
Status,82,9053129649,/g4t1,,success
Status,83,9070571848,/g3t1_1,,running
Status,84,9070865055,/g3t1_1,,success
Status,85,9071945077,/g3t1_2,,running
Status,86,9072037686,/g3t1_3,,running
Status,87,9072859548,/g3t1_2,,success
Status,88,9072995500,/g3t1_3,,success
Status,89,9073035929,/g4t1,,fail
Status,90,9093276737,/g4t1,,fail
Status,91,9113385525,/g4t1,,success
Status,92,9133638390,/g4t1,,success
Status,93,9153499768,/g4t1,,success
Status,94,9170672899,/g3t1_1,,running
Status,95,9171028713,/g3t1_1,,success
Status,96,9172100209,/g3t1_2,,running
Status,97,9172195805,/g3t1_3,,running
Status,98,9172850525,/g3t1_2,,success
Status,99,9172959227,/g3t1_3,,success
Status,100,9173222923,/g4t1,,fail
Status,101,9193964795,/g4t1,,success
Status,102,9214003676,/g4t1,,success
Status,103,9234252065,/g4t1,,success
Status,104,9254233777,/g4t1,,success
Status,105,9270923872,/g3t1_1,,running
Status,106,9270988877,/g3t1_1,,success
Status,107,9272300086,/g3t1_2,,running
Status,108,9272375929,/g3t1_3,,running
Status,109,9272463370,/g3t1_2,,success
Status,110,9272691757,/g3t1_3,,success
Status,111,9273821797,/g4t1,,fail
Status,112,9294526186,/g4t1,,success
Status,113,9314982421,/g4t1,,success
Status,114,9334771600,/g4t1,,success
Status,115,9354924794,/g4t1,,success
Status,116,9371038136,/g3t1_1,,running
Status,117,9371417160,/g3t1_1,,success
Status,118,9372177779,/g3t1_2,,running
Status,119,9372679050,/g3t1_3,,running
Status,120,9372753811,/g3t1_2,,success
Status,121,9373492461,/g3t1_3,,success
Status,122,9374730056,/g4t1,,fail
Status,123,9395248210,/g4t1,,success
Status,124,9415127423,/g4t1,,success
Status,125,9435227643,/g4t1,,success
Status,126,9455340312,/g4t1,,success
Status,127,9470992439,/g3t1_1,,running
Status,128,9471283464,/g3t1_1,,success
Status,129,9472529641,/g3t1_2,,running
Status,130,9472602871,/g3t1_3,,running
Status,131,9472636518,/g3t1_2,,success
Status,132,9473216681,/g3t1_3,,success
Status,133,9475312638,/g4t1,,fail
Status,134,9495553943,/g4t1,,success
Status,135,9515619990,/g4t1,,success
Status,136,9535837433,/g4t1,,success
Status,137,9555967060,/g4t1,,success
Status,138,9571151209,/g3t1_1,,running
Status,139,9571487423,/g3t1_1,,success
Status,140,9572469930,/g3t1_2,,running
Status,141,9572541874,/g3t1_3,,running
Status,142,9572822461,/g3t1_2,,success
Status,143,9573103289,/g3t1_3,,success
Status,144,9575948563,/g4t1,,fail
Status,145,9596254094,/g4t1,,success
Status,146,9616220451,/g4t1,,success
Status,147,9636533922,/g4t1,,success
Status,148,9656654041,/g4t1,,success
Status,149,9671146256,/g3t1_1,,running
Status,150,9671379106,/g3t1_1,,success
Status,151,9672760118,/g3t1_2,,running
Status,152,9672923932,/g3t1_3,,running
Status,153,9673044310,/g3t1_2,,success
Status,154,9673598201,/g3t1_3,,success
Status,155,9676420174,/g4t1,,fail
Status,156,9696826976,/g4t1,,success
Status,157,9716988190,/g4t1,,success
Status,158,9737164403,/g4t1,,success
Status,159,9757327574,/g4t1,,success
Status,160,9771651978,/g3t1_1,,running
Status,161,9771736572,/g3t1_1,,success
Status,162,9772816039,/g3t1_2,,running
Status,163,9772894463,/g3t1_3,,running
Status,164,9773560121,/g3t1_2,,success
Status,165,9773718187,/g3t1_3,,success
Status,166,9777292632,/g4t1,,fail
Status,167,9797682193,/g4t1,,success
Status,168,9817932129,/g4t1,,success
Status,169,9837956619,/g4t1,,success
Status,170,9858113597,/g4t1,,success
Status,171,9871325057,/g3t1_1,,running
Status,172,9871520478,/g3t1_1,,success
Status,173,9873098738,/g3t1_2,,running
Status,174,9873137801,/g3t1_3,,running
Status,175,9873196602,/g3t1_2,,success
Status,176,9873214297,/g3t1_3,,success
Status,177,9878019626,/g4t1,,fail
Status,178,9898300052,/g4t1,,success
Status,179,9918574861,/g4t1,,success
Status,180,9938572144,/g4t1,,success
Status,181,9958532163,/g4t1,,success
Status,182,9971886099,/g3t1_1,,running
Status,183,9971949436,/g3t1_1,,success
Status,184,9973337903,/g3t1_2,,running
Status,185,9973380774,/g3t1_2,,success
Status,186,9973405951,/g3t1_3,,running
Status,187,9973464843,/g3t1_3,,success
Status,188,9978729237,/g4t1,,fail
Status,189,9999090401,/g4t1,,success
Status,190,10019374399,/g4t1,,success
Status,191,10039408024,/g4t1,,success
Status,192,10059555339,/g4t1,,success
Status,193,10071687557,/g3t1_1,,running
Status,194,10072242416,/g3t1_1,,success
Status,195,10073030456,/g3t1_2,,running
Status,196,10073299876,/g3t1_2,,success
Status,197,10073359343,/g3t1_3,,running
Status,198,10073627792,/g3t1_3,,success
Status,199,10079390113,/g4t1,,fail
Status,200,10099602516,/g4t1,,success
Status,201,10119815459,/g4t1,,success
Status,202,10140012267,/g4t1,,success
Status,203,10160101646,/g4t1,,success
Status,204,10171806699,/g3t1_1,,running
Status,205,10172144027,/g3t1_1,,success
Status,206,10172933371,/g3t1_2,,running
Status,207,10173336458,/g3t1_2,,success
Status,208,10173397196,/g3t1_3,,running
Status,209,10174206415,/g3t1_3,,success
Status,210,10180386180,/g4t1,,fail
Status,211,10200443151,/g4t1,,success
Status,212,10220570454,/g4t1,,success
Status,213,10240781345,/g4t1,,success
Status,214,10260756648,/g4t1,,success
Status,215,10271839544,/g3t1_1,,running
Status,216,10272424837,/g3t1_1,,success
Status,217,10273720982,/g3t1_2,,running
Status,218,10273777695,/g3t1_3,,running
Status,219,10273807373,/g3t1_2,,success
Status,220,10274131306,/g3t1_3,,success
Status,221,10281171308,/g4t1,,fail
Status,222,10301156578,/g4t1,,success
Status,223,10321332454,/g4t1,,success
Status,224,10341695599,/g4t1,,success
Status,225,10361705165,/g4t1,,success
Status,226,10372055971,/g3t1_1,,running
Status,227,10372568375,/g3t1_1,,success
Status,228,10372988091,/g3t1_2,,running
Status,229,10373762256,/g3t1_2,,success
Status,230,10374107881,/g3t1_3,,running
Status,231,10374172226,/g3t1_3,,success
Status,232,10382190387,/g4t1,,fail
Status,233,10402126950,/g4t1,,success
Status,234,10422242680,/g4t1,,success
Status,235,10442316176,/g4t1,,success
Status,236,10462686598,/g4t1,,success
Status,237,10472307613,/g3t1_1,,running
Status,238,10472826844,/g3t1_1,,success
Status,239,10473125425,/g3t1_2,,running
Status,240,10473786866,/g3t1_2,,success
Status,241,10473912609,/g3t1_3,,running
Status,242,10474543292,/g3t1_3,,success
Status,243,10482257110,/g4t1,,fail
Status,244,10502655971,/g4t1,,success
Status,245,10522882802,/g4t1,,success
Status,246,10543019067,/g4t1,,success
Status,247,10562938981,/g4t1,,success
Status,248,10571990025,/g3t1_1,,running
Status,249,10572325524,/g3t1_1,,success
Status,250,10573011976,/g3t1_2,,running
Status,251,10573200326,/g3t1_2,,success
Status,252,10573491338,/g3t1_3,,running
Status,253,10573775218,/g3t1_3,,success
Status,254,10582929420,/g4t1,,fail
Status,255,10603359386,/g4t1,,success
Status,256,10623428278,/g4t1,,success
Status,257,10643573362,/g4t1,,success
Status,258,10663691179,/g4t1,,success
Status,259,10672367678,/g3t1_1,,running
Status,260,10672830701,/g3t1_1,,success
Status,261,10673577491,/g3t1_2,,running
Status,262,10674219593,/g3t1_2,,success
Status,263,10674358622,/g3t1_3,,running
Status,264,10674564801,/g3t1_3,,success
Status,265,10683581944,/g4t1,,fail
Status,266,10703941392,/g4t1,,success
Status,267,10724100354,/g4t1,,success
Status,268,10744229247,/g4t1,,success
Status,269,10764569780,/g4t1,,success
Status,270,10772415180,/g3t1_1,,running
Status,271,10773355673,/g3t1_1,,success
Status,272,10774011619,/g3t1_2,,running
Status,273,10774386093,/g3t1_2,,success
Status,274,10774436155,/g3t1_3,,running
Status,275,10775256968,/g3t1_3,,success
Status,276,10784232036,/g4t1,,fail
Status,277,10804784799,/g4t1,,success
Status,278,10825060556,/g4t1,,success
Status,279,10845027911,/g4t1,,success
Status,280,10865341478,/g4t1,,success
Status,281,10872556910,/g3t1_1,,running
Status,282,10872815616,/g3t1_1,,success
Status,283,10873559445,/g3t1_2,,running
Status,284,10874281750,/g3t1_2,,success
Status,285,10874355534,/g3t1_3,,running
Status,286,10874768594,/g3t1_3,,success
Status,287,10885227727,/g4t1,,fail
Status,288,10905535701,/g4t1,,success
Status,289,10925732807,/g4t1,,success
Status,290,10945940248,/g4t1,,success
Status,291,10966211208,/g4t1,,success
Status,292,10972689658,/g3t1_1,,running
Status,293,10972978593,/g3t1_1,,success
Status,294,10973782690,/g3t1_2,,running
Status,295,10974755499,/g3t1_2,,success
Status,296,10974867963,/g3t1_3,,running
Status,297,10974918676,/g3t1_3,,success
Status,298,10986203294,/g4t1,,fail
Status,299,11006290723,/g4t1,,success
Status,300,11026471983,/g4t1,,success
Status,301,11046404030,/g4t1,,success
Status,302,11066750678,/g4t1,,success
Status,303,11072857473,/g3t1_1,,running
Status,304,11073340347,/g3t1_1,,success
Status,305,11074023120,/g3t1_2,,running
Status,306,11074605482,/g3t1_2,,success
Status,307,11074706764,/g3t1_3,,running
Status,308,11074948343,/g3t1_3,,success
Status,309,11086827696,/g4t1,,fail
Status,310,11106891950,/g4t1,,success
Status,311,11127092503,/g4t1,,success
Status,312,11147073460,/g4t1,,success
Status,313,11167264466,/g4t1,,success
Status,314,11172944756,/g3t1_1,,running
Status,315,11173391957,/g3t1_1,,success
Status,316,11174158366,/g3t1_2,,running
Status,317,11175128755,/g3t1_3,,running
Status,318,11175173052,/g3t1_2,,success
Status,319,11175194622,/g3t1_3,,success
Status,320,11187247975,/g4t1,,fail
Status,321,11207369331,/g4t1,,success
Status,322,11227669330,/g4t1,,success
Status,323,11247907316,/g4t1,,success
Status,324,11267812453,/g4t1,,success
Status,325,11273128154,/g3t1_1,,running
Status,326,11273389298,/g3t1_1,,success
Status,327,11273929530,/g3t1_2,,running
Status,328,11274490400,/g3t1_2,,success
Status,329,11274558526,/g3t1_3,,running
Status,330,11275347065,/g3t1_3,,success
Status,331,11287850165,/g4t1,,fail
Status,332,11308024622,/g4t1,,success
Status,333,11328226520,/g4t1,,success
Status,334,11348406648,/g4t1,,success
Status,335,11368600514,/g4t1,,success
Status,336,11373482500,/g3t1_1,,running
Status,337,11373667898,/g3t1_1,,success
Status,338,11374115132,/g3t1_2,,running
Status,339,11375079391,/g3t1_3,,running
Status,340,11375148526,/g3t1_2,,success
Status,341,11375378244,/g3t1_3,,success
Status,342,11388656862,/g4t1,,fail
Status,343,11408042015,/g4t1,,success
Status,344,11428102644,/g4t1,,success
Status,345,11448199706,/g4t1,,success
Status,346,11468316260,/g4t1,,success
Status,347,11472946984,/g3t1_1,,running
Status,348,11473162891,/g3t1_1,,success
Status,349,11473853020,/g3t1_2,,running
Status,350,11473932523,/g3t1_2,,success
Status,351,11474383578,/g3t1_3,,running
Status,352,11474492652,/g3t1_3,,success
Status,353,11488668716,/g4t1,,fail
Status,354,11508996064,/g4t1,,success
Status,355,11529256920,/g4t1,,success
Status,356,11549423338,/g4t1,,success
Status,357,11569414878,/g4t1,,success
Status,358,11573316839,/g3t1_1,,running
Status,359,11573938525,/g3t1_1,,success
Status,360,11574358782,/g3t1_2,,running
Status,361,11575213172,/g3t1_3,,running
Status,362,11575256456,/g3t1_2,,success
Status,363,11575311094,/g3t1_3,,success
Status,364,11589547869,/g4t1,,fail
Status,365,11609598515,/g4t1,,success
Status,366,11629721521,/g4t1,,success
Status,367,11650105088,/g4t1,,success
Status,368,11669834948,/g4t1,,success
Status,369,11673475129,/g3t1_1,,running
Status,370,11673748087,/g3t1_1,,success
Status,371,11674366671,/g3t1_2,,running
Status,372,11674773355,/g3t1_2,,success
Status,373,11674874440,/g3t1_3,,running
Status,374,11675074172,/g3t1_3,,success
Status,375,11690198599,/g4t1,,fail
Status,376,11710110517,/g4t1,,success
Status,377,11730150860,/g4t1,,success
Status,378,11750313558,/g4t1,,success
Status,379,11770420260,/g4t1,,success
Status,380,11773636282,/g3t1_1,,running
Status,381,11774449342,/g3t1_1,,success
Status,382,11774501070,/g3t1_2,,running
Status,383,11774861908,/g3t1_2,,success
Status,384,11775191187,/g3t1_3,,running
Status,385,11775877558,/g3t1_3,,success
Status,386,11790756237,/g4t1,,fail
Status,387,11810829068,/g4t1,,success
Status,388,11831028357,/g4t1,,success
Status,389,11851267576,/g4t1,,success
Status,390,11871233563,/g4t1,,success
Status,391,11874034676,/g3t1_1,,running
Status,392,11874737764,/g3t1_2,,running
Status,393,11874823955,/g3t1_1,,success
Status,394,11875585001,/g3t1_2,,success
Status,395,11876494319,/g3t1_3,,running
Status,396,11876562102,/g3t1_3,,success
Status,397,11891172528,/g4t1,,fail
Status,398,11911338015,/g4t1,,success
Status,399,11931447997,/g4t1,,success
Status,400,11951573874,/g4t1,,success
Status,401,11971484855,/g4t1,,success
Status,402,11973746811,/g3t1_1,,running
Status,403,11974068219,/g3t1_1,,success
Status,404,11974894483,/g3t1_2,,running
Status,405,11975327436,/g3t1_2,,success
Status,406,11976085793,/g3t1_3,,running
Status,407,11976142919,/g3t1_3,,success
Status,408,11991806190,/g4t1,,fail
Status,409,12012039796,/g4t1,,success
Status,410,12032556180,/g4t1,,success
Status,411,12052410619,/g4t1,,success
Status,412,12072588284,/g4t1,,success
Status,413,12073944840,/g3t1_1,,running
Status,414,12074313054,/g3t1_1,,success
Status,415,12074738540,/g3t1_2,,running
Status,416,12075419304,/g3t1_2,,success
Status,417,12075743053,/g3t1_3,,running
Status,418,12076248293,/g3t1_3,,success
Status,419,12092583100,/g4t1,,fail
Status,420,12112704163,/g4t1,,success
Status,421,12132505730,/g4t1,,success
Status,422,12152727997,/g4t1,,success
Status,423,12172772901,/g4t1,,success
Status,424,12173604141,/g3t1_1,,running
Status,425,12173974098,/g3t1_1,,success
Status,426,12174485460,/g3t1_2,,running
Status,427,12174706412,/g3t1_2,,success
Status,428,12175293769,/g3t1_3,,running
Status,429,12175535158,/g3t1_3,,success
Status,430,12193018125,/g4t1,,fail
Status,431,12213329688,/g4t1,,success
Status,432,12233471436,/g4t1,,success
Status,433,12253575227,/g4t1,,success
Status,434,12273542165,/g4t1,,success
Status,435,12274013713,/g3t1_1,,running
Status,436,12274592568,/g3t1_1,,success
Status,437,12274879873,/g3t1_2,,running
Status,438,12275257573,/g3t1_2,,success
Status,439,12275685812,/g3t1_3,,running
Status,440,12276120658,/g3t1_3,,success
Status,441,12293768979,/g4t1,,fail
Status,442,12314042752,/g4t1,,success
Status,443,12334300513,/g4t1,,success
Status,444,12354550872,/g4t1,,success
Status,445,12374786140,/g3t1_1,,running
Status,446,12374854019,/g4t1,,success
Status,447,12375075990,/g3t1_1,,success
Status,448,12375226472,/g3t1_2,,running
Status,449,12376112750,/g3t1_2,,success
Status,450,12376210607,/g3t1_3,,running
Status,451,12377255885,/g3t1_3,,success
Status,452,12394786014,/g4t1,,fail
Status,453,12414786908,/g4t1,,success
Status,454,12435073012,/g4t1,,success
Status,455,12455305809,/g4t1,,success
Status,456,12474734032,/g3t1_1,,running
Status,457,12475786688,/g4t1,,success
Status,458,12475855188,/g3t1_2,,running
Status,459,12476077234,/g3t1_1,,success
Status,460,12476141108,/g3t1_2,,success
Status,461,12476216954,/g3t1_3,,running
Status,462,12477346447,/g3t1_3,,success
Status,463,12495528510,/g4t1,,fail
Status,464,12515659727,/g4t1,,success
Status,465,12535847924,/g4t1,,success
Status,466,12555885897,/g4t1,,success
Status,467,12574928528,/g3t1_1,,running
Status,468,12575077577,/g3t1_1,,success
Status,469,12575468747,/g3t1_2,,running
Status,470,12576183057,/g3t1_2,,success
Status,471,12576236377,/g4t1,,fail
Status,472,12576349467,/g3t1_3,,running
Status,473,12577038482,/g3t1_3,,success
Status,474,12596107468,/g4t1,,fail
Status,475,12616318965,/g4t1,,success
Status,476,12636218856,/g4t1,,success
Status,477,12656623706,/g4t1,,success
Status,478,12674999542,/g3t1_1,,running
Status,479,12675774944,/g3t1_1,,success
Status,480,12675896760,/g3t1_2,,running
Status,481,12676443061,/g3t1_2,,success
Status,482,12676514052,/g3t1_3,,running
Status,483,12676543212,/g4t1,,success
Status,484,12677099808,/g3t1_3,,success
Status,485,12696821180,/g4t1,,fail
Status,486,12717102664,/g4t1,,success
Status,487,12737056053,/g4t1,,success
Status,488,12757269952,/g4t1,,success
Status,489,12775462953,/g3t1_1,,running
Status,490,12775559532,/g3t1_1,,success
Status,491,12775701144,/g3t1_2,,running
Status,492,12776017589,/g3t1_2,,success
Status,493,12776789098,/g3t1_3,,running
Status,494,12776863071,/g3t1_3,,success
Status,495,12777130012,/g4t1,,fail
Status,496,12797610902,/g4t1,,success
Status,497,12817779435,/g4t1,,success
Status,498,12837747867,/g4t1,,success
Status,499,12857962972,/g4t1,,success
Status,500,12875170820,/g3t1_1,,running
Status,501,12875885281,/g3t1_1,,success
Status,502,12875953460,/g3t1_2,,running
Status,503,12876776477,/g3t1_3,,running
Status,504,12876906859,/g3t1_2,,success
Status,505,12877576845,/g3t1_3,,success
Status,506,12877629324,/g4t1,,fail
Status,507,12898071730,/g4t1,,success
Status,508,12918233395,/g4t1,,success
Status,509,12938539106,/g4t1,,success
Status,510,12958684726,/g4t1,,success
Status,511,12975205328,/g3t1_1,,running
Status,512,12976150744,/g3t1_1,,success
Status,513,12976222492,/g3t1_2,,running
Status,514,12976729715,/g3t1_2,,success
Status,515,12976787623,/g3t1_3,,running
Status,516,12977562645,/g3t1_3,,success
Status,517,12978375928,/g4t1,,fail
Status,518,12998876412,/g4t1,,success
Status,519,13019049194,/g4t1,,success
Status,520,13039387612,/g4t1,,success
Status,521,13059279095,/g4t1,,success
Status,522,13075383989,/g3t1_1,,running
Status,523,13076086101,/g3t1_1,,success
Status,524,13076157530,/g3t1_2,,running
Status,525,13076830271,/g3t1_2,,success
Status,526,13076945866,/g3t1_3,,running
Status,527,13077260130,/g3t1_3,,success
Status,528,13078942905,/g4t1,,fail
Status,529,13099423682,/g4t1,,success
Status,530,13119830680,/g4t1,,success
Status,531,13139924387,/g4t1,,success
Status,532,13159853220,/g4t1,,success
Status,533,13175374140,/g3t1_1,,running
Status,534,13176094523,/g3t1_1,,success
Status,535,13176201347,/g3t1_2,,running
Status,536,13177100220,/g3t1_2,,success
Status,537,13177160653,/g3t1_3,,running
Status,538,13177702135,/g3t1_3,,success
Status,539,13179686219,/g4t1,,fail
Status,540,13199972201,/g4t1,,success
Status,541,13219813888,/g4t1,,success
Status,542,13239807938,/g4t1,,success
Status,543,13259656416,/g4t1,,success
Status,544,13275050887,/g3t1_1,,running
Status,545,13275073087,/g3t1_1,,success
Status,546,13275592769,/g3t1_2,,running
Status,547,13275697911,/g3t1_2,,success
Status,548,13276501658,/g3t1_3,,running
Status,549,13276707646,/g3t1_3,,success
Status,550,13279811475,/g4t1,,fail
Status,551,13299948739,/g4t1,,success
Status,552,13320275764,/g4t1,,success
Status,553,13340485726,/g4t1,,success
Status,554,13360601154,/g4t1,,success
Status,555,13375892060,/g3t1_1,,running
Status,556,13376362239,/g3t1_2,,running
Status,557,13377044878,/g3t1_2,,success
Status,558,13378002444,/g3t1_3,,running
Status,559,13378281625,/g3t1_3,,success
Status,560,13378344954,/g3t1_1,,success
Status,561,13380875832,/g4t1,,fail
Status,562,13401235635,/g4t1,,success
Status,563,13421378841,/g4t1,,success
Status,564,13441398258,/g4t1,,success
Status,565,13461534475,/g4t1,,success
Status,566,13476506487,/g3t1_1,,running
Status,567,13476845442,/g3t1_2,,running
Status,568,13477035772,/g3t1_1,,success
Status,569,13478072043,/g3t1_2,,success
Status,570,13478111621,/g3t1_3,,running
Status,571,13478133924,/g3t1_3,,success
Status,572,13481529808,/g4t1,,fail
Status,573,13501560057,/g4t1,,success
Status,574,13521194834,/g4t1,,success
Status,575,13541308239,/g4t1,,success
Status,576,13561454143,/g4t1,,success
Status,577,13575798102,/g3t1_1,,running
Status,578,13577178577,/g3t1_1,,success
Status,579,13577264265,/g3t1_2,,running
Status,580,13577610797,/g3t1_3,,running
Status,581,13577991185,/g3t1_2,,success
Status,582,13578081579,/g3t1_3,,success
Status,583,13582117691,/g4t1,,fail
Status,584,13602229671,/g4t1,,success
Status,585,13622348494,/g4t1,,success
Status,586,13642530644,/g4t1,,success
Status,587,13662572912,/g4t1,,success
Status,588,13675974685,/g3t1_1,,running
Status,589,13676301739,/g3t1_1,,success
Status,590,13676368557,/g3t1_2,,running
Status,591,13678017691,/g3t1_2,,success
Status,592,13678072014,/g3t1_3,,running
Status,593,13678153051,/g3t1_3,,success
Status,594,13682716798,/g4t1,,fail
Status,595,13702644761,/g4t1,,success
Status,596,13723003166,/g4t1,,success
Status,597,13742937849,/g4t1,,success
Status,598,13763034078,/g4t1,,success
Status,599,13775929545,/g3t1_1,,running
Status,600,13776803937,/g3t1_1,,success
Status,601,13776870877,/g3t1_2,,running
Status,602,13777519756,/g3t1_2,,success
Status,603,13777573173,/g3t1_3,,running
Status,604,13778171299,/g3t1_3,,success
Status,605,13782778848,/g4t1,,fail
Status,606,13802640196,/g4t1,,success
Status,607,13822838944,/g4t1,,success
Status,608,13842808345,/g4t1,,success
Status,609,13863129331,/g4t1,,success
Status,610,13875875622,/g3t1_1,,running
Status,611,13876081297,/g3t1_1,,success
Status,612,13876928207,/g3t1_2,,running
Status,613,13876971632,/g3t1_2,,success
Status,614,13877638594,/g3t1_3,,running
Status,615,13877688347,/g3t1_3,,success
Status,616,13883534901,/g4t1,,fail
Status,617,13903391759,/g4t1,,success
Status,618,13923626710,/g4t1,,success
Status,619,13943578509,/g4t1,,success
Status,620,13963853763,/g4t1,,success
Status,621,13976032359,/g3t1_1,,running
Status,622,13976071992,/g3t1_1,,success
Status,623,13976817245,/g3t1_2,,running
Status,624,13976848061,/g3t1_2,,success
Status,625,13977360609,/g3t1_3,,running
Status,626,13977532743,/g3t1_3,,success
Status,627,13983843810,/g4t1,,fail
Status,628,14004168890,/g4t1,,success
Status,629,14024125548,/g4t1,,success
Status,630,14044022463,/g4t1,,success
Status,631,14064075550,/g4t1,,success
Status,632,14075874780,/g3t1_1,,running
Status,633,14076053804,/g3t1_1,,success
Status,634,14076594935,/g3t1_2,,running
Status,635,14076844966,/g3t1_2,,success
Status,636,14077400175,/g3t1_3,,running
Status,637,14077667849,/g3t1_3,,success
Status,638,14084506476,/g4t1,,fail
Status,639,14104891633,/g4t1,,success
Status,640,14124995753,/g4t1,,success
Status,641,14145144062,/g4t1,,success
Status,642,14165337058,/g4t1,,success
Status,643,14176486766,/g3t1_1,,running
Status,644,14177174390,/g3t1_1,,success
Status,645,14177240551,/g3t1_2,,running
Status,646,14177568405,/g3t1_2,,success
Status,647,14178141137,/g3t1_3,,running
Status,648,14178849087,/g3t1_3,,success
Status,649,14185663955,/g4t1,,fail
Status,650,14205516503,/g4t1,,success
Status,651,14225634729,/g4t1,,success
Status,652,14246085715,/g4t1,,success
Status,653,14265992625,/g4t1,,success
Status,654,14276478521,/g3t1_1,,running
Status,655,14277127352,/g3t1_1,,success
Status,656,14277191254,/g3t1_2,,running
Status,657,14277697772,/g3t1_2,,success
Status,658,14278059573,/g3t1_3,,running
Status,659,14278568758,/g3t1_3,,success
Status,660,14285840009,/g4t1,,fail
Status,661,14306186170,/g4t1,,success
Status,662,14326274339,/g4t1,,success
Status,663,14346608843,/g4t1,,success
Status,664,14366703524,/g4t1,,success
Status,665,14377285070,/g3t1_1,,running
Status,666,14377372180,/g3t1_1,,success
Status,667,14377401527,/g3t1_2,,running
Status,668,14378654400,/g3t1_2,,success
Status,669,14378737731,/g3t1_3,,running
Status,670,14378836407,/g3t1_3,,success
Status,671,14386777235,/g4t1,,fail
Status,672,14407032504,/g4t1,,success
Status,673,14427017573,/g4t1,,success
Status,674,14447170649,/g4t1,,success
Status,675,14467502119,/g4t1,,success
Status,676,14476938590,/g3t1_1,,running
Status,677,14477696490,/g3t1_1,,success
Status,678,14477772924,/g3t1_2,,running
Status,679,14477812335,/g3t1_2,,success
Status,680,14478471729,/g3t1_3,,running
Status,681,14478917224,/g3t1_3,,success
Status,682,14487188635,/g4t1,,fail
Status,683,14507403751,/g4t1,,success
Status,684,14527601979,/g4t1,,success
Status,685,14547655306,/g4t1,,success
Status,686,14567241503,/g4t1,,success
Status,687,14576476729,/g3t1_1,,running
Status,688,14576569782,/g3t1_1,,success
Status,689,14577130535,/g3t1_2,,running
Status,690,14577184484,/g3t1_2,,success
Status,691,14577835206,/g3t1_3,,running
Status,692,14578022379,/g3t1_3,,success
Status,693,14587214642,/g4t1,,fail
Status,694,14607435021,/g4t1,,success
Status,695,14627633438,/g4t1,,success
Status,696,14648040155,/g4t1,,success
Status,697,14668587553,/g4t1,,success
Status,698,14677354915,/g3t1_1,,running
Status,699,14677499688,/g3t1_1,,success
Status,700,14678187327,/g3t1_2,,running
Status,701,14678243099,/g3t1_2,,success
Status,702,14678589054,/g3t1_3,,running
Status,703,14679008710,/g3t1_3,,success
Status,704,14688275942,/g4t1,,fail
Status,705,14708508040,/g4t1,,success
Status,706,14728752336,/g4t1,,success
Status,707,14748869890,/g4t1,,success
Status,708,14769076162,/g4t1,,success
Status,709,14777479318,/g3t1_1,,running
Status,710,14777553436,/g3t1_1,,success
Status,711,14778723041,/g3t1_2,,running
Status,712,14778771411,/g3t1_2,,success
Status,713,14778840966,/g3t1_3,,running
Status,714,14779037295,/g3t1_3,,success
Status,715,14789254585,/g4t1,,fail
Status,716,14809175519,/g4t1,,success
Status,717,14829586473,/g4t1,,success
Status,718,14849751551,/g4t1,,success
Status,719,14869684005,/g4t1,,success
Status,720,14877379549,/g3t1_1,,running
Status,721,14878411574,/g3t1_1,,success
Status,722,14878470574,/g3t1_2,,running
Status,723,14878955943,/g3t1_2,,success
Status,724,14879260315,/g3t1_3,,running
Status,725,14879673440,/g3t1_3,,success
Status,726,14889722121,/g4t1,,fail
Status,727,14910128862,/g4t1,,success
Status,728,14930120811,/g4t1,,success
Status,729,14950412280,/g4t1,,success
Status,730,14970457550,/g4t1,,success
Status,731,14977842997,/g3t1_1,,running
Status,732,14977979475,/g3t1_1,,success
Status,733,14978799246,/g3t1_2,,running
Status,734,14979001902,/g3t1_3,,running
Status,735,14979034032,/g3t1_2,,success
Status,736,14979175453,/g3t1_3,,success
Status,737,14990556611,/g4t1,,fail
Status,738,15010559596,/g4t1,,success
Status,739,15031030238,/g4t1,,success
Status,740,15050873146,/g4t1,,success
Status,741,15071143616,/g4t1,,success
Status,742,15078518076,/g3t1_1,,running
Status,743,15078598293,/g3t1_1,,success
Status,744,15078711422,/g3t1_2,,running
Status,745,15079633747,/g3t1_2,,success
Status,746,15079832790,/g3t1_3,,running
Status,747,15079988753,/g3t1_3,,success
Status,748,15090592749,/g4t1,,fail
Status,749,15110657876,/g4t1,,success
Status,750,15130698800,/g4t1,,success
Status,751,15150694610,/g4t1,,success
Status,752,15171072556,/g4t1,,success
Status,753,15177750204,/g3t1_1,,running
Status,754,15177809249,/g3t1_1,,success
Status,755,15178418003,/g3t1_2,,running
Status,756,15178642010,/g3t1_2,,success
Status,757,15179285554,/g3t1_3,,running
Status,758,15179534191,/g3t1_3,,success
Status,759,15191282242,/g4t1,,fail
Status,760,15211351454,/g4t1,,success
Status,761,15231650371,/g4t1,,success
Status,762,15251838148,/g4t1,,success
Status,763,15271983768,/g4t1,,success
Status,764,15277791783,/g3t1_1,,running
Status,765,15278533618,/g3t1_1,,success
Status,766,15278615198,/g3t1_2,,running
Status,767,15279033978,/g3t1_2,,success
Status,768,15279880915,/g3t1_3,,running
Status,769,15280194451,/g3t1_3,,success
Status,770,15292235210,/g4t1,,fail
Status,771,15312219330,/g4t1,,success
Status,772,15332485693,/g4t1,,success
Status,773,15352445456,/g4t1,,success
Status,774,15372413625,/g4t1,,success
Status,775,15377591008,/g3t1_1,,running
Status,776,15377824665,/g3t1_1,,success
Status,777,15378553492,/g3t1_2,,running
Status,778,15378601403,/g3t1_2,,success
Status,779,15379369013,/g3t1_3,,running
Status,780,15379654983,/g3t1_3,,success
Status,781,15392262281,/g4t1,,fail
Status,782,15412479500,/g4t1,,success
Status,783,15432866397,/g4t1,,success
Status,784,15452867763,/g4t1,,success
Status,785,15472972772,/g4t1,,success
Status,786,15478291389,/g3t1_1,,running
Status,787,15478642939,/g3t1_1,,success
Status,788,15478729393,/g3t1_2,,running
Status,789,15479820588,/g3t1_2,,success
Status,790,15479857952,/g3t1_3,,running
Status,791,15479908917,/g3t1_3,,success
Status,792,15492976723,/g4t1,,fail
Status,793,15513164871,/g4t1,,success
Status,794,15533418000,/g4t1,,success
Status,795,15553375005,/g4t1,,success
Status,796,15573728280,/g4t1,,success
Status,797,15578243551,/g3t1_1,,running
Status,798,15578761076,/g3t1_2,,running
Status,799,15578817023,/g3t1_1,,success
Status,800,15579430454,/g3t1_2,,success
Status,801,15579677183,/g3t1_3,,running
Status,802,15580199339,/g3t1_3,,success
Status,803,15593622157,/g4t1,,fail
Status,804,15613496969,/g4t1,,success
Status,805,15633351336,/g4t1,,success
Status,806,15653443889,/g4t1,,success
Status,807,15673517112,/g4t1,,success
Status,808,15677923647,/g3t1_1,,running
Status,809,15677955851,/g3t1_1,,success
Status,810,15678532403,/g3t1_2,,running
Status,811,15678765381,/g3t1_2,,success
Status,812,15679555159,/g3t1_3,,running
Status,813,15679679469,/g3t1_3,,success
Status,814,15693591503,/g4t1,,fail
Status,815,15714313763,/g4t1,,success
Status,816,15734525862,/g4t1,,success
Status,817,15754668428,/g4t1,,success
Status,818,15774880484,/g4t1,,success
Status,819,15778636139,/g3t1_1,,running
Status,820,15778704497,/g3t1_1,,success
Status,821,15779115964,/g3t1_2,,running
Status,822,15780075174,/g3t1_2,,success
Status,823,15780586823,/g3t1_3,,running
Status,824,15780651826,/g3t1_3,,success
Status,825,15794314479,/g4t1,,fail
Status,826,15814605402,/g4t1,,success
Status,827,15834996141,/g4t1,,success
Status,828,15855089682,/g4t1,,success
Status,829,15875194935,/g4t1,,success
Status,830,15878229932,/g3t1_1,,running
Status,831,15878864844,/g3t1_1,,success
Status,832,15878912553,/g3t1_2,,running
Status,833,15879482620,/g3t1_2,,success
Status,834,15879948328,/g3t1_3,,running
Status,835,15880479865,/g3t1_3,,success
Status,836,15895361523,/g4t1,,fail
Status,837,15915438445,/g4t1,,success
Status,838,15935777827,/g4t1,,success
Status,839,15955769467,/g4t1,,success
Status,840,15975944189,/g4t1,,success
Status,841,15978496693,/g3t1_1,,running
Status,842,15978726327,/g3t1_1,,success
Status,843,15979116361,/g3t1_2,,running
Status,844,15979530939,/g3t1_2,,success
Status,845,15980231717,/g3t1_3,,running
Status,846,15980504715,/g3t1_3,,success
Status,847,15995831475,/g4t1,,fail
Status,848,16016045607,/g4t1,,success
Status,849,16036274392,/g4t1,,success
Status,850,16056449376,/g4t1,,success
Status,851,16076324254,/g4t1,,success
Status,852,16078751502,/g3t1_1,,running
Status,853,16079015788,/g3t1_1,,success
Status,854,16079107880,/g3t1_2,,running
Status,855,16079825475,/g3t1_2,,success
Status,856,16080466282,/g3t1_3,,running
Status,857,16080837587,/g3t1_3,,success
Status,858,16096687043,/g4t1,,fail
Status,859,16116639724,/g4t1,,success
Status,860,16136879808,/g4t1,,success
Status,861,16157018895,/g4t1,,success
Status,862,16177084216,/g4t1,,success
Status,863,16178693470,/g3t1_1,,running
Status,864,16179243599,/g3t1_1,,success
Status,865,16179323703,/g3t1_2,,running
Status,866,16180240983,/g3t1_2,,success
Status,867,16180345466,/g3t1_3,,running
Status,868,16180888262,/g3t1_3,,success
Status,869,16197397392,/g4t1,,fail
Status,870,16217469776,/g4t1,,success
Status,871,16237564449,/g4t1,,success
Status,872,16257738552,/g4t1,,success
Status,873,16277698257,/g4t1,,success
Status,874,16278791395,/g3t1_1,,running
Status,875,16279729892,/g3t1_1,,success
Status,876,16279803374,/g3t1_2,,running
Status,877,16280068147,/g3t1_2,,success
Status,878,16280915615,/g3t1_3,,running
Status,879,16281067728,/g3t1_3,,success
Status,880,16298048383,/g4t1,,fail
Status,881,16318345828,/g4t1,,success
Status,882,16338247616,/g4t1,,success
Status,883,16358794683,/g4t1,,success
Status,884,16378860530,/g4t1,,success
Status,885,16379012215,/g3t1_1,,running
Status,886,16379528881,/g3t1_1,,success
Status,887,16379579154,/g3t1_2,,running
Status,888,16380320571,/g3t1_2,,success
Status,889,16380757188,/g3t1_3,,running
Status,890,16380838482,/g3t1_3,,success
Status,891,16398905161,/g4t1,,fail
Status,892,16419272510,/g4t1,,success
Status,893,16439331004,/g4t1,,success
Status,894,16459384683,/g4t1,,success
Status,895,16479070396,/g3t1_1,,running
Status,896,16479278235,/g4t1,,success
Status,897,16479414420,/g3t1_1,,success
Status,898,16479611986,/g3t1_2,,running
Status,899,16480285587,/g3t1_2,,success
Status,900,16480726893,/g3t1_3,,running
Status,901,16481535703,/g3t1_3,,success
Status,902,16499500906,/g4t1,,fail
Status,903,16519730489,/g4t1,,success
Status,904,16539804375,/g4t1,,success
Status,905,16560022624,/g4t1,,success
Status,906,16579219475,/g3t1_1,,running
Status,907,16579852053,/g3t1_1,,success
Status,908,16579975886,/g3t1_2,,running
Status,909,16580016498,/g4t1,,success
Status,910,16580418665,/g3t1_2,,success
Status,911,16580814284,/g3t1_3,,running
Status,912,16581521091,/g3t1_3,,success
Status,913,16600217660,/g4t1,,fail
Status,914,16620470822,/g4t1,,success
Status,915,16640435142,/g4t1,,success
Status,916,16660687987,/g4t1,,success
Status,917,16679114230,/g3t1_1,,running
Status,918,16680210058,/g3t1_1,,success
Status,919,16680313369,/g3t1_2,,running
Status,920,16681165916,/g3t1_2,,success
Status,921,16681218227,/g4t1,,fail
Status,922,16681294837,/g3t1_3,,running
Status,923,16681834660,/g3t1_3,,success
Status,924,16700766023,/g4t1,,fail
Status,925,16721102320,/g4t1,,success
Status,926,16741252481,/g4t1,,success
Status,927,16761168186,/g4t1,,success
Status,928,16779330076,/g3t1_1,,running
Status,929,16780113429,/g3t1_1,,success
Status,930,16780189861,/g3t1_2,,running
Status,931,16781449809,/g3t1_2,,success
Status,932,16781520935,/g3t1_3,,running
Status,933,16781638449,/g4t1,,success
Status,934,16781926038,/g3t1_3,,success
Status,935,16801156499,/g4t1,,fail
Status,936,16821243807,/g4t1,,success
Status,937,16841765722,/g4t1,,success
Status,938,16861955747,/g4t1,,success
Status,939,16880459024,/g3t1_1,,running
Status,940,16880637230,/g3t1_1,,success
Status,941,16880692362,/g3t1_2,,running
Status,942,16880730925,/g3t1_2,,success
Status,943,16881533831,/g3t1_3,,running
Status,944,16881954736,/g4t1,,fail
Status,945,16882015521,/g3t1_3,,success
Status,946,16902216523,/g4t1,,success
Status,947,16922147626,/g4t1,,success
Status,948,16942427410,/g4t1,,success
Status,949,16962359252,/g4t1,,success
Status,950,16980424876,/g3t1_1,,running
Status,951,16981155888,/g3t1_2,,running
Status,952,16981213561,/g3t1_1,,success
Status,953,16981243565,/g3t1_2,,success
Status,954,16981268382,/g3t1_3,,running
Status,955,16982298671,/g3t1_3,,success
Status,956,16982427793,/g4t1,,fail
Status,957,17003040997,/g4t1,,fail
Status,958,17022953327,/g4t1,,success
Status,959,17043214802,/g4t1,,success
Status,960,17063218440,/g4t1,,success
Status,961,17079991773,/g3t1_1,,running
Status,962,17080582868,/g3t1_1,,success
Status,963,17080660797,/g3t1_2,,running
Status,964,17081025175,/g3t1_2,,success
Status,965,17081422359,/g3t1_3,,running
Status,966,17081963691,/g3t1_3,,success
Status,967,17082763439,/g4t1,,fail
Status,968,17103402302,/g4t1,,success
Status,969,17123317659,/g4t1,,success
Status,970,17143755083,/g4t1,,success
Status,971,17163802909,/g4t1,,success
Status,972,17180281573,/g3t1_1,,running
Status,973,17180691258,/g3t1_1,,success
Status,974,17180795672,/g3t1_2,,running
Status,975,17181407842,/g3t1_2,,success
Status,976,17181454099,/g3t1_3,,running
Status,977,17182031819,/g3t1_3,,success
Status,978,17183465095,/g4t1,,fail
Status,979,17204057935,/g4t1,,success
Status,980,17224211796,/g4t1,,success
Status,981,17244379215,/g4t1,,success
Status,982,17264338241,/g4t1,,success
Status,983,17279935330,/g3t1_1,,running
Status,984,17279990911,/g3t1_1,,success
Status,985,17280161267,/g3t1_2,,running
Status,986,17280355064,/g3t1_2,,success
Status,987,17281192092,/g3t1_3,,running
Status,988,17281532513,/g3t1_3,,success
Status,989,17283767630,/g4t1,,fail
Status,990,17304196844,/g4t1,,success
Status,991,17324291742,/g4t1,,success
Status,992,17344803850,/g4t1,,success
Status,993,17365069088,/g4t1,,success
Status,994,17380818797,/g3t1_1,,running
Status,995,17381300407,/g3t1_2,,running
Status,996,17381357023,/g3t1_1,,success
Status,997,17381432637,/g3t1_2,,success
Status,998,17382154399,/g3t1_3,,running
Status,999,17382523803,/g3t1_3,,success
Status,1000,17384682790,/g4t1,,fail
Status,1001,17405244648,/g4t1,,success
Status,1002,17425541628,/g4t1,,success
Status,1003,17445545694,/g4t1,,success
Status,1004,17465703777,/g4t1,,success
Status,1005,17480139723,/g3t1_1,,running
Status,1006,17480560661,/g3t1_2,,running
Status,1007,17480608544,/g3t1_1,,success
Status,1008,17480963816,/g3t1_2,,success
Status,1009,17481530517,/g3t1_3,,running
Status,1010,17482074156,/g3t1_3,,success
Status,1011,17485541972,/g4t1,,fail
Status,1012,17506105416,/g4t1,,success
Status,1013,17526327060,/g4t1,,success
Status,1014,17545815828,/g4t1,,success
Status,1015,17566111782,/g4t1,,success
Status,1016,17580429655,/g3t1_1,,running
Status,1017,17580738437,/g3t1_2,,running
Status,1018,17580791008,/g3t1_1,,success
Status,1019,17581101934,/g3t1_2,,success
Status,1020,17581790856,/g3t1_3,,running
Status,1021,17582148772,/g3t1_3,,success
Status,1022,17586046564,/g4t1,,fail
Status,1023,17606278138,/g4t1,,success
Status,1024,17626590462,/g4t1,,success
Status,1025,17646768099,/g4t1,,success
Status,1026,17667196573,/g4t1,,success
Status,1027,17681028548,/g3t1_1,,running
Status,1028,17681134549,/g3t1_2,,running
Status,1029,17681352002,/g3t1_1,,success
Status,1030,17682436714,/g3t1_2,,success
Status,1031,17682489301,/g3t1_3,,running
Status,1032,17682886938,/g3t1_3,,success
Status,1033,17686855079,/g4t1,,fail
Status,1034,17707160482,/g4t1,,success
Status,1035,17727467559,/g4t1,,success
Status,1036,17747802375,/g4t1,,success
Status,1037,17767680834,/g4t1,,success
Status,1038,17781122843,/g3t1_1,,running
Status,1039,17781232415,/g3t1_2,,running
Status,1040,17781762287,/g3t1_1,,success
Status,1041,17782070360,/g3t1_2,,success
Status,1042,17782188398,/g3t1_3,,running
Status,1043,17782869167,/g3t1_3,,success
Status,1044,17787659902,/g4t1,,fail
Status,1045,17807933268,/g4t1,,success
Status,1046,17828085925,/g4t1,,success
Status,1047,17848190986,/g4t1,,success
Status,1048,17868423795,/g4t1,,success
Status,1049,17881100769,/g3t1_1,,running
Status,1050,17881292738,/g3t1_1,,success
Status,1051,17881345347,/g3t1_2,,running
Status,1052,17881781783,/g3t1_2,,success
Status,1053,17882605494,/g3t1_3,,running
Status,1054,17883110851,/g3t1_3,,success
Status,1055,17888336300,/g4t1,,fail
Status,1056,17908653900,/g4t1,,success
Status,1057,17928840399,/g4t1,,success
Status,1058,17948807358,/g4t1,,success
Status,1059,17968812241,/g4t1,,success
Status,1060,17981156001,/g3t1_1,,running
Status,1061,17981271144,/g3t1_2,,running
Status,1062,17981308399,/g3t1_1,,success
Status,1063,17981603901,/g3t1_2,,success
Status,1064,17982296941,/g3t1_3,,running
Status,1065,17983032122,/g3t1_3,,success
Status,1066,17988936777,/g4t1,,fail
Status,1067,18009217500,/g4t1,,success
Status,1068,18029410118,/g4t1,,success
Status,1069,18049624616,/g4t1,,success
Status,1070,18069816971,/g4t1,,success
Status,1071,18081143953,/g3t1_1,,running
Status,1072,18081258258,/g3t1_2,,running
Status,1073,18081382439,/g3t1_1,,success
Status,1074,18081843664,/g3t1_2,,success
Status,1075,18082927107,/g3t1_3,,running
Status,1076,18082981745,/g3t1_3,,success
Status,1077,18089679975,/g4t1,,fail
Status,1078,18109990110,/g4t1,,success
Status,1079,18130050849,/g4t1,,success
Status,1080,18150415398,/g4t1,,success
Status,1081,18170330977,/g4t1,,success
Status,1082,18181602704,/g3t1_1,,running
Status,1083,18181685565,/g3t1_2,,running
Status,1084,18182140134,/g3t1_2,,success
Status,1085,18182243397,/g3t1_1,,success
Status,1086,18182615526,/g3t1_3,,running
Status,1087,18183092705,/g3t1_3,,success
Status,1088,18190243061,/g4t1,,fail
Status,1089,18210509118,/g4t1,,success
Status,1090,18230611170,/g4t1,,success
Status,1091,18250835108,/g4t1,,success
Status,1092,18270958325,/g4t1,,success
Status,1093,18281725724,/g3t1_1,,running
Status,1094,18281810515,/g3t1_2,,running
Status,1095,18282619540,/g3t1_2,,success
Status,1096,18282672029,/g3t1_1,,success
Status,1097,18282884772,/g3t1_3,,running
Status,1098,18283260650,/g3t1_3,,success
Status,1099,18290999003,/g4t1,,fail
Status,1100,18311154132,/g4t1,,success
Status,1101,18331417807,/g4t1,,success
Status,1102,18351959235,/g4t1,,success
Status,1103,18371989942,/g4t1,,success
Status,1104,18382057019,/g3t1_1,,running
Status,1105,18382149434,/g3t1_2,,running
Status,1106,18382191817,/g3t1_2,,success
Status,1107,18382215024,/g3t1_1,,success
Status,1108,18382682814,/g3t1_3,,running
Status,1109,18383395953,/g3t1_3,,success
Status,1110,18391454347,/g4t1,,fail
Status,1111,18411627877,/g4t1,,success
Status,1112,18431875840,/g4t1,,success
Status,1113,18452075609,/g4t1,,success
Status,1114,18472202286,/g4t1,,success
Status,1115,18482070531,/g3t1_1,,running
Status,1116,18482180493,/g3t1_2,,running
Status,1117,18482499742,/g3t1_2,,success
Status,1118,18482773591,/g3t1_1,,success
Status,1119,18482902882,/g3t1_3,,running
Status,1120,18483417718,/g3t1_3,,success
Status,1121,18492142428,/g4t1,,fail
Status,1122,18512298882,/g4t1,,success
Status,1123,18532617252,/g4t1,,success
Status,1124,18552733703,/g4t1,,success
Status,1125,18572133935,/g4t1,,success
Status,1126,18581154636,/g3t1_1,,running
Status,1127,18581351042,/g3t1_1,,success
Status,1128,18581368197,/g3t1_2,,running
Status,1129,18581384518,/g3t1_2,,success
Status,1130,18582377697,/g3t1_3,,running
Status,1131,18582561657,/g3t1_3,,success
Status,1132,18592191077,/g4t1,,fail
Status,1133,18612330261,/g4t1,,success
Status,1134,18632627614,/g4t1,,success
Status,1135,18652519238,/g4t1,,success
Status,1136,18672728533,/g4t1,,success
Status,1137,18681334967,/g3t1_1,,running
Status,1138,18681373332,/g3t1_2,,running
Status,1139,18681455177,/g3t1_1,,success
Status,1140,18681491157,/g3t1_2,,success
Status,1141,18682572920,/g3t1_3,,running
Status,1142,18682702782,/g3t1_3,,success
Status,1143,18692574300,/g4t1,,fail
Status,1144,18712837610,/g4t1,,success
Status,1145,18732980575,/g4t1,,success
Status,1146,18753156859,/g4t1,,success
Status,1147,18773231930,/g4t1,,success
Status,1148,18781463562,/g3t1_1,,running
Status,1149,18781521428,/g3t1_2,,running
Status,1150,18781711661,/g3t1_2,,success
Status,1151,18781747304,/g3t1_1,,success
Status,1152,18783020391,/g3t1_3,,running
Status,1153,18783116786,/g3t1_3,,success
Status,1154,18793314632,/g4t1,,fail
Status,1155,18813469177,/g4t1,,success
Status,1156,18834156831,/g4t1,,success
Status,1157,18854733706,/g4t1,,success
Status,1158,18874646654,/g4t1,,success
Status,1159,18882460071,/g3t1_1,,running
Status,1160,18882518142,/g3t1_2,,running
Status,1161,18882551522,/g3t1_2,,success
Status,1162,18882579502,/g3t1_1,,success
Status,1163,18883243853,/g3t1_3,,running
Status,1164,18883813992,/g3t1_3,,success
Status,1165,18894245944,/g4t1,,fail
Status,1166,18914835968,/g4t1,,success
Status,1167,18934831264,/g4t1,,success
Status,1168,18955292951,/g4t1,,success
Status,1169,18975394511,/g4t1,,success
Status,1170,18982269764,/g3t1_1,,running
Status,1171,18982372600,/g3t1_2,,running
Status,1172,18982713408,/g3t1_2,,success
Status,1173,18982794484,/g3t1_1,,success
Status,1174,18983366245,/g3t1_3,,running
Status,1175,18984193977,/g3t1_3,,success
Status,1176,18995238351,/g4t1,,fail
Status,1177,19015603723,/g4t1,,success
Status,1178,19035694135,/g4t1,,success
Status,1179,19055968896,/g4t1,,success
Status,1180,19075940854,/g4t1,,success
Status,1181,19082866617,/g3t1_1,,running
Status,1182,19082949563,/g3t1_2,,running
Status,1183,19083004338,/g3t1_2,,success
Status,1184,19083330672,/g3t1_1,,success
Status,1185,19083395379,/g3t1_3,,running
Status,1186,19084001525,/g3t1_3,,success
Status,1187,19095931055,/g4t1,,fail
Status,1188,19116455380,/g4t1,,success
Status,1189,19136406118,/g4t1,,success
Status,1190,19156475595,/g4t1,,success
Status,1191,19176712359,/g4t1,,success
Status,1192,19183109852,/g3t1_1,,running
Status,1193,19183333493,/g3t1_2,,running
Status,1194,19183382434,/g3t1_2,,success
Status,1195,19183408443,/g3t1_1,,success
Status,1196,19183703589,/g3t1_3,,running
Status,1197,19184249986,/g3t1_3,,success
Status,1198,19196762802,/g4t1,,fail
Status,1199,19217125281,/g4t1,,success
Status,1200,19237269721,/g4t1,,success
Status,1201,19257379589,/g4t1,,success
Status,1202,19277462202,/g4t1,,success
Status,1203,19283107116,/g3t1_1,,running
Status,1204,19283198207,/g3t1_2,,running
Status,1205,19283565202,/g3t1_1,,success
Status,1206,19283630373,/g3t1_2,,success
Status,1207,19283701873,/g3t1_3,,running
Status,1208,19284053251,/g3t1_3,,success
Status,1209,19297449500,/g4t1,,fail
Status,1210,19318000771,/g4t1,,success
Status,1211,19338100924,/g4t1,,success
Status,1212,19358243548,/g4t1,,success
Status,1213,19378201140,/g4t1,,success
Status,1214,19382896008,/g3t1_1,,running
Status,1215,19383016751,/g3t1_2,,running
Status,1216,19383334303,/g3t1_1,,success
Status,1217,19383834865,/g3t1_2,,success
Status,1218,19383899644,/g3t1_3,,running
Status,1219,19384495392,/g3t1_3,,success
Status,1220,19398471148,/g4t1,,fail
Status,1221,19418658716,/g4t1,,success
Status,1222,19438864598,/g4t1,,success
Status,1223,19458590349,/g4t1,,success
Status,1224,19479131130,/g4t1,,success
Status,1225,19482943138,/g3t1_1,,running
Status,1226,19483292188,/g3t1_2,,running
Status,1227,19483366600,/g3t1_1,,success
Status,1228,19483786659,/g3t1_2,,success
Status,1229,19483966603,/g3t1_3,,running
Status,1230,19484547548,/g3t1_3,,success
Status,1231,19499153093,/g4t1,,fail
Status,1232,19519337524,/g4t1,,success
Status,1233,19539511576,/g4t1,,success
Status,1234,19559651455,/g4t1,,success
Status,1235,19579837575,/g4t1,,success
Status,1236,19583472248,/g3t1_1,,running
Status,1237,19583528924,/g3t1_2,,running
Status,1238,19583586454,/g3t1_1,,success
Status,1239,19583679331,/g3t1_2,,success
Status,1240,19584040512,/g3t1_3,,running
Status,1241,19584420029,/g3t1_3,,success
Status,1242,19599926510,/g4t1,,fail
Status,1243,19620057005,/g4t1,,success
Status,1244,19640290523,/g4t1,,success
Status,1245,19660302976,/g4t1,,success
Status,1246,19680569548,/g4t1,,success
Status,1247,19683050158,/g3t1_2,,running
Status,1248,19683142356,/g3t1_1,,running
Status,1249,19683543978,/g3t1_1,,success
Status,1250,19683710991,/g3t1_2,,success
Status,1251,19684481410,/g3t1_3,,running
Status,1252,19684533160,/g3t1_3,,success
Status,1253,19700771504,/g4t1,,fail
Status,1254,19720756328,/g4t1,,success
Status,1255,19740996101,/g4t1,,success
Status,1256,19761043472,/g4t1,,success
Status,1257,19781154776,/g4t1,,success
Status,1258,19783431734,/g3t1_1,,running
Status,1259,19783562823,/g3t1_2,,running
Status,1260,19783970103,/g3t1_1,,success
Status,1261,19784156998,/g3t1_2,,success
Status,1262,19784376856,/g3t1_3,,running
Status,1263,19784662366,/g3t1_3,,success
Status,1264,19801296726,/g4t1,,fail
Status,1265,19821415674,/g4t1,,success
Status,1266,19841746250,/g4t1,,success
Status,1267,19861765739,/g4t1,,success
Status,1268,19881846211,/g4t1,,success
Status,1269,19883265128,/g3t1_1,,running
Status,1270,19883360194,/g3t1_2,,running
Status,1271,19884048450,/g3t1_2,,success
Status,1272,19884261864,/g3t1_1,,success
Status,1273,19884323656,/g3t1_3,,running
Status,1274,19884759598,/g3t1_3,,success
Status,1275,19902005742,/g4t1,,fail
Status,1276,19922013810,/g4t1,,success
Status,1277,19942215647,/g4t1,,success
Status,1278,19962388407,/g4t1,,success
Status,1279,19983317305,/g4t1,,success
Status,1280,19989955765,/g3t1_1,,running
Status,1281,19990017765,/g3t1_1,,success
Status,1282,19990047777,/g3t1_2,,running
Status,1283,19990130534,/g3t1_2,,success
Status,1284,19990161227,/g3t1_3,,running
Status,1285,19990186210,/g3t1_3,,success
Status,1286,20001837367,/g4t1,,fail
Status,1287,20021771596,/g4t1,,success
Status,1288,20041790616,/g4t1,,success
Status,1289,20061923073,/g4t1,,success
Status,1290,20081970304,/g4t1,,success
Status,1291,20082884397,/g3t1_1,,running
Status,1292,20083029664,/g3t1_1,,success
Status,1293,20086308209,/g3t1_3,,running
Status,1294,20086344128,/g3t1_3,,success
Status,1295,20086351530,/g3t1_2,,running
Status,1296,20086357092,/g3t1_2,,success
Status,1297,20102168754,/g4t1,,fail
Status,1298,20122271814,/g4t1,,success
Status,1299,20142439059,/g4t1,,success
Status,1300,20162353907,/g4t1,,success
Status,1301,20182378250,/g4t1,,success
Status,1302,20182889373,/g3t1_1,,running
Status,1303,20183066836,/g3t1_1,,success
Status,1304,20183816745,/g3t1_3,,running
Status,1305,20184044605,/g3t1_2,,running
Status,1306,20184086623,/g3t1_3,,success
Status,1307,20184093413,/g3t1_2,,success
Status,1308,20202539009,/g4t1,,fail
Status,1309,20223309300,/g4t1,,success
Status,1310,20243423222,/g4t1,,success
Status,1311,20263493738,/g4t1,,success
Status,1312,20283844131,/g3t1_1,,running
Status,1313,20283941136,/g4t1,,success
Status,1314,20283977602,/g3t1_1,,success
Status,1315,20284951926,/g3t1_3,,running
Status,1316,20285010532,/g3t1_2,,running
Status,1317,20285554631,/g3t1_2,,success
Status,1318,20285625043,/g3t1_3,,success
Status,1319,20303677320,/g4t1,,fail
Status,1320,20324014860,/g4t1,,success
Status,1321,20344155746,/g4t1,,success
Status,1322,20364117553,/g4t1,,success
Status,1323,20384031916,/g3t1_1,,running
Status,1324,20384109232,/g4t1,,success
Status,1325,20384541876,/g3t1_1,,success
Status,1326,20384597911,/g3t1_3,,running
Status,1327,20385425955,/g3t1_2,,running
Status,1328,20385471196,/g3t1_3,,success
Status,1329,20385934065,/g3t1_2,,success
Status,1330,20404452306,/g4t1,,fail
Status,1331,20424580594,/g4t1,,success
Status,1332,20445045561,/g4t1,,success
Status,1333,20464970686,/g4t1,,success
Status,1334,20484131790,/g3t1_1,,running
Status,1335,20484353813,/g3t1_1,,success
Status,1336,20484737281,/g3t1_3,,running
Status,1337,20485681213,/g4t1,,success
Status,1338,20485737326,/g3t1_2,,running
Status,1339,20485787181,/g3t1_2,,success
Status,1340,20485847397,/g3t1_3,,success
Status,1341,20505315163,/g4t1,,fail
Status,1342,20525357417,/g4t1,,success
Status,1343,20545721978,/g4t1,,success
Status,1344,20565769341,/g4t1,,success
Status,1345,20584179371,/g3t1_1,,running
Status,1346,20584600851,/g3t1_1,,success
Status,1347,20585220691,/g3t1_3,,running
Status,1348,20586017117,/g3t1_3,,success
Status,1349,20586078355,/g4t1,,success
Status,1350,20586158527,/g3t1_2,,running
Status,1351,20586190263,/g3t1_2,,success
Status,1352,20606000038,/g4t1,,fail
Status,1353,20625571983,/g4t1,,success
Status,1354,20646259286,/g4t1,,success
Status,1355,20666393920,/g4t1,,success
Status,1356,20684340931,/g3t1_1,,running
Status,1357,20684800796,/g3t1_1,,success
Status,1358,20685261229,/g3t1_3,,running
Status,1359,20685784436,/g3t1_2,,running
Status,1360,20685947936,/g3t1_3,,success
Status,1361,20686212424,/g3t1_2,,success
Status,1362,20686626320,/g4t1,,fail
Status,1363,20707097433,/g4t1,,success
Status,1364,20726912899,/g4t1,,success
Status,1365,20747384677,/g4t1,,success
Status,1366,20767256436,/g4t1,,success
Status,1367,20784491963,/g3t1_1,,running
Status,1368,20785438178,/g3t1_1,,success
Status,1369,20786287366,/g3t1_3,,running
Status,1370,20786434871,/g3t1_2,,running
Status,1371,20786479079,/g3t1_2,,success
Status,1372,20786508403,/g3t1_3,,success
Status,1373,20786993240,/g4t1,,fail
Status,1374,20807386764,/g4t1,,success
Status,1375,20827426067,/g4t1,,success
Status,1376,20847862242,/g4t1,,success
Status,1377,20867779121,/g4t1,,success
Status,1378,20885001737,/g3t1_1,,running
Status,1379,20885597532,/g3t1_1,,success
Status,1380,20885916258,/g3t1_3,,running
Status,1381,20885980740,/g3t1_2,,running
Status,1382,20886005889,/g3t1_3,,success
Status,1383,20886400465,/g3t1_2,,success
Status,1384,20887597310,/g4t1,,fail
Status,1385,20908089313,/g4t1,,success
Status,1386,20928258574,/g4t1,,success
Status,1387,20948541596,/g4t1,,success
Status,1388,20968510870,/g4t1,,success
Status,1389,20984585610,/g3t1_1,,running
Status,1390,20985065332,/g3t1_1,,success
Status,1391,20985151613,/g3t1_3,,running
Status,1392,20986178158,/g3t1_2,,running
Status,1393,20986383143,/g3t1_2,,success
Status,1394,20986410522,/g3t1_3,,success
Status,1395,20988413143,/g4t1,,fail
Status,1396,21008972284,/g4t1,,success
Status,1397,21029272300,/g4t1,,success
Status,1398,21049007855,/g4t1,,success
Status,1399,21069091811,/g4t1,,success
Status,1400,21084779362,/g3t1_1,,running
Status,1401,21085163094,/g3t1_1,,success
Status,1402,21085495927,/g3t1_3,,running
Status,1403,21086061230,/g3t1_2,,running
Status,1404,21086779125,/g3t1_2,,success
Status,1405,21086829758,/g3t1_3,,success
Status,1406,21088752984,/g4t1,,fail
Status,1407,21109636040,/g4t1,,success
Status,1408,21130056410,/g4t1,,success
Status,1409,21149774063,/g4t1,,success
Status,1410,21170130678,/g4t1,,success
Status,1411,21184876356,/g3t1_1,,running
Status,1412,21185660924,/g3t1_1,,success
Status,1413,21185725799,/g3t1_3,,running
Status,1414,21186221768,/g3t1_2,,running
Status,1415,21186275930,/g3t1_3,,success
Status,1416,21186521623,/g3t1_2,,success
Status,1417,21189731957,/g4t1,,fail
Status,1418,21210226557,/g4t1,,success
Status,1419,21230559467,/g4t1,,success
Status,1420,21250640704,/g4t1,,success
Status,1421,21270753173,/g4t1,,success
Status,1422,21285330577,/g3t1_1,,running
Status,1423,21286088038,/g3t1_3,,running
Status,1424,21286225908,/g3t1_1,,success
Status,1425,21286262337,/g3t1_2,,running
Status,1426,21286754465,/g3t1_2,,success
Status,1427,21286836363,/g3t1_3,,success
Status,1428,21290548340,/g4t1,,fail
Status,1429,21310979989,/g4t1,,success
Status,1430,21331318604,/g4t1,,success
Status,1431,21351258755,/g4t1,,success
Status,1432,21371313257,/g4t1,,success
Status,1433,21385663581,/g3t1_1,,running
Status,1434,21386416688,/g3t1_3,,running
Status,1435,21386487305,/g3t1_1,,success
Status,1436,21386612599,/g3t1_2,,running
Status,1437,21387242386,/g3t1_3,,success
Status,1438,21387325915,/g3t1_2,,success
Status,1439,21391285876,/g4t1,,fail
Status,1440,21411524060,/g4t1,,success
Status,1441,21431762515,/g4t1,,success
Status,1442,21451839893,/g4t1,,success
Status,1443,21471928449,/g4t1,,success
Status,1444,21485537840,/g3t1_1,,running
Status,1445,21486857815,/g3t1_3,,running
Status,1446,21486904639,/g3t1_1,,success
Status,1447,21486987549,/g3t1_2,,running
Status,1448,21487009530,/g3t1_2,,success
Status,1449,21487028405,/g3t1_3,,success
Status,1450,21491868782,/g4t1,,fail
Status,1451,21512329996,/g4t1,,success
Status,1452,21532561030,/g4t1,,success
Status,1453,21552543892,/g4t1,,success
Status,1454,21572607288,/g4t1,,success
Status,1455,21586165684,/g3t1_1,,running
Status,1456,21586233637,/g3t1_3,,running
Status,1457,21586265862,/g3t1_1,,success
Status,1458,21586913859,/g3t1_2,,running
Status,1459,21587174119,/g3t1_3,,success
Status,1460,21587220295,/g3t1_2,,success
Status,1461,21592389445,/g4t1,,fail
Status,1462,21612842694,/g4t1,,success
Status,1463,21633054306,/g4t1,,success
Status,1464,21653141237,/g4t1,,success
Status,1465,21673426246,/g4t1,,success
Status,1466,21686276206,/g3t1_1,,running
Status,1467,21686552372,/g3t1_3,,running
Status,1468,21686607935,/g3t1_2,,running
Status,1469,21687626153,/g3t1_1,,success
Status,1470,21687666128,/g3t1_2,,success
Status,1471,21687716025,/g3t1_3,,success
Status,1472,21693271583,/g4t1,,fail
Status,1473,21713676482,/g4t1,,success
Status,1474,21733606920,/g4t1,,success
Status,1475,21753805625,/g4t1,,success
Status,1476,21774159855,/g4t1,,success
Status,1477,21786423480,/g3t1_1,,running
Status,1478,21786516893,/g3t1_3,,running
Status,1479,21787044770,/g3t1_2,,running
Status,1480,21787164910,/g3t1_1,,success
Status,1481,21787242239,/g3t1_3,,success
Status,1482,21787520359,/g3t1_2,,success
Status,1483,21794089642,/g4t1,,fail
Status,1484,21814433902,/g4t1,,success
Status,1485,21834459287,/g4t1,,success
Status,1486,21854889395,/g4t1,,success
Status,1487,21874984668,/g4t1,,success
Status,1488,21886998180,/g3t1_1,,running
Status,1489,21887096259,/g3t1_3,,running
Status,1490,21887222699,/g3t1_1,,success
Status,1491,21887343638,/g3t1_2,,running
Status,1492,21888116268,/g3t1_2,,success
Status,1493,21888189335,/g3t1_3,,success
Status,1494,21894836734,/g4t1,,fail
Status,1495,21915353944,/g4t1,,success
Status,1496,21935363807,/g4t1,,success
Status,1497,21955469181,/g4t1,,success
Status,1498,21975649754,/g4t1,,success
Status,1499,21986821943,/g3t1_1,,running
Status,1500,21986910264,/g3t1_3,,running
Status,1501,21987151955,/g3t1_2,,running
Status,1502,21987187489,/g3t1_1,,success
Status,1503,21987205205,/g3t1_3,,success
Status,1504,21987706209,/g3t1_2,,success
Status,1505,21995401051,/g4t1,,fail
Status,1506,22015701429,/g4t1,,success
Status,1507,22035896351,/g4t1,,success
Status,1508,22056021207,/g4t1,,success
Status,1509,22076094231,/g4t1,,success
Status,1510,22087256315,/g3t1_1,,running
Status,1511,22087329082,/g3t1_3,,running
Status,1512,22087538856,/g3t1_3,,success
Status,1513,22087583486,/g3t1_1,,success
Status,1514,22087658318,/g3t1_2,,running
Status,1515,22087686174,/g3t1_2,,success
Status,1516,22096263080,/g4t1,,fail
Status,1517,22116381854,/g4t1,,success
Status,1518,22136560229,/g4t1,,success
Status,1519,22156603466,/g4t1,,success
Status,1520,22176813749,/g4t1,,success
Status,1521,22187298150,/g3t1_1,,running
Status,1522,22187425157,/g3t1_3,,running
Status,1523,22187966686,/g3t1_2,,running
Status,1524,22188102546,/g3t1_3,,success
Status,1525,22188178841,/g3t1_2,,success
Status,1526,22188247412,/g3t1_1,,success
Status,1527,22197057397,/g4t1,,fail
Status,1528,22217048194,/g4t1,,success
Status,1529,22237297859,/g4t1,,success
Status,1530,22257374276,/g4t1,,success
Status,1531,22277546723,/g4t1,,success
Status,1532,22287437170,/g3t1_1,,running
Status,1533,22287501648,/g3t1_3,,running
Status,1534,22287535673,/g3t1_1,,success
Status,1535,22287563796,/g3t1_2,,running
Status,1536,22287637852,/g3t1_3,,success
Status,1537,22288003023,/g3t1_2,,success
Status,1538,22297781925,/g4t1,,fail
Status,1539,22317923913,/g4t1,,success
Status,1540,22338143704,/g4t1,,success
Status,1541,22358230233,/g4t1,,success
Status,1542,22378436268,/g4t1,,success
Status,1543,22388003407,/g3t1_1,,running
