
Status,2,3522192798,/g4t1,,init
Status,3,8636686243,/g3t1_1,,init
Status,5,8642929189,/g3t1_1,,init
Status,6,8642944184,/g3t1_1,,running
Status,7,8643375233,/g3t1_1,,success
Status,8,8743091478,/g3t1_1,,running
Status,9,8743107675,/g3t1_1,,success
Status,11,8837543588,/g3t1_2,,init
Status,12,8837590614,/g3t1_3,,init
Status,14,8843067047,/g3t1_1,,running
Status,15,8843200896,/g3t1_1,,success
Status,16,8848970975,/g3t1_2,,init
Status,17,8848986375,/g3t1_2,,running
Status,18,8849012627,/g3t1_3,,init
Status,19,8849019675,/g3t1_3,,running
Status,20,8849558897,/g3t1_2,,success
Status,21,8849699028,/g3t1_3,,success
Status,22,8944049782,/g3t1_1,,running
Status,23,8944376519,/g3t1_1,,success
Status,24,8949898414,/g3t1_2,,running
Status,25,8949973056,/g3t1_3,,running
Status,26,8950010072,/g4t1,,success
Status,27,8950295212,/g3t1_3,,success
Status,28,8950339347,/g3t1_2,,success
Status,29,9043948608,/g3t1_1,,running
Status,30,9044551258,/g3t1_1,,success
Status,31,9050091607,/g3t1_2,,running
Status,32,9050165193,/g3t1_3,,running
Status,33,9050515468,/g3t1_3,,success
Status,34,9051174845,/g4t1,,success
Status,35,9051893186,/g3t1_2,,success
Status,36,9071034410,/g4t1,,success
Status,37,9144180030,/g3t1_1,,running
Status,38,9144661069,/g3t1_1,,success
Status,39,9150067993,/g3t1_2,,running
Status,40,9150186346,/g3t1_3,,running
Status,41,9150295023,/g3t1_2,,success
Status,42,9150871725,/g3t1_3,,success
Status,43,9151436677,/g4t1,,success
Status,44,9171223596,/g4t1,,success
Status,45,9191211314,/g4t1,,success
Status,46,9212132098,/g4t1,,success
Status,47,9232135656,/g4t1,,success
Status,48,9244611410,/g3t1_1,,running
Status,49,9245127354,/g3t1_1,,success
Status,50,9250460678,/g3t1_3,,running
Status,51,9250512728,/g3t1_2,,running
Status,52,9250569753,/g3t1_3,,success
Status,53,9250863259,/g3t1_2,,success
Status,54,9252112603,/g4t1,,success
Status,55,9272318337,/g4t1,,success
Status,56,9292435931,/g4t1,,success
Status,57,9312728036,/g4t1,,success
Status,58,9332758454,/g4t1,,success
Status,59,9344648268,/g3t1_1,,running
Status,60,9344712624,/g3t1_1,,success
Status,61,9350547157,/g3t1_3,,running
Status,62,9350617636,/g3t1_2,,running
Status,63,9350897810,/g3t1_3,,success
Status,64,9351010004,/g3t1_2,,success
Status,65,9352704767,/g4t1,,fail
Status,66,9372960365,/g4t1,,success
Status,67,9393146703,/g4t1,,success
Status,68,9413214195,/g4t1,,success
Status,69,9433359444,/g4t1,,success
Status,70,9444613686,/g3t1_1,,running
Status,71,9444989737,/g3t1_1,,success
Status,72,9451597021,/g3t1_3,,running
Status,73,9451652169,/g3t1_2,,running
Status,74,9451672924,/g3t1_2,,success
Status,75,9451693069,/g3t1_3,,success
Status,76,9453384385,/g4t1,,fail
Status,77,9473599574,/g4t1,,success
Status,78,9493798094,/g4t1,,success
Status,79,9514057991,/g4t1,,success
Status,80,9534024424,/g4t1,,success
Status,81,9544566449,/g3t1_1,,running
Status,82,9544882716,/g3t1_1,,success
Status,83,9550677885,/g3t1_3,,running
Status,84,9550755548,/g3t1_2,,running
Status,85,9551077122,/g3t1_3,,success
Status,86,9551128472,/g3t1_2,,success
Status,87,9553996830,/g4t1,,fail
Status,88,9574255405,/g4t1,,success
Status,89,9594417340,/g4t1,,success
Status,90,9614649608,/g4t1,,success
Status,91,9634548209,/g4t1,,success
Status,92,9644669502,/g3t1_1,,running
Status,93,9645013230,/g3t1_1,,success
Status,94,9651059154,/g3t1_3,,running
Status,95,9651127016,/g3t1_2,,running
Status,96,9651168412,/g3t1_2,,success
Status,97,9651541535,/g3t1_3,,success
Status,98,9654509035,/g4t1,,fail
Status,99,9674676133,/g4t1,,success
Status,100,9694847268,/g4t1,,success
Status,101,9715210296,/g4t1,,success
Status,102,9735376372,/g4t1,,success
Status,103,9744920309,/g3t1_1,,running
Status,104,9745257505,/g3t1_1,,success
Status,105,9751712551,/g3t1_2,,running
Status,106,9751792597,/g3t1_3,,running
Status,107,9751825051,/g3t1_2,,success
Status,108,9751848988,/g3t1_3,,success
Status,109,9755355341,/g4t1,,fail
Status,110,9775527508,/g4t1,,success
Status,111,9795489354,/g4t1,,success
Status,112,9815769618,/g4t1,,success
Status,113,9835959071,/g4t1,,success
Status,114,9845008758,/g3t1_1,,running
Status,115,9845388125,/g3t1_1,,success
Status,116,9851433382,/g3t1_3,,running
Status,117,9851509776,/g3t1_2,,running
Status,118,9851699871,/g3t1_3,,success
Status,119,9851808220,/g3t1_2,,success
Status,120,9855951785,/g4t1,,fail
Status,121,9876281443,/g4t1,,success
Status,122,9896377211,/g4t1,,success
Status,123,9916382848,/g4t1,,success
Status,124,9936515225,/g4t1,,success
Status,125,9945179025,/g3t1_1,,running
Status,126,9945576877,/g3t1_1,,success
Status,127,9951618379,/g3t1_2,,running
Status,128,9951847648,/g3t1_3,,running
Status,129,9951924271,/g3t1_2,,success
Status,130,9952106641,/g3t1_3,,success
Status,131,9956531624,/g4t1,,fail
Status,132,9976725921,/g4t1,,success
Status,133,9996887256,/g4t1,,success
Status,134,10017095344,/g4t1,,success
Status,135,10037075453,/g4t1,,success
Status,136,10045297355,/g3t1_1,,running
Status,137,10045612760,/g3t1_1,,success
Status,138,10051760197,/g3t1_2,,running
Status,139,10051880988,/g3t1_3,,running
Status,140,10051945638,/g3t1_2,,success
Status,141,10051978208,/g3t1_3,,success
Status,142,10057112802,/g4t1,,fail
Status,143,10077446416,/g4t1,,success
Status,144,10097790942,/g4t1,,success
Status,145,10117742575,/g4t1,,success
Status,146,10137932124,/g4t1,,success
Status,147,10145368678,/g3t1_1,,running
Status,148,10145746647,/g3t1_1,,success
Status,149,10151694840,/g3t1_3,,running
Status,150,10151798300,/g3t1_2,,running
Status,151,10152120150,/g3t1_3,,success
Status,152,10152179089,/g3t1_2,,success
Status,153,10157876261,/g4t1,,fail
Status,154,10178106232,/g4t1,,success
Status,155,10198191700,/g4t1,,success
Status,156,10218350888,/g4t1,,success
Status,157,10238373899,/g4t1,,success
Status,158,10245439587,/g3t1_1,,running
Status,159,10246220462,/g3t1_1,,success
Status,160,10251632303,/g3t1_3,,running
Status,161,10251706494,/g3t1_2,,running
Status,162,10251721997,/g3t1_3,,success
Status,163,10251733449,/g3t1_2,,success
Status,164,10258159615,/g4t1,,fail
Status,165,10278339360,/g4t1,,success
Status,166,10298483424,/g4t1,,success
Status,167,10318809117,/g4t1,,success
Status,168,10339133007,/g4t1,,success
Status,169,10345714769,/g3t1_1,,running
Status,170,10346043546,/g3t1_1,,success
Status,171,10351936728,/g3t1_3,,running
Status,172,10352098091,/g3t1_2,,running
Status,173,10352453316,/g3t1_3,,success
Status,174,10352546154,/g3t1_2,,success
Status,175,10359196949,/g4t1,,fail
Status,176,10379360808,/g4t1,,success
Status,177,10399605814,/g4t1,,success
Status,178,10419856396,/g4t1,,success
Status,179,10439931282,/g4t1,,success
Status,180,10445765695,/g3t1_1,,running
Status,181,10446480947,/g3t1_1,,success
Status,182,10452775293,/g3t1_3,,running
Status,183,10452838150,/g3t1_3,,success
Status,184,10452892971,/g3t1_2,,running
Status,185,10452911872,/g3t1_2,,success
Status,186,10459980841,/g4t1,,fail
Status,187,10480352469,/g4t1,,success
Status,188,10500404614,/g4t1,,success
Status,189,10520532302,/g4t1,,success
Status,190,10540454920,/g4t1,,success
Status,191,10545746537,/g3t1_1,,running
Status,192,10546040602,/g3t1_1,,success
Status,193,10552242250,/g3t1_3,,running
Status,194,10552302297,/g3t1_2,,running
Status,195,10552334787,/g3t1_3,,success
Status,196,10552370637,/g3t1_2,,success
Status,197,10560393475,/g4t1,,fail
Status,198,10580733419,/g4t1,,success
Status,199,10600477569,/g4t1,,success
Status,200,10620574762,/g4t1,,success
Status,201,10640886877,/g4t1,,success
Status,202,10646221409,/g3t1_1,,running
Status,203,10647175188,/g3t1_1,,success
Status,204,10652263606,/g3t1_2,,running
Status,205,10652328032,/g3t1_3,,running
Status,206,10652579701,/g3t1_2,,success
Status,207,10652649610,/g3t1_3,,success
Status,208,10661126243,/g4t1,,fail
Status,209,10681344625,/g4t1,,success
Status,210,10701579921,/g4t1,,success
Status,211,10721682679,/g4t1,,success
Status,212,10741786334,/g4t1,,success
Status,213,10746071686,/g3t1_1,,running
Status,214,10746662768,/g3t1_1,,success
Status,215,10752560808,/g3t1_2,,running
Status,216,10752631604,/g3t1_3,,running
Status,217,10753103761,/g3t1_3,,success
Status,218,10753227185,/g3t1_2,,success
Status,219,10761841477,/g4t1,,fail
Status,220,10782049520,/g4t1,,success
Status,221,10802408021,/g4t1,,success
Status,222,10822358220,/g4t1,,success
Status,223,10842535020,/g4t1,,success
Status,224,10846408276,/g3t1_1,,running
Status,225,10847103617,/g3t1_1,,success
Status,226,10852248805,/g3t1_3,,running
Status,227,10852326877,/g3t1_2,,running
Status,228,10852771086,/g3t1_3,,success
Status,229,10852824617,/g3t1_2,,success
Status,230,10862495354,/g4t1,,fail
Status,231,10882857485,/g4t1,,success
Status,232,10902917407,/g4t1,,success
Status,233,10923202674,/g4t1,,success
Status,234,10943174066,/g4t1,,success
Status,235,10946615184,/g3t1_1,,running
Status,236,10946684046,/g3t1_1,,success
Status,237,10952445461,/g3t1_2,,running
Status,238,10952565821,/g3t1_3,,running
Status,239,10953302893,/g3t1_3,,success
Status,240,10953369060,/g3t1_2,,success
Status,241,10963232759,/g4t1,,fail
Status,242,10983487028,/g4t1,,success
Status,243,11003437773,/g4t1,,success
Status,244,11023734590,/g4t1,,success
Status,245,11043824153,/g4t1,,success
Status,246,11046707829,/g3t1_1,,running
Status,247,11046760803,/g3t1_1,,success
Status,248,11052798279,/g3t1_3,,running
Status,249,11052865921,/g3t1_2,,running
Status,250,11053203886,/g3t1_2,,success
Status,251,11053407861,/g3t1_3,,success
Status,252,11063866509,/g4t1,,fail
Status,253,11084314631,/g4t1,,success
Status,254,11104460329,/g4t1,,success
Status,255,11124538775,/g4t1,,success
Status,256,11144606870,/g4t1,,success
Status,257,11146815917,/g3t1_1,,running
Status,258,11147119374,/g3t1_1,,success
Status,259,11152822882,/g3t1_3,,running
Status,260,11152903469,/g3t1_2,,running
Status,261,11153147864,/g3t1_3,,success
Status,262,11153383081,/g3t1_2,,success
Status,263,11164600672,/g4t1,,fail
Status,264,11184864021,/g4t1,,success
Status,265,11205046098,/g4t1,,success
Status,266,11225235163,/g4t1,,success
Status,267,11245648490,/g4t1,,success
Status,268,11246757128,/g3t1_1,,running
Status,269,11247185027,/g3t1_1,,success
Status,270,11252761880,/g3t1_3,,running
Status,271,11252857313,/g3t1_2,,running
Status,272,11253338711,/g3t1_2,,success
Status,273,11253455278,/g3t1_3,,success
Status,274,11265443999,/g4t1,,fail
Status,275,11285597695,/g4t1,,success
Status,276,11305605802,/g4t1,,success
Status,277,11325375629,/g4t1,,success
Status,278,11345848775,/g4t1,,success
Status,279,11347193423,/g3t1_1,,running
Status,280,11347941349,/g3t1_1,,success
Status,281,11353084651,/g3t1_3,,running
Status,282,11353162090,/g3t1_2,,running
Status,283,11353345436,/g3t1_3,,success
Status,284,11353391693,/g3t1_2,,success
Status,285,11365928859,/g4t1,,fail
Status,286,11386131144,/g4t1,,success
Status,287,11406335263,/g4t1,,success
Status,288,11426354847,/g4t1,,success
Status,289,11446699389,/g4t1,,success
Status,290,11447208279,/g3t1_1,,running
Status,291,11447660258,/g3t1_1,,success
Status,292,11453282085,/g3t1_2,,running
Status,293,11453375652,/g3t1_3,,running
Status,294,11453545186,/g3t1_3,,success
Status,295,11453633122,/g3t1_2,,success
Status,296,11466773747,/g4t1,,fail
Status,297,11487071544,/g4t1,,success
Status,298,11507030940,/g4t1,,success
Status,299,11527226340,/g4t1,,success
Status,300,11547332393,/g3t1_1,,running
Status,301,11547438309,/g4t1,,success
Status,302,11547683195,/g3t1_1,,success
Status,303,11553343126,/g3t1_3,,running
Status,304,11553478688,/g3t1_2,,running
Status,305,11553505938,/g3t1_3,,success
Status,306,11553808749,/g3t1_2,,success
Status,307,11567673237,/g4t1,,fail
Status,308,11587630605,/g4t1,,success
Status,309,11607738772,/g4t1,,success
Status,310,11627986989,/g4t1,,success
Status,311,11647498317,/g3t1_1,,running
Status,312,11647756740,/g3t1_1,,success
Status,313,11647817940,/g4t1,,success
Status,314,11653157731,/g3t1_3,,running
Status,315,11653348461,/g3t1_2,,running
Status,316,11653866543,/g3t1_3,,success
Status,317,11653915468,/g3t1_2,,success
Status,318,11668115601,/g4t1,,fail
Status,319,11688012928,/g4t1,,success
Status,320,11708452793,/g4t1,,success
Status,321,11728384714,/g4t1,,success
Status,322,11747335583,/g3t1_1,,running
Status,323,11747592217,/g3t1_1,,success
Status,324,11748155713,/g4t1,,fail
Status,325,11753534260,/g3t1_3,,running
Status,326,11753613596,/g3t1_2,,running
Status,327,11753931826,/g3t1_2,,success
Status,328,11753988469,/g3t1_3,,success
Status,329,11768637961,/g4t1,,fail
Status,330,11788726351,/g4t1,,success
Status,331,11808921284,/g4t1,,success
Status,332,11829145785,/g4t1,,success
Status,333,11847643373,/g3t1_1,,running
Status,334,11848096344,/g3t1_1,,success
Status,335,11848826600,/g4t1,,success
Status,336,11853204318,/g3t1_3,,running
Status,337,11853272968,/g3t1_2,,running
Status,338,11854165032,/g3t1_3,,success
Status,339,11854210490,/g3t1_2,,success
Status,340,11869261081,/g4t1,,fail
Status,341,11889381884,/g4t1,,success
Status,342,11909435548,/g4t1,,success
Status,343,11929640128,/g4t1,,success
Status,344,11948022391,/g3t1_1,,running
Status,345,11948274914,/g3t1_1,,success
Status,346,11949446150,/g4t1,,fail
Status,347,11953564420,/g3t1_3,,running
Status,348,11953892808,/g3t1_2,,running
Status,349,11954269252,/g3t1_3,,success
Status,350,11954353486,/g3t1_2,,success
Status,351,11969898897,/g4t1,,fail
Status,352,11990060534,/g4t1,,success
Status,353,12010137546,/g4t1,,success
Status,354,12030327760,/g4t1,,success
Status,355,12048168683,/g3t1_1,,running
Status,356,12048239227,/g3t1_1,,success
Status,357,12050207179,/g4t1,,success
Status,358,12054166191,/g3t1_3,,running
Status,359,12054236792,/g3t1_2,,running
Status,360,12054266152,/g3t1_3,,success
Status,361,12054774725,/g3t1_2,,success
Status,362,12070348914,/g4t1,,fail
Status,363,12090790507,/g4t1,,success
Status,364,12110808206,/g4t1,,success
Status,365,12131369391,/g4t1,,success
Status,366,12148508209,/g3t1_1,,running
Status,367,12148814555,/g3t1_1,,success
Status,368,12150889900,/g4t1,,fail
Status,369,12154202882,/g3t1_3,,running
Status,370,12154352539,/g3t1_2,,running
Status,371,12154392407,/g3t1_2,,success
Status,372,12154450419,/g3t1_3,,success
Status,373,12171327345,/g4t1,,fail
Status,374,12191711756,/g4t1,,success
Status,375,12211698597,/g4t1,,success
Status,376,12231815053,/g4t1,,success
Status,377,12248623356,/g3t1_1,,running
Status,378,12249247675,/g3t1_1,,success
Status,379,12251808552,/g4t1,,success
Status,380,12253897075,/g3t1_3,,running
Status,381,12253978730,/g3t1_2,,running
Status,382,12255311320,/g3t1_3,,success
Status,383,12255381287,/g3t1_2,,success
Status,384,12272075135,/g4t1,,fail
Status,385,12292306493,/g4t1,,success
Status,386,12312566265,/g4t1,,success
Status,387,12332487461,/g4t1,,success
Status,388,12348457387,/g3t1_1,,running
Status,389,12348792357,/g3t1_1,,success
Status,390,12352363504,/g4t1,,fail
Status,391,12354455951,/g3t1_3,,running
Status,392,12354532549,/g3t1_2,,running
Status,393,12354849070,/g3t1_3,,success
Status,394,12354918071,/g3t1_2,,success
Status,395,12372532475,/g4t1,,fail
Status,396,12392985514,/g4t1,,success
Status,397,12413044293,/g4t1,,success
Status,398,12433208540,/g4t1,,success
Status,399,12448672431,/g3t1_1,,running
Status,400,12448750594,/g3t1_1,,success
Status,401,12453122368,/g4t1,,success
Status,402,12454227950,/g3t1_3,,running
Status,403,12454415688,/g3t1_2,,running
Status,404,12454690680,/g3t1_3,,success
Status,405,12454877583,/g3t1_2,,success
Status,406,12473459801,/g4t1,,fail
Status,407,12493632846,/g4t1,,success
Status,408,12513848940,/g4t1,,success
Status,409,12533852101,/g4t1,,success
Status,410,12549059292,/g3t1_1,,running
Status,411,12549120354,/g3t1_1,,success
Status,412,12555037057,/g4t1,,fail
Status,413,12555182026,/g3t1_3,,running
Status,414,12555231947,/g3t1_2,,running
Status,415,12555324096,/g3t1_3,,success
Status,416,12555384309,/g3t1_2,,success
Status,417,12574161011,/g4t1,,fail
Status,418,12594397496,/g4t1,,success
Status,419,12614446142,/g4t1,,success
Status,420,12634643480,/g4t1,,success
Status,421,12648793539,/g3t1_1,,running
Status,422,12649262684,/g3t1_1,,success
Status,423,12654465369,/g3t1_3,,running
Status,424,12654603287,/g3t1_2,,running
Status,425,12654647160,/g4t1,,success
Status,426,12655175980,/g3t1_3,,success
Status,427,12655235459,/g3t1_2,,success
Status,428,12674929313,/g4t1,,fail
Status,429,12695071215,/g4t1,,success
Status,430,12715294576,/g4t1,,success
Status,431,12735626516,/g4t1,,success
Status,432,12749187025,/g3t1_1,,running
Status,433,12749569249,/g3t1_1,,success
Status,434,12754669132,/g3t1_3,,running
Status,435,12754863236,/g3t1_2,,running
Status,436,12754946711,/g3t1_3,,success
Status,437,12755273309,/g3t1_2,,success
Status,438,12755328239,/g4t1,,fail
Status,439,12775994356,/g4t1,,fail
Status,440,12796278897,/g4t1,,success
Status,441,12816224657,/g4t1,,success
Status,442,12836499595,/g4t1,,success
Status,443,12849116026,/g3t1_1,,running
Status,444,12849600743,/g3t1_1,,success
Status,445,12854836885,/g3t1_3,,running
Status,446,12855055837,/g3t1_2,,running
Status,447,12855102615,/g3t1_2,,success
Status,448,12855168878,/g3t1_3,,success
Status,449,12856153288,/g4t1,,fail
Status,450,12876493428,/g4t1,,success
Status,451,12896665319,/g4t1,,success
Status,452,12916805578,/g4t1,,success
Status,453,12936897132,/g4t1,,success
Status,454,12949087715,/g3t1_1,,running
Status,455,12949580356,/g3t1_1,,success
Status,456,12954847067,/g3t1_3,,running
Status,457,12954914221,/g3t1_2,,running
Status,458,12955161113,/g3t1_3,,success
Status,459,12955848331,/g3t1_2,,success
Status,460,12956514410,/g4t1,,fail
Status,461,12976963523,/g4t1,,success
Status,462,12997110202,/g4t1,,success
Status,463,13017187911,/g4t1,,success
Status,464,13037516645,/g4t1,,success
Status,465,13049093217,/g3t1_1,,running
Status,466,13049347897,/g3t1_1,,success
Status,467,13055142822,/g3t1_3,,running
Status,468,13055310181,/g3t1_3,,success
Status,469,13055375445,/g3t1_2,,running
Status,470,13055916262,/g3t1_2,,success
Status,471,13057328363,/g4t1,,fail
Status,472,13077704658,/g4t1,,success
Status,473,13097908779,/g4t1,,success
Status,474,13118136345,/g4t1,,success
Status,475,13138333903,/g4t1,,success
Status,476,13149579388,/g3t1_1,,running
Status,477,13149850112,/g3t1_1,,success
Status,478,13155177811,/g3t1_3,,running
Status,479,13155244010,/g3t1_3,,success
Status,480,13155282676,/g3t1_2,,running
Status,481,13156428024,/g3t1_2,,success
Status,482,13157941671,/g4t1,,fail
Status,483,13178430199,/g4t1,,success
Status,484,13198675352,/g4t1,,success
Status,485,13218942494,/g4t1,,success
Status,486,13239649156,/g4t1,,success
Status,487,13250130848,/g3t1_1,,running
Status,488,13250230990,/g3t1_1,,success
Status,489,13254913816,/g3t1_3,,running
Status,490,13255130037,/g3t1_2,,running
Status,491,13255592396,/g3t1_2,,success
Status,492,13255865800,/g3t1_3,,success
Status,493,13258291274,/g4t1,,fail
Status,494,13279247099,/g4t1,,success
Status,495,13299279604,/g4t1,,success
Status,496,13319491787,/g4t1,,success
Status,497,13339609188,/g4t1,,success
Status,498,13349683220,/g3t1_1,,running
Status,499,13349975027,/g3t1_1,,success
Status,500,13355610755,/g3t1_3,,running
Status,501,13355842254,/g3t1_2,,running
Status,502,13356288756,/g3t1_2,,success
Status,503,13356403599,/g3t1_3,,success
Status,504,13359425724,/g4t1,,fail
Status,505,13379501817,/g4t1,,success
Status,506,13399890279,/g4t1,,success
Status,507,13420245049,/g4t1,,success
Status,508,13440246107,/g4t1,,success
Status,509,13449949392,/g3t1_1,,running
Status,510,13450272123,/g3t1_1,,success
Status,511,13455748388,/g3t1_3,,running
Status,512,13455794727,/g3t1_2,,running
Status,513,13455883142,/g3t1_3,,success
Status,514,13455953499,/g3t1_2,,success
Status,515,13460720597,/g4t1,,fail
Status,516,13480354169,/g4t1,,success
Status,517,13500607114,/g4t1,,success
Status,518,13520783334,/g4t1,,success
Status,519,13541353665,/g4t1,,success
Status,520,13550125422,/g3t1_1,,running
Status,521,13550300345,/g3t1_1,,success
Status,522,13555647089,/g3t1_3,,running
Status,523,13555760717,/g3t1_3,,success
Status,524,13555800265,/g3t1_2,,running
Status,525,13556317155,/g3t1_2,,success
Status,526,13560739440,/g4t1,,fail
Status,527,13581087891,/g4t1,,success
Status,528,13601193146,/g4t1,,success
Status,529,13621413930,/g4t1,,success
Status,530,13641458078,/g4t1,,success
Status,531,13650732226,/g3t1_1,,running
Status,532,13651173313,/g3t1_1,,success
Status,533,13655725134,/g3t1_3,,running
Status,534,13655804984,/g3t1_2,,running
Status,535,13656349067,/g3t1_3,,success
Status,536,13656477543,/g3t1_2,,success
Status,537,13661409046,/g4t1,,fail
Status,538,13681659313,/g4t1,,success
Status,539,13701747794,/g4t1,,success
Status,540,13721883917,/g4t1,,success
Status,541,13742213977,/g4t1,,success
Status,542,13750608235,/g3t1_1,,running
Status,543,13750684568,/g3t1_1,,success
Status,544,13755768559,/g3t1_3,,running
Status,545,13755869992,/g3t1_2,,running
Status,546,13756241493,/g3t1_3,,success
Status,547,13756292205,/g3t1_2,,success
Status,548,13762000052,/g4t1,,fail
Status,549,13782486597,/g4t1,,success
Status,550,13802572485,/g4t1,,success
Status,551,13822604213,/g4t1,,success
Status,552,13842704084,/g4t1,,success
Status,553,13850523120,/g3t1_1,,running
Status,554,13850878043,/g3t1_1,,success
Status,555,13855847375,/g3t1_3,,running
Status,556,13855957981,/g3t1_2,,running
Status,557,13856302906,/g3t1_3,,success
Status,558,13856358614,/g3t1_2,,success
Status,559,13862546546,/g4t1,,fail
Status,560,13882872265,/g4t1,,success
Status,561,13903190289,/g4t1,,success
Status,562,13923185023,/g4t1,,success
Status,563,13943363428,/g4t1,,success
Status,564,13950840189,/g3t1_1,,running
Status,565,13951371575,/g3t1_1,,success
Status,566,13956338150,/g3t1_3,,running
Status,567,13956407608,/g3t1_2,,running
Status,568,13956716327,/g3t1_3,,success
Status,569,13957160982,/g3t1_2,,success
Status,570,13963386019,/g4t1,,fail
Status,571,13983667645,/g4t1,,success
Status,572,14003859438,/g4t1,,success
Status,573,14023792641,/g4t1,,success
Status,574,14043987001,/g4t1,,success
Status,575,14050791939,/g3t1_1,,running
Status,576,14051163406,/g3t1_1,,success
Status,577,14056130425,/g3t1_3,,running
Status,578,14056181304,/g3t1_2,,running
Status,579,14056263842,/g3t1_3,,success
Status,580,14056497983,/g3t1_2,,success
Status,581,14064225677,/g4t1,,fail
Status,582,14083961078,/g4t1,,success
Status,583,14104267796,/g4t1,,success
Status,584,14124458271,/g4t1,,success
Status,585,14144577847,/g4t1,,success
Status,586,14150805805,/g3t1_1,,running
Status,587,14151171214,/g3t1_1,,success
Status,588,14156191666,/g3t1_3,,running
Status,589,14156551920,/g3t1_2,,running
Status,590,14156620899,/g3t1_2,,success
Status,591,14156662995,/g3t1_3,,success
Status,592,14164760447,/g4t1,,fail
Status,593,14184804422,/g4t1,,success
Status,594,14204936199,/g4t1,,success
Status,595,14225065321,/g4t1,,success
Status,596,14245076030,/g4t1,,success
Status,597,14251306068,/g3t1_1,,running
Status,598,14251367255,/g3t1_1,,success
Status,599,14256899308,/g3t1_3,,running
Status,600,14256964841,/g3t1_3,,success
Status,601,14257038854,/g3t1_2,,running
Status,602,14257059917,/g3t1_2,,success
Status,603,14265196076,/g4t1,,fail
Status,604,14285366892,/g4t1,,success
Status,605,14305532948,/g4t1,,success
Status,606,14325607317,/g4t1,,success
Status,607,14345827630,/g4t1,,success
Status,608,14350939132,/g3t1_1,,running
Status,609,14351267828,/g3t1_1,,success
Status,610,14356413807,/g3t1_3,,running
Status,611,14356490813,/g3t1_2,,running
Status,612,14356700628,/g3t1_3,,success
Status,613,14357158411,/g3t1_2,,success
Status,614,14365996743,/g4t1,,fail
Status,615,14386070142,/g4t1,,success
Status,616,14406137467,/g4t1,,success
Status,617,14426322727,/g4t1,,success
Status,618,14446567959,/g4t1,,success
Status,619,14451110034,/g3t1_1,,running
Status,620,14451453601,/g3t1_1,,success
Status,621,14456516807,/g3t1_3,,running
Status,622,14456635745,/g3t1_2,,running
Status,623,14456948559,/g3t1_3,,success
Status,624,14457004471,/g3t1_2,,success
Status,625,14466747542,/g4t1,,fail
Status,626,14486709051,/g4t1,,success
Status,627,14506841520,/g4t1,,success
Status,628,14527078136,/g4t1,,success
Status,629,14547110112,/g4t1,,success
Status,630,14551347391,/g3t1_1,,running
Status,631,14551691586,/g3t1_1,,success
Status,632,14556691260,/g3t1_3,,running
Status,633,14556773048,/g3t1_2,,running
Status,634,14557428038,/g3t1_3,,success
Status,635,14557610627,/g3t1_2,,success
Status,636,14567204236,/g4t1,,fail
Status,637,14587315234,/g4t1,,success
Status,638,14607583888,/g4t1,,success
Status,639,14627717951,/g4t1,,success
Status,640,14647709503,/g4t1,,success
Status,641,14651283503,/g3t1_1,,running
Status,642,14651547269,/g3t1_1,,success
Status,643,14657136588,/g3t1_3,,running
Status,644,14657250542,/g3t1_2,,running
Status,645,14657392180,/g3t1_3,,success
Status,646,14657565641,/g3t1_2,,success
Status,647,14668098735,/g4t1,,fail
Status,648,14688081281,/g4t1,,success
Status,649,14708078219,/g4t1,,success
Status,650,14728345633,/g4t1,,success
Status,651,14748408612,/g4t1,,success
Status,652,14751556761,/g3t1_1,,running
Status,653,14752319543,/g3t1_1,,success
Status,654,14756959013,/g3t1_3,,running
Status,655,14757028600,/g3t1_2,,running
Status,656,14757297641,/g3t1_3,,success
Status,657,14758034057,/g3t1_2,,success
Status,658,14768294331,/g4t1,,fail
Status,659,14788545955,/g4t1,,success
Status,660,14808631713,/g4t1,,success
Status,661,14828606659,/g4t1,,success
Status,662,14848837094,/g4t1,,success
Status,663,14851844693,/g3t1_1,,running
Status,664,14852080255,/g3t1_1,,success
Status,665,14857045429,/g3t1_3,,running
Status,666,14857206270,/g3t1_2,,running
Status,667,14857434032,/g3t1_3,,success
Status,668,14857567749,/g3t1_2,,success
Status,669,14868869376,/g4t1,,fail
Status,670,14889139411,/g4t1,,success
Status,671,14909310010,/g4t1,,success
Status,672,14929237071,/g4t1,,success
Status,673,14949497075,/g4t1,,success
Status,674,14951873306,/g3t1_1,,running
Status,675,14952278461,/g3t1_1,,success
Status,676,14957078895,/g3t1_3,,running
Status,677,14957134209,/g3t1_2,,running
Status,678,14957226449,/g3t1_3,,success
Status,679,14957970315,/g3t1_2,,success
Status,680,14969496597,/g4t1,,fail
Status,681,14989671044,/g4t1,,success
Status,682,15009674757,/g4t1,,success
Status,683,15029881162,/g4t1,,success
Status,684,15050088979,/g4t1,,success
Status,685,15051932512,/g3t1_1,,running
Status,686,15051991451,/g3t1_1,,success
Status,687,15057303752,/g3t1_3,,running
Status,688,15057459877,/g3t1_2,,running
Status,689,15057741210,/g3t1_3,,success
Status,690,15058014284,/g3t1_2,,success
Status,691,15070155043,/g4t1,,fail
Status,692,15090409079,/g4t1,,success
Status,693,15110595220,/g4t1,,success
Status,694,15130429713,/g4t1,,success
Status,695,15150681503,/g4t1,,success
Status,696,15151801847,/g3t1_1,,running
Status,697,15152476518,/g3t1_1,,success
Status,698,15157788727,/g3t1_3,,running
Status,699,15157859080,/g3t1_2,,running
Status,700,15157953947,/g3t1_2,,success
Status,701,15157997275,/g3t1_3,,success
Status,702,15170907846,/g4t1,,fail
Status,703,15191064164,/g4t1,,success
Status,704,15211082605,/g4t1,,success
Status,705,15231166305,/g4t1,,success
Status,706,15251869008,/g4t1,,success
Status,707,15251951933,/g3t1_1,,running
Status,708,15252377440,/g3t1_1,,success
Status,709,15257930085,/g3t1_3,,running
Status,710,15258018076,/g3t1_2,,running
Status,711,15258375451,/g3t1_2,,success
Status,712,15258429280,/g3t1_3,,success
Status,713,15271394279,/g4t1,,fail
Status,714,15291670387,/g4t1,,success
Status,715,15311590300,/g4t1,,success
Status,716,15331856038,/g4t1,,success
Status,717,15352080471,/g4t1,,success
Status,718,15352147710,/g3t1_1,,running
Status,719,15352506218,/g3t1_1,,success
Status,720,15357827725,/g3t1_3,,running
Status,721,15357888024,/g3t1_2,,running
Status,722,15357948661,/g3t1_3,,success
Status,723,15358445777,/g3t1_2,,success
Status,724,15372121298,/g4t1,,fail
Status,725,15392291934,/g4t1,,success
Status,726,15412512445,/g4t1,,success
Status,727,15432579465,/g4t1,,success
Status,728,15452430494,/g3t1_1,,running
Status,729,15452507945,/g4t1,,success
Status,730,15452633986,/g3t1_1,,success
Status,731,15458022607,/g3t1_3,,running
Status,732,15458085078,/g3t1_2,,running
Status,733,15458113031,/g3t1_3,,success
Status,734,15458404422,/g3t1_2,,success
Status,735,15472673855,/g4t1,,fail
Status,736,15492826462,/g4t1,,success
Status,737,15512896814,/g4t1,,success
Status,738,15532925263,/g4t1,,success
Status,739,15552383939,/g3t1_1,,running
Status,740,15552698980,/g3t1_1,,success
Status,741,15553106134,/g4t1,,success
Status,742,15558020633,/g3t1_3,,running
Status,743,15558080355,/g3t1_3,,success
Status,744,15558149416,/g3t1_2,,running
Status,745,15558940690,/g3t1_2,,success
Status,746,15573366194,/g4t1,,fail
Status,747,15593465464,/g4t1,,success
Status,748,15613871466,/g4t1,,success
Status,749,15633739724,/g4t1,,success
Status,750,15652431963,/g3t1_1,,running
Status,751,15652710265,/g3t1_1,,success
Status,752,15653652508,/g4t1,,fail
Status,753,15657901566,/g3t1_3,,running
Status,754,15658632386,/g3t1_3,,success
Status,755,15658686936,/g3t1_2,,running
Status,756,15658711389,/g3t1_2,,success
Status,757,15673919522,/g4t1,,fail
Status,758,15694110433,/g4t1,,success
Status,759,15714375282,/g4t1,,success
Status,760,15734671129,/g4t1,,success
Status,761,15752482686,/g3t1_1,,running
Status,762,15752759839,/g3t1_1,,success
Status,763,15754403210,/g4t1,,success
Status,764,15758215832,/g3t1_3,,running
Status,765,15758364876,/g3t1_2,,running
Status,766,15758695657,/g3t1_3,,success
Status,767,15758785976,/g3t1_2,,success
Status,768,15774659863,/g4t1,,fail
Status,769,15794837505,/g4t1,,success
Status,770,15814912981,/g4t1,,success
Status,771,15835092851,/g4t1,,success
Status,772,15852735011,/g3t1_1,,running
Status,773,15853095366,/g3t1_1,,success
Status,774,15854928653,/g4t1,,fail
Status,775,15858296293,/g3t1_3,,running
Status,776,15858360025,/g3t1_2,,running
Status,777,15858439723,/g3t1_3,,success
Status,778,15859280274,/g3t1_2,,success
Status,779,15875374499,/g4t1,,fail
Status,780,15895581317,/g4t1,,success
Status,781,15915458013,/g4t1,,success
Status,782,15935669890,/g4t1,,success
Status,783,15952838169,/g3t1_1,,running
Status,784,15953454312,/g3t1_1,,success
Status,785,15955811320,/g4t1,,success
Status,786,15958277041,/g3t1_3,,running
Status,787,15958354329,/g3t1_2,,running
Status,788,15958813991,/g3t1_3,,success
Status,789,15959473093,/g3t1_2,,success
Status,790,15975959475,/g4t1,,fail
Status,791,15996141854,/g4t1,,success
Status,792,16016181830,/g4t1,,success
Status,793,16036325557,/g4t1,,success
Status,794,16053236153,/g3t1_1,,running
Status,795,16053300729,/g3t1_1,,success
Status,796,16056164759,/g4t1,,fail
Status,797,16058308252,/g3t1_3,,running
Status,798,16058531237,/g3t1_2,,running
Status,799,16058580618,/g3t1_3,,success
Status,800,16059371256,/g3t1_2,,success
Status,801,16076465007,/g4t1,,fail
Status,802,16096621311,/g4t1,,success
Status,803,16116737121,/g4t1,,success
Status,804,16136959122,/g4t1,,success
Status,805,16153296819,/g3t1_1,,running
Status,806,16153570856,/g3t1_1,,success
Status,807,16156758271,/g4t1,,success
Status,808,16159143517,/g3t1_3,,running
Status,809,16159226357,/g3t1_2,,running
Status,810,16159270442,/g3t1_3,,success
Status,811,16159341121,/g3t1_2,,success
Status,812,16176931854,/g4t1,,fail
Status,813,16197513071,/g4t1,,success
Status,814,16217355129,/g4t1,,success
Status,815,16237202503,/g4t1,,success
Status,816,16252781757,/g3t1_1,,running
Status,817,16252990059,/g3t1_1,,success
Status,818,16257088523,/g4t1,,fail
Status,819,16258059016,/g3t1_3,,running
Status,820,16258201644,/g3t1_3,,success
Status,821,16258513694,/g3t1_2,,running
Status,822,16258553206,/g3t1_2,,success
Status,823,16277251233,/g4t1,,fail
Status,824,16297797526,/g4t1,,success
Status,825,16318214580,/g4t1,,success
Status,826,16338094531,/g4t1,,success
Status,827,16353393732,/g3t1_1,,running
Status,828,16354177158,/g3t1_1,,success
Status,829,16358013982,/g4t1,,success
Status,830,16358639731,/g3t1_3,,running
Status,831,16358700910,/g3t1_2,,running
Status,832,16359217533,/g3t1_2,,success
Status,833,16359282754,/g3t1_3,,success
Status,834,16378228967,/g4t1,,fail
Status,835,16398433174,/g4t1,,success
Status,836,16418620769,/g4t1,,success
Status,837,16438748032,/g4t1,,success
Status,838,16453906142,/g3t1_1,,running
Status,839,16453972442,/g3t1_1,,success
Status,840,16458882913,/g4t1,,fail
Status,841,16459603463,/g3t1_3,,running
Status,842,16459662318,/g3t1_2,,running
Status,843,16459693253,/g3t1_3,,success
Status,844,16459716789,/g3t1_2,,success
Status,845,16478866992,/g4t1,,fail
Status,846,16498940989,/g4t1,,success
Status,847,16519171830,/g4t1,,success
Status,848,16539390205,/g4t1,,success
Status,849,16553821910,/g3t1_1,,running
Status,850,16554287057,/g3t1_1,,success
Status,851,16558884571,/g3t1_3,,running
Status,852,16559132306,/g3t1_2,,running
Status,853,16559886093,/g3t1_3,,success
Status,854,16559940911,/g3t1_2,,success
Status,855,16559960553,/g4t1,,success
Status,856,16579761197,/g4t1,,fail
Status,857,16599781296,/g4t1,,success
Status,858,16620102856,/g4t1,,success
Status,859,16640052943,/g4t1,,success
Status,860,16654282825,/g3t1_1,,running
Status,861,16654433148,/g3t1_1,,success
Status,862,16659550162,/g3t1_3,,running
Status,863,16659619216,/g3t1_3,,success
Status,864,16659696823,/g3t1_2,,running
Status,865,16659722571,/g3t1_2,,success
Status,866,16659925006,/g4t1,,fail
Status,867,16680408155,/g4t1,,fail
Status,868,16700434133,/g4t1,,success
Status,869,16720758111,/g4t1,,success
Status,870,16740782190,/g4t1,,success
Status,871,16754008607,/g3t1_1,,running
Status,872,16754368982,/g3t1_1,,success
Status,873,16758869319,/g3t1_3,,running
Status,874,16759767296,/g3t1_2,,running
Status,875,16759835969,/g3t1_3,,success
Status,876,16760568046,/g3t1_2,,success
Status,877,16760620546,/g4t1,,fail
Status,878,16781012372,/g4t1,,success
Status,879,16801116782,/g4t1,,success
Status,880,16821238047,/g4t1,,success
Status,881,16841416025,/g4t1,,success
Status,882,16854388938,/g3t1_1,,running
Status,883,16854918003,/g3t1_1,,success
Status,884,16859239155,/g3t1_3,,running
Status,885,16859688608,/g3t1_2,,running
Status,886,16859949004,/g3t1_3,,success
Status,887,16859993621,/g3t1_2,,success
Status,888,16861292799,/g4t1,,fail
Status,889,16881517883,/g4t1,,success
Status,890,16901604530,/g4t1,,success
Status,891,16921784051,/g4t1,,success
Status,892,16941835212,/g4t1,,success
Status,893,16954289343,/g3t1_1,,running
Status,894,16954775186,/g3t1_1,,success
Status,895,16959172458,/g3t1_3,,running
Status,896,16959545946,/g3t1_2,,running
Status,897,16960074187,/g3t1_2,,success
Status,898,16960299415,/g3t1_3,,success
Status,899,16961739984,/g4t1,,fail
Status,900,16982141488,/g4t1,,success
Status,901,17002232365,/g4t1,,success
Status,902,17022499747,/g4t1,,success
Status,903,17042574727,/g4t1,,success
Status,904,17054586776,/g3t1_1,,running
Status,905,17054866317,/g3t1_1,,success
Status,906,17059910456,/g3t1_3,,running
Status,907,17059969438,/g3t1_2,,running
Status,908,17059989332,/g3t1_3,,success
Status,909,17060228248,/g3t1_2,,success
Status,910,17062587319,/g4t1,,fail
Status,911,17082948332,/g4t1,,success
Status,912,17102899715,/g4t1,,success
Status,913,17123126560,/g4t1,,success
Status,914,17143269160,/g4t1,,success
Status,915,17154541806,/g3t1_1,,running
Status,916,17155110860,/g3t1_1,,success
Status,917,17159689050,/g3t1_3,,running
Status,918,17159962685,/g3t1_2,,running
Status,919,17160034378,/g3t1_3,,success
Status,920,17160235759,/g3t1_2,,success
Status,921,17163426138,/g4t1,,fail
Status,922,17183745919,/g4t1,,success
Status,923,17203825672,/g4t1,,success
Status,924,17223963275,/g4t1,,success
Status,925,17243536088,/g4t1,,success
Status,926,17254411900,/g3t1_1,,running
Status,927,17254616558,/g3t1_1,,success
Status,928,17259545245,/g3t1_3,,running
Status,929,17259624445,/g3t1_2,,running
Status,930,17259650810,/g3t1_3,,success
Status,931,17259784249,/g3t1_2,,success
Status,932,17263647277,/g4t1,,fail
Status,933,17283681403,/g4t1,,success
Status,934,17303950146,/g4t1,,success
Status,935,17324002938,/g4t1,,success
Status,936,17344449309,/g4t1,,success
Status,937,17354885089,/g3t1_1,,running
Status,938,17355447159,/g3t1_1,,success
Status,939,17360622661,/g3t1_3,,running
Status,940,17361742860,/g3t1_2,,running
Status,941,17361805478,/g3t1_2,,success
Status,942,17361837031,/g3t1_3,,success
Status,943,17364389535,/g4t1,,fail
Status,944,17384148934,/g4t1,,success
Status,945,17404704246,/g4t1,,success
Status,946,17424873867,/g4t1,,success
Status,947,17445055500,/g4t1,,success
Status,948,17454829064,/g3t1_1,,running
Status,949,17455227260,/g3t1_1,,success
Status,950,17460132577,/g3t1_3,,running
Status,951,17460200488,/g3t1_2,,running
Status,952,17460301108,/g3t1_3,,success
Status,953,17460472571,/g3t1_2,,success
Status,954,17464983218,/g4t1,,fail
Status,955,17485106285,/g4t1,,success
Status,956,17505208739,/g4t1,,success
Status,957,17525594814,/g4t1,,success
Status,958,17545600180,/g4t1,,success
Status,959,17555098389,/g3t1_1,,running
Status,960,17555486872,/g3t1_1,,success
Status,961,17559793659,/g3t1_3,,running
Status,962,17560036699,/g3t1_2,,running
Status,963,17560341629,/g3t1_3,,success
Status,964,17560709677,/g3t1_2,,success
Status,965,17565621489,/g4t1,,fail
Status,966,17585838750,/g4t1,,success
Status,967,17606056722,/g4t1,,success
Status,968,17626171668,/g4t1,,success
Status,969,17646183977,/g4t1,,success
Status,970,17655377539,/g3t1_1,,running
Status,971,17655882921,/g3t1_1,,success
Status,972,17660094576,/g3t1_3,,running
Status,973,17660159068,/g3t1_2,,running
Status,974,17660281616,/g3t1_3,,success
Status,975,17660748437,/g3t1_2,,success
Status,976,17666196111,/g4t1,,fail
Status,977,17686365835,/g4t1,,success
Status,978,17706638253,/g4t1,,success
Status,979,17726859632,/g4t1,,success
Status,980,17746747082,/g4t1,,success
Status,981,17755044557,/g3t1_1,,running
Status,982,17755532995,/g3t1_1,,success
Status,983,17760892910,/g3t1_3,,running
Status,984,17761022834,/g3t1_2,,running
Status,985,17761053159,/g3t1_2,,success
Status,986,17761073428,/g3t1_3,,success
Status,987,17767021442,/g4t1,,fail
Status,988,17787277353,/g4t1,,success
Status,989,17807267027,/g4t1,,success
Status,990,17827338577,/g4t1,,success
Status,991,17847607947,/g4t1,,success
Status,992,17855391364,/g3t1_1,,running
Status,993,17855762466,/g3t1_1,,success
Status,994,17860085546,/g3t1_3,,running
Status,995,17860533724,/g3t1_2,,running
Status,996,17860606932,/g3t1_3,,success
Status,997,17860940886,/g3t1_2,,success
Status,998,17867435814,/g4t1,,fail
Status,999,17887942860,/g4t1,,success
Status,1000,17908032753,/g4t1,,success
Status,1001,17928294773,/g4t1,,success
Status,1002,17948429854,/g4t1,,success
Status,1003,17955676631,/g3t1_1,,running
Status,1004,17956009889,/g3t1_1,,success
Status,1005,17960195509,/g3t1_3,,running
Status,1006,17960456992,/g3t1_2,,running
Status,1007,17960696390,/g3t1_3,,success
Status,1008,17961208289,/g3t1_2,,success
Status,1009,17968205654,/g4t1,,fail
Status,1010,17988499992,/g4t1,,success
Status,1011,18008530594,/g4t1,,success
Status,1012,18028736336,/g4t1,,success
Status,1013,18048971451,/g4t1,,success
Status,1014,18055797874,/g3t1_1,,running
Status,1015,18056494452,/g3t1_1,,success
Status,1016,18060285035,/g3t1_3,,running
Status,1017,18060955490,/g3t1_2,,running
Status,1018,18061031989,/g3t1_3,,success
Status,1019,18061522725,/g3t1_2,,success
Status,1020,18068925499,/g4t1,,fail
Status,1021,18089100876,/g4t1,,success
Status,1022,18109250459,/g4t1,,success
Status,1023,18129180458,/g4t1,,success
Status,1024,18149532033,/g4t1,,success
Status,1025,18155878956,/g3t1_1,,running
Status,1026,18156207887,/g3t1_1,,success
Status,1027,18160648146,/g3t1_3,,running
Status,1028,18161112566,/g3t1_3,,success
Status,1029,18161170875,/g3t1_2,,running
Status,1030,18161228591,/g3t1_2,,success
Status,1031,18169584476,/g4t1,,fail
Status,1032,18189806662,/g4t1,,success
Status,1033,18209880402,/g4t1,,success
Status,1034,18230058064,/g4t1,,success
Status,1035,18250225943,/g4t1,,success
Status,1036,18255838610,/g3t1_1,,running
Status,1037,18256086180,/g3t1_1,,success
Status,1038,18261212181,/g3t1_3,,running
Status,1039,18261289089,/g3t1_3,,success
Status,1040,18261324725,/g3t1_2,,running
Status,1041,18261620972,/g3t1_2,,success
Status,1042,18270306006,/g4t1,,fail
Status,1043,18290405512,/g4t1,,success
Status,1044,18310693038,/g4t1,,success
Status,1045,18330712663,/g4t1,,success
Status,1046,18350842064,/g4t1,,success
Status,1048,18355890520,/g3t1_1,,running
Status,1049,18356382660,/g3t1_1,,fail
Status,1050,18361019313,/g3t1_3,,running
Status,1051,18361112661,/g3t1_2,,running
Status,1052,18361193207,/g3t1_3,,success
Status,1053,18362494492,/g3t1_2,,success
Status,1054,18370800092,/g4t1,,success
Status,1055,18391023709,/g4t1,,success
Status,1056,18411099781,/g4t1,,success
Status,1057,18431226994,/g4t1,,success
Status,1058,18451413955,/g4t1,,success
Status,1059,18455919821,/g3t1_1,,running
Status,1060,18456495654,/g3t1_1,,fail
Status,1061,18460930112,/g3t1_3,,running
Status,1062,18461706572,/g3t1_2,,running
Status,1063,18461762656,/g3t1_2,,success
Status,1064,18461838223,/g3t1_3,,success
Status,1065,18471605659,/g4t1,,success
Status,1066,18491747210,/g4t1,,success
Status,1067,18512075728,/g4t1,,success
Status,1068,18532103833,/g4t1,,success
Status,1069,18552255658,/g4t1,,success
Status,1071,18556063646,/g3t1_1,,running
Status,1072,18556609775,/g3t1_1,,fail
Status,1073,18561414765,/g3t1_3,,running
Status,1074,18562104735,/g3t1_2,,running
Status,1075,18562548877,/g3t1_2,,success
Status,1076,18562623936,/g3t1_3,,success
Status,1077,18572379697,/g4t1,,success
Status,1078,18592470563,/g4t1,,success
Status,1079,18612571196,/g4t1,,success
Status,1080,18632720962,/g4t1,,success
Status,1081,18652754720,/g4t1,,success
Status,1082,18656250560,/g3t1_1,,running
Status,1083,18656312118,/g3t1_1,,fail
Status,1084,18661092431,/g3t1_3,,running
Status,1085,18661311189,/g3t1_2,,running
Status,1086,18661890976,/g3t1_2,,success
Status,1087,18661953845,/g3t1_3,,success
Status,1088,18672860278,/g4t1,,success
Status,1089,18692963543,/g4t1,,success
Status,1090,18713175421,/g4t1,,success
Status,1091,18733355624,/g4t1,,success
Status,1093,18753265645,/g4t1,,success
Status,1094,18756185890,/g3t1_1,,running
Status,1095,18756455038,/g3t1_1,,fail
Status,1096,18761580797,/g3t1_3,,running
Status,1097,18761656034,/g3t1_2,,running
Status,1098,18761694929,/g3t1_3,,success
Status,1099,18761952075,/g3t1_2,,success
Status,1100,18773753731,/g4t1,,success
Status,1101,18793801168,/g4t1,,success
Status,1102,18813916468,/g4t1,,success
Status,1103,18833978609,/g4t1,,success
Status,1104,18854227357,/g4t1,,success
Status,1105,18856309036,/g3t1_1,,running
Status,1106,18856446673,/g3t1_1,,fail
Status,1107,18861193182,/g3t1_3,,running
Status,1108,18861560914,/g3t1_2,,running
Status,1109,18861634160,/g3t1_3,,success
Status,1110,18862252128,/g3t1_2,,success
Status,1111,18874119731,/g4t1,,success
Status,1112,18894020013,/g4t1,,success
Status,1113,18914280579,/g4t1,,success
Status,1114,18934169890,/g4t1,,success
Status,1116,18954527824,/g4t1,,success
Status,1117,18956362801,/g3t1_1,,running
Status,1118,18956682107,/g3t1_1,,fail
Status,1119,18961488235,/g3t1_3,,running
Status,1120,18961557744,/g3t1_2,,running
Status,1121,18961878690,/g3t1_3,,success
Status,1122,18961926431,/g3t1_2,,success
Status,1123,18974909683,/g4t1,,success
Status,1124,18995088834,/g4t1,,success
Status,1125,19015208312,/g4t1,,success
Status,1126,19035260740,/g4t1,,success
Status,1127,19055499256,/g4t1,,success
Status,1128,19056490747,/g3t1_1,,running
Status,1129,19056811556,/g3t1_1,,fail
Status,1130,19061765061,/g3t1_3,,running
Status,1131,19061866558,/g3t1_2,,running
Status,1132,19061951511,/g3t1_3,,success
Status,1133,19062606465,/g3t1_2,,success
Status,1134,19075548474,/g4t1,,success
Status,1135,19095805061,/g4t1,,success
Status,1136,19115942817,/g4t1,,success
Status,1137,19136155757,/g4t1,,success
Status,1139,19155996216,/g4t1,,success
Status,1140,19156528928,/g3t1_1,,running
Status,1141,19156828298,/g3t1_1,,fail
Status,1142,19161520737,/g3t1_3,,running
Status,1143,19161926174,/g3t1_3,,success
Status,1144,19162469734,/g3t1_2,,running
Status,1145,19162522567,/g3t1_2,,success
Status,1146,19175631679,/g4t1,,success
Status,1147,19195570838,/g4t1,,success
Status,1148,19215721073,/g4t1,,success
Status,1149,19235790615,/g4t1,,success
Status,1150,19255721732,/g4t1,,success
Status,1151,19255988781,/g3t1_1,,running
Status,1152,19256172729,/g3t1_1,,fail
Status,1153,19261006031,/g3t1_3,,running
Status,1154,19261101381,/g3t1_3,,success
Status,1155,19261191377,/g3t1_2,,running
Status,1156,19261372111,/g3t1_2,,success
Status,1157,19275951045,/g4t1,,success
Status,1158,19295941936,/g4t1,,success
Status,1159,19316159380,/g4t1,,success
Status,1160,19336369620,/g4t1,,success
Status,1162,19356530607,/g3t1_1,,running
Status,1163,19356566143,/g4t1,,success
Status,1164,19356580621,/g3t1_1,,fail
Status,1165,19361389016,/g3t1_3,,running
Status,1166,19361560857,/g3t1_2,,running
Status,1167,19361647157,/g3t1_2,,success
Status,1168,19361669482,/g3t1_3,,success
Status,1169,19376518740,/g4t1,,success
Status,1170,19397116914,/g4t1,,success
Status,1171,19417230536,/g4t1,,success
Status,1172,19437217418,/g4t1,,success
Status,1173,19457046785,/g3t1_1,,running
Status,1174,19457126559,/g3t1_1,,fail
Status,1175,19457531916,/g4t1,,success
Status,1176,19462098615,/g3t1_3,,running
Status,1177,19463254714,/g3t1_2,,running
Status,1178,19463648917,/g3t1_3,,success
Status,1179,19463700014,/g3t1_2,,success
Status,1180,19477104468,/g4t1,,success
Status,1181,19497258896,/g4t1,,success
Status,1182,19517425166,/g4t1,,success
Status,1183,19538037839,/g4t1,,success
Status,1185,19557137801,/g3t1_1,,running
Status,1186,19557199697,/g3t1_1,,fail
Status,1187,19557931154,/g4t1,,success
Status,1188,19562245218,/g3t1_3,,running
Status,1189,19562306297,/g3t1_2,,running
Status,1190,19562401024,/g3t1_3,,success
Status,1191,19562445654,/g3t1_2,,success
Status,1192,19578296826,/g4t1,,success
Status,1193,19598143655,/g4t1,,success
Status,1194,19618357759,/g4t1,,success
Status,1195,19638523188,/g4t1,,success
Status,1196,19657604402,/g3t1_1,,running
Status,1197,19657680365,/g3t1_1,,fail
Status,1198,19658576859,/g4t1,,success
Status,1199,19662225436,/g3t1_3,,running
Status,1200,19662294459,/g3t1_2,,running
Status,1201,19662529210,/g3t1_3,,success
Status,1202,19662572376,/g3t1_2,,success
Status,1203,19678822683,/g4t1,,success
Status,1204,19698607832,/g4t1,,success
Status,1205,19719110439,/g4t1,,success
Status,1206,19739228072,/g4t1,,success
Status,1208,19757704877,/g3t1_1,,running
Status,1209,19757787601,/g3t1_1,,fail
Status,1210,19759131112,/g4t1,,success
Status,1211,19762589962,/g3t1_3,,running
Status,1212,19762674155,/g3t1_2,,running
Status,1213,19762752723,/g3t1_3,,success
Status,1214,19763074034,/g3t1_2,,success
Status,1215,19779693036,/g4t1,,success
Status,1216,19799548245,/g4t1,,success
Status,1217,19819634716,/g4t1,,success
Status,1218,19840026006,/g4t1,,success
Status,1219,19857598246,/g3t1_1,,running
Status,1220,19857659756,/g3t1_1,,fail
Status,1221,19859952162,/g4t1,,success
Status,1222,19863608459,/g3t1_3,,running
Status,1223,19863661798,/g3t1_2,,running
Status,1224,19863681985,/g3t1_3,,success
Status,1225,19863705226,/g3t1_2,,success
Status,1226,19880203146,/g4t1,,success
Status,1227,19900584313,/g4t1,,success
Status,1228,19920480056,/g4t1,,success
Status,1229,19940735160,/g4t1,,success
Status,1231,19957915335,/g3t1_1,,running
Status,1232,19957973720,/g3t1_1,,fail
Status,1233,19960576961,/g4t1,,success
Status,1234,19962221651,/g3t1_3,,running
Status,1235,19963376131,/g3t1_2,,running
Status,1236,19963467667,/g3t1_3,,success
Status,1237,19963506135,/g3t1_2,,success
Status,1238,19980851636,/g4t1,,success
Status,1239,20000968497,/g4t1,,success
Status,1240,20021177644,/g4t1,,success
Status,1241,20041339251,/g4t1,,success
Status,1242,20057959010,/g3t1_1,,running
Status,1243,20058036756,/g3t1_1,,fail
Status,1244,20061513897,/g4t1,,success
Status,1245,20062781092,/g3t1_3,,running
Status,1246,20062880940,/g3t1_2,,running
Status,1247,20063574137,/g3t1_3,,success
Status,1248,20063877553,/g3t1_2,,success
Status,1249,20081540493,/g4t1,,success
Status,1250,20101805537,/g4t1,,success
Status,1251,20121653774,/g4t1,,success
Status,1252,20141903596,/g4t1,,success
Status,1254,20158313331,/g3t1_1,,running
Status,1255,20158378928,/g3t1_1,,fail
Status,1256,20161983803,/g4t1,,success
Status,1257,20163519314,/g3t1_3,,running
Status,1258,20163602816,/g3t1_2,,running
Status,1259,20163688997,/g3t1_2,,success
Status,1260,20163728714,/g3t1_3,,success
Status,1261,20181971676,/g4t1,,success
Status,1262,20202487043,/g4t1,,success
Status,1263,20222492058,/g4t1,,success
Status,1264,20242556422,/g4t1,,success
Status,1265,20257968178,/g3t1_1,,running
Status,1266,20258410378,/g3t1_1,,fail
Status,1267,20263474085,/g4t1,,success
Status,1268,20263541675,/g3t1_3,,running
Status,1269,20263568089,/g3t1_2,,running
Status,1270,20263622795,/g3t1_3,,success
Status,1271,20263641293,/g3t1_2,,success
Status,1272,20282732691,/g4t1,,success
Status,1273,20302905914,/g4t1,,success
Status,1274,20323375176,/g4t1,,success
Status,1275,20343216507,/g4t1,,success
Status,1277,20358192444,/g3t1_1,,running
Status,1278,20358252951,/g3t1_1,,fail
Status,1279,20363135689,/g3t1_3,,running
Status,1280,20363574772,/g3t1_3,,success
Status,1281,20363671876,/g4t1,,success
Status,1282,20363707139,/g3t1_2,,running
Status,1283,20364210553,/g3t1_2,,success
Status,1284,20383547008,/g4t1,,success
Status,1285,20403916754,/g4t1,,success
Status,1286,20424145533,/g4t1,,success
Status,1287,20444159783,/g4t1,,success
Status,1288,20458395297,/g3t1_1,,running
Status,1289,20458478064,/g3t1_1,,fail
Status,1290,20463475908,/g3t1_3,,running
Status,1291,20463616947,/g3t1_2,,running
Status,1292,20464386397,/g3t1_2,,success
Status,1293,20464490048,/g3t1_3,,success
Status,1294,20464524518,/g4t1,,success
Status,1295,20484239120,/g4t1,,success
Status,1296,20504365232,/g4t1,,success
Status,1297,20524515414,/g4t1,,success
Status,1298,20544660236,/g4t1,,success
Status,1300,20558370976,/g3t1_1,,running
Status,1301,20558755710,/g3t1_1,,fail
Status,1302,20563740974,/g3t1_3,,running
Status,1303,20563834095,/g3t1_2,,running
Status,1304,20564135916,/g3t1_3,,success
Status,1305,20564180052,/g3t1_2,,success
Status,1306,20564704686,/g4t1,,success
Status,1307,20658629544,/g3t1_1,,running
Status,1308,20658902083,/g3t1_1,,fail
Status,1309,20663504620,/g3t1_3,,running
Status,1310,20663929786,/g3t1_2,,running
Status,1311,20663970915,/g3t1_3,,success
Status,1312,20663990518,/g3t1_2,,success
Status,1314,20759191473,/g3t1_1,,running
Status,1315,20759262830,/g3t1_1,,fail
Status,1316,20763431607,/g3t1_3,,running
Status,1317,20763802602,/g3t1_2,,running
Status,1318,20764427899,/g3t1_3,,success
Status,1319,20764623055,/g3t1_2,,success
Status,1320,20859274975,/g3t1_1,,running
Status,1321,20859631778,/g3t1_1,,fail
Status,1322,20863803513,/g3t1_3,,running
Status,1323,20863898459,/g3t1_2,,running
Status,1324,20864793796,/g3t1_3,,success
Status,1325,20864858977,/g3t1_2,,success
Status,1327,20959059509,/g3t1_1,,running
Status,1328,20959114232,/g3t1_1,,fail
Status,1329,20964142514,/g3t1_3,,running
Status,1330,20964241977,/g3t1_2,,running
Status,1331,20964642062,/g3t1_2,,success
Status,1332,20964697710,/g3t1_3,,success
Status,1333,21058701503,/g3t1_1,,running
Status,1334,21058739138,/g3t1_1,,fail
Status,1335,21063544373,/g3t1_3,,running
Status,1336,21063577685,/g3t1_2,,running
Status,1337,21063623043,/g3t1_3,,success
Status,1338,21063704931,/g3t1_2,,success
Status,1340,21159385933,/g3t1_1,,running
Status,1341,21159413003,/g3t1_1,,fail
Status,1342,21164493584,/g3t1_3,,running
Status,1343,21164541033,/g3t1_2,,running
Status,1344,21164551471,/g3t1_3,,success
Status,1345,21164562444,/g3t1_2,,success
Status,1346,21259121410,/g3t1_1,,running
Status,1347,21259149751,/g3t1_1,,fail
Status,1348,21263788363,/g3t1_3,,running
Status,1349,21263813536,/g3t1_3,,success
Status,1350,21263833208,/g3t1_2,,running
Status,1351,21263840531,/g3t1_2,,success
Status,1353,21360002140,/g3t1_1,,running
Status,1354,21360065841,/g3t1_1,,fail
Status,1355,21364486209,/g3t1_3,,running
Status,1356,21364623079,/g3t1_2,,running
Status,1357,21365229563,/g3t1_3,,success
Status,1358,21365297838,/g3t1_2,,success
Status,1359,21460246544,/g3t1_1,,running
Status,1360,21460308283,/g3t1_1,,fail
Status,1361,21464880130,/g3t1_3,,running
Status,1362,21465134980,/g3t1_2,,running
Status,1363,21465341089,/g3t1_3,,success
Status,1364,21465552838,/g3t1_2,,success
Status,1366,21559653042,/g3t1_1,,running
Status,1367,21559686225,/g3t1_1,,fail
Status,1368,21564008624,/g3t1_3,,running
Status,1369,21564038782,/g3t1_3,,success
Status,1370,21564371100,/g3t1_2,,running
Status,1371,21564397425,/g3t1_2,,success
Status,1372,21659707694,/g3t1_1,,running
Status,1373,21659751681,/g3t1_1,,fail
Status,1374,21663984067,/g3t1_3,,running
Status,1375,21664013900,/g3t1_3,,success
Status,1376,21664286457,/g3t1_2,,running
Status,1377,21664410368,/g3t1_2,,success
Status,1379,21759829387,/g3t1_1,,running
Status,1380,21759909131,/g3t1_1,,fail
Status,1381,21764038656,/g3t1_3,,running
Status,1382,21764110369,/g3t1_3,,success
Status,1383,21764471999,/g3t1_2,,running
Status,1384,21764508700,/g3t1_2,,success
Status,1385,21860053209,/g3t1_1,,running
Status,1386,21860085071,/g3t1_1,,fail
Status,1387,21864024529,/g3t1_3,,running
Status,1388,21864137899,/g3t1_3,,success
Status,1389,21864390361,/g3t1_2,,running
Status,1390,21864583131,/g3t1_2,,success
Status,1392,21960131279,/g3t1_1,,running
Status,1393,21960164465,/g3t1_1,,fail
Status,1394,21964325662,/g3t1_3,,running
Status,1395,21964465115,/g3t1_3,,success
Status,1396,21964485414,/g3t1_2,,running
Status,1397,21964978583,/g3t1_2,,success
Status,1398,22060625263,/g3t1_1,,running
Status,1399,22060876003,/g3t1_1,,fail
Status,1400,22065198593,/g3t1_3,,running
Status,1401,22065623250,/g3t1_2,,running
Status,1402,22065689957,/g3t1_3,,success
Status,1403,22065866849,/g3t1_2,,success
Status,1405,22160228107,/g3t1_1,,running
Status,1406,22160265629,/g3t1_1,,fail
Status,1407,22164248738,/g3t1_3,,running
Status,1408,22164330844,/g3t1_3,,success
Status,1409,22164734118,/g3t1_2,,running
Status,1410,22164805141,/g3t1_2,,success
Status,1411,22259984778,/g3t1_1,,running
Status,1412,22260124242,/g3t1_1,,fail
Status,1413,22264387693,/g3t1_3,,running
Status,1414,22264481164,/g3t1_3,,success
Status,1415,22264746093,/g3t1_2,,running
Status,1416,22264904976,/g3t1_2,,success
Status,1418,22360463737,/g3t1_1,,running
Status,1419,22360733471,/g3t1_1,,fail
Status,1420,22364448999,/g3t1_3,,running
Status,1421,22364469484,/g3t1_3,,success
Status,1422,22364915000,/g3t1_2,,running
Status,1423,22364957163,/g3t1_2,,success
Status,1424,22460198008,/g3t1_1,,running
Status,1425,22460219903,/g3t1_1,,fail
Status,1426,22464607077,/g3t1_3,,running
Status,1427,22464639941,/g3t1_3,,success
Status,1428,22465040064,/g3t1_2,,running
Status,1429,22465213195,/g3t1_2,,success
Status,1431,22561478635,/g3t1_1,,running
Status,1432,22561528175,/g3t1_1,,fail
Status,1433,22565112396,/g3t1_3,,running
Status,1434,22565242938,/g3t1_2,,running
Status,1435,22565404671,/g3t1_3,,success
Status,1436,22565513579,/g3t1_2,,success
Status,1437,22660897066,/g3t1_1,,running
Status,1438,22661023693,/g3t1_1,,fail
Status,1439,22664958604,/g3t1_3,,running
Status,1440,22665042330,/g3t1_3,,success
Status,1441,22665058684,/g3t1_2,,running
Status,1442,22665297356,/g3t1_2,,success
Status,1444,22760692360,/g3t1_1,,running
Status,1445,22760718695,/g3t1_1,,fail
Status,1446,22765079163,/g3t1_3,,running
Status,1447,22765214908,/g3t1_3,,success
Status,1448,22765256303,/g3t1_2,,running
Status,1449,22765522834,/g3t1_2,,success
Status,1450,22860454231,/g3t1_1,,running
Status,1451,22860565677,/g3t1_1,,fail
Status,1452,22864889864,/g3t1_3,,running
Status,1453,22864985571,/g3t1_3,,success
Status,1454,22865061450,/g3t1_2,,running
Status,1455,22865166588,/g3t1_2,,success
Status,1457,22961178998,/g3t1_1,,running
Status,1458,22961228717,/g3t1_1,,fail
Status,1459,22965775391,/g3t1_3,,running
Status,1460,22965900593,/g3t1_2,,running
Status,1461,22966238792,/g3t1_3,,success
Status,1462,22966595842,/g3t1_2,,success
Status,1463,23061458218,/g3t1_1,,running
Status,1464,23061518517,/g3t1_1,,fail
Status,1465,23066063822,/g3t1_3,,running
Status,1466,23066107163,/g3t1_2,,running
Status,1467,23066177446,/g3t1_3,,success
Status,1468,23066564834,/g3t1_2,,success
Status,1470,23161257673,/g3t1_1,,running
Status,1471,23161642364,/g3t1_1,,fail
Status,1472,23166157353,/g3t1_3,,running
Status,1473,23166217777,/g3t1_2,,running
Status,1474,23166619871,/g3t1_3,,success
Status,1475,23166684568,/g3t1_2,,success
Status,1476,23261020648,/g3t1_1,,running
Status,1477,23261043374,/g3t1_1,,fail
Status,1478,23265839562,/g3t1_3,,running
Status,1479,23265876908,/g3t1_2,,running
Status,1480,23266151738,/g3t1_3,,success
Status,1481,23266178253,/g3t1_2,,success
Status,1485,23361774314,/g3t1_1,,running
Status,1486,23361847751,/g3t1_1,,fail
Status,1487,23366411689,/g3t1_3,,running
Status,1488,23366485466,/g3t1_2,,running
Status,1489,23366822772,/g3t1_3,,fail
Status,1490,23366880151,/g3t1_2,,fail
Status,1491,23461919466,/g3t1_1,,running
Status,1492,23462003849,/g3t1_1,,fail
Status,1493,23466352480,/g3t1_3,,running
Status,1494,23466415075,/g3t1_2,,running
Status,1495,23466465738,/g3t1_2,,fail
Status,1496,23466621974,/g3t1_3,,fail
Status,1500,23562269531,/g3t1_1,,running
Status,1501,23562351505,/g3t1_1,,fail
Status,1502,23567058383,/g3t1_2,,running
Status,1503,23567239538,/g3t1_3,,running
Status,1504,23567293096,/g3t1_2,,fail
Status,1505,23567378773,/g3t1_3,,fail
Status,1506,23661499439,/g3t1_1,,running
Status,1507,23661522358,/g3t1_1,,fail
Status,1508,23666126194,/g3t1_2,,running
Status,1509,23666151459,/g3t1_3,,running
Status,1510,23666158628,/g3t1_2,,fail
Status,1511,23666165921,/g3t1_3,,fail
Status,1515,23762144886,/g3t1_1,,running
Status,1516,23762554645,/g3t1_1,,fail
Status,1517,23767433668,/g3t1_2,,running
Status,1518,23767517258,/g3t1_3,,running
Status,1519,23767673248,/g3t1_2,,fail
Status,1520,23767993406,/g3t1_3,,fail
Status,1521,23862083410,/g3t1_1,,running
Status,1522,23862304398,/g3t1_1,,fail
Status,1523,23866324890,/g3t1_3,,running
Status,1524,23866361302,/g3t1_2,,running
Status,1525,23866534782,/g3t1_2,,fail
Status,1526,23866559527,/g3t1_3,,fail
Status,1530,23962083325,/g3t1_1,,running
Status,1531,23962252504,/g3t1_1,,fail
Status,1532,23967348985,/g3t1_3,,running
Status,1533,23967411439,/g3t1_3,,fail
Status,1534,23967437067,/g3t1_2,,running
Status,1535,23967458164,/g3t1_2,,fail
Status,1536,24061908252,/g3t1_1,,running
Status,1537,24061931480,/g3t1_1,,fail
Status,1538,24066464372,/g3t1_3,,running
Status,1539,24066503470,/g3t1_2,,running
Status,1540,24066542393,/g3t1_3,,fail
Status,1541,24067157160,/g3t1_2,,fail
Status,1545,24162508115,/g3t1_1,,running
Status,1546,24162558792,/g3t1_1,,fail
Status,1547,24167357314,/g3t1_3,,running
Status,1548,24167408646,/g3t1_2,,running
Status,1549,24167443678,/g3t1_2,,fail
Status,1550,24167503624,/g3t1_3,,fail
Status,1551,24262172687,/g3t1_1,,running
Status,1552,24262207327,/g3t1_1,,fail
Status,1553,24266650013,/g3t1_3,,running
Status,1554,24266672133,/g3t1_3,,fail
Status,1555,24266678853,/g3t1_2,,running
Status,1556,24266684890,/g3t1_2,,fail
Status,1560,24362567361,/g3t1_1,,running
Status,1561,24362879293,/g3t1_1,,fail
Status,1562,24369377747,/g3t1_3,,running
Status,1563,24369459734,/g3t1_2,,running
Status,1564,24369488589,/g3t1_2,,fail
Status,1565,24369508322,/g3t1_3,,fail
Status,1566,24462360431,/g3t1_1,,running
Status,1567,24462454379,/g3t1_1,,fail
Status,1568,24466738770,/g3t1_3,,running
Status,1569,24466765281,/g3t1_2,,running
Status,1570,24466777525,/g3t1_2,,fail
Status,1571,24466913778,/g3t1_3,,fail
Status,1575,24562361724,/g3t1_1,,running
Status,1576,24562450282,/g3t1_1,,fail
Status,1577,24566732059,/g3t1_3,,running
Status,1578,24566759861,/g3t1_2,,running
Status,1579,24566788813,/g3t1_3,,fail
Status,1580,24566796507,/g3t1_2,,fail
Status,1581,24663072289,/g3t1_1,,running
Status,1582,24663164896,/g3t1_1,,fail
Status,1583,24667347643,/g3t1_3,,running
Status,1584,24667417327,/g3t1_2,,running
Status,1585,24667683971,/g3t1_3,,fail
