
Status,2,3481884263,/g4t1,,init
Status,3,8694300831,/g3t1_1,,init
Status,5,8700274903,/g3t1_1,,init
Status,6,8700291473,/g3t1_1,,running
Status,7,8700727815,/g3t1_1,,success
Status,8,8750533495,/g3t1_1,,running
Status,9,8750650264,/g3t1_1,,success
Status,10,8794814697,/g3t1_2,,init
Status,12,8800504225,/g3t1_1,,running
Status,13,8800595980,/g3t1_1,,success
Status,14,8805010373,/g3t1_2,,init
Status,15,8805026557,/g3t1_2,,running
Status,16,8805398805,/g3t1_2,,success
Status,17,8850757345,/g3t1_1,,running
Status,18,8850774272,/g3t1_1,,success
Status,19,8854977208,/g3t1_2,,running
Status,20,8855101007,/g3t1_2,,success
Status,21,8900858267,/g3t1_1,,running
Status,22,8900912097,/g3t1_1,,success
Status,23,8905250298,/g3t1_2,,running
Status,24,8905262239,/g3t1_2,,success
Status,25,8950946042,/g3t1_1,,running
Status,26,8951094114,/g3t1_1,,success
Status,27,8955177708,/g3t1_2,,running
Status,28,8955254650,/g3t1_2,,success
Status,32,8995650479,/g3t1_3,,init
Status,34,9000942668,/g3t1_1,,running
Status,35,9001057792,/g3t1_1,,success
Status,36,9004152565,/g3t1_3,,init
Status,37,9004172831,/g3t1_3,,running
Status,38,9004684502,/g3t1_3,,success
Status,39,9005157896,/g3t1_2,,running
Status,40,9005274205,/g3t1_2,,success
Status,41,9051278287,/g3t1_1,,running
Status,42,9051617496,/g3t1_1,,success
Status,43,9054536923,/g3t1_3,,running
Status,44,9054945671,/g3t1_3,,success
Status,45,9055610813,/g3t1_2,,running
Status,46,9055858437,/g3t1_2,,success
Status,47,9101538539,/g4t1,,success
Status,48,9101652330,/g3t1_1,,running
Status,49,9101933250,/g3t1_1,,success
Status,50,9104871087,/g3t1_3,,running
Status,51,9105204167,/g3t1_3,,success
Status,52,9106016771,/g3t1_2,,running
Status,53,9106358368,/g3t1_2,,success
Status,54,9151848221,/g3t1_1,,running
Status,55,9152370842,/g3t1_1,,success
Status,56,9155067418,/g3t1_3,,running
Status,57,9155311126,/g3t1_3,,success
Status,58,9156045848,/g3t1_2,,running
Status,59,9156335953,/g3t1_2,,success
Status,63,9200975682,/g4t1,,success
Status,64,9201902579,/g3t1_1,,running
Status,65,9202378392,/g3t1_1,,success
Status,66,9204870210,/g3t1_3,,running
Status,67,9205310632,/g3t1_3,,success
Status,68,9206356876,/g3t1_2,,running
Status,69,9206415820,/g3t1_2,,success
Status,70,9252086130,/g3t1_1,,running
Status,71,9252146210,/g3t1_1,,success
Status,72,9255173285,/g3t1_3,,running
Status,73,9255625857,/g3t1_3,,success
Status,74,9256361017,/g3t1_2,,running
Status,75,9257169091,/g3t1_2,,success
Status,76,9301338898,/g4t1,,success
Status,77,9302527095,/g3t1_1,,running
Status,78,9302766173,/g3t1_1,,success
Status,79,9305420234,/g3t1_3,,running
Status,80,9306078671,/g3t1_3,,success
Status,81,9306139777,/g3t1_2,,running
Status,82,9306646725,/g3t1_2,,success
Status,83,9352526251,/g3t1_1,,running
Status,84,9352592624,/g3t1_1,,success
Status,85,9355555067,/g3t1_3,,running
Status,86,9356682109,/g3t1_3,,success
Status,87,9356754151,/g3t1_2,,running
Status,88,9356799054,/g3t1_2,,success
Status,92,9401503258,/g4t1,,fail
Status,93,9402474845,/g3t1_1,,running
Status,94,9403492604,/g3t1_1,,success
Status,95,9406330044,/g3t1_3,,running
Status,96,9406406300,/g3t1_3,,success
Status,97,9406512758,/g3t1_2,,running
Status,98,9407259954,/g3t1_2,,success
Status,99,9452688938,/g3t1_1,,running
Status,100,9452753194,/g3t1_1,,success
Status,101,9455721755,/g3t1_3,,running
Status,102,9456461326,/g3t1_3,,success
Status,103,9456535811,/g3t1_2,,running
Status,104,9456809961,/g3t1_2,,success
Status,105,9501665723,/g4t1,,fail
Status,106,9502634062,/g3t1_1,,running
Status,107,9503438424,/g3t1_1,,success
Status,108,9505953344,/g3t1_3,,running
Status,109,9506504295,/g3t1_3,,success
Status,110,9506813972,/g3t1_2,,running
Status,111,9507131059,/g3t1_2,,success
Status,112,9552975066,/g3t1_1,,running
Status,113,9553352795,/g3t1_1,,success
Status,114,9556022020,/g3t1_3,,running
Status,115,9556862822,/g3t1_3,,success
Status,116,9557046749,/g3t1_2,,running
Status,117,9557473932,/g3t1_2,,success
Status,121,9601566264,/g4t1,,fail
Status,122,9602859148,/g3t1_1,,running
Status,123,9603367200,/g3t1_1,,success
Status,124,9606413272,/g3t1_3,,running
Status,125,9606830101,/g3t1_3,,success
Status,126,9607904283,/g3t1_2,,running
Status,127,9607957649,/g3t1_2,,success
Status,128,9652658361,/g3t1_1,,running
Status,129,9653175079,/g3t1_1,,success
Status,130,9655960399,/g3t1_3,,running
Status,131,9655984922,/g3t1_3,,success
Status,132,9656592622,/g3t1_2,,running
Status,133,9656876161,/g3t1_2,,success
Status,134,9701956411,/g4t1,,fail
Status,135,9703204611,/g3t1_1,,running
Status,136,9703573391,/g3t1_1,,success
Status,137,9706433479,/g3t1_3,,running
Status,138,9707111224,/g3t1_2,,running
Status,139,9707195033,/g3t1_3,,success
Status,140,9707652558,/g3t1_2,,success
Status,141,9753439582,/g3t1_1,,running
Status,142,9753845552,/g3t1_1,,success
Status,143,9756514470,/g3t1_3,,running
Status,144,9756910464,/g3t1_3,,success
Status,145,9757208103,/g3t1_2,,running
Status,146,9757608098,/g3t1_2,,success
Status,150,9801751253,/g4t1,,fail
Status,151,9803157080,/g3t1_1,,running
Status,152,9803527447,/g3t1_1,,success
Status,153,9806479462,/g3t1_3,,running
Status,154,9806694985,/g3t1_3,,success
Status,155,9807066618,/g3t1_2,,running
Status,156,9807509843,/g3t1_2,,success
Status,157,9853318970,/g3t1_1,,running
Status,158,9853519029,/g3t1_1,,success
Status,159,9856431991,/g3t1_3,,running
Status,160,9856575842,/g3t1_3,,success
Status,161,9857099116,/g3t1_2,,running
Status,162,9857416700,/g3t1_2,,success
Status,163,9902315361,/g4t1,,fail
Status,164,9903822799,/g3t1_1,,running
Status,165,9904158171,/g3t1_1,,success
Status,166,9906898566,/g3t1_3,,running
Status,167,9907272749,/g3t1_3,,success
Status,168,9907345429,/g3t1_2,,running
Status,169,9908418576,/g3t1_2,,success
Status,170,9954108920,/g3t1_1,,running
Status,171,9954585812,/g3t1_1,,success
Status,172,9957222796,/g3t1_3,,running
Status,173,9957295153,/g3t1_3,,success
Status,174,9957492918,/g3t1_2,,running
Status,175,9958075489,/g3t1_2,,success
Status,179,10002079804,/g4t1,,fail
Status,180,10004200922,/g3t1_1,,running
Status,181,10004285261,/g3t1_1,,success
Status,182,10007208938,/g3t1_3,,running
Status,183,10007652835,/g3t1_3,,success
Status,184,10008373860,/g3t1_2,,running
Status,185,10008511213,/g3t1_2,,success
Status,186,10054501335,/g3t1_1,,running
Status,187,10054758707,/g3t1_1,,success
Status,188,10057420882,/g3t1_3,,running
Status,189,10057927010,/g3t1_3,,success
Status,190,10058080178,/g3t1_2,,running
Status,191,10058493379,/g3t1_2,,success
Status,192,10102259755,/g4t1,,fail
Status,193,10104264621,/g3t1_1,,running
Status,194,10104743802,/g3t1_1,,success
Status,195,10107351820,/g3t1_3,,running
Status,196,10107734974,/g3t1_3,,success
Status,197,10107941325,/g3t1_2,,running
Status,198,10108517440,/g3t1_2,,success
Status,199,10154790299,/g3t1_1,,running
Status,200,10155183736,/g3t1_1,,success
Status,201,10157473913,/g3t1_3,,running
Status,202,10158194725,/g3t1_3,,success
Status,203,10158339210,/g3t1_2,,running
Status,204,10158738166,/g3t1_2,,success
Status,208,10202412409,/g4t1,,fail
Status,209,10204658526,/g3t1_1,,running
Status,210,10205023788,/g3t1_1,,success
Status,211,10208220360,/g3t1_3,,running
Status,212,10208312229,/g3t1_3,,success
Status,213,10208385016,/g3t1_2,,running
Status,214,10209075699,/g3t1_2,,success
Status,215,10254824009,/g3t1_1,,running
Status,216,10255625038,/g3t1_1,,success
Status,217,10258218372,/g3t1_3,,running
Status,218,10258853156,/g3t1_3,,success
Status,219,10260393245,/g3t1_2,,running
Status,220,10260653711,/g3t1_2,,success
Status,221,10302600072,/g4t1,,fail
Status,222,10305053757,/g3t1_1,,running
Status,223,10305629122,/g3t1_1,,success
Status,224,10307983384,/g3t1_3,,running
Status,225,10308403081,/g3t1_3,,success
Status,226,10308486556,/g3t1_2,,running
Status,227,10309003913,/g3t1_2,,success
Status,228,10355266162,/g3t1_1,,running
Status,229,10355357667,/g3t1_1,,success
Status,230,10358205852,/g3t1_3,,running
Status,231,10358674070,/g3t1_2,,running
Status,232,10358742454,/g3t1_3,,success
Status,233,10359106576,/g3t1_2,,success
Status,237,10402694326,/g4t1,,fail
Status,238,10405196187,/g3t1_1,,running
Status,239,10405914042,/g3t1_1,,success
Status,240,10408399724,/g3t1_3,,running
Status,241,10408476765,/g3t1_3,,success
Status,242,10408569261,/g3t1_2,,running
Status,243,10409037771,/g3t1_2,,success
Status,244,10455393554,/g3t1_1,,running
Status,245,10455814922,/g3t1_1,,success
Status,246,10458313468,/g3t1_3,,running
Status,247,10458903543,/g3t1_2,,running
Status,248,10459017708,/g3t1_3,,success
Status,249,10459792416,/g3t1_2,,success
Status,250,10503044993,/g4t1,,fail
Status,251,10505577403,/g3t1_1,,running
Status,252,10505862899,/g3t1_1,,success
Status,253,10508487378,/g3t1_3,,running
Status,254,10508891206,/g3t1_2,,running
Status,255,10508947944,/g3t1_3,,success
Status,256,10509310293,/g3t1_2,,success
Status,257,10555718725,/g3t1_1,,running
Status,258,10556147888,/g3t1_1,,success
Status,259,10558524737,/g3t1_3,,running
Status,260,10558965544,/g3t1_2,,running
Status,261,10559220108,/g3t1_3,,success
Status,262,10559452471,/g3t1_2,,success
Status,266,10603104838,/g4t1,,fail
Status,267,10606188977,/g3t1_1,,running
Status,268,10606673919,/g3t1_1,,success
Status,269,10608622827,/g3t1_3,,running
Status,270,10609089029,/g3t1_2,,running
Status,271,10609162254,/g3t1_3,,success
Status,272,10609619394,/g3t1_2,,success
Status,273,10655637663,/g3t1_1,,running
Status,274,10655763028,/g3t1_1,,success
Status,275,10658236026,/g3t1_3,,running
Status,276,10658541545,/g3t1_3,,success
Status,277,10658639647,/g3t1_2,,running
Status,278,10658919337,/g3t1_2,,success
Status,279,10702948110,/g4t1,,fail
Status,280,10705888786,/g3t1_1,,running
Status,281,10706554265,/g3t1_1,,success
Status,282,10708595218,/g3t1_3,,running
Status,283,10708904963,/g3t1_3,,success
Status,284,10709000524,/g3t1_2,,running
Status,285,10709457640,/g3t1_2,,success
Status,286,10756552107,/g3t1_1,,running
Status,287,10756623907,/g3t1_1,,success
Status,288,10758984378,/g3t1_3,,running
Status,289,10759460875,/g3t1_2,,running
Status,290,10759543973,/g3t1_3,,success
Status,291,10760177992,/g3t1_2,,success
Status,295,10803013589,/g4t1,,fail
Status,296,10806035166,/g3t1_1,,running
Status,297,10806362666,/g3t1_1,,success
Status,298,10808758243,/g3t1_3,,running
Status,299,10809008808,/g3t1_3,,success
Status,300,10809131279,/g3t1_2,,running
Status,301,10809418443,/g3t1_2,,success
Status,302,10856563287,/g3t1_1,,running
Status,303,10856961629,/g3t1_1,,success
Status,304,10859047775,/g3t1_3,,running
Status,305,10859619737,/g3t1_2,,running
Status,306,10859704473,/g3t1_3,,success
Status,307,10859813383,/g3t1_2,,success
Status,308,10903594632,/g4t1,,fail
Status,309,10906702037,/g3t1_1,,running
Status,310,10907101679,/g3t1_1,,success
Status,311,10909517100,/g3t1_3,,running
Status,312,10909569694,/g3t1_2,,running
Status,313,10909596960,/g3t1_3,,success
Status,314,10909625341,/g3t1_2,,success
Status,315,10957039135,/g3t1_1,,running
Status,316,10957343592,/g3t1_1,,success
Status,317,10959493703,/g3t1_3,,running
Status,318,10959575415,/g3t1_2,,running
Status,319,10960133539,/g3t1_3,,success
Status,320,10960216545,/g3t1_2,,success
Status,324,11003527532,/g4t1,,fail
Status,325,11007049319,/g3t1_1,,running
Status,326,11007393338,/g3t1_1,,success
Status,327,11009716778,/g3t1_3,,running
Status,328,11009884947,/g3t1_2,,running
Status,329,11010471933,/g3t1_3,,success
Status,330,11010577057,/g3t1_2,,success
Status,331,11057443410,/g3t1_1,,running
Status,332,11057688988,/g3t1_1,,success
Status,333,11059862623,/g3t1_3,,running
Status,334,11059937762,/g3t1_2,,running
Status,335,11060038363,/g3t1_3,,success
Status,336,11060467794,/g3t1_2,,success
Status,337,11103555623,/g4t1,,fail
Status,338,11107526759,/g3t1_1,,running
Status,339,11107604666,/g3t1_1,,success
Status,340,11109792633,/g3t1_3,,running
Status,341,11109955632,/g3t1_2,,running
Status,342,11110108667,/g3t1_3,,success
Status,343,11110682109,/g3t1_2,,success
Status,344,11157698381,/g3t1_1,,running
Status,345,11157934997,/g3t1_1,,success
Status,346,11160147418,/g3t1_3,,running
Status,347,11160274576,/g3t1_2,,running
Status,348,11160362847,/g3t1_3,,success
Status,349,11160713644,/g3t1_2,,success
Status,353,11203688604,/g4t1,,fail
Status,354,11207677626,/g3t1_1,,running
Status,355,11207808966,/g3t1_1,,success
Status,356,11210273992,/g3t1_3,,running
Status,357,11210711080,/g3t1_2,,running
Status,358,11210773798,/g3t1_3,,success
Status,359,11210797699,/g3t1_2,,success
Status,360,11257799810,/g3t1_1,,running
Status,361,11257880929,/g3t1_1,,success
Status,362,11260100259,/g3t1_3,,running
Status,363,11260476796,/g3t1_2,,running
Status,364,11260808946,/g3t1_3,,success
Status,365,11260863846,/g3t1_2,,success
Status,366,11303398462,/g4t1,,fail
Status,367,11307445090,/g3t1_1,,running
Status,368,11307483553,/g3t1_1,,success
Status,369,11309825664,/g3t1_3,,running
Status,370,11309897937,/g3t1_2,,running
Status,371,11309962416,/g3t1_3,,success
Status,372,11310312512,/g3t1_2,,success
Status,373,11358226983,/g3t1_1,,running
Status,374,11358638529,/g3t1_1,,success
Status,375,11360313535,/g3t1_3,,running
Status,376,11360995983,/g3t1_2,,running
Status,377,11361046211,/g3t1_2,,success
Status,378,11361073764,/g3t1_3,,success
Status,382,11403898171,/g4t1,,fail
Status,383,11408080227,/g3t1_1,,running
Status,384,11408452742,/g3t1_1,,success
Status,385,11410822279,/g3t1_3,,running
Status,386,11410938028,/g3t1_2,,running
Status,387,11411127755,/g3t1_3,,success
Status,388,11411247728,/g3t1_2,,success
Status,389,11457860464,/g3t1_1,,running
Status,390,11458202657,/g3t1_1,,fail
Status,391,11460261367,/g3t1_3,,running
Status,392,11460526380,/g3t1_2,,running
Status,393,11460582514,/g3t1_3,,success
Status,394,11460783746,/g3t1_2,,success
Status,395,11503651489,/g4t1,,fail
Status,396,11508205363,/g3t1_1,,running
Status,397,11508588365,/g3t1_1,,success
Status,398,11510792390,/g3t1_3,,running
Status,399,11511128628,/g3t1_2,,running
Status,400,11511205867,/g3t1_3,,success
Status,401,11511477923,/g3t1_2,,success
Status,402,11558603652,/g3t1_1,,running
Status,403,11559478323,/g3t1_1,,success
Status,404,11560820348,/g3t1_3,,running
Status,405,11560904203,/g3t1_2,,running
Status,406,11561278699,/g3t1_3,,success
Status,407,11562114765,/g3t1_2,,success
Status,411,11604403605,/g4t1,,fail
Status,412,11608716041,/g3t1_1,,running
Status,413,11608795023,/g3t1_1,,success
Status,414,11611064306,/g3t1_3,,running
Status,415,11611195793,/g3t1_2,,running
Status,416,11611269803,/g3t1_3,,success
Status,417,11611334059,/g3t1_2,,success
Status,418,11658922871,/g3t1_1,,running
Status,419,11659012736,/g3t1_1,,success
Status,420,11661351595,/g3t1_3,,running
Status,421,11661423103,/g3t1_2,,running
Status,422,11661454370,/g3t1_3,,success
Status,423,11661629637,/g3t1_2,,success
Status,424,11704348441,/g4t1,,fail
Status,425,11708870383,/g3t1_1,,running
Status,426,11709319897,/g3t1_1,,success
Status,427,11711215195,/g3t1_3,,running
Status,428,11711320774,/g3t1_2,,running
Status,429,11711699129,/g3t1_2,,success
Status,430,11711902640,/g3t1_3,,success
Status,431,11759004588,/g3t1_1,,running
Status,432,11759753433,/g3t1_1,,success
Status,433,11761421037,/g3t1_3,,running
Status,434,11761505744,/g3t1_2,,running
Status,435,11761671386,/g3t1_2,,success
Status,436,11761723003,/g3t1_3,,success
Status,440,11804692224,/g4t1,,fail
Status,441,11809279219,/g3t1_1,,running
Status,442,11809712500,/g3t1_1,,success
Status,443,11811279503,/g3t1_3,,running
Status,444,11811365519,/g3t1_2,,running
Status,445,11811819427,/g3t1_3,,success
Status,446,11811893094,/g3t1_2,,success
Status,447,11859337256,/g3t1_1,,running
Status,448,11859795743,/g3t1_1,,success
Status,449,11861512758,/g3t1_3,,running
Status,450,11861639330,/g3t1_2,,running
Status,451,11862439105,/g3t1_3,,success
Status,452,11862579674,/g3t1_2,,success
Status,453,11904232360,/g4t1,,fail
Status,454,11909142946,/g3t1_1,,running
Status,455,11909505525,/g3t1_1,,success
Status,456,11911231174,/g3t1_3,,running
Status,457,11911302431,/g3t1_2,,running
Status,458,11911389084,/g3t1_3,,success
Status,459,11911535245,/g3t1_2,,success
Status,460,11959127498,/g3t1_1,,running
Status,461,11959350349,/g3t1_1,,success
Status,462,11961169411,/g3t1_3,,running
Status,463,11961219024,/g3t1_2,,running
Status,464,11961305236,/g3t1_2,,success
Status,465,11961561103,/g3t1_3,,success
Status,469,12004236046,/g4t1,,fail
Status,470,12009627687,/g3t1_1,,running
Status,471,12009964899,/g3t1_1,,success
Status,472,12011933394,/g3t1_3,,running
Status,473,12012022233,/g3t1_2,,running
Status,474,12012498941,/g3t1_2,,success
Status,475,12012567542,/g3t1_3,,success
Status,476,12059873720,/g3t1_1,,running
Status,477,12060122944,/g3t1_1,,success
Status,478,12061730665,/g3t1_3,,running
Status,479,12062269508,/g3t1_2,,running
Status,480,12062363375,/g3t1_2,,success
Status,481,12062403577,/g3t1_3,,success
Status,482,12104841686,/g4t1,,fail
Status,483,12109958331,/g3t1_1,,running
Status,484,12110514157,/g3t1_1,,success
Status,485,12111904322,/g3t1_3,,running
Status,486,12112012674,/g3t1_3,,success
Status,487,12112136101,/g3t1_2,,running
Status,488,12112484798,/g3t1_2,,success
Status,489,12160373399,/g3t1_1,,running
Status,490,12161094726,/g3t1_1,,success
Status,491,12162329326,/g3t1_3,,running
Status,492,12162483298,/g3t1_2,,running
Status,493,12162540265,/g3t1_3,,success
Status,494,12162699795,/g3t1_2,,success
Status,498,12205070680,/g4t1,,fail
Status,499,12210571936,/g3t1_1,,running
Status,500,12211092505,/g3t1_1,,success
Status,501,12212142170,/g3t1_3,,running
Status,502,12212521201,/g3t1_2,,running
Status,503,12212721475,/g3t1_2,,success
Status,504,12212755203,/g3t1_3,,success
Status,505,12260065779,/g3t1_1,,running
Status,506,12260102501,/g3t1_1,,success
Status,507,12261633797,/g3t1_3,,running
Status,508,12261803688,/g3t1_2,,running
Status,509,12261864909,/g3t1_3,,success
Status,510,12262039494,/g3t1_2,,success
Status,511,12304898441,/g4t1,,fail
Status,512,12310619802,/g3t1_1,,running
Status,513,12311076754,/g3t1_1,,success
Status,514,12312318942,/g3t1_3,,running
Status,515,12312417318,/g3t1_2,,running
Status,516,12312725623,/g3t1_3,,success
Status,517,12313112931,/g3t1_2,,success
Status,518,12361016894,/g3t1_1,,running
Status,519,12361556129,/g3t1_1,,success
Status,520,12362789280,/g3t1_3,,running
Status,521,12363344834,/g3t1_2,,running
Status,522,12363438578,/g3t1_3,,success
Status,523,12364553685,/g3t1_2,,success
Status,527,12405348806,/g4t1,,fail
Status,528,12410955019,/g3t1_1,,running
Status,529,12411271628,/g3t1_1,,success
Status,530,12413228015,/g3t1_3,,running
Status,531,12413410721,/g3t1_2,,running
Status,532,12413449513,/g3t1_2,,success
Status,533,12413472179,/g3t1_3,,success
Status,534,12461094373,/g3t1_1,,running
Status,535,12461522944,/g3t1_1,,success
Status,536,12463335256,/g3t1_3,,running
Status,537,12463398518,/g3t1_2,,running
Status,538,12463494025,/g3t1_2,,success
Status,539,12463514839,/g3t1_3,,success
Status,540,12505490181,/g4t1,,fail
Status,541,12511143495,/g3t1_1,,running
Status,542,12511590712,/g3t1_1,,success
Status,543,12512666057,/g3t1_3,,running
Status,544,12513193564,/g3t1_3,,success
Status,545,12513419054,/g3t1_2,,running
Status,546,12513672203,/g3t1_2,,success
Status,547,12561344705,/g3t1_1,,running
Status,548,12561943867,/g3t1_1,,success
Status,549,12563632157,/g3t1_3,,running
Status,550,12563714353,/g3t1_2,,running
Status,551,12563809586,/g3t1_2,,success
Status,552,12563834206,/g3t1_3,,success
Status,556,12605552299,/g4t1,,fail
Status,557,12611527531,/g3t1_1,,running
Status,558,12611593429,/g3t1_1,,success
Status,559,12613352333,/g3t1_3,,running
Status,560,12613469059,/g3t1_2,,running
Status,561,12613814992,/g3t1_3,,success
Status,562,12613889910,/g3t1_2,,success
Status,563,12661617571,/g3t1_1,,running
Status,564,12662932151,/g3t1_1,,success
Status,565,12663615700,/g3t1_3,,running
Status,566,12663686890,/g3t1_2,,running
Status,567,12663813374,/g3t1_3,,success
Status,568,12663948476,/g3t1_2,,success
Status,569,12705667411,/g4t1,,fail
Status,570,12711654360,/g3t1_1,,running
Status,571,12712133435,/g3t1_1,,success
Status,572,12713678165,/g3t1_3,,running
Status,573,12714372147,/g3t1_2,,running
Status,574,12714456007,/g3t1_2,,success
Status,575,12714503637,/g3t1_3,,success
Status,576,12762090207,/g3t1_1,,running
Status,577,12762180138,/g3t1_1,,success
Status,578,12763830908,/g3t1_3,,running
Status,579,12763927076,/g3t1_2,,running
Status,580,12764033062,/g3t1_3,,success
Status,581,12764375585,/g3t1_2,,success
Status,585,12805769892,/g4t1,,fail
Status,586,12812314726,/g3t1_1,,running
Status,587,12812377288,/g3t1_1,,success
Status,588,12813580370,/g3t1_3,,running
Status,589,12813717373,/g3t1_2,,running
Status,590,12813761819,/g3t1_3,,success
Status,591,12814300737,/g3t1_2,,success
Status,592,12862211218,/g3t1_1,,running
Status,593,12862666475,/g3t1_1,,success
Status,594,12863781677,/g3t1_3,,running
Status,595,12863872019,/g3t1_2,,running
Status,596,12864027383,/g3t1_2,,success
Status,597,12864058521,/g3t1_3,,success
Status,598,12905154010,/g4t1,,fail
Status,599,12911568771,/g3t1_1,,running
Status,600,12911730846,/g3t1_1,,success
Status,601,12912896272,/g3t1_3,,running
Status,602,12913079587,/g3t1_3,,success
Status,603,12913375536,/g3t1_2,,running
Status,604,12913400355,/g3t1_2,,success
Status,605,12962149792,/g3t1_1,,running
Status,606,12962494017,/g3t1_1,,success
Status,607,12963080141,/g3t1_3,,running
Status,608,12963701115,/g3t1_2,,running
Status,609,12963747772,/g3t1_3,,success
Status,610,12963917300,/g3t1_2,,success
Status,614,13005842338,/g4t1,,fail
Status,615,13012437326,/g3t1_1,,running
Status,616,13012854527,/g3t1_1,,success
Status,617,13014151136,/g3t1_3,,running
Status,618,13014434458,/g3t1_3,,success
Status,619,13014503402,/g3t1_2,,running
Status,620,13015009467,/g3t1_2,,success
Status,621,13062709502,/g3t1_1,,running
Status,622,13063630771,/g3t1_1,,success
Status,623,13063709522,/g3t1_3,,running
Status,624,13064469476,/g3t1_2,,running
Status,625,13064526438,/g3t1_3,,success
Status,626,13064805149,/g3t1_2,,success
Status,627,13106122067,/g4t1,,fail
Status,628,13112668287,/g3t1_1,,running
Status,629,13113361251,/g3t1_1,,success
Status,630,13113809484,/g3t1_3,,running
Status,631,13114488754,/g3t1_2,,running
Status,632,13114544135,/g3t1_3,,success
Status,633,13115153672,/g3t1_2,,success
Status,634,13163204535,/g3t1_1,,running
Status,635,13163750977,/g3t1_1,,success
Status,636,13164577148,/g3t1_3,,running
Status,637,13164662945,/g3t1_3,,success
Status,638,13165009212,/g3t1_2,,running
Status,639,13165063768,/g3t1_2,,success
Status,643,13206227896,/g4t1,,fail
Status,644,13212996418,/g3t1_1,,running
Status,645,13213429979,/g3t1_1,,success
Status,646,13214636640,/g3t1_3,,running
Status,647,13214726678,/g3t1_2,,running
Status,648,13214815866,/g3t1_3,,success
Status,649,13215015308,/g3t1_2,,success
Status,650,13262860184,/g3t1_1,,running
Status,651,13263271688,/g3t1_1,,success
Status,652,13264071589,/g3t1_3,,running
Status,653,13264159117,/g3t1_3,,success
Status,654,13264482273,/g3t1_2,,running
Status,655,13264942555,/g3t1_2,,success
Status,656,13306546398,/g4t1,,fail
Status,657,13313656434,/g3t1_1,,running
Status,658,13314024494,/g3t1_1,,success
Status,659,13314111736,/g3t1_3,,running
Status,660,13315052253,/g3t1_3,,success
Status,661,13315628704,/g3t1_2,,running
Status,662,13315764292,/g3t1_2,,success
Status,663,13363311399,/g3t1_1,,running
Status,664,13363431781,/g3t1_1,,fail
Status,665,13364422823,/g3t1_3,,running
Status,666,13365087463,/g3t1_2,,running
Status,667,13365164921,/g3t1_3,,success
Status,668,13365558838,/g3t1_2,,success
Status,672,13406468758,/g4t1,,fail
Status,673,13413528881,/g3t1_1,,running
Status,674,13414128732,/g3t1_1,,fail
Status,675,13415208046,/g3t1_3,,running
Status,676,13415281226,/g3t1_2,,running
Status,677,13415393643,/g3t1_3,,success
Status,678,13415983812,/g3t1_2,,success
Status,679,13463630013,/g3t1_1,,running
Status,680,13465274949,/g3t1_1,,success
Status,681,13465392492,/g3t1_3,,running
Status,682,13465421408,/g3t1_3,,success
Status,683,13465463303,/g3t1_2,,running
Status,684,13465627466,/g3t1_2,,success
Status,685,13505961042,/g4t1,,fail
Status,686,13513272024,/g3t1_1,,running
Status,687,13513404111,/g3t1_1,,fail
Status,688,13514077521,/g3t1_3,,running
Status,689,13514265284,/g3t1_3,,success
Status,690,13514700516,/g3t1_2,,running
Status,691,13514892742,/g3t1_2,,success
Status,692,13563862791,/g3t1_1,,running
Status,693,13564595491,/g3t1_1,,success
Status,694,13564672204,/g3t1_3,,running
Status,695,13565468825,/g3t1_3,,success
Status,696,13565610612,/g3t1_2,,running
Status,697,13565937023,/g3t1_2,,success
Status,701,13606873112,/g4t1,,fail
Status,702,13614138711,/g3t1_1,,running
Status,703,13614820166,/g3t1_1,,success
Status,704,13614908563,/g3t1_3,,running
Status,705,13615608714,/g3t1_2,,running
Status,706,13615890145,/g3t1_3,,success
Status,707,13615984072,/g3t1_2,,success
Status,708,13664166093,/g3t1_1,,running
Status,709,13664666322,/g3t1_1,,success
Status,710,13664805089,/g3t1_3,,running
Status,711,13665693732,/g3t1_2,,running
Status,712,13665824834,/g3t1_3,,success
Status,713,13666324472,/g3t1_2,,success
Status,714,13706944156,/g4t1,,fail
Status,715,13714185889,/g3t1_1,,running
Status,716,13714921336,/g3t1_1,,success
Status,717,13715054639,/g3t1_3,,running
Status,718,13716256039,/g3t1_3,,success
Status,719,13716361199,/g3t1_2,,running
Status,720,13716388812,/g3t1_2,,success
Status,721,13764826262,/g3t1_1,,running
Status,722,13765136443,/g3t1_3,,running
Status,723,13765272735,/g3t1_1,,success
Status,724,13766096308,/g3t1_3,,success
Status,725,13766185799,/g3t1_2,,running
Status,726,13766439361,/g3t1_2,,success
Status,730,13807128927,/g4t1,,fail
Status,731,13815287802,/g3t1_1,,running
Status,732,13815443823,/g3t1_1,,success
Status,733,13815488803,/g3t1_3,,running
Status,734,13815989618,/g3t1_3,,success
Status,735,13816055175,/g3t1_2,,running
Status,736,13816695116,/g3t1_2,,success
Status,737,13864782605,/g3t1_1,,running
Status,738,13865252260,/g3t1_1,,success
Status,739,13865416726,/g3t1_3,,running
Status,740,13865813422,/g3t1_3,,success
Status,741,13866769381,/g3t1_2,,running
Status,742,13866834158,/g3t1_2,,success
Status,743,13907154043,/g4t1,,fail
Status,744,13915009690,/g3t1_1,,running
Status,745,13915264875,/g3t1_3,,running
Status,746,13915327225,/g3t1_1,,success
Status,747,13916342466,/g3t1_3,,success
Status,748,13916481893,/g3t1_2,,running
Status,749,13916971553,/g3t1_2,,success
Status,750,13965224613,/g3t1_1,,running
Status,751,13965878476,/g3t1_1,,success
Status,752,13965959398,/g3t1_3,,running
Status,753,13966419941,/g3t1_3,,success
Status,754,13966508217,/g3t1_2,,running
Status,755,13967565952,/g3t1_2,,success
Status,759,14006713328,/g4t1,,fail
Status,760,14014636797,/g3t1_1,,running
Status,761,14014800998,/g3t1_1,,success
Status,762,14015296145,/g3t1_3,,running
Status,763,14015432683,/g3t1_3,,success
Status,764,14015966299,/g3t1_2,,running
Status,765,14016092096,/g3t1_2,,success
Status,766,14065565618,/g3t1_1,,running
Status,767,14065656717,/g3t1_1,,success
Status,768,14065703833,/g3t1_3,,running
Status,769,14066301672,/g3t1_3,,success
Status,770,14066385856,/g3t1_2,,running
Status,771,14067068120,/g3t1_2,,success
Status,772,14107526674,/g4t1,,fail
Status,773,14115429758,/g3t1_1,,running
Status,774,14116407640,/g3t1_3,,running
Status,775,14116475472,/g3t1_1,,success
Status,776,14116699784,/g3t1_2,,running
Status,777,14116772376,/g3t1_3,,success
Status,778,14117294689,/g3t1_2,,success
Status,779,14166326382,/g3t1_1,,running
Status,780,14166751587,/g3t1_1,,success
Status,781,14166854863,/g3t1_3,,running
Status,782,14167287802,/g3t1_3,,success
Status,783,14167371305,/g3t1_2,,running
Status,784,14167419335,/g3t1_2,,success
Status,788,14207552727,/g4t1,,fail
Status,789,14215761215,/g3t1_1,,running
Status,790,14216518873,/g3t1_3,,running
Status,791,14216899345,/g3t1_1,,success
Status,792,14216957937,/g3t1_3,,success
Status,793,14217670253,/g3t1_2,,running
Status,794,14217792471,/g3t1_2,,success
Status,795,14265921315,/g3t1_1,,running
Status,796,14266520143,/g3t1_3,,running
Status,797,14266604970,/g3t1_1,,success
Status,798,14267470706,/g3t1_3,,success
Status,799,14267734255,/g3t1_2,,running
Status,800,14267841770,/g3t1_2,,success
Status,801,14307719390,/g4t1,,fail
Status,802,14316077178,/g3t1_1,,running
Status,803,14316823977,/g3t1_1,,success
Status,804,14317019973,/g3t1_3,,running
Status,805,14317154788,/g3t1_3,,success
Status,806,14317196719,/g3t1_2,,running
Status,807,14317683612,/g3t1_2,,success
Status,808,14366513669,/g3t1_1,,running
Status,809,14366578999,/g3t1_1,,success
Status,810,14366878835,/g3t1_3,,running
Status,811,14367578506,/g3t1_3,,success
Status,812,14367658893,/g3t1_2,,running
Status,813,14368067790,/g3t1_2,,success
Status,817,14407815328,/g4t1,,fail
Status,818,14416359775,/g3t1_1,,running
Status,819,14417391764,/g3t1_1,,success
Status,820,14417455964,/g3t1_3,,running
Status,821,14417558320,/g3t1_3,,success
Status,822,14417616245,/g3t1_2,,running
Status,823,14418344182,/g3t1_2,,success
Status,824,14466292942,/g3t1_1,,running
Status,825,14466852699,/g3t1_3,,running
Status,826,14467010575,/g3t1_1,,success
Status,827,14467738276,/g3t1_3,,success
Status,828,14467856926,/g3t1_2,,running
Status,829,14468340522,/g3t1_2,,success
Status,830,14507936858,/g4t1,,fail
Status,831,14516373303,/g3t1_1,,running
Status,832,14517199788,/g3t1_3,,running
Status,833,14517361355,/g3t1_1,,success
Status,834,14518137401,/g3t1_3,,success
Status,835,14518186697,/g3t1_2,,running
Status,836,14518213485,/g3t1_2,,success
Status,837,14566489802,/g3t1_1,,running
Status,838,14567368070,/g3t1_3,,running
Status,839,14567916500,/g3t1_1,,success
Status,840,14568051490,/g3t1_3,,success
Status,841,14568393302,/g3t1_2,,running
Status,842,14568469212,/g3t1_2,,success
Status,846,14608071339,/g4t1,,fail
Status,847,14616501757,/g3t1_1,,running
Status,848,14617586894,/g3t1_1,,success
Status,849,14617709337,/g3t1_3,,running
Status,850,14618221844,/g3t1_3,,success
Status,851,14618293610,/g3t1_2,,running
Status,852,14618670406,/g3t1_2,,success
Status,853,14667478152,/g3t1_1,,running
Status,854,14667646998,/g3t1_1,,success
Status,855,14668295199,/g3t1_3,,running
Status,856,14668673548,/g3t1_3,,success
Status,857,14668748661,/g3t1_2,,running
Status,858,14669199548,/g3t1_2,,success
Status,859,14708234894,/g4t1,,fail
Status,860,14717033801,/g3t1_1,,running
Status,861,14718311357,/g3t1_3,,running
Status,862,14718527443,/g3t1_1,,success
Status,863,14718578748,/g3t1_2,,running
Status,864,14718798281,/g3t1_3,,success
Status,865,14719291791,/g3t1_2,,success
Status,866,14767223840,/g3t1_1,,running
Status,867,14767316350,/g3t1_1,,success
Status,868,14767367974,/g3t1_3,,running
Status,869,14768575926,/g3t1_3,,success
Status,870,14768657897,/g3t1_2,,running
Status,871,14769349082,/g3t1_2,,success
Status,875,14807940441,/g4t1,,fail
Status,876,14816886740,/g3t1_1,,running
Status,877,14817270109,/g3t1_1,,success
Status,878,14817910361,/g3t1_3,,running
Status,879,14818277675,/g3t1_3,,success
Status,880,14818461932,/g3t1_2,,running
Status,881,14818743877,/g3t1_2,,success
Status,882,14867272354,/g3t1_1,,running
Status,883,14868128164,/g3t1_1,,success
Status,884,14868204899,/g3t1_3,,running
Status,885,14868658591,/g3t1_3,,success
Status,886,14868774148,/g3t1_2,,running
Status,887,14869137562,/g3t1_2,,success
Status,888,14908401576,/g4t1,,fail
Status,889,14917520427,/g3t1_1,,running
Status,890,14917604451,/g3t1_1,,success
Status,891,14917642823,/g3t1_3,,running
Status,892,14918924253,/g3t1_2,,running
Status,893,14918983999,/g3t1_3,,success
Status,894,14919533157,/g3t1_2,,success
Status,895,14967659543,/g3t1_1,,running
Status,896,14968134194,/g3t1_1,,success
Status,897,14968209173,/g3t1_3,,running
Status,898,14968758659,/g3t1_3,,success
Status,899,14968827788,/g3t1_2,,running
Status,900,14969290619,/g3t1_2,,success
Status,904,15008619096,/g4t1,,fail
Status,905,15017711863,/g3t1_1,,running
Status,906,15018234989,/g3t1_1,,success
Status,907,15019061299,/g3t1_3,,running
Status,908,15019409095,/g3t1_2,,running
Status,909,15019447852,/g3t1_3,,success
Status,910,15019519981,/g3t1_2,,success
Status,911,15067781123,/g3t1_1,,running
Status,912,15068446027,/g3t1_3,,running
Status,913,15068566731,/g3t1_1,,success
Status,914,15069316383,/g3t1_3,,success
Status,915,15069410248,/g3t1_2,,running
Status,916,15069795795,/g3t1_2,,success
Status,917,15108755677,/g4t1,,fail
Status,918,15118091503,/g3t1_1,,running
Status,919,15118718378,/g3t1_1,,success
Status,920,15118798841,/g3t1_3,,running
Status,921,15119413213,/g3t1_2,,running
Status,922,15119502733,/g3t1_3,,success
Status,923,15120071522,/g3t1_2,,success
Status,924,15168266009,/g3t1_1,,running
Status,925,15168668117,/g3t1_1,,success
Status,926,15168832544,/g3t1_3,,running
Status,927,15169752501,/g3t1_2,,running
Status,928,15169928526,/g3t1_3,,success
Status,929,15170379105,/g3t1_2,,success
Status,933,15208704817,/g4t1,,fail
Status,934,15218482510,/g3t1_1,,running
Status,935,15218971199,/g3t1_1,,fail
Status,936,15219184693,/g3t1_3,,running
Status,937,15219986309,/g3t1_3,,success
Status,938,15220099751,/g3t1_2,,running
Status,939,15220197912,/g3t1_2,,success
Status,940,15268390316,/g3t1_1,,running
Status,941,15269023209,/g3t1_1,,success
Status,942,15269099306,/g3t1_3,,running
Status,943,15269793051,/g3t1_2,,running
Status,944,15270263974,/g3t1_2,,success
Status,945,15270657387,/g3t1_3,,success
Status,946,15308877666,/g4t1,,fail
Status,947,15318617773,/g3t1_1,,running
Status,948,15319145112,/g3t1_1,,success
Status,949,15319361016,/g3t1_3,,running
Status,950,15320010651,/g3t1_2,,running
Status,951,15320629391,/g3t1_3,,success
Status,952,15320708301,/g3t1_2,,success
Status,953,15368436914,/g3t1_1,,running
Status,954,15368737859,/g3t1_1,,success
Status,955,15369325952,/g3t1_3,,running
Status,956,15369460454,/g3t1_3,,success
Status,957,15369537607,/g3t1_2,,running
Status,958,15369812548,/g3t1_2,,success
Status,962,15409003190,/g4t1,,fail
Status,963,15419019837,/g3t1_1,,running
Status,964,15419624770,/g3t1_1,,success
Status,965,15419702540,/g3t1_3,,running
Status,966,15420095441,/g3t1_3,,success
Status,967,15420145775,/g3t1_2,,running
Status,968,15420564249,/g3t1_2,,success
Status,969,15469083294,/g3t1_1,,running
Status,970,15469550309,/g3t1_3,,running
Status,971,15470694096,/g3t1_1,,success
Status,972,15470756899,/g3t1_2,,running
Status,973,15470781073,/g3t1_3,,success
Status,974,15470808555,/g3t1_2,,success
Status,975,15509148331,/g4t1,,fail
Status,976,15519205423,/g3t1_1,,running
Status,977,15519543654,/g3t1_1,,success
Status,978,15519606825,/g3t1_3,,running
Status,979,15520116620,/g3t1_2,,running
Status,980,15520191231,/g3t1_3,,success
Status,981,15520931605,/g3t1_2,,success
Status,982,15569941445,/g3t1_1,,running
Status,983,15570104773,/g3t1_1,,success
Status,984,15570337027,/g3t1_3,,running
Status,985,15571106561,/g3t1_2,,running
Status,986,15571175651,/g3t1_3,,success
Status,987,15571262483,/g3t1_2,,success
Status,991,15609212007,/g4t1,,fail
Status,992,15619434352,/g3t1_1,,running
Status,993,15620011641,/g3t1_1,,success
Status,994,15620085505,/g3t1_3,,running
Status,995,15620635419,/g3t1_3,,success
Status,996,15620693065,/g3t1_2,,running
Status,997,15621072600,/g3t1_2,,success
Status,998,15670056752,/g3t1_1,,running
Status,999,15670160625,/g3t1_3,,running
Status,1000,15671228840,/g3t1_1,,success
Status,1001,15671314004,/g3t1_2,,running
Status,1002,15671357605,/g3t1_3,,success
Status,1003,15671754188,/g3t1_2,,success
Status,1004,15709421130,/g4t1,,fail
Status,1005,15720462510,/g3t1_1,,running
Status,1006,15720580266,/g3t1_3,,running
Status,1007,15721292383,/g3t1_1,,success
Status,1008,15721359750,/g3t1_3,,success
Status,1009,15721495618,/g3t1_2,,running
Status,1010,15721756437,/g3t1_2,,success
Status,1011,15770198705,/g3t1_1,,running
Status,1012,15770298055,/g3t1_3,,running
Status,1013,15771271945,/g3t1_1,,success
Status,1014,15771357203,/g3t1_3,,success
Status,1015,15771398057,/g3t1_2,,running
Status,1016,15771899440,/g3t1_2,,success
Status,1020,15809689234,/g4t1,,fail
Status,1021,15820590700,/g3t1_1,,running
Status,1022,15820688771,/g3t1_3,,running
Status,1023,15820845481,/g3t1_1,,success
Status,1024,15820883052,/g3t1_3,,success
Status,1025,15821874088,/g3t1_2,,running
Status,1026,15822711978,/g3t1_2,,success
Status,1027,15870506408,/g3t1_1,,running
Status,1028,15870645841,/g3t1_3,,running
Status,1029,15871099136,/g3t1_1,,fail
Status,1030,15871392705,/g3t1_3,,success
Status,1031,15872048044,/g3t1_2,,running
Status,1032,15872129811,/g3t1_2,,success
Status,1033,15909694269,/g4t1,,fail
Status,1034,15920759732,/g3t1_1,,running
Status,1035,15920841679,/g3t1_3,,running
Status,1036,15920970555,/g3t1_1,,success
Status,1037,15921372880,/g3t1_3,,success
Status,1038,15921683791,/g3t1_2,,running
Status,1039,15922138634,/g3t1_2,,success
Status,1040,15970956915,/g3t1_1,,running
Status,1041,15971105630,/g3t1_3,,running
Status,1042,15971733659,/g3t1_3,,success
Status,1043,15971841122,/g3t1_1,,success
Status,1044,15971925926,/g3t1_2,,running
Status,1045,15972603075,/g3t1_2,,success
Status,1049,16009849758,/g4t1,,fail
Status,1050,16020899104,/g3t1_1,,running
Status,1051,16021019361,/g3t1_3,,running
Status,1052,16021378427,/g3t1_1,,success
Status,1053,16021484553,/g3t1_3,,fail
Status,1054,16022258103,/g3t1_2,,running
Status,1055,16022788829,/g3t1_2,,success
Status,1056,16071018955,/g3t1_3,,running
Status,1057,16071324361,/g3t1_1,,running
Status,1058,16071605144,/g3t1_3,,success
Status,1059,16071677158,/g3t1_1,,success
Status,1060,16072081545,/g3t1_2,,running
Status,1061,16072886476,/g3t1_2,,success
Status,1062,16110168334,/g4t1,,fail
Status,1063,16121154563,/g3t1_3,,running
Status,1064,16121266257,/g3t1_1,,running
Status,1065,16121496733,/g3t1_1,,success
Status,1066,16121556330,/g3t1_3,,success
Status,1067,16122451432,/g3t1_2,,running
Status,1068,16123038706,/g3t1_2,,success
Status,1069,16171378141,/g3t1_1,,running
Status,1070,16171512723,/g3t1_3,,running
Status,1071,16172281332,/g3t1_3,,success
Status,1072,16172431914,/g3t1_1,,success
Status,1073,16172536548,/g3t1_2,,running
Status,1074,16173143013,/g3t1_2,,success
Status,1078,16210262207,/g4t1,,fail
Status,1079,16221575021,/g3t1_1,,running
Status,1080,16221731374,/g3t1_3,,running
Status,1081,16222576187,/g3t1_1,,success
Status,1082,16222696975,/g3t1_3,,success
Status,1083,16223300183,/g3t1_2,,running
Status,1084,16224211677,/g3t1_2,,success
Status,1085,16271607902,/g3t1_1,,running
Status,1086,16271729686,/g3t1_3,,running
Status,1087,16272326622,/g3t1_3,,success
Status,1088,16272725653,/g3t1_1,,success
Status,1089,16273336577,/g3t1_2,,running
Status,1090,16273865056,/g3t1_2,,success
Status,1091,16310400360,/g4t1,,fail
Status,1092,16321678733,/g3t1_1,,running
Status,1093,16322346213,/g3t1_3,,running
Status,1094,16322435172,/g3t1_3,,success
Status,1095,16322783983,/g3t1_1,,success
Status,1096,16323210368,/g3t1_2,,running
Status,1097,16323717443,/g3t1_2,,success
Status,1098,16371950336,/g3t1_1,,running
Status,1099,16372138588,/g3t1_3,,running
Status,1100,16372199134,/g3t1_1,,success
Status,1101,16372750173,/g3t1_3,,success
Status,1102,16373228589,/g3t1_2,,running
Status,1103,16373469405,/g3t1_2,,success
Status,1107,16410602325,/g4t1,,fail
Status,1108,16422211461,/g3t1_1,,running
Status,1109,16422282454,/g3t1_3,,running
Status,1110,16422306349,/g3t1_1,,success
Status,1111,16422329912,/g3t1_3,,success
Status,1112,16423217159,/g3t1_2,,running
Status,1113,16423701002,/g3t1_2,,success
Status,1114,16472116143,/g3t1_1,,running
Status,1115,16472231618,/g3t1_3,,running
Status,1116,16472934735,/g3t1_1,,success
Status,1117,16473014649,/g3t1_3,,success
Status,1118,16473367180,/g3t1_2,,running
Status,1119,16473782936,/g3t1_2,,success
Status,1120,16510498804,/g4t1,,fail
Status,1121,16522199113,/g3t1_1,,running
Status,1122,16522270973,/g3t1_3,,running
Status,1123,16522993811,/g3t1_3,,success
Status,1124,16523063958,/g3t1_1,,success
Status,1125,16523527340,/g3t1_2,,running
Status,1126,16523774297,/g3t1_2,,success
Status,1127,16572757252,/g3t1_1,,running
Status,1128,16572847066,/g3t1_3,,running
Status,1129,16572894273,/g3t1_1,,success
Status,1130,16573956572,/g3t1_2,,running
Status,1131,16574069792,/g3t1_3,,success
Status,1132,16574181189,/g3t1_2,,success
Status,1136,16610762621,/g4t1,,fail
Status,1137,16622954817,/g3t1_1,,running
Status,1138,16623043628,/g3t1_3,,running
Status,1139,16623141799,/g3t1_1,,success
Status,1140,16623341160,/g3t1_3,,success
Status,1141,16623591919,/g3t1_2,,running
Status,1142,16623909714,/g3t1_2,,success
Status,1143,16672489543,/g3t1_1,,running
Status,1144,16672596325,/g3t1_3,,running
Status,1145,16673032167,/g3t1_3,,success
Status,1146,16673190201,/g3t1_1,,success
Status,1147,16674121557,/g3t1_2,,running
Status,1148,16674216662,/g3t1_2,,success
Status,1149,16710846559,/g4t1,,fail
Status,1150,16722725674,/g3t1_1,,running
Status,1151,16722842856,/g3t1_3,,running
Status,1152,16723082416,/g3t1_1,,success
Status,1153,16723166277,/g3t1_3,,success
Status,1154,16723877196,/g3t1_2,,running
Status,1155,16724702780,/g3t1_2,,success
Status,1156,16773333951,/g3t1_1,,running
Status,1157,16773464352,/g3t1_3,,running
Status,1158,16773505616,/g3t1_1,,fail
Status,1159,16773545243,/g3t1_3,,success
Status,1160,16774424893,/g3t1_2,,running
Status,1161,16774579643,/g3t1_2,,success
Status,1165,16810989171,/g4t1,,fail
Status,1166,16823162763,/g3t1_1,,running
Status,1167,16823266879,/g3t1_3,,running
Status,1168,16823826604,/g3t1_3,,success
Status,1169,16824261843,/g3t1_1,,success
Status,1170,16824331376,/g3t1_2,,running
Status,1171,16824395599,/g3t1_2,,success
Status,1172,16873001488,/g3t1_1,,running
Status,1173,16873237633,/g3t1_3,,running
Status,1174,16874344674,/g3t1_1,,fail
Status,1175,16874517118,/g3t1_3,,success
Status,1176,16874555206,/g3t1_2,,running
Status,1177,16875353542,/g3t1_2,,success
Status,1178,16911141524,/g4t1,,fail
Status,1179,16923470992,/g3t1_3,,running
Status,1180,16923555928,/g3t1_1,,running
Status,1181,16924282144,/g3t1_1,,success
Status,1182,16924373066,/g3t1_2,,running
Status,1183,16924469249,/g3t1_3,,success
Status,1184,16925209841,/g3t1_2,,success
Status,1185,16974292031,/g3t1_3,,running
Status,1186,16974377581,/g3t1_1,,running
Status,1187,16974416153,/g3t1_1,,fail
Status,1188,16974470815,/g3t1_3,,success
Status,1189,16974540894,/g3t1_2,,running
Status,1190,16975165023,/g3t1_2,,success
Status,1194,17011277900,/g4t1,,fail
Status,1195,17023855574,/g3t1_3,,running
Status,1196,17023953096,/g3t1_1,,running
Status,1197,17024002679,/g3t1_1,,success
Status,1198,17024421071,/g3t1_3,,success
Status,1199,17024468197,/g3t1_2,,running
Status,1200,17024858143,/g3t1_2,,success
Status,1201,17073513854,/g3t1_1,,running
Status,1202,17073608154,/g3t1_3,,running
Status,1203,17073664400,/g3t1_3,,success
Status,1204,17073703808,/g3t1_1,,success
Status,1205,17074224085,/g3t1_2,,running
Status,1206,17074708023,/g3t1_2,,success
Status,1207,17111216759,/g4t1,,fail
Status,1208,17123565706,/g3t1_3,,running
Status,1209,17123668451,/g3t1_1,,running
Status,1210,17124175508,/g3t1_3,,success
Status,1211,17124376878,/g3t1_1,,success
Status,1212,17125079477,/g3t1_2,,running
Status,1213,17125160557,/g3t1_2,,success
Status,1214,17174470039,/g3t1_3,,running
Status,1215,17174569390,/g3t1_1,,running
Status,1216,17174712267,/g3t1_3,,success
Status,1217,17174766972,/g3t1_2,,running
Status,1218,17174835462,/g3t1_1,,success
Status,1219,17175589564,/g3t1_2,,success
Status,1223,17211449254,/g4t1,,fail
Status,1224,17223883205,/g3t1_3,,running
Status,1225,17223995290,/g3t1_1,,running
Status,1226,17225151679,/g3t1_1,,success
Status,1227,17225208700,/g3t1_3,,success
Status,1228,17225232701,/g3t1_2,,running
Status,1229,17225410558,/g3t1_2,,success
Status,1230,17273724360,/g3t1_3,,running
Status,1231,17273765499,/g3t1_1,,running
Status,1232,17273832673,/g3t1_3,,success
Status,1233,17273855208,/g3t1_1,,success
Status,1234,17274943000,/g3t1_2,,running
Status,1235,17275081904,/g3t1_2,,success
Status,1236,17310871521,/g4t1,,fail
Status,1237,17323883293,/g3t1_3,,running
Status,1238,17323943123,/g3t1_1,,running
Status,1239,17323959527,/g3t1_3,,success
Status,1240,17323981552,/g3t1_1,,success
Status,1241,17324649114,/g3t1_2,,running
Status,1242,17324859707,/g3t1_2,,success
Status,1243,17374544521,/g3t1_3,,running
Status,1244,17374704291,/g3t1_1,,running
Status,1245,17375968834,/g3t1_2,,running
Status,1246,17376032642,/g3t1_3,,success
Status,1247,17376104245,/g3t1_1,,fail
Status,1248,17376137989,/g3t1_2,,success
Status,1252,17411610064,/g4t1,,fail
Status,1253,17424641010,/g3t1_1,,running
Status,1254,17424904657,/g3t1_3,,running
Status,1255,17424951045,/g3t1_3,,success
Status,1256,17425042518,/g3t1_1,,success
Status,1257,17425395690,/g3t1_2,,running
Status,1258,17425898505,/g3t1_2,,success
Status,1259,17473769399,/g3t1_1,,running
Status,1260,17473809482,/g3t1_3,,running
Status,1261,17474040962,/g3t1_1,,success
Status,1262,17474129984,/g3t1_3,,success
Status,1263,17474693672,/g3t1_2,,running
Status,1264,17474845812,/g3t1_2,,success
Status,1265,17511071374,/g4t1,,fail
Status,1266,17524079820,/g3t1_1,,running
Status,1267,17524211497,/g3t1_3,,running
Status,1268,17524230708,/g3t1_3,,success
Status,1269,17524242883,/g3t1_1,,success
Status,1270,17525002627,/g3t1_2,,running
Status,1271,17525156164,/g3t1_2,,success
Status,1272,17574714145,/g3t1_3,,running
Status,1273,17575486303,/g3t1_1,,running
Status,1274,17575558786,/g3t1_1,,success
Status,1275,17575659192,/g3t1_2,,running
Status,1276,17575935706,/g3t1_3,,success
Status,1277,17575989440,/g3t1_2,,success
Status,1281,17611866080,/g4t1,,fail
Status,1282,17624796233,/g3t1_3,,running
Status,1283,17624893545,/g3t1_1,,running
Status,1284,17625204003,/g3t1_1,,success
Status,1285,17625355732,/g3t1_3,,success
Status,1286,17625394388,/g3t1_2,,running
Status,1287,17626480854,/g3t1_2,,success
Status,1288,17675147591,/g3t1_3,,running
Status,1289,17675474071,/g3t1_1,,running
Status,1290,17675529454,/g3t1_1,,success
Status,1291,17675933636,/g3t1_2,,running
Status,1292,17676226242,/g3t1_3,,success
Status,1293,17676370779,/g3t1_2,,success
Status,1294,17712102225,/g4t1,,fail
Status,1295,17725025727,/g3t1_3,,running
Status,1296,17725158528,/g3t1_1,,running
Status,1297,17725379939,/g3t1_1,,success
Status,1298,17725502607,/g3t1_3,,success
Status,1299,17726052452,/g3t1_2,,running
Status,1300,17726760161,/g3t1_2,,success
Status,1301,17775123623,/g3t1_3,,running
Status,1302,17775208881,/g3t1_1,,running
Status,1303,17776090439,/g3t1_1,,success
Status,1304,17776158391,/g3t1_2,,running
Status,1305,17777019693,/g3t1_3,,success
Status,1306,17777165473,/g3t1_2,,success
Status,1310,17812364733,/g4t1,,fail
Status,1311,17824955707,/g3t1_3,,running
Status,1312,17825134413,/g3t1_1,,running
Status,1313,17825168518,/g3t1_1,,success
Status,1314,17825193883,/g3t1_3,,success
Status,1315,17825861476,/g3t1_2,,running
Status,1316,17826178459,/g3t1_2,,success
Status,1317,17875939992,/g3t1_1,,running
Status,1318,17876037261,/g3t1_3,,running
Status,1319,17876558314,/g3t1_3,,success
Status,1320,17876612177,/g3t1_2,,running
Status,1321,17876649667,/g3t1_1,,success
Status,1322,17876685618,/g3t1_2,,success
Status,1323,17912322600,/g4t1,,fail
Status,1324,17925577085,/g3t1_3,,running
Status,1325,17925683323,/g3t1_1,,running
Status,1326,17926418839,/g3t1_3,,success
Status,1327,17926598579,/g3t1_1,,success
Status,1328,17926643750,/g3t1_2,,running
Status,1329,17926905333,/g3t1_2,,success
Status,1330,17975836476,/g3t1_3,,running
Status,1331,17975970395,/g3t1_1,,running
Status,1332,17976948695,/g3t1_3,,success
Status,1333,17977060685,/g3t1_2,,running
Status,1334,17977118769,/g3t1_1,,success
Status,1335,17977152858,/g3t1_2,,success
Status,1339,18012501132,/g4t1,,fail
Status,1340,18026296185,/g3t1_3,,running
Status,1341,18026376787,/g3t1_1,,running
Status,1342,18026521500,/g3t1_3,,success
Status,1343,18026566093,/g3t1_1,,success
Status,1344,18027105395,/g3t1_2,,running
Status,1345,18027368852,/g3t1_2,,success
Status,1346,18076624256,/g3t1_3,,running
Status,1347,18076715031,/g3t1_1,,running
Status,1348,18076902613,/g3t1_3,,success
Status,1349,18076985252,/g3t1_1,,success
Status,1350,18077012597,/g3t1_2,,running
Status,1351,18077335839,/g3t1_2,,success
Status,1352,18112624118,/g4t1,,fail
Status,1353,18126512602,/g3t1_3,,running
Status,1354,18126598630,/g3t1_1,,running
Status,1355,18126694333,/g3t1_1,,success
Status,1356,18126728435,/g3t1_3,,success
Status,1357,18126758643,/g3t1_2,,running
Status,1358,18127676998,/g3t1_2,,success
Status,1359,18176402196,/g3t1_3,,running
Status,1360,18176516239,/g3t1_1,,running
Status,1361,18176926618,/g3t1_3,,success
Status,1362,18177031624,/g3t1_1,,success
Status,1363,18177074487,/g3t1_2,,running
Status,1364,18178248895,/g3t1_2,,success
Status,1368,18212824269,/g4t1,,fail
Status,1369,18226769511,/g3t1_1,,running
Status,1370,18226884862,/g3t1_3,,running
Status,1371,18227351342,/g3t1_1,,success
Status,1372,18227449329,/g3t1_3,,success
Status,1373,18227876069,/g3t1_2,,running
Status,1374,18228052202,/g3t1_2,,success
Status,1375,18276619160,/g3t1_1,,running
Status,1376,18276753977,/g3t1_3,,running
Status,1377,18277214498,/g3t1_1,,success
Status,1378,18277374954,/g3t1_3,,success
Status,1379,18277428678,/g3t1_2,,running
Status,1380,18278170570,/g3t1_2,,success
Status,1381,18312834914,/g4t1,,fail
Status,1382,18326659856,/g3t1_3,,running
Status,1383,18326781839,/g3t1_1,,running
Status,1384,18327251384,/g3t1_1,,fail
Status,1385,18327328227,/g3t1_2,,running
Status,1386,18327377241,/g3t1_3,,success
Status,1387,18327885201,/g3t1_2,,success
Status,1388,18377011127,/g3t1_3,,running
Status,1389,18377255282,/g3t1_1,,running
Status,1390,18377298765,/g3t1_1,,fail
Status,1391,18377893681,/g3t1_3,,success
Status,1392,18378096247,/g3t1_2,,running
Status,1393,18378334549,/g3t1_2,,success
Status,1397,18412858576,/g4t1,,fail
Status,1398,18427425611,/g3t1_3,,running
Status,1399,18427659005,/g3t1_1,,running
Status,1400,18427710785,/g3t1_1,,success
Status,1401,18427737543,/g3t1_3,,success
Status,1402,18427767989,/g3t1_2,,running
Status,1403,18428453759,/g3t1_2,,success
Status,1404,18477209440,/g3t1_3,,running
Status,1405,18477563966,/g3t1_1,,running
Status,1406,18478539107,/g3t1_3,,success
Status,1407,18478623645,/g3t1_1,,fail
Status,1408,18478721632,/g3t1_2,,running
Status,1409,18478749911,/g3t1_2,,success
Status,1410,18513236348,/g4t1,,fail
Status,1411,18527386673,/g3t1_3,,running
Status,1412,18527493471,/g3t1_1,,running
Status,1413,18527537187,/g3t1_3,,success
Status,1414,18528756638,/g3t1_1,,success
Status,1415,18529026338,/g3t1_2,,running
Status,1416,18529086196,/g3t1_2,,success
Status,1417,18578170498,/g3t1_3,,running
Status,1418,18578273638,/g3t1_1,,running
Status,1419,18578400692,/g3t1_3,,success
Status,1420,18578461359,/g3t1_2,,running
Status,1421,18578654866,/g3t1_1,,success
Status,1422,18578923308,/g3t1_2,,success
Status,1426,18613474910,/g4t1,,fail
Status,1427,18628192370,/g3t1_3,,running
Status,1428,18628290531,/g3t1_1,,running
Status,1429,18628842778,/g3t1_2,,running
Status,1430,18628952584,/g3t1_3,,success
Status,1431,18629038911,/g3t1_1,,success
Status,1432,18629075331,/g3t1_2,,success
Status,1433,18678734243,/g3t1_3,,running
Status,1434,18678820644,/g3t1_1,,running
Status,1435,18678856882,/g3t1_1,,success
Status,1436,18678887378,/g3t1_2,,running
Status,1437,18678913729,/g3t1_3,,success
Status,1438,18679173202,/g3t1_2,,success
Status,1439,18713437332,/g4t1,,fail
Status,1440,18728530282,/g3t1_3,,running
Status,1441,18728764228,/g3t1_1,,running
Status,1442,18728808176,/g3t1_1,,success
Status,1443,18728861051,/g3t1_3,,success
Status,1444,18728890021,/g3t1_2,,running
Status,1445,18729369640,/g3t1_2,,success
Status,1446,18778225877,/g3t1_3,,running
Status,1447,18778320935,/g3t1_1,,running
Status,1448,18778522140,/g3t1_3,,success
Status,1449,18778658933,/g3t1_2,,running
Status,1450,18778743041,/g3t1_1,,success
Status,1451,18778760046,/g3t1_2,,success
Status,1455,18813034433,/g4t1,,fail
Status,1456,18828987438,/g3t1_3,,running
Status,1457,18829053258,/g3t1_1,,running
Status,1458,18829152789,/g3t1_2,,running
Status,1459,18829183540,/g3t1_1,,success
Status,1460,18829217669,/g3t1_2,,success
Status,1461,18829253013,/g3t1_3,,success
Status,1462,18879475293,/g3t1_3,,running
Status,1463,18879619539,/g3t1_1,,running
Status,1464,18879742707,/g3t1_2,,running
Status,1465,18879779177,/g3t1_1,,success
Status,1466,18880125286,/g3t1_3,,success
Status,1467,18880189775,/g3t1_2,,success
Status,1468,18913762664,/g4t1,,fail
Status,1469,18929653134,/g3t1_3,,running
Status,1470,18929756544,/g3t1_1,,running
Status,1471,18929800019,/g3t1_1,,fail
Status,1472,18929840086,/g3t1_2,,running
Status,1473,18929872041,/g3t1_3,,success
Status,1474,18930259523,/g3t1_2,,success
Status,1475,18979401273,/g3t1_1,,running
Status,1476,18979497080,/g3t1_3,,running
Status,1477,18979623867,/g3t1_1,,fail
Status,1478,18980350944,/g3t1_2,,running
Status,1479,18980522355,/g3t1_3,,success
Status,1480,18980599277,/g3t1_2,,success
Status,1484,19013848779,/g4t1,,fail
Status,1485,19029037346,/g3t1_3,,running
Status,1486,19029184202,/g3t1_1,,running
Status,1487,19029513076,/g3t1_1,,fail
Status,1488,19029597508,/g3t1_3,,success
Status,1489,19030359114,/g3t1_2,,running
Status,1490,19030411591,/g3t1_2,,success
Status,1491,19079990355,/g3t1_3,,running
Status,1492,19080050437,/g3t1_1,,running
Status,1493,19080151958,/g3t1_1,,fail
Status,1494,19080177695,/g3t1_3,,success
Status,1495,19080206013,/g3t1_2,,running
Status,1496,19080273372,/g3t1_2,,success
Status,1497,19113656953,/g4t1,,fail
Status,1498,19129497282,/g3t1_3,,running
Status,1499,19129599431,/g3t1_1,,running
Status,1500,19130113690,/g3t1_1,,success
Status,1501,19130243326,/g3t1_3,,success
Status,1502,19130795999,/g3t1_2,,running
Status,1503,19130928195,/g3t1_2,,success
Status,1504,19179406967,/g3t1_3,,running
Status,1505,19179633387,/g3t1_1,,running
Status,1506,19180281719,/g3t1_3,,success
Status,1507,19180356365,/g3t1_2,,running
Status,1508,19180394804,/g3t1_1,,fail
Status,1509,19181422000,/g3t1_2,,success
Status,1513,19214109337,/g4t1,,fail
Status,1514,19230599110,/g3t1_3,,running
Status,1515,19230676503,/g3t1_1,,running
Status,1516,19230849738,/g3t1_1,,fail
Status,1517,19230883052,/g3t1_3,,success
Status,1518,19230906060,/g3t1_2,,running
Status,1519,19230929563,/g3t1_2,,success
Status,1520,19280341349,/g3t1_1,,running
Status,1521,19280787008,/g3t1_3,,running
Status,1522,19281247128,/g3t1_2,,running
Status,1523,19281326992,/g3t1_2,,success
Status,1524,19281364936,/g3t1_1,,success
Status,1525,19281407477,/g3t1_3,,success
Status,1526,19314112123,/g4t1,,fail
Status,1527,19330539198,/g3t1_3,,running
Status,1528,19330649233,/g3t1_1,,running
Status,1529,19330837077,/g3t1_3,,success
Status,1530,19330878353,/g3t1_1,,fail
Status,1531,19330908547,/g3t1_2,,running
Status,1532,19331547327,/g3t1_2,,success
Status,1533,19381131508,/g3t1_1,,running
Status,1534,19381234755,/g3t1_3,,running
Status,1535,19381435803,/g3t1_2,,running
Status,1536,19381482570,/g3t1_1,,success
Status,1537,19381510816,/g3t1_3,,success
Status,1538,19381527096,/g3t1_2,,success
Status,1542,19413830318,/g4t1,,fail
Status,1543,19430309161,/g3t1_1,,running
Status,1544,19430388803,/g3t1_3,,running
Status,1545,19430567016,/g3t1_1,,success
Status,1546,19431294554,/g3t1_3,,success
Status,1547,19431451556,/g3t1_2,,running
Status,1548,19432094942,/g3t1_2,,success
Status,1549,19480518662,/g3t1_1,,running
Status,1550,19480604883,/g3t1_3,,running
Status,1551,19480731297,/g3t1_1,,success
Status,1552,19480765582,/g3t1_3,,success
Status,1553,19481114310,/g3t1_2,,running
Status,1554,19481907823,/g3t1_2,,success
Status,1555,19514121648,/g4t1,,fail
Status,1556,19530377676,/g3t1_1,,running
Status,1557,19530473363,/g3t1_3,,running
Status,1558,19531112991,/g3t1_3,,success
Status,1559,19531183147,/g3t1_1,,success
Status,1560,19531384263,/g3t1_2,,running
Status,1561,19532191787,/g3t1_2,,success
Status,1562,19580422530,/g3t1_1,,running
Status,1563,19580562545,/g3t1_3,,running
Status,1564,19580684700,/g3t1_1,,fail
Status,1565,19580735741,/g3t1_3,,success
Status,1566,19581424585,/g3t1_2,,running
Status,1567,19582412624,/g3t1_2,,success
Status,1571,19614383598,/g4t1,,fail
Status,1572,19630932254,/g3t1_1,,running
Status,1573,19631058053,/g3t1_3,,running
Status,1574,19631229011,/g3t1_3,,success
Status,1575,19631418752,/g3t1_1,,success
Status,1576,19631562042,/g3t1_2,,running
Status,1577,19632274787,/g3t1_2,,success
Status,1578,19680609160,/g3t1_1,,running
Status,1579,19680676918,/g3t1_3,,running
Status,1580,19681145695,/g3t1_1,,success
Status,1581,19681221524,/g3t1_3,,success
Status,1582,19681708637,/g3t1_2,,running
Status,1583,19682413283,/g3t1_2,,success
Status,1584,19714673374,/g4t1,,fail
Status,1585,19730724971,/g3t1_1,,running
Status,1586,19730839287,/g3t1_3,,running
Status,1587,19731262019,/g3t1_3,,success
Status,1588,19731340312,/g3t1_1,,success
Status,1589,19732016252,/g3t1_2,,running
Status,1590,19732866157,/g3t1_2,,success
Status,1591,19780429980,/g3t1_1,,running
Status,1592,19780498013,/g3t1_3,,running
Status,1593,19780626449,/g3t1_1,,success
Status,1594,19780922541,/g3t1_3,,success
Status,1595,19781536958,/g3t1_2,,running
Status,1596,19781825774,/g3t1_2,,success
Status,1600,19814539982,/g4t1,,fail
Status,1601,19830728565,/g3t1_1,,running
Status,1602,19830828601,/g3t1_3,,running
Status,1603,19830857031,/g3t1_1,,success
Status,1604,19831090476,/g3t1_3,,success
Status,1605,19832028644,/g3t1_2,,running
Status,1606,19832071469,/g3t1_2,,success
Status,1607,19881268178,/g3t1_3,,running
Status,1608,19881406085,/g3t1_1,,running
Status,1609,19882449211,/g3t1_3,,success
Status,1610,19882514525,/g3t1_2,,running
Status,1611,19882554651,/g3t1_1,,success
Status,1612,19883311961,/g3t1_2,,success
Status,1613,19914718425,/g4t1,,fail
Status,1614,19931452259,/g3t1_1,,running
Status,1615,19931644017,/g3t1_3,,running
Status,1616,19931687956,/g3t1_1,,fail
Status,1617,19931817038,/g3t1_3,,success
Status,1618,19932925471,/g3t1_2,,running
Status,1619,19932991348,/g3t1_2,,success
Status,1620,19981429416,/g3t1_3,,running
Status,1621,19981520346,/g3t1_1,,running
Status,1622,19982139857,/g3t1_1,,fail
Status,1623,19982315834,/g3t1_3,,success
Status,1624,19982494992,/g3t1_2,,running
Status,1625,19983179660,/g3t1_2,,success
Status,1629,20014881254,/g4t1,,fail
Status,1630,20031707889,/g3t1_1,,running
Status,1631,20031823820,/g3t1_3,,running
Status,1632,20031948483,/g3t1_1,,success
Status,1633,20032827473,/g3t1_3,,success
Status,1634,20033176952,/g3t1_2,,running
Status,1635,20033295831,/g3t1_2,,success
Status,1636,20081667957,/g3t1_1,,running
Status,1637,20082204222,/g3t1_1,,fail
Status,1638,20082360299,/g3t1_3,,running
Status,1639,20082522488,/g3t1_3,,success
Status,1640,20082824962,/g3t1_2,,running
Status,1641,20083467794,/g3t1_2,,success
Status,1642,20114896208,/g4t1,,fail
Status,1643,20131767300,/g3t1_1,,running
Status,1644,20131886234,/g3t1_3,,running
Status,1645,20131916794,/g3t1_1,,success
Status,1646,20132290993,/g3t1_3,,success
Status,1647,20133182884,/g3t1_2,,running
Status,1648,20133273924,/g3t1_2,,success
Status,1649,20182080226,/g3t1_1,,running
Status,1650,20182316801,/g3t1_3,,running
Status,1651,20182459951,/g3t1_1,,success
Status,1652,20182779251,/g3t1_3,,success
Status,1653,20182935057,/g3t1_2,,running
Status,1654,20183729542,/g3t1_2,,success
Status,1658,20215123585,/g4t1,,fail
Status,1659,20232013105,/g3t1_1,,running
Status,1660,20232095943,/g3t1_3,,running
Status,1661,20232216770,/g3t1_1,,fail
Status,1662,20232616054,/g3t1_3,,success
Status,1663,20233020000,/g3t1_2,,running
Status,1664,20234139604,/g3t1_2,,success
Status,1665,20282132372,/g3t1_1,,running
Status,1666,20282267280,/g3t1_1,,fail
Status,1667,20282310533,/g3t1_3,,running
Status,1668,20282814350,/g3t1_3,,success
Status,1669,20283497310,/g3t1_2,,running
Status,1670,20283827227,/g3t1_2,,success
Status,1671,20314590284,/g4t1,,fail
Status,1672,20331734850,/g3t1_1,,running
Status,1673,20331867705,/g3t1_1,,success
Status,1674,20331902353,/g3t1_3,,running
Status,1675,20332372517,/g3t1_3,,success
Status,1676,20333111401,/g3t1_2,,running
Status,1677,20333384668,/g3t1_2,,success
Status,1678,20382356110,/g3t1_1,,running
Status,1679,20382438474,/g3t1_3,,running
Status,1680,20382992038,/g3t1_1,,success
Status,1681,20383091336,/g3t1_3,,success
Status,1682,20383452275,/g3t1_2,,running
