
Status,1,3481088428,/g4t1,,init
Status,3,8694553212,/g3t1_1,,init
Status,5,8701202632,/g3t1_1,,init
Status,6,8701218438,/g3t1_1,,running
Status,7,8701708113,/g3t1_1,,success
Status,8,8751426196,/g3t1_1,,running
Status,9,8751498173,/g3t1_1,,success
Status,10,8801449478,/g3t1_1,,running
Status,11,8801466249,/g3t1_1,,success
Status,12,8851535872,/g3t1_1,,running
Status,13,8851559154,/g3t1_1,,success
Status,14,8894631706,/g3t1_2,,init
Status,16,8901601858,/g3t1_1,,running
Status,17,8901726621,/g3t1_1,,success
Status,18,8903398875,/g3t1_2,,init
Status,19,8903431924,/g3t1_2,,running
Status,20,8903863995,/g3t1_2,,success
Status,21,8951743596,/g3t1_1,,running
Status,22,8951759657,/g3t1_1,,success
Status,23,8953572239,/g3t1_2,,running
Status,24,8953684539,/g3t1_2,,success
Status,29,8995646377,/g3t1_3,,init
Status,30,9001766920,/g3t1_1,,running
Status,31,9001849088,/g3t1_1,,fail
Status,32,9002801302,/g3t1_3,,init
Status,33,9002819711,/g3t1_3,,running
Status,34,9003283700,/g3t1_3,,success
Status,35,9003550422,/g3t1_2,,running
Status,36,9003639320,/g3t1_2,,success
Status,37,9052244323,/g3t1_1,,running
Status,38,9052437704,/g3t1_1,,fail
Status,39,9053267302,/g3t1_3,,running
Status,40,9053756418,/g3t1_3,,success
Status,41,9054144587,/g3t1_2,,running
Status,42,9054866999,/g3t1_2,,success
Status,43,9102737516,/g3t1_1,,running
Status,44,9102794953,/g3t1_1,,fail
Status,45,9103633746,/g3t1_3,,running
Status,46,9104653410,/g3t1_3,,success
Status,47,9104711100,/g3t1_2,,running
Status,48,9104798646,/g3t1_2,,success
Status,49,9152856510,/g3t1_1,,running
Status,50,9152918902,/g3t1_1,,fail
Status,51,9154171599,/g3t1_3,,running
Status,52,9154323256,/g3t1_3,,success
Status,53,9154435607,/g3t1_2,,running
Status,54,9155136719,/g3t1_2,,success
Status,58,9198484115,/g4t1,,success
Status,59,9202914474,/g3t1_1,,running
Status,60,9202971890,/g3t1_1,,fail
Status,61,9205915703,/g3t1_3,,running
Status,62,9206069410,/g3t1_3,,success
Status,63,9206116366,/g3t1_2,,running
Status,64,9206279174,/g3t1_2,,fail
Status,65,9253056412,/g3t1_1,,running
Status,66,9253304016,/g3t1_1,,fail
Status,67,9253907304,/g3t1_3,,running
Status,68,9254303094,/g3t1_3,,success
Status,69,9255318703,/g3t1_2,,running
Status,70,9255454411,/g3t1_2,,fail
Status,71,9298581540,/g4t1,,success
Status,72,9303234251,/g3t1_1,,running
Status,73,9303295361,/g3t1_1,,fail
Status,74,9303887207,/g3t1_3,,running
Status,75,9304992910,/g3t1_3,,success
Status,76,9305808474,/g3t1_2,,running
Status,77,9306531644,/g3t1_2,,success
Status,78,9353216269,/g3t1_1,,running
Status,79,9353272032,/g3t1_1,,fail
Status,80,9354118902,/g3t1_3,,running
Status,81,9354488014,/g3t1_3,,success
Status,84,9355449964,/g3t1_2,,running
Status,85,9355580772,/g3t1_2,,fail
Status,87,9398211967,/g4t1,,success
Status,88,9402933444,/g3t1_1,,running
Status,89,9402955389,/g3t1_1,,fail
Status,90,9403766134,/g3t1_3,,running
Status,91,9404001689,/g3t1_3,,fail
Status,92,9405627883,/g3t1_2,,running
Status,93,9405785794,/g3t1_2,,success
Status,94,9453001518,/g3t1_1,,running
Status,95,9453106092,/g3t1_1,,fail
Status,96,9453780884,/g3t1_3,,running
Status,97,9453801419,/g3t1_3,,fail
Status,98,9455241897,/g3t1_2,,running
Status,99,9455362828,/g3t1_2,,fail
Status,100,9498297674,/g4t1,,success
Status,101,9503740237,/g3t1_1,,running
Status,102,9503799378,/g3t1_1,,fail
Status,103,9504407673,/g3t1_3,,running
Status,104,9504458196,/g3t1_3,,fail
Status,105,9505376566,/g3t1_2,,running
Status,106,9505480089,/g3t1_2,,fail
Status,107,9554086272,/g3t1_1,,running
Status,108,9554176813,/g3t1_1,,fail
Status,109,9554659498,/g3t1_3,,running
Status,110,9554694328,/g3t1_3,,fail
Status,114,9555733715,/g3t1_2,,running
Status,115,9555981743,/g3t1_2,,fail
Status,116,9598841282,/g4t1,,success
Status,117,9603761337,/g3t1_1,,running
Status,118,9603820447,/g3t1_1,,fail
Status,119,9604743171,/g3t1_3,,running
Status,120,9604799476,/g3t1_3,,fail
Status,121,9606133021,/g3t1_2,,running
Status,122,9606682672,/g3t1_2,,success
Status,123,9653516772,/g3t1_1,,running
Status,124,9653546763,/g3t1_1,,fail
Status,125,9654173516,/g3t1_3,,running
Status,126,9654236145,/g3t1_3,,fail
Status,127,9655639948,/g3t1_2,,running
Status,128,9655818312,/g3t1_2,,success
Status,129,9698630560,/g4t1,,success
Status,130,9703677228,/g3t1_1,,running
Status,131,9703881219,/g3t1_1,,fail
Status,132,9704429968,/g3t1_3,,running
Status,133,9704576151,/g3t1_3,,fail
Status,134,9705904223,/g3t1_2,,running
Status,135,9706282875,/g3t1_2,,success
Status,136,9753895928,/g3t1_1,,running
Status,137,9753948045,/g3t1_1,,fail
Status,138,9754579770,/g3t1_3,,running
Status,139,9754633173,/g3t1_3,,fail
Status,143,9756108815,/g3t1_2,,running
Status,144,9756469308,/g3t1_2,,success
Status,145,9798786625,/g4t1,,success
Status,146,9804103971,/g3t1_1,,running
Status,147,9804170196,/g3t1_1,,fail
Status,148,9804671775,/g3t1_3,,running
Status,149,9804921220,/g3t1_3,,success
Status,150,9806124437,/g3t1_2,,running
Status,151,9806404713,/g3t1_2,,success
Status,152,9854187146,/g3t1_1,,running
Status,153,9854409618,/g3t1_1,,fail
Status,154,9854810144,/g3t1_3,,running
Status,155,9855123182,/g3t1_3,,success
Status,156,9856169284,/g3t1_2,,running
Status,157,9856503705,/g3t1_2,,success
Status,158,9899346772,/g4t1,,success
Status,159,9904512668,/g3t1_1,,running
Status,160,9904598950,/g3t1_1,,fail
Status,161,9905014081,/g3t1_3,,running
Status,162,9905439188,/g3t1_3,,success
Status,163,9906341933,/g3t1_2,,running
Status,164,9906770557,/g3t1_2,,success
Status,165,9954650685,/g3t1_1,,running
Status,166,9954784572,/g3t1_1,,fail
Status,167,9955416935,/g3t1_3,,running
Status,168,9955503081,/g3t1_3,,success
Status,172,9956833964,/g3t1_2,,running
Status,173,9956896450,/g3t1_2,,fail
Status,174,9999175919,/g4t1,,success
Status,175,10004782067,/g3t1_1,,running
Status,176,10005468095,/g3t1_1,,success
Status,177,10005538724,/g3t1_3,,running
Status,178,10006019179,/g3t1_3,,fail
Status,179,10006887013,/g3t1_2,,running
Status,180,10006988104,/g3t1_2,,fail
Status,181,10054982448,/g3t1_1,,running
Status,182,10055459426,/g3t1_3,,running
Status,183,10055538077,/g3t1_1,,success
Status,184,10056024377,/g3t1_3,,fail
Status,185,10056920654,/g3t1_2,,running
Status,186,10056972197,/g3t1_2,,fail
Status,187,10099448123,/g4t1,,success
Status,188,10105054808,/g3t1_1,,running
Status,189,10105489119,/g3t1_1,,success
Status,190,10105828110,/g3t1_3,,running
Status,191,10105886095,/g3t1_3,,fail
Status,192,10106765968,/g3t1_2,,running
Status,193,10106991136,/g3t1_2,,fail
Status,194,10155376674,/g3t1_1,,running
Status,195,10155551332,/g3t1_1,,fail
Status,196,10155598935,/g3t1_3,,running
Status,198,10155898015,/g3t1_3,,fail
Status,201,10157330376,/g3t1_2,,running
Status,202,10157398852,/g3t1_2,,fail
Status,203,10199401109,/g4t1,,success
Status,204,10205558454,/g3t1_1,,running
Status,205,10205643059,/g3t1_1,,fail
Status,206,10206187233,/g3t1_3,,running
Status,207,10206254671,/g3t1_3,,fail
Status,208,10207865491,/g3t1_2,,running
Status,209,10207936029,/g3t1_2,,fail
Status,210,10255470170,/g3t1_1,,running
Status,211,10255589185,/g3t1_1,,fail
Status,212,10256002572,/g3t1_3,,running
Status,213,10256135463,/g3t1_3,,success
Status,214,10257168004,/g3t1_2,,running
Status,215,10257391367,/g3t1_2,,fail
Status,216,10299613608,/g4t1,,success
Status,217,10305477353,/g3t1_1,,running
Status,218,10305562289,/g3t1_1,,fail
Status,219,10305957335,/g3t1_3,,running
Status,220,10306101874,/g3t1_3,,fail
Status,221,10307210949,/g3t1_2,,running
Status,222,10307414589,/g3t1_2,,fail
Status,224,10355715684,/g3t1_1,,running
Status,225,10356199870,/g3t1_1,,fail
Status,228,10356561399,/g3t1_3,,running
Status,229,10356596868,/g3t1_3,,success
Status,230,10357312928,/g3t1_2,,running
Status,231,10357980228,/g3t1_2,,fail
Status,232,10399625581,/g4t1,,success
Status,233,10405999837,/g3t1_1,,running
Status,234,10406088921,/g3t1_1,,fail
Status,235,10406159037,/g3t1_3,,running
Status,236,10406485026,/g3t1_3,,fail
Status,237,10407324626,/g3t1_2,,running
Status,238,10407589990,/g3t1_2,,fail
Status,239,10455886250,/g3t1_1,,running
Status,240,10455982491,/g3t1_1,,fail
Status,241,10456419203,/g3t1_3,,running
Status,242,10456485883,/g3t1_3,,fail
Status,243,10457576036,/g3t1_2,,running
Status,244,10457624944,/g3t1_2,,fail
Status,245,10500024606,/g4t1,,success
Status,246,10506123106,/g3t1_1,,running
Status,247,10506230705,/g3t1_1,,fail
Status,248,10506709012,/g3t1_3,,running
Status,249,10506794815,/g3t1_3,,fail
Status,250,10507813359,/g3t1_2,,running
Status,251,10507866269,/g3t1_2,,fail
Status,253,10556497950,/g3t1_1,,running
Status,254,10556564221,/g3t1_1,,fail
Status,255,10556591869,/g3t1_3,,running
Status,256,10557057931,/g3t1_3,,fail
Status,259,10558192407,/g3t1_2,,running
Status,260,10558251290,/g3t1_2,,fail
Status,261,10600048288,/g4t1,,success
Status,262,10606759566,/g3t1_1,,running
Status,263,10606851740,/g3t1_1,,fail
Status,264,10606897870,/g3t1_3,,running
Status,265,10607348253,/g3t1_3,,success
Status,266,10607780090,/g3t1_2,,running
Status,267,10608262868,/g3t1_2,,fail
Status,268,10656637238,/g3t1_1,,running
Status,269,10656706224,/g3t1_1,,fail
Status,270,10656798441,/g3t1_3,,running
Status,271,10657121607,/g3t1_3,,success
Status,272,10658098337,/g3t1_2,,running
Status,273,10658530972,/g3t1_2,,fail
Status,274,10700343476,/g4t1,,success
Status,275,10706888631,/g3t1_1,,running
Status,276,10707166623,/g3t1_1,,fail
Status,277,10707224465,/g3t1_3,,running
Status,278,10708395428,/g3t1_3,,success
Status,279,10708474999,/g3t1_2,,running
Status,280,10708578584,/g3t1_2,,fail
Status,284,10757438763,/g3t1_1,,running
Status,285,10757490295,/g3t1_3,,running
Status,286,10757524498,/g3t1_1,,fail
Status,287,10757781668,/g3t1_3,,success
Status,288,10758273643,/g3t1_2,,running
Status,289,10758786541,/g3t1_2,,fail
Status,290,10800345762,/g4t1,,success
Status,291,10807185823,/g3t1_1,,running
Status,292,10807255449,/g3t1_1,,fail
Status,293,10807281306,/g3t1_3,,running
Status,294,10807482163,/g3t1_3,,fail
Status,295,10808416236,/g3t1_2,,running
Status,296,10808613232,/g3t1_2,,fail
Status,297,10857289605,/g3t1_1,,running
Status,298,10857450464,/g3t1_1,,fail
Status,299,10857618813,/g3t1_3,,running
Status,300,10858044940,/g3t1_3,,fail
Status,301,10858770336,/g3t1_2,,running
Status,302,10858852941,/g3t1_2,,fail
Status,303,10899694371,/g4t1,,success
Status,304,10906426102,/g3t1_1,,running
Status,305,10906538212,/g3t1_1,,fail
Status,306,10906818424,/g3t1_3,,running
Status,307,10906958899,/g3t1_3,,fail
Status,308,10907829455,/g3t1_2,,running
Status,309,10907926075,/g3t1_2,,fail
Status,313,10957038573,/g3t1_1,,running
Status,314,10957071927,/g3t1_1,,fail
Status,315,10957180164,/g3t1_3,,running
Status,316,10957358545,/g3t1_3,,fail
Status,317,10958390037,/g3t1_2,,running
Status,318,10958675353,/g3t1_2,,success
Status,319,11000537931,/g4t1,,success
Status,320,11007049236,/g3t1_1,,running
Status,321,11007181543,/g3t1_1,,fail
Status,322,11007426612,/g3t1_3,,running
Status,323,11007671860,/g3t1_3,,fail
Status,324,11008439975,/g3t1_2,,running
Status,325,11008845976,/g3t1_2,,success
Status,326,11057620434,/g3t1_1,,running
Status,327,11057778076,/g3t1_3,,running
Status,328,11058122453,/g3t1_1,,fail
Status,329,11058192745,/g3t1_3,,fail
Status,330,11058871347,/g3t1_2,,running
Status,331,11059218137,/g3t1_2,,success
Status,332,11100759156,/g4t1,,success
Status,333,11107592125,/g3t1_1,,running
Status,334,11107722574,/g3t1_3,,running
Status,335,11107975167,/g3t1_1,,fail
Status,336,11108484075,/g3t1_3,,fail
Status,337,11108822088,/g3t1_2,,running
Status,338,11109353238,/g3t1_2,,success
Status,342,11158073759,/g3t1_1,,running
Status,343,11158161918,/g3t1_3,,running
Status,344,11158344762,/g3t1_3,,fail
Status,345,11158392113,/g3t1_1,,success
Status,346,11159491810,/g3t1_2,,running
Status,347,11159544057,/g3t1_2,,success
Status,348,11200906147,/g4t1,,success
Status,349,11208039503,/g3t1_1,,running
Status,350,11208901137,/g3t1_3,,running
Status,351,11209002464,/g3t1_1,,success
Status,352,11209130708,/g3t1_3,,fail
Status,353,11209515592,/g3t1_2,,running
Status,354,11209583364,/g3t1_2,,fail
Status,355,11257723136,/g3t1_1,,running
Status,356,11257886643,/g3t1_1,,success
Status,357,11257924735,/g3t1_3,,running
Status,358,11258156510,/g3t1_3,,fail
Status,359,11258834549,/g3t1_2,,running
Status,360,11259085154,/g3t1_2,,success
Status,361,11300369150,/g4t1,,success
Status,362,11307645437,/g3t1_1,,running
Status,363,11307968172,/g3t1_3,,running
Status,364,11308007190,/g3t1_1,,success
Status,365,11308268117,/g3t1_3,,success
Status,366,11308738651,/g3t1_2,,running
Status,367,11308900268,/g3t1_2,,success
Status,371,11358461196,/g3t1_1,,running
Status,372,11358545579,/g3t1_1,,fail
Status,373,11358649695,/g3t1_3,,running
Status,374,11359641492,/g3t1_3,,fail
Status,375,11359707490,/g3t1_2,,running
Status,376,11359787639,/g3t1_2,,fail
Status,377,11401068564,/g4t1,,success
Status,378,11408498932,/g3t1_1,,running
Status,379,11408564270,/g3t1_1,,fail
Status,380,11408682697,/g3t1_3,,running
Status,381,11408838764,/g3t1_3,,fail
Status,382,11409846390,/g3t1_2,,running
Status,383,11409933123,/g3t1_2,,fail
Status,384,11458640284,/g3t1_1,,running
Status,385,11458760660,/g3t1_1,,fail
Status,386,11458802654,/g3t1_3,,running
Status,387,11459756676,/g3t1_3,,fail
Status,388,11459822014,/g3t1_2,,running
Status,389,11459869969,/g3t1_2,,fail
Status,390,11500865219,/g4t1,,success
Status,391,11509339034,/g3t1_1,,running
Status,392,11509411027,/g3t1_1,,fail
Status,393,11509450636,/g3t1_3,,running
Status,394,11509485314,/g3t1_3,,fail
Status,395,11509523076,/g3t1_2,,running
Status,396,11509746720,/g3t1_2,,fail
Status,397,11558854247,/g3t1_1,,running
Status,398,11558962621,/g3t1_3,,running
Status,399,11559004612,/g3t1_1,,fail
Status,400,11559575190,/g3t1_3,,fail
Status,401,11559663121,/g3t1_2,,running
Status,402,11560559566,/g3t1_2,,success
Status,403,11601006700,/g4t1,,success
Status,404,11608790652,/g3t1_1,,running
Status,405,11608858960,/g3t1_1,,fail
Status,406,11609047051,/g3t1_3,,running
Status,407,11609463913,/g3t1_3,,fail
Status,408,11610099595,/g3t1_2,,running
Status,409,11610443673,/g3t1_2,,fail
Status,410,11659116388,/g3t1_1,,running
Status,411,11659203958,/g3t1_3,,running
Status,412,11659311468,/g3t1_1,,fail
Status,413,11660128143,/g3t1_3,,fail
Status,414,11660197273,/g3t1_2,,running
Status,415,11660532793,/g3t1_2,,success
Status,416,11701358827,/g4t1,,success
Status,417,11709040532,/g3t1_1,,running
Status,418,11709103931,/g3t1_3,,running
Status,419,11709148908,/g3t1_1,,fail
Status,420,11709537457,/g3t1_3,,fail
Status,421,11710062864,/g3t1_2,,running
Status,422,11710535910,/g3t1_2,,fail
Status,423,11759219597,/g3t1_1,,running
Status,424,11759619975,/g3t1_1,,fail
Status,425,11759809055,/g3t1_3,,running
Status,426,11759952525,/g3t1_3,,fail
Status,427,11760276792,/g3t1_2,,running
Status,428,11760531211,/g3t1_2,,fail
Status,429,11801188437,/g4t1,,success
Status,430,11809318126,/g3t1_1,,running
Status,431,11809391884,/g3t1_1,,fail
Status,432,11809578002,/g3t1_3,,running
Status,433,11810217333,/g3t1_3,,fail
Status,434,11810474136,/g3t1_2,,running
Status,435,11810534435,/g3t1_2,,fail
Status,436,11859026655,/g3t1_1,,running
Status,437,11859358805,/g3t1_3,,running
Status,438,11859410470,/g3t1_1,,fail
Status,439,11859770378,/g3t1_3,,fail
Status,440,11860177487,/g3t1_2,,running
Status,441,11860312659,/g3t1_2,,fail
Status,442,11901232065,/g4t1,,success
Status,443,11909932364,/g3t1_1,,running
Status,444,11910100121,/g3t1_3,,running
Status,445,11910144399,/g3t1_3,,fail
Status,446,11910181688,/g3t1_1,,fail
Status,447,11910607832,/g3t1_2,,running
Status,448,11911214797,/g3t1_2,,success
Status,449,11959870979,/g3t1_1,,running
Status,450,11959963693,/g3t1_3,,running
Status,451,11960113650,/g3t1_1,,fail
Status,452,11960452878,/g3t1_3,,fail
Status,453,11960535519,/g3t1_2,,running
Status,454,11961337360,/g3t1_2,,success
Status,455,12001376196,/g4t1,,success
Status,456,12010154611,/g3t1_1,,running
Status,457,12010255993,/g3t1_3,,running
Status,458,12011136943,/g3t1_1,,fail
Status,459,12011195787,/g3t1_3,,fail
Status,460,12011224429,/g3t1_2,,running
Status,461,12011258105,/g3t1_2,,fail
Status,462,12060322122,/g3t1_1,,running
Status,463,12060475657,/g3t1_3,,running
Status,464,12060579110,/g3t1_1,,fail
Status,465,12060608007,/g3t1_3,,fail
Status,466,12060761184,/g3t1_2,,running
Status,467,12061196130,/g3t1_2,,fail
Status,468,12101754273,/g4t1,,success
Status,469,12110202133,/g3t1_1,,running
Status,470,12110351022,/g3t1_3,,running
Status,471,12110608370,/g3t1_1,,fail
Status,472,12110654532,/g3t1_3,,fail
Status,473,12110752267,/g3t1_2,,running
Status,474,12111276427,/g3t1_2,,fail
Status,475,12160848217,/g3t1_1,,running
Status,476,12160911901,/g3t1_3,,running
Status,477,12160942070,/g3t1_1,,fail
Status,478,12161053386,/g3t1_3,,fail
Status,479,12161089225,/g3t1_2,,running
Status,480,12162039292,/g3t1_2,,success
Status,481,12201727413,/g4t1,,success
Status,482,12211286787,/g3t1_1,,running
Status,483,12211360835,/g3t1_3,,running
Status,484,12211465546,/g3t1_1,,fail
Status,485,12211507733,/g3t1_3,,fail
Status,486,12211534002,/g3t1_2,,running
Status,487,12212186421,/g3t1_2,,success
Status,488,12260676176,/g3t1_1,,running
Status,489,12261249813,/g3t1_3,,running
Status,490,12261320855,/g3t1_1,,fail
Status,491,12261452556,/g3t1_3,,fail
Status,492,12261899016,/g3t1_2,,running
Status,493,12262028694,/g3t1_2,,success
Status,494,12302026067,/g4t1,,success
Status,495,12310889571,/g3t1_1,,running
Status,496,12310973074,/g3t1_3,,running
Status,497,12311105525,/g3t1_1,,fail
Status,498,12311149115,/g3t1_3,,fail
Status,499,12311579237,/g3t1_2,,running
Status,500,12312305433,/g3t1_2,,success
Status,504,12360953995,/g3t1_1,,running
Status,505,12361033369,/g3t1_3,,running
Status,506,12361152544,/g3t1_1,,fail
Status,507,12361543551,/g3t1_3,,success
Status,508,12361720961,/g3t1_2,,running
Status,509,12362477774,/g3t1_2,,success
Status,510,12401965962,/g4t1,,success
Status,511,12410875322,/g3t1_1,,running
Status,512,12410965871,/g3t1_3,,running
Status,513,12411064250,/g3t1_1,,fail
Status,514,12411365777,/g3t1_3,,success
Status,515,12411444073,/g3t1_2,,running
Status,516,12411777233,/g3t1_2,,fail
Status,517,12460914778,/g3t1_1,,running
Status,518,12461018639,/g3t1_1,,fail
Status,519,12461047528,/g3t1_3,,running
Status,520,12461493588,/g3t1_2,,running
Status,521,12461543768,/g3t1_3,,success
Status,522,12461976873,/g3t1_2,,success
Status,523,12502181106,/g4t1,,success
Status,524,12511110023,/g3t1_1,,running
Status,525,12511205746,/g3t1_3,,running
Status,526,12511313473,/g3t1_1,,fail
Status,527,12511838914,/g3t1_3,,success
Status,528,12511905656,/g3t1_2,,running
Status,529,12512186380,/g3t1_2,,fail
Status,533,12561070680,/g3t1_1,,running
Status,534,12561138925,/g3t1_1,,fail
Status,535,12561204427,/g3t1_3,,running
Status,536,12561947699,/g3t1_2,,running
Status,537,12562026265,/g3t1_3,,success
Status,538,12562322750,/g3t1_2,,success
Status,539,12602201894,/g4t1,,success
Status,540,12611321133,/g3t1_1,,running
Status,541,12611380940,/g3t1_3,,running
Status,542,12611644097,/g3t1_1,,fail
Status,543,12612117806,/g3t1_3,,success
Status,544,12612219579,/g3t1_2,,running
Status,545,12612277287,/g3t1_2,,fail
Status,546,12662417833,/g3t1_1,,running
Status,547,12662482508,/g3t1_1,,fail
Status,548,12662585136,/g3t1_3,,running
Status,549,12662621788,/g3t1_3,,fail
Status,550,12662655907,/g3t1_2,,running
Status,551,12662956292,/g3t1_2,,success
Status,552,12702830042,/g4t1,,success
Status,553,12711431634,/g3t1_1,,running
Status,554,12711708250,/g3t1_3,,running
Status,555,12711822016,/g3t1_1,,fail
Status,556,12712385968,/g3t1_3,,success
Status,557,12712438985,/g3t1_2,,running
Status,558,12712610869,/g3t1_2,,success
Status,562,12761603120,/g3t1_1,,running
Status,563,12761704807,/g3t1_3,,running
Status,564,12761792122,/g3t1_1,,fail
Status,565,12762129712,/g3t1_3,,fail
Status,566,12762278312,/g3t1_2,,running
Status,567,12762658299,/g3t1_2,,success
Status,568,12802283951,/g4t1,,success
Status,569,12811810528,/g3t1_1,,running
Status,570,12811943424,/g3t1_3,,running
Status,571,12812067817,/g3t1_1,,fail
Status,572,12812106394,/g3t1_3,,fail
Status,573,12812141507,/g3t1_2,,running
Status,574,12812775431,/g3t1_2,,success
Status,575,12861757984,/g3t1_1,,running
Status,576,12861853814,/g3t1_3,,running
Status,577,12862070926,/g3t1_1,,fail
Status,578,12862111767,/g3t1_3,,fail
Status,579,12862426683,/g3t1_2,,running
Status,580,12862491497,/g3t1_2,,fail
Status,581,12902778597,/g4t1,,success
Status,582,12912769249,/g3t1_1,,running
Status,583,12912882571,/g3t1_3,,running
Status,584,12912918139,/g3t1_1,,fail
Status,585,12912977190,/g3t1_2,,running
Status,586,12913099937,/g3t1_3,,fail
Status,587,12913160744,/g3t1_2,,fail
Status,591,12962693588,/g3t1_3,,running
Status,592,12962771404,/g3t1_1,,running
Status,593,12962927608,/g3t1_2,,running
Status,594,12963375357,/g3t1_1,,fail
Status,595,12963449585,/g3t1_3,,fail
Status,596,12963491515,/g3t1_2,,fail
Status,597,13002996994,/g4t1,,success
Status,598,13013199326,/g3t1_3,,running
Status,599,13013296490,/g3t1_3,,fail
Status,600,13013335926,/g3t1_1,,running
Status,601,13013469378,/g3t1_1,,fail
Status,602,13013508055,/g3t1_2,,running
Status,603,13013546668,/g3t1_2,,success
Status,604,13062407824,/g3t1_1,,running
Status,605,13062451965,/g3t1_3,,running
Status,606,13062468848,/g3t1_1,,fail
Status,607,13062481245,/g3t1_2,,running
Status,608,13062613137,/g3t1_3,,success
Status,609,13062648008,/g3t1_2,,fail
Status,610,13102349446,/g4t1,,success
Status,611,13113151745,/g3t1_1,,running
Status,612,13113299055,/g3t1_3,,running
Status,613,13113333319,/g3t1_3,,fail
Status,614,13113420508,/g3t1_2,,running
Status,615,13113468687,/g3t1_1,,fail
Status,616,13113858645,/g3t1_2,,success
Status,620,13162721194,/g3t1_1,,running
Status,621,13162922565,/g3t1_3,,running
Status,622,13163302227,/g3t1_1,,fail
Status,623,13163367195,/g3t1_2,,running
Status,624,13163429330,/g3t1_3,,success
Status,625,13163460500,/g3t1_2,,success
Status,626,13202891120,/g4t1,,success
Status,627,13213218226,/g3t1_3,,running
Status,628,13213297903,/g3t1_1,,running
Status,629,13213366553,/g3t1_1,,fail
Status,630,13213401251,/g3t1_3,,success
Status,631,13213436041,/g3t1_2,,running
Status,632,13213463890,/g3t1_2,,success
Status,633,13263640321,/g3t1_1,,running
Status,634,13263757037,/g3t1_3,,running
Status,635,13263792209,/g3t1_1,,fail
Status,636,13264615883,/g3t1_2,,running
Status,637,13264707540,/g3t1_3,,success
Status,638,13265867147,/g3t1_2,,success
Status,639,13302551654,/g4t1,,fail
Status,640,13312553025,/g3t1_1,,running
Status,641,13312585127,/g3t1_3,,running
Status,642,13312607774,/g3t1_1,,fail
Status,643,13312988071,/g3t1_3,,fail
Status,644,13313026198,/g3t1_2,,running
Status,645,13313154491,/g3t1_2,,success
Status,649,13362966008,/g3t1_1,,running
Status,650,13363019320,/g3t1_3,,running
Status,651,13363058443,/g3t1_3,,fail
Status,652,13363257222,/g3t1_1,,fail
Status,653,13363298116,/g3t1_2,,running
Status,654,13363328943,/g3t1_2,,fail
Status,655,13403029363,/g4t1,,success
Status,656,13414025741,/g3t1_3,,running
Status,657,13414153807,/g3t1_1,,running
Status,658,13414269550,/g3t1_1,,fail
Status,659,13414308489,/g3t1_2,,running
Status,660,13414343308,/g3t1_3,,fail
Status,661,13414727638,/g3t1_2,,fail
Status,662,13463918815,/g3t1_1,,running
Status,663,13464022206,/g3t1_3,,running
Status,664,13464121894,/g3t1_2,,running
Status,665,13464147511,/g3t1_3,,fail
Status,666,13464176231,/g3t1_1,,fail
Status,667,13464309687,/g3t1_2,,fail
Status,668,13503486207,/g4t1,,success
Status,669,13513900501,/g3t1_1,,running
Status,670,13513982500,/g3t1_3,,running
Status,671,13514108880,/g3t1_3,,fail
Status,672,13514427057,/g3t1_1,,fail
Status,673,13514888713,/g3t1_2,,running
Status,674,13515035400,/g3t1_2,,fail
Status,678,13564191828,/g3t1_1,,running
Status,679,13564317650,/g3t1_3,,running
Status,680,13564350754,/g3t1_2,,running
Status,681,13564438840,/g3t1_1,,fail
Status,682,13564461832,/g3t1_3,,success
Status,683,13564817622,/g3t1_2,,success
Status,684,13603340678,/g4t1,,success
Status,685,13614725394,/g3t1_1,,running
Status,686,13614788938,/g3t1_1,,fail
Status,687,13614816489,/g3t1_3,,running
Status,688,13614859283,/g3t1_3,,success
Status,689,13615069142,/g3t1_2,,running
Status,690,13615184433,/g3t1_2,,success
Status,691,13664209852,/g3t1_3,,running
Status,692,13664352136,/g3t1_1,,running
Status,693,13664493416,/g3t1_1,,fail
Status,694,13664751872,/g3t1_2,,running
Status,695,13664819596,/g3t1_3,,success
Status,696,13664854345,/g3t1_2,,success
Status,697,13703329837,/g4t1,,success
Status,698,13715055699,/g3t1_1,,running
Status,699,13715147003,/g3t1_3,,running
Status,700,13715317053,/g3t1_1,,fail
Status,701,13715358911,/g3t1_2,,running
Status,702,13715416318,/g3t1_2,,success
Status,703,13715490728,/g3t1_3,,success
Status,707,13764824750,/g3t1_1,,running
Status,708,13764911846,/g3t1_3,,running
Status,709,13765066342,/g3t1_1,,fail
Status,710,13765091675,/g3t1_2,,running
Status,711,13765116729,/g3t1_3,,success
Status,712,13765234155,/g3t1_2,,success
Status,713,13803507901,/g4t1,,fail
Status,714,13815272666,/g3t1_1,,running
Status,715,13815332588,/g3t1_3,,running
Status,716,13815356319,/g3t1_2,,running
Status,717,13815379239,/g3t1_3,,success
Status,718,13815401377,/g3t1_1,,fail
Status,719,13815485243,/g3t1_2,,success
Status,720,13864899427,/g3t1_1,,running
Status,721,13864988198,/g3t1_3,,running
Status,722,13865119681,/g3t1_3,,fail
Status,723,13865432537,/g3t1_2,,running
Status,724,13865517087,/g3t1_1,,fail
Status,725,13865627244,/g3t1_2,,fail
Status,726,13903729024,/g4t1,,success
Status,727,13914744767,/g3t1_1,,running
Status,728,13914823444,/g3t1_3,,running
Status,729,13915429147,/g3t1_2,,running
Status,730,13915495421,/g3t1_1,,fail
Status,731,13915919371,/g3t1_3,,success
Status,732,13915994318,/g3t1_2,,success
Status,736,13965044264,/g3t1_1,,running
Status,737,13965125084,/g3t1_3,,running
Status,738,13965164763,/g3t1_3,,fail
Status,739,13965344253,/g3t1_1,,fail
Status,740,13965384081,/g3t1_2,,running
Status,741,13966370435,/g3t1_2,,success
Status,742,14003713564,/g4t1,,fail
Status,743,14015038756,/g3t1_1,,running
Status,744,14015134218,/g3t1_3,,running
Status,745,14015607502,/g3t1_1,,fail
Status,746,14015680219,/g3t1_3,,fail
Status,747,14015797077,/g3t1_2,,running
Status,748,14015834836,/g3t1_2,,fail
Status,749,14065894274,/g3t1_1,,running
Status,750,14065981233,/g3t1_3,,running
Status,751,14066015790,/g3t1_2,,running
Status,752,14066118963,/g3t1_3,,fail
Status,753,14066146521,/g3t1_2,,fail
Status,754,14066170604,/g3t1_1,,fail
Status,755,14103875871,/g4t1,,success
Status,756,14115267973,/g3t1_1,,running
Status,757,14115340184,/g3t1_3,,running
Status,758,14115385133,/g3t1_1,,fail
Status,759,14115888198,/g3t1_3,,success
Status,760,14115987829,/g3t1_2,,running
Status,761,14116869071,/g3t1_2,,fail
Status,765,14165505734,/g3t1_1,,running
Status,766,14165592329,/g3t1_3,,running
Status,767,14165728727,/g3t1_1,,fail
Status,768,14165932518,/g3t1_3,,fail
Status,769,14166012852,/g3t1_2,,running
Status,770,14166483555,/g3t1_2,,success
Status,771,14203875086,/g4t1,,success
Status,772,14215677183,/g3t1_1,,running
Status,773,14215762964,/g3t1_3,,running
Status,774,14215879083,/g3t1_3,,fail
Status,775,14216000652,/g3t1_1,,fail
Status,776,14216038888,/g3t1_2,,running
Status,777,14216871233,/g3t1_2,,success
Status,778,14265736111,/g3t1_1,,running
Status,779,14265967206,/g3t1_3,,running
Status,780,14266012649,/g3t1_1,,fail
Status,781,14266037205,/g3t1_3,,fail
Status,782,14266058195,/g3t1_2,,running
Status,783,14266434982,/g3t1_2,,fail
Status,784,14304228516,/g4t1,,success
Status,785,14316331658,/g3t1_1,,running
Status,786,14316409006,/g3t1_3,,running
Status,787,14316493760,/g3t1_3,,fail
Status,788,14316528912,/g3t1_2,,running
Status,789,14316565191,/g3t1_1,,fail
Status,790,14316999704,/g3t1_2,,success
Status,794,14365810472,/g3t1_1,,running
Status,795,14365900149,/g3t1_3,,running
Status,796,14366408835,/g3t1_1,,fail
Status,797,14366463745,/g3t1_3,,success
Status,798,14366927284,/g3t1_2,,running
Status,799,14366999064,/g3t1_2,,fail
Status,800,14404277864,/g4t1,,success
Status,801,14415953582,/g3t1_1,,running
Status,802,14416092470,/g3t1_3,,running
Status,803,14416195914,/g3t1_1,,fail
Status,804,14416348940,/g3t1_3,,success
Status,805,14417013829,/g3t1_2,,running
Status,806,14417121096,/g3t1_2,,fail
Status,807,14466548216,/g3t1_1,,running
Status,808,14466603097,/g3t1_3,,running
Status,809,14466699974,/g3t1_1,,fail
Status,810,14466723873,/g3t1_3,,success
Status,811,14466745434,/g3t1_2,,running
Status,812,14467135357,/g3t1_2,,fail
Status,813,14504583752,/g4t1,,success
Status,814,14516255189,/g3t1_1,,running
Status,815,14516336473,/g3t1_3,,running
Status,816,14517186737,/g3t1_1,,fail
Status,817,14517258932,/g3t1_2,,running
Status,818,14517377931,/g3t1_2,,fail
Status,819,14517421625,/g3t1_3,,success
Status,823,14566687140,/g3t1_1,,running
Status,824,14566762219,/g3t1_3,,running
Status,825,14566985859,/g3t1_1,,fail
Status,826,14567024051,/g3t1_3,,success
Status,827,14567472449,/g3t1_2,,running
Status,828,14567596442,/g3t1_2,,success
Status,829,14604762219,/g4t1,,success
Status,830,14616463621,/g3t1_1,,running
Status,831,14616558040,/g3t1_3,,running
Status,832,14616597973,/g3t1_1,,fail
Status,833,14617076732,/g3t1_3,,success
Status,834,14617171282,/g3t1_2,,running
Status,835,14617566737,/g3t1_2,,fail
Status,836,14666772467,/g3t1_1,,running
Status,837,14666919729,/g3t1_3,,running
Status,838,14667091639,/g3t1_1,,fail
Status,839,14667898040,/g3t1_3,,success
Status,840,14668029564,/g3t1_2,,running
Status,841,14668560225,/g3t1_2,,success
Status,842,14704756305,/g4t1,,success
Status,843,14716825740,/g3t1_3,,running
Status,844,14717421406,/g3t1_3,,success
Status,845,14718140015,/g3t1_1,,running
Status,846,14718215886,/g3t1_1,,fail
Status,847,14718257279,/g3t1_2,,running
Status,848,14718293341,/g3t1_2,,fail
Status,852,14766886598,/g3t1_1,,running
Status,853,14766993478,/g3t1_3,,running
Status,854,14767720842,/g3t1_3,,success
Status,855,14767896007,/g3t1_1,,fail
Status,856,14767954235,/g3t1_2,,running
Status,857,14768293103,/g3t1_2,,success
Status,858,14805106201,/g4t1,,fail
Status,859,14817034113,/g3t1_1,,running
Status,860,14817248293,/g3t1_3,,running
Status,861,14817375028,/g3t1_1,,fail
Status,862,14817519399,/g3t1_3,,success
Status,863,14818029192,/g3t1_2,,running
Status,864,14819020773,/g3t1_2,,success
Status,865,14867674281,/g3t1_3,,running
Status,866,14868146773,/g3t1_3,,fail
Status,867,14868219695,/g3t1_1,,running
Status,868,14868249756,/g3t1_1,,fail
Status,869,14868282521,/g3t1_2,,running
Status,870,14868756315,/g3t1_2,,success
Status,871,14905130904,/g4t1,,success
Status,872,14917099924,/g3t1_3,,running
Status,873,14917257333,/g3t1_1,,running
Status,874,14917642051,/g3t1_3,,fail
Status,875,14918075925,/g3t1_1,,fail
Status,876,14918240554,/g3t1_2,,running
Status,877,14918766254,/g3t1_2,,fail
Status,881,14967516092,/g3t1_3,,running
Status,882,14967613889,/g3t1_1,,running
Status,883,14967856282,/g3t1_3,,fail
Status,884,14967925600,/g3t1_1,,fail
Status,885,14968601504,/g3t1_2,,running
Status,886,14968694790,/g3t1_2,,fail
Status,887,15005193844,/g4t1,,success
Status,888,15017729661,/g3t1_1,,running
Status,889,15017797954,/g3t1_3,,running
Status,890,15017875821,/g3t1_3,,fail
Status,891,15017906724,/g3t1_1,,fail
Status,892,15018258647,/g3t1_2,,running
Status,893,15018536003,/g3t1_2,,fail
Status,894,15067871740,/g3t1_1,,running
Status,895,15067963921,/g3t1_1,,fail
Status,896,15068109756,/g3t1_3,,running
Status,897,15068147774,/g3t1_3,,fail
Status,898,15068601555,/g3t1_2,,running
Status,899,15068707567,/g3t1_2,,fail
Status,900,15105575154,/g4t1,,success
Status,901,15117770253,/g3t1_3,,running
Status,902,15117830690,/g3t1_1,,running
Status,903,15117855000,/g3t1_3,,fail
Status,904,15117901367,/g3t1_1,,fail
Status,905,15118423428,/g3t1_2,,running
Status,906,15119011980,/g3t1_2,,fail
Status,910,15167968531,/g3t1_3,,running
Status,911,15168057511,/g3t1_1,,running
Status,912,15168614870,/g3t1_3,,fail
Status,913,15168777580,/g3t1_1,,fail
Status,914,15169051943,/g3t1_2,,running
Status,915,15169272098,/g3t1_2,,success
Status,916,15205943745,/g4t1,,success
Status,917,15217918315,/g3t1_3,,running
Status,918,15218008253,/g3t1_1,,running
Status,919,15219184961,/g3t1_1,,fail
Status,920,15219247034,/g3t1_3,,fail
Status,921,15219346665,/g3t1_2,,running
Status,922,15219372274,/g3t1_2,,success
Status,923,15268081664,/g3t1_3,,running
Status,924,15268179201,/g3t1_1,,running
Status,925,15268382374,/g3t1_1,,fail
Status,926,15268424596,/g3t1_3,,fail
Status,927,15269324220,/g3t1_2,,running
Status,928,15269394258,/g3t1_2,,fail
Status,929,15305909982,/g4t1,,success
Status,930,15318338081,/g3t1_3,,running
Status,931,15318432834,/g3t1_1,,running
Status,932,15318714774,/g3t1_3,,fail
Status,933,15318783942,/g3t1_1,,fail
Status,934,15319025383,/g3t1_2,,running
Status,935,15319400785,/g3t1_2,,fail
Status,939,15368350498,/g3t1_3,,running
Status,940,15368421775,/g3t1_1,,running
Status,941,15368723355,/g3t1_1,,fail
Status,942,15368835332,/g3t1_3,,fail
Status,943,15369424087,/g3t1_2,,running
Status,944,15369795940,/g3t1_2,,success
Status,945,15405827268,/g4t1,,success
Status,946,15418915763,/g3t1_3,,running
Status,947,15418994100,/g3t1_1,,running
Status,948,15419128272,/g3t1_3,,fail
Status,949,15419163820,/g3t1_1,,fail
Status,950,15419198010,/g3t1_2,,running
Status,951,15419955121,/g3t1_2,,success
Status,952,15468819278,/g3t1_3,,running
Status,953,15468915658,/g3t1_1,,running
Status,954,15469063220,/g3t1_3,,fail
Status,955,15469105683,/g3t1_1,,fail
Status,956,15469382288,/g3t1_2,,running
Status,957,15469830708,/g3t1_2,,success
Status,958,15506127315,/g4t1,,success
Status,959,15518930953,/g3t1_1,,running
Status,960,15519067171,/g3t1_3,,running
Status,961,15519212123,/g3t1_3,,fail
Status,962,15519251737,/g3t1_1,,fail
Status,963,15519862654,/g3t1_2,,running
Status,964,15520288286,/g3t1_2,,success
Status,965,15569128137,/g3t1_1,,running
Status,966,15569270537,/g3t1_3,,running
Status,967,15569405742,/g3t1_1,,fail
Status,968,15569441776,/g3t1_3,,fail
Status,969,15569470127,/g3t1_2,,running
Status,970,15570292165,/g3t1_2,,success
Status,971,15606205968,/g4t1,,success
Status,972,15619137655,/g3t1_3,,running
Status,973,15619249893,/g3t1_1,,running
Status,974,15619398896,/g3t1_1,,fail
Status,975,15619435300,/g3t1_3,,fail
Status,976,15619899594,/g3t1_2,,running
Status,977,15620748666,/g3t1_2,,success
Status,978,15669446936,/g3t1_1,,running
Status,979,15669576520,/g3t1_3,,running
Status,980,15669745408,/g3t1_1,,fail
Status,981,15669984364,/g3t1_2,,running
Status,982,15670211094,/g3t1_3,,fail
Status,983,15670779700,/g3t1_2,,success
Status,984,15706311434,/g4t1,,success
Status,985,15719292693,/g3t1_1,,running
Status,986,15719346028,/g3t1_1,,fail
Status,987,15719395279,/g3t1_3,,running
Status,988,15719541851,/g3t1_3,,fail
Status,989,15719827548,/g3t1_2,,running
Status,990,15719884703,/g3t1_2,,fail
Status,991,15769591633,/g3t1_3,,running
Status,992,15769763578,/g3t1_1,,running
Status,993,15769877327,/g3t1_3,,fail
Status,994,15769919108,/g3t1_1,,fail
Status,995,15769956205,/g3t1_2,,running
Status,996,15770505898,/g3t1_2,,fail
Status,997,15806548008,/g4t1,,success
Status,998,15819296315,/g3t1_1,,running
Status,999,15819414975,/g3t1_3,,running
Status,1000,15819546749,/g3t1_3,,fail
Status,1001,15819584717,/g3t1_1,,fail
Status,1002,15820490781,/g3t1_2,,running
Status,1003,15820937748,/g3t1_2,,success
Status,1004,15869760693,/g3t1_1,,running
Status,1005,15870252585,/g3t1_3,,running
Status,1006,15870319236,/g3t1_3,,fail
Status,1007,15870562211,/g3t1_2,,running
Status,1008,15870614898,/g3t1_1,,fail
Status,1009,15871266897,/g3t1_2,,success
Status,1010,15906666177,/g4t1,,success
Status,1011,15919965447,/g3t1_3,,running
Status,1012,15920032573,/g3t1_1,,running
Status,1013,15920139668,/g3t1_3,,fail
Status,1014,15920177752,/g3t1_1,,fail
Status,1015,15920508967,/g3t1_2,,running
Status,1016,15920653525,/g3t1_2,,fail
Status,1017,15970187695,/g3t1_1,,running
Status,1018,15970277437,/g3t1_3,,running
Status,1019,15970424490,/g3t1_1,,fail
Status,1020,15970451644,/g3t1_3,,fail
Status,1021,15970479247,/g3t1_2,,running
Status,1022,15971005286,/g3t1_2,,fail
Status,1023,16006789316,/g4t1,,success
Status,1024,16019950168,/g3t1_3,,running
Status,1025,16020034548,/g3t1_1,,running
Status,1026,16020669278,/g3t1_1,,fail
Status,1027,16020735281,/g3t1_2,,running
Status,1028,16020830314,/g3t1_3,,fail
Status,1029,16021146226,/g3t1_2,,fail
Status,1030,16070553143,/g3t1_3,,running
Status,1031,16070823803,/g3t1_1,,running
Status,1032,16070900511,/g3t1_1,,fail
Status,1033,16070993887,/g3t1_2,,running
Status,1034,16071303233,/g3t1_3,,fail
Status,1035,16071649169,/g3t1_2,,success
Status,1036,16107013548,/g4t1,,success
Status,1037,16120369130,/g3t1_3,,running
Status,1038,16120452967,/g3t1_1,,running
Status,1039,16120698712,/g3t1_3,,fail
Status,1040,16120730466,/g3t1_1,,fail
Status,1041,16120755748,/g3t1_2,,running
Status,1042,16121160207,/g3t1_2,,fail
Status,1043,16170984433,/g3t1_3,,running
Status,1044,16171065417,/g3t1_1,,running
Status,1045,16171109166,/g3t1_2,,running
Status,1046,16171225942,/g3t1_3,,fail
Status,1047,16171260399,/g3t1_2,,fail
Status,1048,16171709395,/g3t1_1,,fail
Status,1049,16206954930,/g4t1,,success
Status,1050,16220920904,/g3t1_3,,running
Status,1051,16221012483,/g3t1_1,,running
Status,1052,16221119833,/g3t1_3,,fail
Status,1053,16221155555,/g3t1_2,,running
Status,1054,16221546310,/g3t1_1,,fail
Status,1055,16222293088,/g3t1_2,,success
Status,1056,16271031516,/g3t1_3,,running
Status,1057,16271237125,/g3t1_1,,running
Status,1058,16271271743,/g3t1_3,,fail
Status,1059,16271296185,/g3t1_2,,running
Status,1060,16271321091,/g3t1_1,,fail
Status,1061,16271345774,/g3t1_2,,fail
Status,1062,16307217060,/g4t1,,success
Status,1063,16321460860,/g3t1_3,,running
Status,1064,16321564599,/g3t1_1,,running
Status,1065,16322126009,/g3t1_3,,fail
Status,1066,16322345365,/g3t1_1,,fail
Status,1067,16322398779,/g3t1_2,,running
Status,1068,16322495419,/g3t1_2,,fail
Status,1072,16370988161,/g3t1_3,,running
Status,1073,16371116951,/g3t1_1,,running
Status,1074,16371586696,/g3t1_3,,fail
Status,1075,16371758083,/g3t1_1,,fail
Status,1076,16371870554,/g3t1_2,,running
Status,1077,16372216651,/g3t1_2,,success
Status,1078,16407292261,/g4t1,,success
Status,1079,16421249622,/g3t1_3,,running
Status,1080,16421344107,/g3t1_1,,running
Status,1081,16421808086,/g3t1_1,,fail
Status,1082,16421863209,/g3t1_2,,running
Status,1083,16421900870,/g3t1_3,,fail
Status,1084,16422201134,/g3t1_2,,fail
Status,1085,16470697438,/g3t1_3,,running
Status,1086,16470741002,/g3t1_1,,running
Status,1087,16470760478,/g3t1_3,,fail
Status,1088,16470869782,/g3t1_1,,fail
Status,1089,16471205589,/g3t1_2,,running
Status,1090,16471356465,/g3t1_2,,fail
Status,1091,16506786460,/g4t1,,success
Status,1092,16521385415,/g3t1_1,,running
Status,1093,16521549049,/g3t1_3,,running
Status,1094,16521603365,/g3t1_3,,fail
Status,1095,16521639341,/g3t1_1,,fail
Status,1096,16521771904,/g3t1_2,,running
Status,1097,16522493728,/g3t1_2,,success
Status,1101,16571863564,/g3t1_3,,running
Status,1102,16571925194,/g3t1_1,,running
Status,1103,16571952474,/g3t1_1,,fail
Status,1104,16572039100,/g3t1_3,,success
Status,1105,16572248885,/g3t1_2,,running
Status,1106,16572440934,/g3t1_2,,fail
Status,1107,16607424428,/g4t1,,success
Status,1108,16621872072,/g3t1_3,,running
Status,1109,16621970685,/g3t1_1,,running
Status,1110,16622158913,/g3t1_1,,fail
Status,1111,16622259329,/g3t1_3,,success
Status,1112,16622405618,/g3t1_2,,running
Status,1113,16622454785,/g3t1_2,,fail
Status,1114,16672210790,/g3t1_3,,running
Status,1115,16672345952,/g3t1_1,,running
Status,1116,16672428724,/g3t1_1,,fail
Status,1117,16672452823,/g3t1_3,,fail
Status,1118,16672473333,/g3t1_2,,running
Status,1119,16672654264,/g3t1_2,,fail
Status,1120,16707556555,/g4t1,,success
Status,1121,16721755250,/g3t1_3,,running
Status,1122,16721844287,/g3t1_1,,running
Status,1123,16722429208,/g3t1_1,,fail
Status,1124,16722517418,/g3t1_3,,success
Status,1125,16722752237,/g3t1_2,,running
Status,1126,16722997753,/g3t1_2,,fail
Status,1130,16771608706,/g3t1_1,,running
Status,1131,16771706272,/g3t1_3,,running
Status,1132,16771733696,/g3t1_3,,fail
Status,1133,16771978410,/g3t1_1,,fail
Status,1134,16772166632,/g3t1_2,,running
Status,1135,16772203314,/g3t1_2,,fail
Status,1136,16807896497,/g4t1,,success
Status,1137,16822159769,/g3t1_3,,running
Status,1138,16822239398,/g3t1_1,,running
Status,1139,16822350238,/g3t1_3,,fail
Status,1140,16822388957,/g3t1_1,,fail
Status,1141,16822739197,/g3t1_2,,running
Status,1142,16823118414,/g3t1_2,,fail
Status,1143,16872114694,/g3t1_3,,running
Status,1144,16872217237,/g3t1_1,,running
Status,1145,16872369115,/g3t1_3,,fail
Status,1146,16872422518,/g3t1_1,,fail
Status,1147,16872459054,/g3t1_2,,running
Status,1148,16872955918,/g3t1_2,,fail
Status,1149,16907665440,/g4t1,,success
Status,1150,16922840051,/g3t1_3,,running
Status,1151,16922948662,/g3t1_1,,running
Status,1152,16922978930,/g3t1_3,,fail
Status,1153,16923031051,/g3t1_2,,running
Status,1154,16923108178,/g3t1_1,,fail
Status,1155,16923130776,/g3t1_2,,fail
Status,1159,16971956515,/g3t1_3,,running
Status,1160,16971991896,/g3t1_3,,fail
Status,1161,16972004716,/g3t1_1,,running
Status,1162,16972071079,/g3t1_1,,success
Status,1163,16972434300,/g3t1_2,,running
Status,1164,16972531682,/g3t1_2,,fail
Status,1165,17008148923,/g4t1,,success
Status,1166,17022803863,/g3t1_1,,running
Status,1167,17022900762,/g3t1_3,,running
Status,1168,17023357194,/g3t1_2,,running
Status,1169,17023408694,/g3t1_3,,fail
Status,1170,17023579860,/g3t1_1,,success
Status,1171,17023718957,/g3t1_2,,fail
Status,1172,17072736201,/g3t1_3,,running
Status,1173,17072835035,/g3t1_1,,running
Status,1174,17073565676,/g3t1_3,,fail
Status,1175,17073712031,/g3t1_1,,success
Status,1176,17073871392,/g3t1_2,,running
Status,1177,17073946861,/g3t1_2,,fail
Status,1178,17108298966,/g4t1,,success
Status,1179,17123467226,/g3t1_1,,running
Status,1180,17123547821,/g3t1_3,,running
Status,1181,17123728546,/g3t1_3,,fail
Status,1182,17123791690,/g3t1_2,,running
Status,1183,17123814477,/g3t1_1,,success
Status,1184,17123964764,/g3t1_2,,fail
Status,1188,17173365415,/g3t1_3,,running
Status,1189,17173454262,/g3t1_1,,running
Status,1190,17173493283,/g3t1_3,,fail
Status,1191,17173804721,/g3t1_1,,fail
Status,1192,17173847333,/g3t1_2,,running
Status,1193,17174230167,/g3t1_2,,success
Status,1194,17208630442,/g4t1,,success
Status,1195,17223323660,/g3t1_1,,running
Status,1196,17223420181,/g3t1_3,,running
Status,1197,17223586768,/g3t1_3,,fail
Status,1198,17223634674,/g3t1_1,,fail
Status,1199,17223661063,/g3t1_2,,running
Status,1200,17224606961,/g3t1_2,,success
Status,1201,17273405110,/g3t1_3,,running
Status,1202,17274431211,/g3t1_1,,running
Status,1203,17274497730,/g3t1_3,,fail
Status,1204,17274522342,/g3t1_2,,running
Status,1205,17274548773,/g3t1_1,,fail
Status,1206,17274735009,/g3t1_2,,success
Status,1207,17308678568,/g4t1,,success
Status,1208,17323358750,/g3t1_1,,running
Status,1209,17323525849,/g3t1_3,,running
Status,1210,17323643121,/g3t1_1,,fail
Status,1211,17324625566,/g3t1_3,,fail
Status,1212,17324713926,/g3t1_2,,running
Status,1213,17324757534,/g3t1_2,,success
Status,1217,17373399192,/g3t1_3,,running
Status,1218,17373470949,/g3t1_1,,running
Status,1219,17373990338,/g3t1_1,,fail
Status,1220,17374062644,/g3t1_3,,success
Status,1221,17374116687,/g3t1_2,,running
Status,1222,17374482063,/g3t1_2,,fail
Status,1223,17408643584,/g4t1,,success
Status,1224,17424582066,/g3t1_1,,running
Status,1225,17424648925,/g3t1_3,,running
Status,1226,17424686265,/g3t1_1,,fail
Status,1227,17424865252,/g3t1_2,,running
Status,1228,17424925682,/g3t1_2,,fail
Status,1229,17424954051,/g3t1_3,,success
Status,1230,17473755902,/g3t1_1,,running
Status,1231,17473859759,/g3t1_3,,running
Status,1232,17474376849,/g3t1_3,,success
Status,1233,17474428008,/g3t1_2,,running
Status,1234,17474467752,/g3t1_1,,fail
Status,1235,17474517568,/g3t1_2,,fail
Status,1236,17508412394,/g4t1,,success
Status,1237,17523872922,/g3t1_1,,running
Status,1238,17523924553,/g3t1_3,,running
Status,1239,17523947813,/g3t1_1,,fail
Status,1240,17523967940,/g3t1_3,,success
Status,1241,17524165971,/g3t1_2,,running
Status,1242,17524406117,/g3t1_2,,fail
Status,1246,17574624648,/g3t1_1,,running
Status,1247,17574719591,/g3t1_3,,running
Status,1248,17574748305,/g3t1_3,,fail
Status,1249,17574807336,/g3t1_2,,running
Status,1250,17574829639,/g3t1_2,,fail
Status,1251,17574851967,/g3t1_1,,success
Status,1252,17608768058,/g4t1,,success
Status,1253,17624564822,/g3t1_3,,running
Status,1254,17624928366,/g3t1_1,,running
Status,1255,17624979264,/g3t1_2,,running
Status,1256,17625016506,/g3t1_1,,success
Status,1257,17625184886,/g3t1_3,,success
Status,1258,17625225267,/g3t1_2,,fail
Status,1259,17674824055,/g3t1_3,,running
Status,1260,17674927867,/g3t1_1,,running
Status,1261,17675476891,/g3t1_2,,running
Status,1262,17675541090,/g3t1_1,,success
Status,1263,17675646652,/g3t1_3,,fail
Status,1264,17675679262,/g3t1_2,,fail
Status,1265,17708958271,/g4t1,,success
Status,1266,17724760730,/g3t1_1,,running
Status,1267,17724847999,/g3t1_3,,running
Status,1268,17725235981,/g3t1_3,,fail
Status,1269,17725339937,/g3t1_1,,success
Status,1270,17725381906,/g3t1_2,,running
Status,1271,17725610513,/g3t1_2,,fail
Status,1275,17775015653,/g3t1_3,,running
Status,1276,17775095718,/g3t1_1,,running
Status,1277,17775230862,/g3t1_1,,fail
Status,1278,17775299464,/g3t1_3,,fail
Status,1279,17775385431,/g3t1_2,,running
Status,1280,17775630258,/g3t1_2,,fail
Status,1281,17808825279,/g4t1,,success
Status,1282,17825437497,/g3t1_1,,running
Status,1283,17825560710,/g3t1_1,,fail
Status,1284,17825591261,/g3t1_3,,running
Status,1285,17825613980,/g3t1_3,,fail
Status,1286,17825634365,/g3t1_2,,running
Status,1287,17825829624,/g3t1_2,,fail
Status,1288,17875272792,/g3t1_1,,running
Status,1289,17875400481,/g3t1_3,,running
Status,1290,17875532986,/g3t1_3,,fail
Status,1291,17875569992,/g3t1_1,,fail
Status,1292,17875597434,/g3t1_2,,running
Status,1293,17875620697,/g3t1_2,,fail
Status,1294,17909265516,/g4t1,,success
Status,1295,17925406980,/g3t1_1,,running
Status,1296,17925482081,/g3t1_1,,fail
Status,1297,17925537969,/g3t1_3,,running
Status,1298,17925643353,/g3t1_3,,fail
Status,1299,17926082521,/g3t1_2,,running
Status,1300,17926170522,/g3t1_2,,fail
Status,1304,17975406696,/g3t1_1,,running
Status,1305,17975493797,/g3t1_3,,running
Status,1306,17975536391,/g3t1_3,,fail
Status,1307,17975918555,/g3t1_1,,fail
Status,1308,17976045960,/g3t1_2,,running
Status,1309,17976468310,/g3t1_2,,success
Status,1310,18008676374,/g4t1,,success
Status,1311,18024830754,/g3t1_1,,running
Status,1312,18024854741,/g3t1_3,,running
Status,1313,18024862336,/g3t1_1,,fail
Status,1314,18024869516,/g3t1_3,,fail
Status,1315,18025518593,/g3t1_2,,running
Status,1316,18025582148,/g3t1_2,,success
Status,1317,18075584141,/g3t1_3,,running
Status,1318,18075675947,/g3t1_1,,running
Status,1319,18075786352,/g3t1_1,,fail
Status,1320,18075827098,/g3t1_3,,fail
Status,1321,18076292040,/g3t1_2,,running
Status,1322,18077070033,/g3t1_2,,success
Status,1323,18109509330,/g4t1,,success
Status,1324,18125377729,/g3t1_1,,running
Status,1325,18125505874,/g3t1_3,,running
Status,1326,18125578650,/g3t1_1,,fail
Status,1327,18125612577,/g3t1_3,,fail
Status,1328,18125720175,/g3t1_2,,running
Status,1329,18126392542,/g3t1_2,,success
Status,1333,18175192551,/g3t1_1,,running
Status,1334,18175212620,/g3t1_3,,running
Status,1335,18175241945,/g3t1_1,,fail
Status,1336,18175250301,/g3t1_3,,fail
Status,1337,18175552914,/g3t1_2,,running
Status,1338,18175574079,/g3t1_2,,fail
Status,1339,18208930360,/g4t1,,success
Status,1340,18225817069,/g3t1_1,,running
Status,1341,18226402174,/g3t1_3,,running
Status,1342,18226459915,/g3t1_3,,fail
Status,1343,18226553952,/g3t1_2,,running
Status,1344,18226859565,/g3t1_1,,success
Status,1345,18226925312,/g3t1_2,,fail
Status,1346,18276316330,/g3t1_3,,running
Status,1347,18276479205,/g3t1_1,,running
Status,1348,18276525458,/g3t1_3,,fail
Status,1349,18276867893,/g3t1_2,,running
Status,1350,18276979752,/g3t1_1,,success
Status,1351,18277040775,/g3t1_2,,fail
Status,1352,18309706543,/g4t1,,success
Status,1353,18326438290,/g3t1_3,,running
Status,1354,18326514948,/g3t1_1,,running
Status,1355,18326729687,/g3t1_3,,fail
Status,1356,18326798979,/g3t1_1,,fail
Status,1357,18326978811,/g3t1_2,,running
Status,1358,18327019563,/g3t1_2,,fail
Status,1362,18376322041,/g3t1_1,,running
Status,1363,18376389949,/g3t1_3,,running
Status,1364,18376425498,/g3t1_1,,fail
Status,1365,18376460696,/g3t1_2,,running
Status,1366,18376562774,/g3t1_3,,fail
Status,1367,18377003463,/g3t1_2,,success
Status,1368,18409476258,/g4t1,,success
Status,1369,18426726855,/g3t1_3,,running
Status,1370,18426807054,/g3t1_1,,running
Status,1371,18426851349,/g3t1_2,,running
Status,1372,18426958615,/g3t1_1,,fail
Status,1373,18426999022,/g3t1_3,,fail
Status,1374,18427283476,/g3t1_2,,success
Status,1375,18476819934,/g3t1_1,,running
Status,1376,18476929358,/g3t1_3,,running
Status,1377,18477038079,/g3t1_2,,running
Status,1378,18477412254,/g3t1_1,,fail
Status,1379,18477542759,/g3t1_3,,fail
Status,1380,18477627594,/g3t1_2,,success
Status,1381,18509990395,/g4t1,,success
Status,1382,18527496498,/g3t1_1,,running
Status,1383,18527622765,/g3t1_3,,running
Status,1384,18527671950,/g3t1_3,,fail
Status,1385,18527759446,/g3t1_2,,running
Status,1386,18527784481,/g3t1_2,,success
Status,1387,18527822451,/g3t1_1,,fail
Status,1391,18577010210,/g3t1_3,,running
Status,1392,18577102264,/g3t1_1,,running
Status,1393,18577269882,/g3t1_2,,running
Status,1394,18577608334,/g3t1_3,,fail
Status,1395,18577759991,/g3t1_2,,fail
Status,1396,18577840270,/g3t1_1,,fail
Status,1397,18609990502,/g4t1,,success
Status,1398,18626960381,/g3t1_3,,running
Status,1399,18627297380,/g3t1_1,,running
Status,1400,18627483325,/g3t1_3,,fail
Status,1401,18627520443,/g3t1_1,,fail
Status,1402,18627614325,/g3t1_2,,running
Status,1403,18627891746,/g3t1_2,,fail
Status,1404,18677495085,/g3t1_3,,running
Status,1405,18677559321,/g3t1_1,,running
Status,1406,18677642853,/g3t1_2,,running
Status,1407,18677742960,/g3t1_3,,fail
Status,1408,18678103770,/g3t1_1,,fail
Status,1409,18678185233,/g3t1_2,,fail
Status,1410,18710171537,/g4t1,,success
Status,1411,18727362145,/g3t1_1,,running
Status,1412,18727455503,/g3t1_3,,running
Status,1413,18727787185,/g3t1_1,,fail
Status,1414,18727947332,/g3t1_3,,fail
Status,1415,18728065751,/g3t1_2,,running
Status,1416,18728644354,/g3t1_2,,fail
Status,1420,18777574092,/g3t1_3,,running
Status,1421,18777730255,/g3t1_1,,running
Status,1422,18777759614,/g3t1_1,,fail
Status,1423,18777782465,/g3t1_3,,fail
Status,1424,18777842474,/g3t1_2,,running
Status,1425,18778140496,/g3t1_2,,fail
Status,1426,18810247791,/g4t1,,success
Status,1427,18828061640,/g3t1_3,,running
Status,1428,18828180601,/g3t1_1,,running
Status,1429,18828225974,/g3t1_3,,fail
Status,1430,18828434156,/g3t1_1,,fail
Status,1431,18828504381,/g3t1_2,,running
Status,1432,18828823658,/g3t1_2,,success
Status,1433,18878083168,/g3t1_1,,running
Status,1434,18878158285,/g3t1_3,,running
Status,1435,18878240293,/g3t1_3,,fail
Status,1436,18878268091,/g3t1_2,,running
Status,1437,18878290767,/g3t1_1,,fail
Status,1438,18878642993,/g3t1_2,,fail
Status,1439,18910350873,/g4t1,,success
Status,1440,18928016610,/g3t1_3,,running
Status,1441,18928107653,/g3t1_1,,running
Status,1442,18928299050,/g3t1_3,,fail
Status,1443,18928349069,/g3t1_1,,fail
Status,1444,18928384847,/g3t1_2,,running
Status,1445,18928986329,/g3t1_2,,success
Status,1449,18978585706,/g3t1_1,,running
Status,1450,18978673581,/g3t1_3,,running
Status,1451,18978754462,/g3t1_1,,fail
Status,1452,18978796905,/g3t1_2,,running
Status,1453,18978848729,/g3t1_3,,success
Status,1454,18979520603,/g3t1_2,,success
Status,1455,19010635368,/g4t1,,success
Status,1456,19028883704,/g3t1_3,,running
Status,1457,19028959384,/g3t1_1,,running
Status,1458,19029154348,/g3t1_2,,running
Status,1459,19029199003,/g3t1_3,,success
Status,1460,19029232788,/g3t1_1,,fail
Status,1461,19029787523,/g3t1_2,,success
Status,1462,19078739734,/g3t1_3,,running
Status,1463,19078856218,/g3t1_1,,running
Status,1464,19079055806,/g3t1_1,,fail
Status,1465,19079220468,/g3t1_2,,running
Status,1466,19079727596,/g3t1_3,,success
Status,1467,19080033018,/g3t1_2,,success
Status,1468,19110666294,/g4t1,,success
Status,1469,19128661945,/g3t1_1,,running
Status,1470,19128823970,/g3t1_3,,running
Status,1471,19128969329,/g3t1_1,,fail
Status,1472,19129015200,/g3t1_2,,running
Status,1473,19129052808,/g3t1_3,,success
Status,1474,19129302044,/g3t1_2,,fail
Status,1478,19178010010,/g3t1_3,,running
Status,1479,19178046168,/g3t1_1,,running
Status,1480,19178062477,/g3t1_1,,fail
Status,1481,19178074933,/g3t1_3,,fail
Status,1482,19178371948,/g3t1_2,,running
Status,1483,19178551559,/g3t1_2,,fail
Status,1484,19210003832,/g4t1,,success
Status,1485,19227966691,/g3t1_3,,running
Status,1486,19227992491,/g3t1_1,,running
Status,1487,19228021139,/g3t1_1,,fail
Status,1488,19228028739,/g3t1_3,,fail
Status,1489,19228447065,/g3t1_2,,running
Status,1490,19228468143,/g3t1_2,,fail
Status,1491,19278060366,/g3t1_3,,running
Status,1492,19278096791,/g3t1_1,,running
Status,1493,19278107326,/g3t1_1,,fail
Status,1494,19278140502,/g3t1_3,,success
Status,1495,19278466535,/g3t1_2,,running
Status,1496,19278566894,/g3t1_2,,fail
Status,1497,19310458138,/g4t1,,success
Status,1498,19328993178,/g3t1_1,,running
Status,1499,19329069788,/g3t1_1,,fail
Status,1500,19329129785,/g3t1_3,,running
Status,1501,19329201922,/g3t1_3,,success
Status,1502,19329225101,/g3t1_2,,running
Status,1503,19329503198,/g3t1_2,,success
Status,1507,19379347864,/g3t1_1,,running
Status,1508,19379429603,/g3t1_3,,running
Status,1509,19380156629,/g3t1_3,,success
Status,1510,19380221110,/g3t1_1,,fail
Status,1511,19380271616,/g3t1_2,,running
Status,1512,19380302807,/g3t1_2,,success
Status,1513,19410886756,/g4t1,,success
Status,1514,19429416520,/g3t1_3,,running
Status,1515,19429582427,/g3t1_1,,running
Status,1516,19429624822,/g3t1_3,,success
Status,1517,19429693328,/g3t1_2,,running
Status,1518,19429724517,/g3t1_2,,success
Status,1519,19429816999,/g3t1_1,,fail
Status,1520,19479592867,/g3t1_1,,running
Status,1521,19479647243,/g3t1_3,,running
Status,1522,19479669562,/g3t1_3,,success
Status,1523,19479750537,/g3t1_2,,running
Status,1524,19479772960,/g3t1_2,,fail
Status,1525,19479794745,/g3t1_1,,success
Status,1526,19511007160,/g4t1,,success
Status,1527,19529361370,/g3t1_1,,running
Status,1528,19529446391,/g3t1_3,,running
Status,1529,19530353380,/g3t1_2,,running
Status,1530,19530415267,/g3t1_1,,success
Status,1531,19530453798,/g3t1_3,,success
Status,1532,19530602218,/g3t1_2,,success
Status,1533,19579742435,/g3t1_3,,running
Status,1534,19579795217,/g3t1_1,,running
Status,1535,19579889052,/g3t1_1,,fail
Status,1536,19580248948,/g3t1_2,,running
Status,1537,19580316592,/g3t1_3,,success
Status,1538,19580378773,/g3t1_2,,success
Status,1539,19611358757,/g4t1,,fail
Status,1540,19630785953,/g3t1_3,,running
Status,1541,19630853563,/g3t1_1,,running
Status,1542,19630876772,/g3t1_1,,fail
Status,1543,19630902942,/g3t1_2,,running
Status,1544,19630926701,/g3t1_2,,success
Status,1545,19631113934,/g3t1_3,,success
Status,1546,19680469671,/g3t1_1,,running
Status,1547,19680576275,/g3t1_3,,running
Status,1548,19680618933,/g3t1_3,,success
Status,1549,19680812872,/g3t1_2,,running
Status,1550,19680856170,/g3t1_1,,success
Status,1551,19681198165,/g3t1_2,,success
Status,1552,19711410155,/g4t1,,fail
Status,1553,19730171027,/g3t1_1,,running
Status,1554,19730258451,/g3t1_3,,running
Status,1555,19731260274,/g3t1_2,,running
Status,1556,19731310399,/g3t1_2,,fail
Status,1557,19731335736,/g3t1_1,,success
Status,1558,19731439604,/g3t1_3,,success
Status,1559,19780385805,/g3t1_1,,running
Status,1560,19780470009,/g3t1_3,,running
Status,1561,19780621043,/g3t1_1,,success
Status,1562,19780659320,/g3t1_3,,success
Status,1563,19781398788,/g3t1_2,,running
Status,1564,19781529495,/g3t1_2,,success
Status,1565,19811517918,/g4t1,,fail
Status,1566,19830495866,/g3t1_1,,running
Status,1567,19830589294,/g3t1_3,,running
Status,1568,19831085290,/g3t1_3,,success
Status,1569,19831149128,/g3t1_1,,success
Status,1570,19831245581,/g3t1_2,,running
Status,1571,19831288638,/g3t1_2,,fail
Status,1572,19880858826,/g3t1_1,,running
Status,1573,19880921843,/g3t1_3,,running
Status,1574,19881028946,/g3t1_1,,success
Status,1575,19881054017,/g3t1_2,,running
Status,1576,19881079219,/g3t1_3,,success
Status,1577,19881410143,/g3t1_2,,success
Status,1578,19911669858,/g4t1,,fail
Status,1579,19930879678,/g3t1_1,,running
Status,1580,19930952952,/g3t1_3,,running
Status,1581,19931000509,/g3t1_2,,running
Status,1582,19931133235,/g3t1_1,,success
Status,1583,19931168518,/g3t1_3,,success
Status,1584,19931555560,/g3t1_2,,success
Status,1585,19980462382,/g3t1_1,,running
Status,1586,19980552919,/g3t1_3,,running
Status,1587,19980862541,/g3t1_1,,fail
Status,1588,19981691689,/g3t1_2,,running
Status,1589,19981743518,/g3t1_3,,success
Status,1590,19981793854,/g3t1_2,,success
Status,1591,20011670383,/g4t1,,fail
Status,1592,20030939231,/g3t1_1,,running
Status,1593,20031069397,/g3t1_3,,running
Status,1594,20031297763,/g3t1_1,,fail
Status,1595,20031477405,/g3t1_3,,success
Status,1596,20031826205,/g3t1_2,,running
Status,1597,20032104393,/g3t1_2,,success
Status,1598,20080971117,/g3t1_1,,running
Status,1599,20081081388,/g3t1_3,,running
Status,1600,20081191309,/g3t1_1,,fail
Status,1601,20081221481,/g3t1_2,,running
Status,1602,20081619875,/g3t1_3,,success
Status,1603,20081932922,/g3t1_2,,fail
Status,1604,20111728433,/g4t1,,fail
Status,1605,20130983320,/g3t1_1,,running
Status,1606,20131066471,/g3t1_3,,running
Status,1607,20131953478,/g3t1_2,,running
Status,1608,20132102711,/g3t1_3,,success
Status,1609,20132182185,/g3t1_1,,success
Status,1610,20132209339,/g3t1_2,,success
Status,1611,20181481701,/g3t1_1,,running
Status,1612,20181730370,/g3t1_3,,running
Status,1613,20181781485,/g3t1_3,,success
Status,1614,20181818322,/g3t1_2,,running
Status,1615,20182463622,/g3t1_1,,fail
Status,1616,20182553449,/g3t1_2,,success
Status,1617,20212037699,/g4t1,,fail
Status,1618,20231554653,/g3t1_3,,running
Status,1619,20231756251,/g3t1_1,,running
Status,1620,20231813553,/g3t1_1,,fail
Status,1621,20231875355,/g3t1_3,,success
Status,1622,20231907178,/g3t1_2,,running
Status,1623,20232346712,/g3t1_2,,success
Status,1624,20281294954,/g3t1_3,,running
Status,1625,20282141508,/g3t1_1,,running
Status,1626,20282446343,/g3t1_1,,fail
Status,1627,20282492800,/g3t1_3,,success
Status,1628,20282562895,/g3t1_2,,running
Status,1629,20282586388,/g3t1_2,,success
Status,1630,20312050329,/g4t1,,fail
Status,1631,20332070806,/g3t1_1,,running
Status,1632,20332142730,/g3t1_3,,running
Status,1633,20332261955,/g3t1_1,,fail
Status,1634,20332299760,/g3t1_2,,running
Status,1635,20332474523,/g3t1_3,,success
Status,1636,20332586370,/g3t1_2,,success
Status,1640,20381344627,/g3t1_1,,running
Status,1641,20381435522,/g3t1_3,,running
Status,1642,20381540232,/g3t1_3,,fail
Status,1643,20381569968,/g3t1_1,,fail
Status,1644,20382070594,/g3t1_2,,running
Status,1645,20383033438,/g3t1_2,,success
Status,1646,20412096029,/g4t1,,fail
Status,1647,20431568055,/g3t1_1,,running
Status,1648,20431686037,/g3t1_3,,running
Status,1649,20432042386,/g3t1_3,,fail
Status,1650,20432080994,/g3t1_1,,fail
Status,1651,20432109383,/g3t1_2,,running
Status,1652,20432585602,/g3t1_2,,success
Status,1653,20482237740,/g3t1_3,,running
Status,1654,20482330501,/g3t1_1,,running
Status,1655,20482890825,/g3t1_1,,fail
Status,1656,20482961425,/g3t1_2,,running
Status,1657,20482995295,/g3t1_3,,fail
Status,1658,20483361650,/g3t1_2,,success
Status,1659,20512322873,/g4t1,,fail
Status,1660,20532065983,/g3t1_3,,running
Status,1661,20532273304,/g3t1_1,,running
Status,1662,20532332107,/g3t1_3,,fail
Status,1663,20532376960,/g3t1_1,,fail
Status,1664,20532754482,/g3t1_2,,running
Status,1665,20532845144,/g3t1_2,,fail
Status,1669,20582916337,/g3t1_3,,running
Status,1670,20582998484,/g3t1_1,,running
Status,1671,20583076932,/g3t1_1,,fail
Status,1672,20583110386,/g3t1_2,,running
Status,1673,20583144407,/g3t1_2,,fail
Status,1674,20583174758,/g3t1_3,,success
Status,1675,20612296961,/g4t1,,success
Status,1676,20632412816,/g3t1_3,,running
Status,1677,20632535622,/g3t1_1,,running
Status,1678,20632685816,/g3t1_3,,fail
