
Status,2,3476044296,/g4t1,,init
Status,4,8656193157,/g3t1_1,,init
Status,5,8663112632,/g3t1_1,,init
Status,6,8663132447,/g3t1_1,,running
Status,7,8663664997,/g3t1_1,,success
Status,8,8713361992,/g3t1_1,,running
Status,9,8713400489,/g3t1_1,,success
Status,10,8763526758,/g3t1_1,,running
Status,11,8763543306,/g3t1_1,,success
Status,12,8813501540,/g3t1_1,,running
Status,13,8813587751,/g3t1_1,,success
Status,14,8863660305,/g3t1_1,,running
Status,15,8863686749,/g3t1_1,,success
Status,17,8893838160,/g3t1_2,,init
Status,18,8902475486,/g3t1_2,,init
Status,19,8902489186,/g3t1_2,,running
Status,20,8902824585,/g3t1_2,,success
Status,21,8913827417,/g3t1_1,,running
Status,22,8913844661,/g3t1_1,,success
Status,23,8952626720,/g3t1_2,,running
Status,24,8952642863,/g3t1_2,,success
Status,25,8963812860,/g3t1_1,,running
Status,26,8963827280,/g3t1_1,,success
Status,28,8994369147,/g3t1_3,,init
Status,29,8994749603,/g4t1,,success
Status,30,9002541614,/g3t1_3,,init
Status,31,9002565944,/g3t1_3,,running
Status,32,9002645530,/g3t1_2,,running
Status,33,9002844482,/g3t1_2,,success
Status,34,9003083170,/g3t1_3,,success
Status,35,9014010506,/g3t1_1,,running
Status,36,9014023913,/g3t1_1,,success
Status,37,9053173581,/g3t1_2,,running
Status,38,9053211098,/g3t1_3,,running
Status,39,9053439852,/g3t1_2,,success
Status,40,9053478325,/g3t1_3,,success
Status,41,9064790449,/g3t1_1,,running
Status,42,9065178611,/g3t1_1,,success
Status,43,9095645493,/g4t1,,success
Status,44,9103931323,/g3t1_2,,running
Status,45,9104145651,/g3t1_3,,running
Status,46,9104565204,/g3t1_2,,success
Status,47,9104624855,/g3t1_3,,success
Status,48,9115097540,/g3t1_1,,running
Status,49,9115161307,/g3t1_1,,success
Status,50,9153771989,/g3t1_3,,running
Status,51,9153907307,/g3t1_2,,running
Status,52,9154360792,/g3t1_3,,success
Status,53,9154711118,/g3t1_2,,success
Status,54,9165422936,/g3t1_1,,running
Status,55,9165789761,/g3t1_1,,success
Status,56,9195786508,/g4t1,,success
Status,57,9204549904,/g3t1_3,,running
Status,58,9204610179,/g3t1_2,,running
Status,59,9204631490,/g3t1_2,,success
Status,60,9204657451,/g3t1_3,,success
Status,61,9214935539,/g3t1_1,,running
Status,62,9215622047,/g3t1_1,,success
Status,63,9254606031,/g3t1_2,,running
Status,64,9254697319,/g3t1_3,,running
Status,65,9255202081,/g3t1_2,,success
Status,66,9255281095,/g3t1_3,,success
Status,67,9265133138,/g3t1_1,,running
Status,68,9265472953,/g3t1_1,,success
Status,69,9296138928,/g4t1,,fail
Status,70,9304608884,/g3t1_2,,running
Status,71,9304709594,/g3t1_3,,running
Status,72,9304904809,/g3t1_2,,success
Status,73,9305048028,/g3t1_3,,success
Status,74,9315299073,/g3t1_1,,running
Status,75,9315873899,/g3t1_1,,success
Status,76,9354450838,/g3t1_2,,running
Status,77,9354534272,/g3t1_3,,running
Status,78,9354632583,/g3t1_2,,success
Status,79,9354944065,/g3t1_3,,success
Status,80,9365342629,/g3t1_1,,running
Status,81,9365726287,/g3t1_1,,success
Status,82,9396039780,/g4t1,,fail
Status,83,9405094886,/g3t1_3,,running
Status,84,9405156637,/g3t1_2,,running
Status,85,9405177375,/g3t1_2,,success
Status,86,9405199794,/g3t1_3,,success
Status,87,9415502019,/g3t1_1,,running
Status,88,9415849939,/g3t1_1,,success
Status,89,9454630365,/g3t1_2,,running
Status,90,9454710923,/g3t1_3,,running
Status,91,9455148913,/g3t1_2,,success
Status,92,9455210903,/g3t1_3,,success
Status,93,9465539928,/g3t1_1,,running
Status,94,9465925661,/g3t1_1,,success
Status,95,9495944536,/g4t1,,fail
Status,96,9504931504,/g3t1_3,,running
Status,97,9505017930,/g3t1_2,,running
Status,98,9505365797,/g3t1_2,,success
Status,99,9505423390,/g3t1_3,,success
Status,100,9515719710,/g3t1_1,,running
Status,101,9516219948,/g3t1_1,,success
Status,102,9555319810,/g3t1_2,,running
Status,103,9555518668,/g3t1_3,,running
Status,104,9555670509,/g3t1_2,,success
Status,105,9555913153,/g3t1_3,,success
Status,106,9565810165,/g3t1_1,,running
Status,107,9566326958,/g3t1_1,,success
Status,108,9596233123,/g4t1,,fail
Status,109,9605348409,/g3t1_3,,running
Status,110,9605468650,/g3t1_2,,running
Status,111,9605755787,/g3t1_2,,success
Status,112,9606119346,/g3t1_3,,success
Status,113,9615906608,/g3t1_1,,running
Status,114,9616292748,/g3t1_1,,success
Status,115,9655529335,/g3t1_2,,running
Status,116,9655624418,/g3t1_3,,running
Status,117,9655963155,/g3t1_2,,success
Status,118,9656267165,/g3t1_3,,success
Status,119,9665935802,/g3t1_1,,running
Status,120,9666205632,/g3t1_1,,success
Status,121,9696327042,/g4t1,,fail
Status,122,9705741508,/g3t1_2,,running
Status,123,9705812768,/g3t1_3,,running
Status,124,9705837484,/g3t1_2,,success
Status,125,9706043090,/g3t1_3,,success
Status,126,9716312157,/g3t1_1,,running
Status,127,9716599491,/g3t1_1,,success
Status,128,9755642965,/g3t1_2,,running
Status,129,9755764691,/g3t1_3,,running
Status,130,9755982530,/g3t1_2,,success
Status,131,9756398962,/g3t1_3,,success
Status,132,9766234384,/g3t1_1,,running
Status,133,9766628857,/g3t1_1,,success
Status,134,9796526587,/g4t1,,fail
Status,135,9805590511,/g3t1_2,,running
Status,136,9805665668,/g3t1_3,,running
Status,137,9806011058,/g3t1_2,,success
Status,138,9806286230,/g3t1_3,,success
Status,139,9816428134,/g3t1_1,,running
Status,140,9816831722,/g3t1_1,,success
Status,141,9856118130,/g3t1_2,,running
Status,142,9856177115,/g3t1_3,,running
Status,143,9856269576,/g3t1_2,,success
Status,144,9856554970,/g3t1_3,,success
Status,145,9866457730,/g3t1_1,,running
Status,146,9866746684,/g3t1_1,,success
Status,147,9896726147,/g4t1,,fail
Status,148,9906014743,/g3t1_2,,running
Status,149,9906630105,/g3t1_3,,running
Status,150,9906708234,/g3t1_2,,success
Status,151,9906821866,/g3t1_3,,success
Status,152,9916702277,/g3t1_1,,running
Status,153,9917164131,/g3t1_1,,success
Status,154,9956494195,/g3t1_2,,running
Status,155,9956556793,/g3t1_3,,running
Status,156,9956579094,/g3t1_2,,success
Status,157,9956840125,/g3t1_3,,success
Status,158,9966983280,/g3t1_1,,running
Status,159,9967042589,/g3t1_1,,success
Status,160,9996684529,/g4t1,,fail
Status,161,10006296269,/g3t1_2,,running
Status,162,10006375391,/g3t1_3,,running
Status,163,10006470511,/g3t1_2,,success
Status,164,10006880484,/g3t1_3,,success
Status,165,10017144454,/g3t1_1,,running
Status,166,10017393636,/g3t1_1,,success
Status,167,10056580925,/g3t1_2,,running
Status,168,10056678841,/g3t1_2,,success
Status,169,10056716529,/g3t1_3,,running
Status,170,10057156019,/g3t1_3,,success
Status,171,10067297865,/g3t1_1,,running
Status,172,10067368058,/g3t1_1,,success
Status,173,10096922251,/g4t1,,fail
Status,174,10106335564,/g3t1_2,,running
Status,175,10106400584,/g3t1_3,,running
Status,176,10107303126,/g3t1_3,,success
Status,177,10107368739,/g3t1_2,,success
Status,178,10117580810,/g3t1_1,,running
Status,179,10117652719,/g3t1_1,,success
Status,180,10157083651,/g3t1_2,,running
Status,181,10157148962,/g3t1_3,,running
Status,182,10157174178,/g3t1_3,,success
Status,183,10157359700,/g3t1_2,,success
Status,184,10167411794,/g3t1_1,,running
Status,185,10167739114,/g3t1_1,,success
Status,186,10196875849,/g4t1,,fail
Status,187,10206967132,/g3t1_2,,running
Status,188,10207086879,/g3t1_3,,running
Status,189,10207220496,/g3t1_3,,success
Status,190,10207272378,/g3t1_2,,success
Status,191,10217734585,/g3t1_1,,running
Status,192,10217807558,/g3t1_1,,success
Status,193,10256941961,/g3t1_2,,running
Status,194,10257094236,/g3t1_3,,running
Status,195,10257137166,/g3t1_2,,success
Status,196,10257535200,/g3t1_3,,success
Status,197,10267654940,/g3t1_1,,running
Status,198,10268264398,/g3t1_1,,success
Status,199,10297169544,/g4t1,,fail
Status,200,10307064381,/g3t1_2,,running
Status,201,10307290972,/g3t1_3,,running
Status,202,10307673075,/g3t1_2,,success
Status,203,10307755243,/g3t1_3,,success
Status,204,10317697106,/g3t1_1,,running
Status,205,10318225656,/g3t1_1,,success
Status,206,10356904498,/g3t1_2,,running
Status,207,10357016090,/g3t1_3,,running
Status,208,10357517204,/g3t1_2,,success
Status,209,10357770768,/g3t1_3,,success
Status,210,10367809326,/g3t1_1,,running
Status,211,10368551586,/g3t1_1,,success
Status,212,10397320390,/g4t1,,fail
Status,213,10407237030,/g3t1_2,,running
Status,214,10407431197,/g3t1_3,,running
Status,215,10407487707,/g3t1_2,,success
Status,216,10407874634,/g3t1_3,,success
Status,217,10418129946,/g3t1_1,,running
Status,218,10418456904,/g3t1_1,,success
Status,219,10457419527,/g3t1_2,,running
Status,220,10457530984,/g3t1_3,,running
Status,221,10457633510,/g3t1_2,,success
Status,222,10457889976,/g3t1_3,,success
Status,223,10468182244,/g3t1_1,,running
Status,224,10468570167,/g3t1_1,,success
Status,225,10497547794,/g4t1,,fail
Status,226,10507755514,/g3t1_2,,running
Status,227,10508030086,/g3t1_3,,running
Status,228,10508359733,/g3t1_3,,success
Status,229,10508437085,/g3t1_2,,success
Status,230,10518142241,/g3t1_1,,running
Status,231,10518498078,/g3t1_1,,success
Status,232,10557603327,/g3t1_2,,running
Status,233,10557721563,/g3t1_3,,running
Status,234,10558367232,/g3t1_2,,success
Status,235,10558426753,/g3t1_3,,success
Status,236,10568164490,/g3t1_1,,running
Status,237,10568399863,/g3t1_1,,success
Status,238,10596774928,/g4t1,,fail
Status,239,10606909956,/g3t1_2,,running
Status,240,10607245767,/g3t1_3,,running
Status,241,10607285834,/g3t1_2,,success
Status,242,10607494172,/g3t1_3,,success
Status,243,10618423063,/g3t1_1,,running
Status,244,10619144601,/g3t1_1,,success
Status,245,10657780054,/g3t1_2,,running
Status,246,10657874527,/g3t1_3,,running
Status,247,10658644137,/g3t1_2,,success
Status,248,10658720014,/g3t1_3,,success
Status,249,10668632748,/g3t1_1,,running
Status,250,10669210774,/g3t1_1,,success
Status,251,10697282607,/g4t1,,fail
Status,252,10708400614,/g3t1_2,,running
Status,253,10708507406,/g3t1_3,,running
Status,254,10708650250,/g3t1_2,,success
Status,255,10708920049,/g3t1_3,,success
Status,256,10718854003,/g3t1_1,,running
Status,257,10718922284,/g3t1_1,,success
Status,258,10757931349,/g3t1_2,,running
Status,259,10758026718,/g3t1_3,,running
Status,260,10759001144,/g3t1_3,,success
Status,261,10759072099,/g3t1_2,,success
Status,262,10768978509,/g3t1_1,,running
Status,263,10769040528,/g3t1_1,,success
Status,264,10797550217,/g4t1,,fail
Status,265,10808091457,/g3t1_2,,running
Status,266,10808404406,/g3t1_3,,running
Status,267,10808563236,/g3t1_2,,success
Status,268,10808594365,/g3t1_3,,success
Status,269,10819419417,/g3t1_1,,running
Status,270,10819800135,/g3t1_1,,success
Status,271,10858283492,/g3t1_2,,running
Status,272,10858727943,/g3t1_3,,running
Status,273,10858952378,/g3t1_3,,success
Status,274,10859004580,/g3t1_2,,success
Status,275,10869241704,/g3t1_1,,running
Status,276,10869609811,/g3t1_1,,success
Status,277,10897821965,/g4t1,,fail
Status,278,10908311665,/g3t1_2,,running
Status,279,10909069859,/g3t1_3,,running
Status,280,10909159159,/g3t1_2,,success
Status,281,10909294191,/g3t1_3,,success
Status,282,10919468881,/g3t1_1,,running
Status,283,10919693338,/g3t1_1,,success
Status,284,10959084376,/g3t1_2,,running
Status,285,10959163973,/g3t1_3,,running
Status,286,10959261912,/g3t1_2,,success
Status,287,10959621158,/g3t1_3,,success
Status,288,10969476712,/g3t1_1,,running
Status,289,10969938783,/g3t1_1,,success
Status,290,10997971155,/g4t1,,fail
Status,291,11008725755,/g3t1_2,,running
Status,292,11008820700,/g3t1_3,,running
Status,293,11008937048,/g3t1_2,,success
Status,294,11009346920,/g3t1_3,,success
Status,295,11019722834,/g3t1_1,,running
Status,296,11020247657,/g3t1_1,,success
Status,297,11058875188,/g3t1_2,,running
Status,298,11059321719,/g3t1_3,,running
Status,299,11059436660,/g3t1_2,,success
Status,300,11060295740,/g3t1_3,,success
Status,301,11069675442,/g3t1_1,,running
Status,302,11070048973,/g3t1_1,,success
Status,303,11098196489,/g4t1,,fail
Status,304,11108850807,/g3t1_2,,running
Status,305,11109053949,/g3t1_3,,running
Status,306,11109487644,/g3t1_2,,success
Status,307,11109554392,/g3t1_3,,success
Status,308,11119999103,/g3t1_1,,running
Status,309,11120455470,/g3t1_1,,success
Status,310,11159579935,/g3t1_2,,running
Status,311,11159667557,/g3t1_3,,running
Status,312,11159719680,/g3t1_2,,success
Status,313,11159889408,/g3t1_3,,success
Status,314,11170045516,/g3t1_1,,running
Status,315,11170111999,/g3t1_1,,success
Status,316,11198463757,/g4t1,,fail
Status,317,11209249258,/g3t1_2,,running
Status,318,11209384612,/g3t1_3,,running
Status,319,11209455914,/g3t1_2,,success
Status,320,11209785934,/g3t1_3,,success
Status,321,11220651282,/g3t1_1,,running
Status,322,11221376725,/g3t1_1,,success
Status,323,11258722638,/g3t1_2,,running
Status,324,11258854305,/g3t1_2,,success
Status,325,11259097946,/g3t1_3,,running
Status,326,11259124375,/g3t1_3,,success
Status,327,11269694672,/g3t1_1,,running
Status,328,11269762042,/g3t1_1,,success
Status,329,11297670420,/g4t1,,fail
Status,330,11309508079,/g3t1_2,,running
Status,331,11309547754,/g3t1_3,,running
Status,332,11309557212,/g3t1_2,,success
Status,333,11309567248,/g3t1_3,,success
Status,334,11319747789,/g3t1_1,,running
Status,335,11319773981,/g3t1_1,,success
Status,336,11358740513,/g3t1_2,,running
Status,337,11359012000,/g3t1_2,,success
Status,338,11359031107,/g3t1_3,,running
Status,339,11359247049,/g3t1_3,,success
Status,340,11369892711,/g3t1_1,,running
Status,341,11369921709,/g3t1_1,,success
Status,342,11397903302,/g4t1,,fail
Status,343,11408889294,/g3t1_2,,running
Status,344,11408942089,/g3t1_2,,success
Status,345,11409105167,/g3t1_3,,running
Status,346,11409294519,/g3t1_3,,success
Status,347,11420027670,/g3t1_1,,running
Status,348,11420057530,/g3t1_1,,success
Status,349,11459844057,/g3t1_2,,running
Status,350,11460806789,/g3t1_3,,running
Status,351,11460865219,/g3t1_3,,success
Status,352,11460996899,/g3t1_2,,success
Status,353,11470679007,/g3t1_1,,running
Status,354,11470824450,/g3t1_1,,success
Status,355,11497840049,/g4t1,,fail
Status,356,11509039088,/g3t1_2,,running
Status,357,11509073628,/g3t1_2,,success
Status,358,11509212808,/g3t1_3,,running
Status,359,11509325594,/g3t1_3,,success
Status,360,11520208260,/g3t1_1,,running
Status,361,11520325656,/g3t1_1,,success
Status,362,11559143966,/g3t1_2,,running
Status,363,11559178833,/g3t1_2,,success
Status,364,11559205412,/g3t1_3,,running
Status,365,11559329322,/g3t1_3,,success
Status,366,11570299134,/g3t1_1,,running
Status,367,11570382719,/g3t1_1,,success
Status,368,11597961808,/g4t1,,fail
Status,369,11611043829,/g3t1_2,,running
Status,370,11611073172,/g3t1_3,,running
Status,371,11611088524,/g3t1_2,,success
Status,372,11611184016,/g3t1_3,,success
Status,373,11620535471,/g3t1_1,,running
Status,374,11620559851,/g3t1_1,,success
Status,375,11659463377,/g3t1_2,,running
Status,376,11659647194,/g3t1_2,,success
Status,377,11659672268,/g3t1_3,,running
Status,378,11659696508,/g3t1_3,,success
Status,379,11670473618,/g3t1_1,,running
Status,380,11670504885,/g3t1_1,,success
Status,381,11698027389,/g4t1,,fail
Status,382,11709596802,/g3t1_2,,running
Status,383,11709629362,/g3t1_3,,running
Status,384,11709666233,/g3t1_2,,success
Status,385,11709785747,/g3t1_3,,success
Status,386,11720973249,/g3t1_1,,running
Status,387,11721001926,/g3t1_1,,success
Status,388,11759554930,/g3t1_2,,running
Status,389,11759591750,/g3t1_2,,success
Status,390,11759630530,/g3t1_3,,running
Status,391,11759768737,/g3t1_3,,success
Status,392,11770811709,/g3t1_1,,running
Status,393,11770960750,/g3t1_1,,success
Status,394,11798479119,/g4t1,,fail
Status,395,11809786551,/g3t1_2,,running
Status,396,11809830061,/g3t1_2,,success
Status,397,11809903632,/g3t1_3,,running
Status,398,11809918751,/g3t1_3,,success
Status,399,11820743460,/g3t1_1,,running
Status,400,11820871918,/g3t1_1,,success
Status,401,11859590446,/g3t1_2,,running
Status,402,11859859000,/g3t1_3,,running
Status,403,11859883579,/g3t1_2,,success
Status,404,11860058777,/g3t1_3,,success
Status,405,11871012946,/g3t1_1,,running
Status,406,11871159257,/g3t1_1,,success
Status,407,11898218958,/g4t1,,fail
Status,408,11909692299,/g3t1_2,,running
Status,409,11909917599,/g3t1_2,,success
Status,410,11909942092,/g3t1_3,,running
Status,411,11910061065,/g3t1_3,,success
Status,412,11921020564,/g3t1_1,,running
Status,413,11921319985,/g3t1_1,,success
Status,414,11960350551,/g3t1_2,,running
Status,415,11960956394,/g3t1_3,,running
Status,416,11961062803,/g3t1_3,,success
Status,417,11961248262,/g3t1_2,,success
Status,418,11972610231,/g3t1_1,,running
Status,419,11972679473,/g3t1_1,,success
Status,420,11999487757,/g4t1,,fail
Status,421,12011189104,/g3t1_2,,running
Status,422,12011258280,/g3t1_2,,success
Status,423,12011582678,/g3t1_3,,running
Status,424,12011643403,/g3t1_3,,success
Status,425,12021524126,/g3t1_1,,running
Status,426,12021564169,/g3t1_1,,success
Status,427,12060437844,/g3t1_2,,running
Status,428,12060487436,/g3t1_3,,running
Status,429,12060553300,/g3t1_2,,success
Status,430,12060809830,/g3t1_3,,success
Status,431,12071539434,/g3t1_1,,running
Status,432,12071686818,/g3t1_1,,success
Status,433,12098988561,/g4t1,,fail
Status,434,12110613517,/g3t1_2,,running
Status,435,12110652606,/g3t1_3,,running
Status,436,12110871935,/g3t1_3,,success
Status,437,12111197364,/g3t1_2,,success
Status,438,12121278020,/g3t1_1,,running
Status,439,12121349090,/g3t1_1,,success
Status,440,12160308801,/g3t1_2,,running
Status,441,12160344339,/g3t1_3,,running
Status,442,12160356282,/g3t1_2,,success
Status,443,12160616218,/g3t1_3,,success
Status,444,12171624303,/g3t1_1,,running
Status,445,12171656372,/g3t1_1,,success
Status,446,12198507885,/g4t1,,fail
Status,447,12210596910,/g3t1_2,,running
Status,448,12210632026,/g3t1_3,,running
Status,449,12210668320,/g3t1_2,,success
Status,450,12210857407,/g3t1_3,,success
Status,451,12221633691,/g3t1_1,,running
Status,452,12221684581,/g3t1_1,,success
Status,453,12260666183,/g3t1_2,,running
Status,454,12260703282,/g3t1_3,,running
Status,455,12260731373,/g3t1_2,,success
Status,456,12260743000,/g3t1_3,,success
Status,457,12271691176,/g3t1_1,,running
Status,458,12271789702,/g3t1_1,,success
Status,459,12298589722,/g4t1,,fail
Status,460,12311135000,/g3t1_2,,running
Status,461,12311452861,/g3t1_3,,running
Status,462,12311624693,/g3t1_3,,success
Status,463,12311662851,/g3t1_2,,success
Status,464,12322261644,/g3t1_1,,running
Status,465,12322638949,/g3t1_1,,success
Status,466,12362007774,/g3t1_3,,running
Status,467,12362180769,/g3t1_2,,running
Status,468,12362233662,/g3t1_3,,success
Status,469,12362314396,/g3t1_2,,success
Status,470,12372206820,/g3t1_1,,running
Status,471,12372630858,/g3t1_1,,success
Status,472,12399360352,/g4t1,,fail
Status,473,12411439356,/g3t1_2,,running
Status,474,12411566688,/g3t1_3,,running
Status,475,12412192828,/g3t1_2,,success
Status,476,12412325367,/g3t1_3,,success
Status,477,12422496476,/g3t1_1,,running
Status,478,12422699331,/g3t1_1,,success
Status,479,12461262911,/g3t1_2,,running
Status,480,12461358868,/g3t1_3,,running
Status,481,12461640087,/g3t1_3,,success
Status,482,12462285181,/g3t1_2,,success
Status,483,12472865586,/g3t1_1,,running
Status,484,12472935989,/g3t1_1,,success
Status,485,12499713455,/g4t1,,fail
Status,486,12511709002,/g3t1_2,,running
Status,487,12511812657,/g3t1_3,,running
Status,488,12512120878,/g3t1_2,,success
Status,489,12512162222,/g3t1_3,,success
Status,490,12522848990,/g3t1_1,,running
Status,491,12523271379,/g3t1_1,,success
Status,492,12561736959,/g3t1_2,,running
Status,493,12561824862,/g3t1_3,,running
Status,494,12562326786,/g3t1_3,,success
Status,495,12562528354,/g3t1_2,,success
Status,496,12573356630,/g3t1_1,,running
Status,497,12573423257,/g3t1_1,,success
Status,498,12599976762,/g4t1,,fail
Status,499,12612065049,/g3t1_3,,running
Status,500,12612151909,/g3t1_2,,running
Status,501,12612577894,/g3t1_3,,success
Status,502,12612648319,/g3t1_2,,success
Status,503,12623247181,/g3t1_1,,running
Status,504,12623479590,/g3t1_1,,success
Status,505,12662351984,/g3t1_2,,running
Status,506,12662446458,/g3t1_3,,running
Status,507,12663008762,/g3t1_3,,success
Status,508,12663090961,/g3t1_2,,success
Status,509,12673475316,/g3t1_1,,running
Status,510,12673706731,/g3t1_1,,success
Status,511,12699994522,/g4t1,,fail
Status,512,12712699914,/g3t1_3,,running
Status,513,12712944682,/g3t1_2,,running
Status,514,12713083549,/g3t1_2,,success
Status,515,12713127236,/g3t1_3,,success
Status,516,12723224768,/g3t1_1,,running
Status,517,12723270511,/g3t1_1,,success
Status,518,12761853049,/g3t1_2,,running
Status,519,12761905524,/g3t1_3,,running
Status,520,12762147808,/g3t1_3,,success
Status,521,12762174983,/g3t1_2,,success
Status,522,12772935256,/g3t1_1,,running
Status,523,12772986285,/g3t1_1,,success
Status,524,12799398174,/g4t1,,fail
Status,525,12811818649,/g3t1_3,,running
Status,526,12811850839,/g3t1_2,,running
Status,527,12811930838,/g3t1_3,,success
Status,528,12811944571,/g3t1_2,,success
Status,529,12823071846,/g3t1_1,,running
Status,530,12823340397,/g3t1_1,,success
Status,531,12861924289,/g3t1_3,,running
Status,532,12861987625,/g3t1_2,,running
Status,533,12862102695,/g3t1_2,,success
Status,534,12862343105,/g3t1_3,,success
Status,535,12873261584,/g3t1_1,,running
Status,536,12873382679,/g3t1_1,,success
Status,537,12899315079,/g4t1,,fail
Status,538,12912797698,/g3t1_3,,running
Status,539,12912851050,/g3t1_2,,running
Status,540,12912899022,/g3t1_2,,success
Status,541,12913045143,/g3t1_3,,success
Status,542,12923192414,/g3t1_1,,running
Status,543,12923295007,/g3t1_1,,success
Status,544,12962713104,/g3t1_2,,running
Status,545,12962801682,/g3t1_3,,running
Status,546,12962870326,/g3t1_2,,success
Status,547,12962892373,/g3t1_3,,success
Status,548,12973725907,/g3t1_1,,running
Status,549,12973856453,/g3t1_1,,success
Status,550,12999902220,/g4t1,,fail
Status,551,13012703663,/g3t1_3,,running
Status,552,13012798427,/g3t1_2,,running
Status,553,13013242392,/g3t1_2,,success
Status,554,13013329602,/g3t1_3,,success
Status,555,13023796171,/g3t1_1,,running
Status,556,13024071964,/g3t1_1,,success
Status,557,13063194210,/g3t1_3,,running
Status,558,13063287916,/g3t1_2,,running
Status,559,13063854315,/g3t1_2,,success
Status,560,13063943121,/g3t1_3,,success
Status,561,13074280801,/g3t1_1,,running
Status,562,13074522535,/g3t1_1,,success
Status,563,13099914016,/g4t1,,fail
Status,564,13112853978,/g3t1_3,,running
Status,565,13112924582,/g3t1_2,,running
Status,566,13113185087,/g3t1_2,,success
Status,567,13113231813,/g3t1_3,,success
Status,568,13123982903,/g3t1_1,,running
Status,569,13124221076,/g3t1_1,,success
Status,570,13163313469,/g3t1_3,,running
Status,571,13163966929,/g3t1_2,,running
Status,572,13164034621,/g3t1_2,,success
Status,573,13164634666,/g3t1_3,,success
Status,574,13174162587,/g3t1_1,,running
Status,575,13174447789,/g3t1_1,,success
Status,576,13199983179,/g4t1,,fail
Status,577,13213497376,/g3t1_3,,running
Status,578,13213615500,/g3t1_2,,running
Status,579,13214167464,/g3t1_3,,success
Status,580,13214279787,/g3t1_2,,success
Status,581,13224511361,/g3t1_1,,running
Status,582,13224829983,/g3t1_1,,success
Status,583,13263116140,/g3t1_3,,running
Status,584,13263152565,/g3t1_2,,running
Status,585,13263188255,/g3t1_2,,success
Status,586,13263332780,/g3t1_3,,success
Status,587,13274636670,/g3t1_1,,running
Status,588,13275100122,/g3t1_1,,success
Status,589,13300612444,/g4t1,,fail
Status,590,13314220094,/g3t1_3,,running
Status,591,13314287886,/g3t1_2,,running
Status,592,13314313194,/g3t1_3,,success
Status,593,13314338960,/g3t1_2,,success
Status,594,13324635942,/g3t1_1,,running
Status,595,13325250896,/g3t1_1,,success
Status,596,13363752498,/g3t1_2,,running
Status,597,13363829182,/g3t1_3,,running
Status,598,13364238897,/g3t1_3,,success
Status,599,13364322649,/g3t1_2,,success
Status,600,13375125917,/g3t1_1,,running
Status,601,13375198222,/g3t1_1,,success
Status,602,13400632512,/g4t1,,fail
Status,603,13414346601,/g3t1_2,,running
Status,604,13414476098,/g3t1_3,,running
Status,605,13414892075,/g3t1_2,,success
Status,606,13414985681,/g3t1_3,,success
Status,607,13424631559,/g3t1_1,,running
Status,608,13424931442,/g3t1_1,,success
Status,609,13464292424,/g3t1_3,,running
Status,610,13464373675,/g3t1_2,,running
Status,611,13464536908,/g3t1_3,,success
Status,612,13464934465,/g3t1_2,,success
Status,613,13475208751,/g3t1_1,,running
Status,614,13476052843,/g3t1_1,,success
Status,615,13500048526,/g4t1,,fail
Status,616,13513685317,/g3t1_3,,running
Status,617,13513761261,/g3t1_2,,running
Status,618,13513793312,/g3t1_3,,success
Status,619,13513810623,/g3t1_2,,success
Status,620,13525098283,/g3t1_1,,running
Status,621,13525844219,/g3t1_1,,success
Status,622,13564964478,/g3t1_2,,running
Status,623,13565052342,/g3t1_2,,success
Status,624,13565129777,/g3t1_3,,running
Status,625,13565154040,/g3t1_3,,success
Status,626,13575256149,/g3t1_1,,running
Status,627,13576043182,/g3t1_1,,success
Status,628,13600921911,/g4t1,,fail
Status,629,13614526915,/g3t1_2,,running
Status,630,13614626001,/g3t1_3,,running
Status,631,13615100825,/g3t1_3,,success
Status,632,13615181182,/g3t1_2,,success
Status,633,13625525394,/g3t1_1,,running
Status,634,13625947826,/g3t1_1,,success
Status,635,13664591918,/g3t1_3,,running
Status,636,13664665015,/g3t1_2,,running
Status,637,13664843047,/g3t1_3,,success
Status,638,13664888238,/g3t1_2,,success
Status,639,13676161865,/g3t1_1,,running
Status,640,13676231089,/g3t1_1,,success
Status,641,13700960990,/g4t1,,fail
Status,642,13714908029,/g3t1_3,,running
Status,643,13715068725,/g3t1_2,,running
Status,644,13715200937,/g3t1_2,,success
Status,645,13715247032,/g3t1_3,,success
Status,646,13726096125,/g3t1_1,,running
Status,647,13726704778,/g3t1_1,,success
Status,648,13764195082,/g3t1_3,,running
Status,649,13764236829,/g3t1_2,,running
Status,650,13764353363,/g3t1_3,,success
Status,651,13764374066,/g3t1_2,,success
Status,652,13775263102,/g3t1_1,,running
Status,653,13775407959,/g3t1_1,,success
Status,654,13801188996,/g4t1,,fail
Status,655,13815037494,/g3t1_3,,running
Status,656,13815148069,/g3t1_2,,running
Status,657,13815421567,/g3t1_2,,success
Status,658,13815792029,/g3t1_3,,success
Status,659,13825877035,/g3t1_1,,running
Status,660,13826295484,/g3t1_1,,success
Status,661,13865377034,/g3t1_3,,running
Status,662,13865499684,/g3t1_2,,running
Status,663,13865544281,/g3t1_3,,success
Status,664,13865602136,/g3t1_2,,success
Status,665,13876159161,/g3t1_1,,running
Status,666,13876244894,/g3t1_1,,success
Status,667,13901258586,/g4t1,,fail
Status,668,13915244628,/g3t1_3,,running
Status,669,13915415129,/g3t1_2,,running
Status,670,13915464232,/g3t1_3,,success
Status,671,13915962776,/g3t1_2,,success
Status,672,13925975577,/g3t1_1,,running
Status,673,13926514866,/g3t1_1,,success
Status,674,13965411357,/g3t1_3,,running
Status,675,13965499375,/g3t1_2,,running
Status,676,13965592620,/g3t1_3,,success
Status,677,13965617545,/g3t1_2,,success
Status,678,13976322304,/g3t1_1,,running
Status,679,13976398372,/g3t1_1,,success
Status,680,14001337537,/g4t1,,fail
Status,681,14015661694,/g3t1_3,,running
Status,682,14015760264,/g3t1_2,,running
Status,683,14016148243,/g3t1_3,,success
Status,684,14016207458,/g3t1_2,,success
Status,685,14026098431,/g3t1_1,,running
Status,686,14026496046,/g3t1_1,,success
Status,687,14065703264,/g3t1_3,,running
Status,688,14065773739,/g3t1_2,,running
Status,689,14066117616,/g3t1_3,,success
Status,690,14066218431,/g3t1_2,,success
Status,691,14076559303,/g3t1_1,,running
Status,692,14076662893,/g3t1_1,,success
Status,693,14101410726,/g4t1,,fail
Status,694,14115920559,/g3t1_2,,running
Status,695,14116035081,/g3t1_3,,running
Status,696,14116417316,/g3t1_3,,success
Status,697,14116490596,/g3t1_2,,success
Status,698,14127001837,/g3t1_1,,running
Status,699,14127100302,/g3t1_1,,success
Status,700,14165616802,/g3t1_2,,running
Status,701,14165671591,/g3t1_3,,running
Status,702,14165743107,/g3t1_3,,success
Status,703,14165777028,/g3t1_2,,success
Status,704,14176069857,/g3t1_1,,running
Status,705,14176338491,/g3t1_1,,success
Status,706,14201596210,/g4t1,,fail
Status,707,14215986727,/g3t1_3,,running
Status,708,14216086874,/g3t1_2,,running
Status,709,14216267072,/g3t1_3,,success
Status,710,14216733884,/g3t1_2,,success
Status,711,14226656633,/g3t1_1,,running
Status,712,14226940064,/g3t1_1,,success
Status,713,14265817570,/g3t1_3,,running
Status,714,14265895643,/g3t1_2,,running
Status,715,14265925047,/g3t1_3,,success
Status,716,14265971738,/g3t1_2,,success
Status,717,14276555983,/g3t1_1,,running
Status,718,14276941016,/g3t1_1,,success
Status,719,14301341563,/g4t1,,fail
Status,720,14315892287,/g3t1_2,,running
Status,721,14315941678,/g3t1_3,,running
Status,722,14315999478,/g3t1_3,,success
Status,723,14316024279,/g3t1_2,,success
Status,724,14326539791,/g3t1_1,,running
Status,725,14326835309,/g3t1_1,,success
Status,726,14366187892,/g3t1_2,,running
Status,727,14366321079,/g3t1_3,,running
Status,728,14366805246,/g3t1_3,,success
Status,729,14366863093,/g3t1_2,,success
Status,730,14376988671,/g3t1_1,,running
Status,731,14377346755,/g3t1_1,,success
Status,732,14401982043,/g4t1,,fail
Status,733,14416229933,/g3t1_2,,running
Status,734,14416314179,/g3t1_3,,running
Status,735,14416551895,/g3t1_3,,success
Status,736,14416872985,/g3t1_2,,success
Status,737,14427257770,/g3t1_1,,running
Status,738,14427661197,/g3t1_1,,success
Status,739,14466397464,/g3t1_2,,running
Status,740,14466519331,/g3t1_3,,running
Status,741,14467029814,/g3t1_2,,success
Status,742,14467753146,/g3t1_3,,success
Status,743,14477343339,/g3t1_1,,running
Status,744,14477588514,/g3t1_1,,success
Status,745,14501930493,/g4t1,,fail
Status,746,14516415961,/g3t1_2,,running
Status,747,14516487133,/g3t1_3,,running
Status,748,14516870708,/g3t1_2,,success
Status,749,14517186583,/g3t1_3,,success
Status,750,14527407040,/g3t1_1,,running
Status,751,14527682756,/g3t1_1,,success
Status,752,14567255890,/g3t1_3,,running
Status,753,14567322902,/g3t1_3,,success
Status,754,14567444371,/g3t1_2,,running
Status,755,14567478432,/g3t1_2,,success
Status,756,14577775353,/g3t1_1,,running
Status,757,14577864967,/g3t1_1,,success
Status,758,14601982657,/g4t1,,fail
Status,759,14617125959,/g3t1_3,,running
Status,760,14617182412,/g3t1_2,,running
Status,761,14617208343,/g3t1_3,,success
Status,762,14617254792,/g3t1_2,,success
Status,763,14627709694,/g3t1_1,,running
Status,764,14628147160,/g3t1_1,,success
Status,765,14667064623,/g3t1_3,,running
Status,766,14667158499,/g3t1_2,,running
Status,767,14667534654,/g3t1_3,,success
Status,768,14667664215,/g3t1_2,,success
Status,769,14678070260,/g3t1_1,,running
Status,770,14678165001,/g3t1_1,,success
Status,771,14702184707,/g4t1,,fail
Status,772,14717519452,/g3t1_3,,running
Status,773,14717597482,/g3t1_2,,running
Status,774,14717754834,/g3t1_3,,success
Status,775,14717880258,/g3t1_2,,success
Status,776,14727876743,/g3t1_1,,running
Status,777,14728194202,/g3t1_1,,success
Status,778,14767496340,/g3t1_2,,running
Status,779,14767592170,/g3t1_3,,running
Status,780,14767692828,/g3t1_3,,success
Status,781,14767956710,/g3t1_2,,success
Status,782,14777930506,/g3t1_1,,running
Status,783,14778343896,/g3t1_1,,success
Status,784,14802484051,/g4t1,,fail
Status,785,14817614674,/g3t1_2,,running
Status,786,14817756718,/g3t1_3,,running
Status,787,14818216478,/g3t1_2,,success
Status,788,14818323842,/g3t1_3,,success
Status,789,14828145356,/g3t1_1,,running
Status,790,14828431984,/g3t1_1,,success
Status,791,14868271412,/g3t1_2,,running
Status,792,14868346382,/g3t1_3,,running
Status,793,14868468122,/g3t1_3,,success
Status,794,14868510113,/g3t1_2,,success
Status,795,14878269646,/g3t1_1,,running
Status,796,14878679235,/g3t1_1,,success
Status,797,14901726076,/g4t1,,fail
Status,798,14917127920,/g3t1_2,,running
Status,799,14917155982,/g3t1_3,,running
Status,800,14917227176,/g3t1_2,,success
Status,801,14917238899,/g3t1_3,,success
Status,802,14927882737,/g3t1_1,,running
Status,803,14927907130,/g3t1_1,,success
Status,804,14967259937,/g3t1_2,,running
Status,805,14967284468,/g3t1_3,,running
Status,806,14967292520,/g3t1_2,,success
Status,807,14967300417,/g3t1_3,,success
Status,808,14977931917,/g3t1_1,,running
Status,809,14978063622,/g3t1_1,,success
Status,810,15002442146,/g4t1,,fail
Status,811,15017933473,/g3t1_3,,running
Status,812,15018072550,/g3t1_2,,running
Status,813,15018119956,/g3t1_3,,success
Status,814,15018529533,/g3t1_2,,success
Status,815,15028462431,/g3t1_1,,running
Status,816,15028845084,/g3t1_1,,success
Status,817,15068042013,/g3t1_3,,running
Status,818,15068109171,/g3t1_2,,running
Status,819,15068135133,/g3t1_2,,success
Status,820,15068186347,/g3t1_3,,success
Status,821,15079078515,/g3t1_1,,running
Status,822,15079738515,/g3t1_1,,success
Status,823,15102543891,/g4t1,,fail
Status,824,15118177614,/g3t1_2,,running
Status,825,15118273837,/g3t1_3,,running
Status,826,15118416115,/g3t1_3,,success
Status,827,15119196988,/g3t1_2,,success
Status,828,15128970172,/g3t1_1,,running
Status,829,15129317440,/g3t1_1,,success
Status,830,15167988056,/g3t1_2,,running
Status,831,15168093063,/g3t1_3,,running
Status,832,15168482318,/g3t1_2,,success
Status,833,15168562790,/g3t1_3,,success
Status,834,15179529907,/g3t1_1,,running
Status,835,15179830256,/g3t1_1,,success
Status,836,15202885843,/g4t1,,fail
Status,837,15218613266,/g3t1_3,,running
Status,838,15218714264,/g3t1_2,,running
Status,839,15218949715,/g3t1_2,,success
Status,840,15219404788,/g3t1_3,,success
Status,841,15229118853,/g3t1_1,,running
Status,842,15229471779,/g3t1_1,,success
Status,843,15268737565,/g3t1_2,,running
Status,844,15268819209,/g3t1_3,,running
Status,845,15268910765,/g3t1_3,,success
Status,846,15268945857,/g3t1_2,,success
Status,847,15279414521,/g3t1_1,,running
Status,848,15279752112,/g3t1_1,,success
Status,849,15302676724,/g4t1,,fail
Status,850,15319087335,/g3t1_2,,running
Status,851,15319173503,/g3t1_3,,running
Status,852,15319198171,/g3t1_3,,success
Status,853,15319222313,/g3t1_2,,success
Status,854,15329550712,/g3t1_1,,running
Status,855,15329699613,/g3t1_1,,success
Status,856,15368622803,/g3t1_3,,running
Status,857,15368722717,/g3t1_2,,running
Status,858,15369166213,/g3t1_3,,success
Status,859,15369560321,/g3t1_2,,success
Status,860,15379777336,/g3t1_1,,running
Status,861,15380238574,/g3t1_1,,success
Status,862,15403007375,/g4t1,,fail
Status,863,15419024877,/g3t1_2,,running
Status,864,15419122179,/g3t1_3,,running
Status,865,15419242273,/g3t1_3,,success
Status,866,15419589478,/g3t1_2,,success
Status,867,15429856415,/g3t1_1,,running
Status,868,15430293708,/g3t1_1,,success
Status,869,15469071379,/g3t1_3,,running
Status,870,15469137123,/g3t1_2,,running
Status,871,15469399734,/g3t1_3,,success
Status,872,15469449645,/g3t1_2,,success
Status,873,15479673960,/g3t1_1,,running
Status,874,15480279975,/g3t1_1,,success
Status,875,15502994703,/g4t1,,fail
Status,876,15519519645,/g3t1_3,,running
Status,877,15519607255,/g3t1_2,,running
Status,878,15519640805,/g3t1_3,,success
Status,879,15519665290,/g3t1_2,,success
Status,880,15530024950,/g3t1_1,,running
Status,881,15530319944,/g3t1_1,,success
Status,882,15569281234,/g3t1_3,,running
Status,883,15569360049,/g3t1_2,,running
Status,884,15569745335,/g3t1_2,,success
Status,885,15570506806,/g3t1_3,,success
Status,886,15580028222,/g3t1_1,,running
Status,887,15580888851,/g3t1_1,,success
Status,888,15602954792,/g4t1,,fail
Status,889,15619662080,/g3t1_3,,running
Status,890,15619791124,/g3t1_2,,running
Status,891,15619932491,/g3t1_3,,success
Status,892,15620545693,/g3t1_2,,success
Status,893,15630413319,/g3t1_1,,running
Status,894,15630671061,/g3t1_1,,success
Status,895,15669766164,/g3t1_3,,running
Status,896,15669823930,/g3t1_2,,running
Status,897,15669998867,/g3t1_2,,success
Status,898,15670030343,/g3t1_3,,success
Status,899,15680378307,/g3t1_1,,running
Status,900,15680574592,/g3t1_1,,success
Status,901,15703015326,/g4t1,,fail
Status,902,15719699690,/g3t1_3,,running
Status,903,15719816266,/g3t1_2,,running
Status,904,15719832405,/g3t1_2,,success
Status,905,15719853094,/g3t1_3,,success
Status,906,15729948212,/g3t1_1,,running
Status,907,15730061428,/g3t1_1,,success
Status,908,15769676724,/g3t1_3,,running
Status,909,15769788415,/g3t1_2,,running
Status,910,15769825444,/g3t1_2,,success
Status,911,15770207228,/g3t1_3,,success
Status,912,15780036000,/g3t1_1,,running
Status,913,15780361581,/g3t1_1,,success
Status,914,15802992383,/g4t1,,fail
Status,915,15820030737,/g3t1_3,,running
Status,916,15820102959,/g3t1_2,,running
Status,917,15820618998,/g3t1_3,,success
Status,918,15820720540,/g3t1_2,,success
Status,919,15830456532,/g3t1_1,,running
Status,920,15831107315,/g3t1_1,,success
Status,921,15870713806,/g3t1_3,,running
Status,922,15870902865,/g3t1_2,,running
Status,923,15870933296,/g3t1_2,,success
Status,924,15871082986,/g3t1_3,,success
Status,925,15880878624,/g3t1_1,,running
Status,926,15881047511,/g3t1_1,,success
Status,927,15903865910,/g4t1,,fail
Status,928,15920722715,/g3t1_3,,running
Status,929,15920871665,/g3t1_2,,running
Status,930,15920918094,/g3t1_2,,success
Status,931,15920956463,/g3t1_3,,success
Status,932,15930927155,/g3t1_1,,running
Status,933,15931337327,/g3t1_1,,success
Status,934,15970749944,/g3t1_3,,running
Status,935,15970951594,/g3t1_2,,running
Status,936,15971049816,/g3t1_3,,success
Status,937,15971562900,/g3t1_2,,success
Status,938,15981033711,/g3t1_1,,running
Status,939,15981462061,/g3t1_1,,success
Status,940,16003864480,/g4t1,,fail
Status,941,16021193943,/g3t1_2,,running
Status,942,16021268453,/g3t1_3,,running
Status,943,16021303723,/g3t1_3,,success
Status,944,16021480824,/g3t1_2,,success
Status,945,16031098855,/g3t1_1,,running
Status,946,16031156871,/g3t1_1,,success
Status,947,16071017047,/g3t1_2,,running
Status,948,16071114424,/g3t1_3,,running
Status,949,16071520656,/g3t1_2,,success
Status,950,16071599266,/g3t1_3,,success
Status,951,16081340293,/g3t1_1,,running
Status,952,16081782537,/g3t1_1,,success
Status,953,16103882164,/g4t1,,fail
Status,954,16121321626,/g3t1_3,,running
Status,955,16121390443,/g3t1_2,,running
Status,956,16121414515,/g3t1_3,,success
Status,957,16121437391,/g3t1_2,,success
Status,958,16131547803,/g3t1_1,,running
Status,959,16131901991,/g3t1_1,,success
Status,960,16171589472,/g3t1_3,,running
Status,961,16171903409,/g3t1_2,,running
Status,962,16172026747,/g3t1_2,,success
Status,963,16172370879,/g3t1_3,,success
Status,964,16181594665,/g3t1_1,,running
Status,965,16181683829,/g3t1_1,,success
Status,966,16203783029,/g4t1,,fail
Status,967,16220692207,/g3t1_2,,running
Status,968,16220764403,/g3t1_3,,running
Status,969,16221014319,/g3t1_3,,success
Status,970,16221062099,/g3t1_2,,success
Status,971,16231686678,/g3t1_1,,running
Status,972,16231944651,/g3t1_1,,success
Status,973,16271352779,/g3t1_3,,running
Status,974,16271451691,/g3t1_2,,running
Status,975,16271861982,/g3t1_3,,success
Status,976,16271947315,/g3t1_2,,success
Status,977,16281888956,/g3t1_1,,running
Status,978,16282405248,/g3t1_1,,success
Status,979,16304312722,/g4t1,,fail
Status,980,16321362728,/g3t1_3,,running
Status,981,16321446052,/g3t1_2,,running
Status,982,16321470651,/g3t1_3,,success
Status,983,16321844918,/g3t1_2,,success
Status,984,16331923452,/g3t1_1,,running
Status,985,16332270465,/g3t1_1,,success
Status,986,16371908598,/g3t1_2,,running
Status,987,16372040507,/g3t1_3,,running
Status,988,16372091228,/g3t1_3,,success
Status,989,16372125709,/g3t1_2,,success
Status,990,16382243796,/g3t1_1,,running
Status,991,16382738266,/g3t1_1,,success
Status,992,16404698704,/g4t1,,fail
Status,993,16421869798,/g3t1_3,,running
Status,994,16421972240,/g3t1_2,,running
Status,995,16422020714,/g3t1_3,,success
Status,996,16422485480,/g3t1_2,,success
Status,997,16432486411,/g3t1_1,,running
Status,998,16432553350,/g3t1_1,,success
Status,999,16471900982,/g3t1_2,,running
Status,1000,16472020532,/g3t1_3,,running
Status,1001,16472530122,/g3t1_3,,success
Status,1002,16472580707,/g3t1_2,,success
Status,1003,16482528993,/g3t1_1,,running
Status,1004,16483058103,/g3t1_1,,success
Status,1005,16504538274,/g4t1,,fail
Status,1006,16521890066,/g3t1_3,,running
Status,1007,16522400063,/g3t1_2,,running
Status,1008,16522452176,/g3t1_2,,success
Status,1009,16522478639,/g3t1_3,,success
Status,1010,16532594482,/g3t1_1,,running
Status,1011,16533060453,/g3t1_1,,success
Status,1012,16572852849,/g3t1_3,,running
Status,1013,16572926084,/g3t1_2,,running
Status,1014,16573002770,/g3t1_3,,success
Status,1015,16573031844,/g3t1_2,,success
Status,1016,16582932483,/g3t1_1,,running
Status,1017,16583332064,/g3t1_1,,success
Status,1018,16604806258,/g4t1,,fail
Status,1019,16622396005,/g3t1_3,,running
Status,1020,16622483757,/g3t1_2,,running
Status,1021,16622926202,/g3t1_3,,success
Status,1022,16623015388,/g3t1_2,,success
Status,1023,16632833749,/g3t1_1,,running
Status,1024,16633251355,/g3t1_1,,success
Status,1025,16672336311,/g3t1_3,,running
Status,1026,16672424231,/g3t1_2,,running
Status,1027,16672866995,/g3t1_2,,success
Status,1028,16672974206,/g3t1_3,,success
Status,1029,16683049695,/g3t1_1,,running
Status,1030,16683580132,/g3t1_1,,success
Status,1031,16704690393,/g4t1,,fail
Status,1032,16722051709,/g3t1_3,,running
Status,1033,16722141525,/g3t1_2,,running
Status,1034,16722439022,/g3t1_3,,success
Status,1035,16722527348,/g3t1_2,,success
Status,1036,16733159766,/g3t1_1,,running
Status,1037,16733548723,/g3t1_1,,success
Status,1038,16771903536,/g3t1_2,,running
Status,1039,16771944663,/g3t1_3,,running
Status,1040,16772015034,/g3t1_2,,success
Status,1041,16772198158,/g3t1_3,,success
Status,1042,16783271578,/g3t1_1,,running
Status,1043,16783437680,/g3t1_1,,success
Status,1044,16804693823,/g4t1,,fail
Status,1045,16822290491,/g3t1_3,,running
Status,1046,16822356819,/g3t1_2,,running
Status,1047,16822706045,/g3t1_2,,success
Status,1048,16822747904,/g3t1_3,,success
Status,1049,16833318425,/g3t1_1,,running
Status,1050,16834003546,/g3t1_1,,success
Status,1051,16872949609,/g3t1_3,,running
Status,1052,16873102227,/g3t1_2,,running
Status,1053,16873336701,/g3t1_2,,success
Status,1054,16873388860,/g3t1_3,,success
Status,1055,16883482896,/g3t1_1,,running
Status,1056,16883987368,/g3t1_1,,success
Status,1057,16904936194,/g4t1,,fail
Status,1058,16923271607,/g3t1_2,,running
Status,1059,16923357173,/g3t1_3,,running
Status,1060,16923719490,/g3t1_2,,success
Status,1061,16923794230,/g3t1_3,,success
Status,1062,16933793925,/g3t1_1,,running
Status,1063,16934163844,/g3t1_1,,success
Status,1064,16973370160,/g3t1_2,,running
Status,1065,16973465638,/g3t1_3,,running
Status,1066,16973938371,/g3t1_3,,success
Status,1067,16974047958,/g3t1_2,,success
Status,1068,16983889361,/g3t1_1,,running
Status,1069,16983946747,/g3t1_1,,success
Status,1070,17005059603,/g4t1,,fail
Status,1071,17023701753,/g3t1_2,,running
Status,1072,17023768380,/g3t1_3,,running
Status,1073,17023806434,/g3t1_3,,success
Status,1074,17024101519,/g3t1_2,,success
Status,1075,17034041101,/g3t1_1,,running
Status,1076,17034154021,/g3t1_1,,success
Status,1077,17073779980,/g3t1_3,,running
Status,1078,17073851717,/g3t1_2,,running
Status,1079,17073875274,/g3t1_3,,success
Status,1080,17074091041,/g3t1_2,,success
Status,1081,17084063972,/g3t1_1,,running
Status,1082,17084448751,/g3t1_1,,success
Status,1083,17105147656,/g4t1,,fail
Status,1084,17123789923,/g3t1_2,,running
Status,1085,17124079964,/g3t1_3,,running
Status,1086,17124131017,/g3t1_3,,success
Status,1087,17124482962,/g3t1_2,,success
Status,1088,17134395539,/g3t1_1,,running
Status,1089,17134672008,/g3t1_1,,success
Status,1090,17174389758,/g3t1_2,,running
Status,1091,17174456847,/g3t1_3,,running
Status,1092,17174484503,/g3t1_2,,success
Status,1093,17174622203,/g3t1_3,,success
Status,1094,17184161144,/g3t1_1,,running
Status,1095,17184627456,/g3t1_1,,success
Status,1096,17205624207,/g4t1,,fail
Status,1097,17224089126,/g3t1_2,,running
Status,1098,17224598086,/g3t1_2,,success
Status,1099,17224644774,/g3t1_3,,running
Status,1100,17224754662,/g3t1_3,,success
Status,1101,17233968796,/g3t1_1,,running
Status,1102,17234378621,/g3t1_1,,success
Status,1103,17273506188,/g3t1_3,,running
Status,1104,17273530364,/g3t1_2,,running
Status,1105,17273587667,/g3t1_2,,success
Status,1106,17273660513,/g3t1_3,,success
Status,1107,17284069817,/g3t1_1,,running
Status,1108,17284101371,/g3t1_1,,success
Status,1109,17304833724,/g4t1,,fail
Status,1110,17323521699,/g3t1_3,,running
Status,1111,17323551210,/g3t1_2,,running
Status,1112,17323567128,/g3t1_3,,success
Status,1113,17323669461,/g3t1_2,,success
Status,1114,17334090269,/g3t1_1,,running
Status,1115,17334189328,/g3t1_1,,success
Status,1116,17374626470,/g3t1_2,,running
Status,1117,17374700062,/g3t1_3,,running
Status,1118,17374899338,/g3t1_2,,success
Status,1119,17374950043,/g3t1_3,,success
Status,1120,17384883548,/g3t1_1,,running
Status,1121,17385354083,/g3t1_1,,success
Status,1122,17405482987,/g4t1,,fail
Status,1123,17424482186,/g3t1_2,,running
Status,1124,17424574098,/g3t1_3,,running
Status,1125,17425111077,/g3t1_2,,success
Status,1126,17425180526,/g3t1_3,,success
Status,1127,17434941357,/g3t1_1,,running
Status,1128,17435423263,/g3t1_1,,success
Status,1129,17474952996,/g3t1_2,,running
Status,1130,17475080819,/g3t1_3,,running
Status,1131,17475108619,/g3t1_3,,success
Status,1132,17475401902,/g3t1_2,,success
Status,1133,17485317665,/g3t1_1,,running
Status,1134,17486071286,/g3t1_1,,success
Status,1135,17505731981,/g4t1,,fail
Status,1136,17524632799,/g3t1_2,,running
Status,1137,17524731726,/g3t1_3,,running
Status,1138,17525194001,/g3t1_3,,success
Status,1139,17525343798,/g3t1_2,,success
Status,1140,17535094186,/g3t1_1,,running
Status,1141,17535460623,/g3t1_1,,success
Status,1142,17574650426,/g3t1_2,,running
Status,1143,17574831700,/g3t1_3,,running
Status,1144,17575023775,/g3t1_3,,success
Status,1145,17575058410,/g3t1_2,,success
Status,1146,17585665858,/g3t1_1,,running
Status,1147,17585724529,/g3t1_1,,success
Status,1148,17605865754,/g4t1,,fail
Status,1149,17625377962,/g3t1_2,,running
Status,1150,17625533045,/g3t1_3,,running
Status,1151,17625579740,/g3t1_2,,success
Status,1152,17625616135,/g3t1_3,,success
Status,1153,17635539618,/g3t1_1,,running
Status,1154,17635937689,/g3t1_1,,success
Status,1155,17675251289,/g3t1_2,,running
Status,1156,17675338040,/g3t1_3,,running
Status,1157,17675719070,/g3t1_2,,success
Status,1158,17675828641,/g3t1_3,,success
Status,1159,17685874938,/g3t1_1,,running
Status,1160,17686267290,/g3t1_1,,success
Status,1161,17705974142,/g4t1,,fail
Status,1162,17725246270,/g3t1_2,,running
Status,1163,17725387803,/g3t1_3,,running
Status,1164,17725427757,/g3t1_2,,success
Status,1165,17725746693,/g3t1_3,,success
Status,1166,17735841055,/g3t1_1,,running
Status,1167,17736307789,/g3t1_1,,success
Status,1168,17775680270,/g3t1_2,,running
Status,1169,17775784605,/g3t1_3,,running
Status,1170,17776054888,/g3t1_2,,success
Status,1171,17776809421,/g3t1_3,,success
Status,1172,17786024503,/g3t1_1,,running
Status,1173,17786462461,/g3t1_1,,success
Status,1174,17805672386,/g4t1,,fail
Status,1175,17825012000,/g3t1_2,,running
Status,1176,17825111557,/g3t1_3,,running
Status,1177,17825654289,/g3t1_2,,success
Status,1178,17825729851,/g3t1_3,,success
Status,1179,17836026828,/g3t1_1,,running
Status,1180,17836256884,/g3t1_1,,success
Status,1181,17875279540,/g3t1_2,,running
Status,1182,17875358740,/g3t1_3,,running
Status,1183,17875799405,/g3t1_2,,success
Status,1184,17876147668,/g3t1_3,,success
Status,1185,17886232722,/g3t1_1,,running
Status,1186,17886288741,/g3t1_1,,success
Status,1187,17905883603,/g4t1,,fail
Status,1188,17925172883,/g3t1_2,,running
Status,1189,17925276335,/g3t1_3,,running
Status,1190,17925599149,/g3t1_2,,success
Status,1191,17925684995,/g3t1_3,,success
Status,1192,17936490447,/g3t1_1,,running
Status,1193,17936554282,/g3t1_1,,success
Status,1194,17975939572,/g3t1_2,,running
Status,1195,17976052567,/g3t1_3,,running
Status,1196,17976290887,/g3t1_2,,success
Status,1197,17976619009,/g3t1_3,,success
Status,1198,17986500115,/g3t1_1,,running
Status,1199,17986919908,/g3t1_1,,success
Status,1200,18006371208,/g4t1,,fail
Status,1201,18025698423,/g3t1_2,,running
Status,1202,18025789789,/g3t1_3,,running
Status,1203,18026218114,/g3t1_3,,success
Status,1204,18026374874,/g3t1_2,,success
Status,1205,18036608919,/g3t1_1,,running
Status,1206,18037056807,/g3t1_1,,success
Status,1207,18076180073,/g3t1_2,,running
Status,1208,18076276042,/g3t1_3,,running
Status,1209,18076574853,/g3t1_3,,success
Status,1210,18076628514,/g3t1_2,,success
Status,1211,18086826648,/g3t1_1,,running
Status,1212,18087434963,/g3t1_1,,success
Status,1213,18106522845,/g4t1,,fail
Status,1214,18125861299,/g3t1_2,,running
Status,1215,18126230549,/g3t1_3,,running
Status,1216,18126283944,/g3t1_2,,success
Status,1217,18126326205,/g3t1_3,,success
Status,1218,18136965928,/g3t1_1,,running
Status,1219,18137535228,/g3t1_1,,success
Status,1220,18176167430,/g3t1_2,,running
Status,1221,18176277937,/g3t1_3,,running
Status,1222,18176529647,/g3t1_2,,success
Status,1223,18176581178,/g3t1_3,,success
Status,1224,18186925300,/g3t1_1,,running
Status,1225,18187387115,/g3t1_1,,success
Status,1226,18206719681,/g4t1,,fail
Status,1227,18226298729,/g3t1_2,,running
Status,1228,18226731646,/g3t1_2,,success
Status,1229,18226992393,/g3t1_3,,running
Status,1230,18227061909,/g3t1_3,,success
Status,1231,18237173361,/g3t1_1,,running
Status,1232,18237255553,/g3t1_1,,success
Status,1233,18276283438,/g3t1_2,,running
Status,1234,18276429461,/g3t1_3,,running
Status,1235,18276957788,/g3t1_2,,success
Status,1236,18277034118,/g3t1_3,,success
Status,1237,18287734075,/g3t1_1,,running
Status,1238,18288516754,/g3t1_1,,success
Status,1239,18306855440,/g4t1,,fail
Status,1240,18326990246,/g3t1_2,,running
Status,1241,18327093948,/g3t1_2,,success
Status,1242,18327446353,/g3t1_3,,running
Status,1243,18327651030,/g3t1_3,,success
Status,1244,18337474767,/g3t1_1,,running
Status,1245,18337872527,/g3t1_1,,success
Status,1246,18376213112,/g3t1_2,,running
Status,1247,18376999314,/g3t1_2,,success
Status,1248,18377073777,/g3t1_3,,running
Status,1249,18377125240,/g3t1_3,,success
Status,1250,18387518852,/g3t1_1,,running
Status,1251,18388097680,/g3t1_1,,success
Status,1252,18407024857,/g4t1,,fail
Status,1253,18426446849,/g3t1_2,,running
Status,1254,18426584098,/g3t1_3,,running
Status,1255,18426621761,/g3t1_2,,success
Status,1256,18427220879,/g3t1_3,,success
Status,1257,18437765289,/g3t1_1,,running
Status,1258,18438035001,/g3t1_1,,success
Status,1259,18476913581,/g3t1_2,,running
Status,1260,18477006453,/g3t1_3,,running
Status,1261,18477369779,/g3t1_2,,success
Status,1262,18477424157,/g3t1_3,,success
Status,1263,18487788205,/g3t1_1,,running
Status,1264,18488284093,/g3t1_1,,success
Status,1265,18507374964,/g4t1,,fail
Status,1266,18526533040,/g3t1_2,,running
Status,1267,18526922572,/g3t1_3,,running
Status,1268,18527017059,/g3t1_2,,success
Status,1269,18527292284,/g3t1_3,,success
Status,1270,18538084827,/g3t1_1,,running
Status,1271,18538367681,/g3t1_1,,success
Status,1272,18577259953,/g3t1_2,,running
Status,1273,18577347563,/g3t1_3,,running
Status,1274,18577380432,/g3t1_2,,success
Status,1275,18577753787,/g3t1_3,,success
Status,1276,18588131742,/g3t1_1,,running
Status,1277,18588379135,/g3t1_1,,success
Status,1278,18607411559,/g4t1,,fail
Status,1279,18627261849,/g3t1_2,,running
Status,1280,18627620840,/g3t1_3,,running
Status,1281,18627682243,/g3t1_2,,success
Status,1282,18627723765,/g3t1_3,,success
Status,1283,18638565171,/g3t1_1,,running
Status,1284,18638652334,/g3t1_1,,success
Status,1285,18677338703,/g3t1_2,,running
Status,1286,18677433169,/g3t1_3,,running
Status,1287,18677869450,/g3t1_2,,success
Status,1288,18677934030,/g3t1_3,,success
Status,1289,18688274789,/g3t1_1,,running
Status,1290,18688760707,/g3t1_1,,success
Status,1291,18707595126,/g4t1,,fail
Status,1292,18727517973,/g3t1_2,,running
Status,1293,18727603847,/g3t1_3,,running
Status,1294,18727869524,/g3t1_3,,success
Status,1295,18727920655,/g3t1_2,,success
Status,1296,18739012868,/g3t1_1,,running
Status,1297,18739101065,/g3t1_1,,success
Status,1298,18776634372,/g3t1_2,,running
Status,1299,18776856413,/g3t1_3,,running
Status,1300,18776951569,/g3t1_2,,success
Status,1301,18777059707,/g3t1_3,,success
Status,1302,18788062795,/g3t1_1,,running
Status,1303,18788179920,/g3t1_1,,success
Status,1304,18806934456,/g4t1,,fail
Status,1305,18827249443,/g3t1_2,,running
Status,1306,18827303059,/g3t1_3,,running
Status,1307,18827356256,/g3t1_3,,success
Status,1308,18827520120,/g3t1_2,,success
Status,1309,18838634874,/g3t1_1,,running
Status,1310,18839032504,/g3t1_1,,success
Status,1311,18877628739,/g3t1_2,,running
Status,1312,18877715573,/g3t1_3,,running
Status,1313,18878066802,/g3t1_3,,success
Status,1314,18878125146,/g3t1_2,,success
Status,1315,18888951886,/g3t1_1,,running
Status,1316,18889335108,/g3t1_1,,success
Status,1317,18907999633,/g4t1,,fail
Status,1318,18927968123,/g3t1_2,,running
Status,1319,18928099874,/g3t1_3,,running
Status,1320,18928570454,/g3t1_2,,success
Status,1321,18928648096,/g3t1_3,,success
Status,1322,18939173807,/g3t1_1,,running
Status,1323,18939611753,/g3t1_1,,success
Status,1324,18977785955,/g3t1_2,,running
Status,1325,18977889243,/g3t1_3,,running
Status,1326,18978432745,/g3t1_2,,success
Status,1327,18978522408,/g3t1_3,,success
Status,1328,18989026796,/g3t1_1,,running
Status,1329,18989430319,/g3t1_1,,success
Status,1330,19008039037,/g4t1,,fail
Status,1331,19028095696,/g3t1_2,,running
Status,1332,19028339327,/g3t1_3,,running
Status,1333,19028385792,/g3t1_2,,success
Status,1334,19028732741,/g3t1_3,,success
Status,1335,19039261907,/g3t1_1,,running
Status,1336,19039839059,/g3t1_1,,success
Status,1337,19078406021,/g3t1_2,,running
Status,1338,19078485751,/g3t1_3,,running
Status,1339,19078680756,/g3t1_2,,success
Status,1340,19078889398,/g3t1_3,,success
Status,1341,19089591351,/g3t1_1,,running
Status,1342,19089661879,/g3t1_1,,success
Status,1343,19108072579,/g4t1,,fail
Status,1344,19128687121,/g3t1_2,,running
Status,1345,19128756653,/g3t1_3,,running
Status,1346,19128781408,/g3t1_2,,success
Status,1347,19128804196,/g3t1_3,,success
Status,1348,19139640105,/g3t1_1,,running
Status,1349,19139999767,/g3t1_1,,success
Status,1350,19178637166,/g3t1_2,,running
Status,1351,19178715106,/g3t1_2,,success
Status,1352,19178849984,/g3t1_3,,running
Status,1353,19179146095,/g3t1_3,,success
Status,1354,19189662162,/g3t1_1,,running
Status,1355,19189995666,/g3t1_1,,success
Status,1356,19208152854,/g4t1,,fail
Status,1357,19228264922,/g3t1_2,,running
Status,1358,19228735268,/g3t1_2,,success
Status,1359,19229139677,/g3t1_3,,running
Status,1360,19229228341,/g3t1_3,,success
Status,1361,19239953911,/g3t1_1,,running
Status,1362,19240370014,/g3t1_1,,success
Status,1363,19277993149,/g3t1_2,,running
Status,1364,19278130916,/g3t1_3,,running
Status,1365,19278153502,/g3t1_3,,success
Status,1366,19278315146,/g3t1_2,,success
Status,1367,19289314089,/g3t1_1,,running
Status,1368,19289371525,/g3t1_1,,success
Status,1369,19307586290,/g4t1,,fail
Status,1370,19328315022,/g3t1_3,,running
Status,1371,19328335743,/g3t1_2,,running
Status,1372,19328437023,/g3t1_2,,success
Status,1373,19328453466,/g3t1_3,,success
Status,1374,19339483569,/g3t1_1,,running
Status,1375,19339599190,/g3t1_1,,success
Status,1376,19378463426,/g3t1_2,,running
Status,1377,19378498042,/g3t1_3,,running
Status,1378,19378508747,/g3t1_2,,success
Status,1379,19378519371,/g3t1_3,,success
Status,1380,19389844252,/g3t1_1,,running
Status,1381,19389881194,/g3t1_1,,success
Status,1382,19408194617,/g4t1,,fail
Status,1383,19428801523,/g3t1_3,,running
Status,1384,19428851968,/g3t1_2,,running
Status,1385,19428944797,/g3t1_3,,success
Status,1386,19429157472,/g3t1_2,,success
Status,1387,19439980119,/g3t1_1,,running
Status,1388,19440175145,/g3t1_1,,success
Status,1389,19479044777,/g3t1_2,,running
Status,1390,19479112629,/g3t1_3,,running
Status,1391,19479474018,/g3t1_2,,success
Status,1392,19479589287,/g3t1_3,,success
Status,1393,19490909166,/g3t1_1,,running
Status,1394,19491004343,/g3t1_1,,success
Status,1395,19508710857,/g4t1,,fail
Status,1396,19529072713,/g3t1_3,,running
Status,1397,19529110734,/g3t1_2,,running
Status,1398,19529124788,/g3t1_3,,success
Status,1399,19529138183,/g3t1_2,,success
Status,1400,19540166420,/g3t1_1,,running
Status,1401,19540569071,/g3t1_1,,success
Status,1402,19579199639,/g3t1_2,,running
Status,1403,19579351781,/g3t1_3,,running
Status,1404,19579775599,/g3t1_2,,success
Status,1405,19579839662,/g3t1_3,,success
Status,1406,19590399801,/g3t1_1,,running
Status,1407,19590963475,/g3t1_1,,success
Status,1408,19608239995,/g4t1,,fail
Status,1409,19628959214,/g3t1_2,,running
Status,1410,19629011639,/g3t1_3,,running
Status,1411,19629235585,/g3t1_2,,success
Status,1412,19629276908,/g3t1_3,,success
Status,1413,19640358373,/g3t1_1,,running
Status,1414,19640669756,/g3t1_1,,success
Status,1415,19678833209,/g3t1_2,,running
Status,1416,19678921192,/g3t1_3,,running
Status,1417,19679007345,/g3t1_2,,success
Status,1418,19679030793,/g3t1_3,,success
Status,1419,19690577083,/g3t1_1,,running
Status,1420,19690618606,/g3t1_1,,success
Status,1421,19708109840,/g4t1,,fail
Status,1422,19729268555,/g3t1_3,,running
Status,1423,19729357671,/g3t1_2,,running
Status,1424,19729398888,/g3t1_2,,success
Status,1425,19729849775,/g3t1_3,,success
Status,1426,19740490269,/g3t1_1,,running
Status,1427,19740516667,/g3t1_1,,success
Status,1428,19779101637,/g3t1_2,,running
Status,1429,19779145037,/g3t1_3,,running
Status,1430,19779175384,/g3t1_2,,success
Status,1431,19779285652,/g3t1_3,,success
Status,1432,19790542978,/g3t1_1,,running
Status,1433,19790646502,/g3t1_1,,success
Status,1434,19808109434,/g4t1,,fail
Status,1435,19829327439,/g3t1_2,,running
Status,1436,19829365925,/g3t1_3,,running
Status,1437,19829386732,/g3t1_2,,success
Status,1438,19829580587,/g3t1_3,,success
Status,1439,19840955104,/g3t1_1,,running
Status,1440,19841481709,/g3t1_1,,success
Status,1441,19879886693,/g3t1_2,,running
Status,1442,19879959902,/g3t1_3,,running
Status,1443,19880379641,/g3t1_3,,success
Status,1444,19880459304,/g3t1_2,,success
Status,1445,19891081290,/g3t1_1,,running
Status,1446,19891885390,/g3t1_1,,success
Status,1447,19908872729,/g4t1,,fail
Status,1448,19930036124,/g3t1_2,,running
Status,1449,19930217562,/g3t1_3,,running
Status,1450,19930256735,/g3t1_2,,success
Status,1451,19930943881,/g3t1_3,,success
Status,1452,19941335911,/g3t1_1,,running
Status,1453,19941607262,/g3t1_1,,success
Status,1454,19979982675,/g3t1_2,,running
Status,1455,19980076232,/g3t1_3,,running
Status,1456,19980503843,/g3t1_2,,success
Status,1457,19980608838,/g3t1_3,,success
Status,1458,19991602580,/g3t1_1,,running
Status,1459,19991684777,/g3t1_1,,success
Status,1460,20009202312,/g4t1,,fail
Status,1461,20030028825,/g3t1_2,,running
Status,1462,20030100980,/g3t1_3,,running
Status,1463,20030227185,/g3t1_3,,success
Status,1464,20030269335,/g3t1_2,,success
Status,1465,20041787113,/g3t1_1,,running
Status,1466,20042171851,/g3t1_1,,success
Status,1467,20080072746,/g3t1_2,,running
Status,1468,20080146097,/g3t1_3,,running
Status,1469,20080431913,/g3t1_3,,success
Status,1470,20080466607,/g3t1_2,,success
Status,1471,20091831993,/g3t1_1,,running
Status,1472,20092672757,/g3t1_1,,success
Status,1473,20109157564,/g4t1,,fail
Status,1474,20130262106,/g3t1_2,,running
Status,1475,20130311616,/g3t1_3,,running
Status,1476,20130369619,/g3t1_2,,success
Status,1477,20130385138,/g3t1_3,,success
Status,1478,20141445702,/g3t1_1,,running
Status,1479,20141567675,/g3t1_1,,success
Status,1480,20180316632,/g3t1_2,,running
Status,1481,20180368216,/g3t1_3,,running
Status,1482,20180428462,/g3t1_2,,success
Status,1483,20180452137,/g3t1_3,,success
Status,1484,20191700376,/g3t1_1,,running
Status,1485,20192009688,/g3t1_1,,success
Status,1486,20208889675,/g4t1,,fail
Status,1487,20230539661,/g3t1_2,,running
Status,1488,20230597892,/g3t1_3,,running
Status,1489,20230650745,/g3t1_2,,success
Status,1490,20230665949,/g3t1_3,,success
Status,1491,20241700389,/g3t1_1,,running
Status,1492,20242210467,/g3t1_1,,success
Status,1493,20280256356,/g3t1_2,,running
Status,1494,20280320902,/g3t1_3,,running
Status,1495,20280644072,/g3t1_3,,success
Status,1496,20280713995,/g3t1_2,,success
Status,1497,20292309871,/g3t1_1,,running
Status,1498,20292618360,/g3t1_1,,success
Status,1499,20308860721,/g4t1,,fail
Status,1500,20330532519,/g3t1_2,,running
Status,1501,20330583496,/g3t1_3,,running
Status,1502,20330611280,/g3t1_2,,success
Status,1503,20330667642,/g3t1_3,,success
Status,1504,20342247153,/g3t1_1,,running
Status,1505,20342916190,/g3t1_1,,success
Status,1506,20380670069,/g3t1_2,,running
Status,1507,20380735553,/g3t1_3,,running
Status,1508,20380809036,/g3t1_2,,success
Status,1509,20380834080,/g3t1_3,,success
Status,1510,20392413351,/g3t1_1,,running
Status,1511,20392467169,/g3t1_1,,success
Status,1512,20409371920,/g4t1,,fail
