
Status,2,3561834457,/g4t1,,init
Status,4,8671953531,/g3t1_1,,init
Status,5,8679576056,/g3t1_1,,init
Status,6,8679598120,/g3t1_1,,running
Status,7,8679875395,/g3t1_1,,success
Status,8,8729437796,/g3t1_1,,running
Status,9,8729462027,/g3t1_1,,success
Status,10,8773645485,/g3t1_2,,init
Status,12,8779400523,/g3t1_1,,running
Status,13,8779442375,/g3t1_1,,success
Status,14,8780358198,/g3t1_2,,init
Status,15,8780373492,/g3t1_2,,running
Status,16,8780854321,/g3t1_2,,success
Status,17,8829576611,/g3t1_1,,running
Status,18,8829652891,/g3t1_1,,success
Status,19,8830600102,/g3t1_2,,running
Status,20,8830632612,/g3t1_2,,success
Status,21,8874244676,/g3t1_3,,init
Status,23,8879549398,/g3t1_1,,running
Status,24,8879599956,/g3t1_1,,success
Status,25,8880591054,/g3t1_2,,running
Status,26,8880724235,/g3t1_2,,success
Status,27,8881188472,/g3t1_3,,init
Status,28,8881207842,/g3t1_3,,running
Status,29,8881641011,/g3t1_3,,success
Status,30,8931081989,/g3t1_1,,running
Status,31,8931194430,/g3t1_1,,success
Status,32,8931328640,/g3t1_2,,running
Status,33,8932063502,/g3t1_2,,success
Status,34,8932157584,/g3t1_3,,running
Status,35,8933106397,/g3t1_3,,success
Status,36,8980515162,/g3t1_1,,running
Status,37,8980762114,/g3t1_1,,success
Status,38,8981310464,/g3t1_2,,running
Status,39,8982177086,/g3t1_3,,running
Status,40,8982575729,/g3t1_2,,success
Status,41,8982758816,/g3t1_3,,success
Status,42,8982859017,/g4t1,,success
Status,43,9030866028,/g3t1_1,,running
Status,44,9031461833,/g3t1_1,,success
Status,45,9031955702,/g3t1_2,,running
Status,46,9032337006,/g3t1_2,,success
Status,47,9032414314,/g3t1_3,,running
Status,48,9033435007,/g3t1_3,,success
Status,49,9080833863,/g3t1_1,,running
Status,50,9081326222,/g3t1_1,,success
Status,51,9081615704,/g3t1_2,,running
Status,52,9082716829,/g3t1_3,,running
Status,53,9082787832,/g3t1_3,,success
Status,54,9082890952,/g4t1,,success
Status,55,9083200319,/g3t1_2,,success
Status,56,9131250673,/g3t1_1,,running
Status,57,9131375221,/g3t1_1,,success
Status,58,9131873808,/g3t1_2,,running
Status,59,9132580524,/g3t1_3,,running
Status,60,9133494977,/g3t1_3,,success
Status,61,9133574976,/g3t1_2,,success
Status,62,9180998212,/g3t1_1,,running
Status,63,9182113876,/g3t1_1,,success
Status,64,9182176495,/g3t1_2,,running
Status,65,9182212125,/g3t1_2,,success
Status,66,9182618265,/g3t1_3,,running
Status,67,9182931076,/g3t1_3,,success
Status,68,9183233380,/g4t1,,success
Status,69,9231645681,/g3t1_1,,running
Status,70,9231916194,/g3t1_1,,success
Status,71,9232017043,/g3t1_2,,running
Status,72,9232874773,/g3t1_2,,success
Status,73,9233064647,/g3t1_3,,running
Status,74,9233459966,/g3t1_3,,success
Status,75,9281454271,/g3t1_1,,running
Status,76,9282246206,/g3t1_1,,success
Status,77,9282319261,/g3t1_2,,running
Status,78,9282926076,/g3t1_2,,success
Status,79,9283043103,/g3t1_3,,running
Status,80,9283361506,/g4t1,,success
Status,81,9283446485,/g3t1_3,,success
Status,82,9331802827,/g3t1_1,,running
Status,83,9331904124,/g3t1_1,,success
Status,84,9332442138,/g3t1_2,,running
Status,85,9333100550,/g3t1_2,,success
Status,86,9333292177,/g3t1_3,,running
Status,87,9333890937,/g3t1_3,,success
Status,88,9381898948,/g3t1_1,,running
Status,89,9382323450,/g3t1_1,,success
Status,90,9383206304,/g3t1_2,,running
Status,91,9383255802,/g3t1_2,,success
Status,92,9383296277,/g3t1_3,,running
Status,93,9383668322,/g3t1_3,,success
Status,94,9383757282,/g4t1,,fail
Status,95,9432545092,/g3t1_1,,running
Status,96,9432640351,/g3t1_2,,running
Status,97,9432743148,/g3t1_1,,success
Status,98,9433179462,/g3t1_2,,success
Status,99,9433522957,/g3t1_3,,running
Status,100,9433962417,/g3t1_3,,success
Status,101,9482316718,/g3t1_1,,running
Status,102,9482761435,/g3t1_2,,running
Status,103,9482824800,/g3t1_1,,success
Status,104,9483108274,/g3t1_2,,success
Status,105,9483770416,/g3t1_3,,running
Status,106,9483899555,/g3t1_3,,success
Status,107,9484522857,/g4t1,,fail
Status,108,9532165942,/g3t1_1,,running
Status,109,9532275831,/g3t1_1,,success
Status,110,9532594713,/g3t1_2,,running
Status,111,9532720765,/g3t1_2,,success
Status,112,9533064131,/g3t1_3,,running
Status,113,9533505913,/g3t1_3,,success
Status,114,9582504120,/g3t1_1,,running
Status,115,9582951144,/g3t1_2,,running
Status,116,9583092896,/g3t1_1,,success
Status,117,9584140853,/g3t1_3,,running
Status,118,9584244792,/g4t1,,fail
Status,119,9584279242,/g3t1_2,,success
Status,120,9584304454,/g3t1_3,,success
Status,121,9633111717,/g3t1_1,,running
Status,122,9633240744,/g3t1_2,,running
Status,123,9633286851,/g3t1_1,,success
Status,124,9633847420,/g3t1_3,,running
Status,125,9634076680,/g3t1_2,,success
Status,126,9634244644,/g3t1_3,,success
Status,127,9683132529,/g3t1_1,,running
Status,128,9683228493,/g3t1_2,,running
Status,129,9683274237,/g3t1_1,,success
Status,130,9683779512,/g3t1_2,,success
Status,131,9683877149,/g3t1_3,,running
Status,132,9684354785,/g4t1,,fail
Status,133,9684454412,/g3t1_3,,success
Status,134,9733669411,/g3t1_1,,running
Status,135,9733767390,/g3t1_2,,running
Status,136,9733986933,/g3t1_1,,success
Status,137,9734065068,/g3t1_3,,running
Status,138,9734163137,/g3t1_2,,success
Status,139,9734631661,/g3t1_3,,success
Status,140,9783416414,/g3t1_1,,running
Status,141,9783523628,/g3t1_2,,running
Status,142,9784127276,/g3t1_1,,success
Status,143,9784192888,/g3t1_2,,success
Status,144,9784261540,/g3t1_3,,running
Status,145,9784399107,/g4t1,,fail
Status,146,9785206017,/g3t1_3,,success
Status,147,9834030318,/g3t1_2,,running
Status,148,9834112155,/g3t1_1,,running
Status,149,9834153757,/g3t1_1,,success
Status,150,9834312178,/g3t1_2,,success
Status,151,9834350351,/g3t1_3,,running
Status,152,9835232139,/g3t1_3,,success
Status,153,9883913995,/g3t1_1,,running
Status,154,9884088370,/g3t1_2,,running
Status,155,9884261868,/g3t1_1,,success
Status,156,9884751498,/g3t1_2,,success
Status,157,9884992303,/g4t1,,fail
Status,158,9885067218,/g3t1_3,,running
Status,159,9885347342,/g3t1_3,,success
Status,160,9934094416,/g3t1_1,,running
Status,161,9934190850,/g3t1_2,,running
Status,162,9934865291,/g3t1_2,,success
Status,163,9935254249,/g3t1_3,,running
Status,164,9935447227,/g3t1_1,,success
Status,165,9935672822,/g3t1_3,,success
Status,166,9984031065,/g3t1_2,,running
Status,167,9984125124,/g3t1_1,,running
Status,168,9984387181,/g3t1_1,,success
Status,169,9984443334,/g4t1,,fail
Status,170,9984479092,/g3t1_2,,success
Status,171,9984937934,/g3t1_3,,running
Status,172,9985261812,/g3t1_3,,success
Status,173,10034210327,/g3t1_1,,running
Status,174,10034336879,/g3t1_2,,running
Status,175,10034841024,/g3t1_2,,success
Status,176,10034998483,/g3t1_3,,running
Status,177,10035608244,/g3t1_1,,success
Status,178,10035860604,/g3t1_3,,success
Status,179,10084836470,/g3t1_1,,running
Status,180,10084936795,/g3t1_2,,running
Status,181,10085069459,/g4t1,,fail
Status,182,10085605993,/g3t1_3,,running
Status,183,10085652457,/g3t1_1,,success
Status,184,10085678951,/g3t1_2,,success
Status,185,10085781860,/g3t1_3,,success
Status,186,10134717605,/g3t1_1,,running
Status,187,10134807163,/g3t1_2,,running
Status,188,10134850198,/g3t1_2,,success
Status,189,10135340712,/g3t1_1,,success
Status,190,10135473639,/g3t1_3,,running
Status,191,10135998982,/g3t1_3,,success
Status,192,10184967722,/g3t1_1,,running
Status,193,10185052423,/g3t1_2,,running
Status,194,10185177508,/g4t1,,fail
Status,195,10185217954,/g3t1_1,,success
Status,196,10185259064,/g3t1_2,,success
Status,197,10185291733,/g3t1_3,,running
Status,198,10185955352,/g3t1_3,,success
Status,199,10234949168,/g3t1_1,,running
Status,200,10235038715,/g3t1_2,,running
Status,201,10235327102,/g3t1_1,,success
Status,202,10236254693,/g3t1_3,,running
Status,203,10236329275,/g3t1_3,,success
Status,204,10236358066,/g3t1_2,,success
Status,205,10285524341,/g3t1_1,,running
Status,206,10285647108,/g3t1_2,,running
Status,207,10285696291,/g4t1,,fail
Status,208,10285773422,/g3t1_1,,success
Status,209,10285811463,/g3t1_3,,running
Status,210,10285852614,/g3t1_2,,success
Status,211,10285888145,/g3t1_3,,success
Status,212,10335365625,/g3t1_1,,running
Status,213,10335522082,/g3t1_2,,running
Status,214,10335663616,/g3t1_2,,success
Status,215,10335706449,/g3t1_1,,success
Status,216,10335874290,/g3t1_3,,running
Status,217,10336171140,/g3t1_3,,success
Status,218,10385159004,/g3t1_1,,running
Status,219,10385285321,/g3t1_2,,running
Status,220,10385334949,/g4t1,,fail
Status,221,10385831062,/g3t1_3,,running
Status,222,10386169988,/g3t1_1,,success
Status,223,10386226167,/g3t1_2,,success
Status,224,10386453718,/g3t1_3,,success
Status,225,10435483272,/g3t1_1,,running
Status,226,10435584315,/g3t1_2,,running
Status,227,10436211112,/g3t1_2,,success
Status,228,10436335576,/g3t1_1,,success
Status,229,10436379367,/g3t1_3,,running
Status,230,10436668340,/g3t1_3,,success
Status,231,10485478557,/g3t1_1,,running
Status,232,10486139696,/g3t1_2,,running
Status,233,10486257360,/g4t1,,fail
Status,234,10486633638,/g3t1_2,,success
Status,235,10486771124,/g3t1_3,,running
Status,236,10486844747,/g3t1_3,,success
Status,237,10486877392,/g3t1_1,,success
Status,238,10535545627,/g3t1_1,,running
Status,239,10536192597,/g3t1_2,,running
Status,240,10536632693,/g3t1_1,,success
Status,241,10536721399,/g3t1_3,,running
Status,242,10536850984,/g3t1_2,,success
Status,243,10536891149,/g3t1_3,,success
Status,244,10585972888,/g4t1,,fail
Status,245,10586162603,/g3t1_1,,running
Status,246,10586215810,/g3t1_2,,running
Status,247,10586252506,/g3t1_2,,success
Status,248,10586286042,/g3t1_1,,success
Status,249,10586368629,/g3t1_3,,running
Status,250,10586989328,/g3t1_3,,success
Status,251,10636056193,/g3t1_2,,running
Status,252,10636154493,/g3t1_1,,running
Status,253,10636423423,/g3t1_1,,success
Status,254,10637022663,/g3t1_3,,running
Status,255,10637073857,/g3t1_2,,success
Status,256,10637360946,/g3t1_3,,success
Status,257,10685739516,/g4t1,,fail
Status,258,10685834695,/g3t1_2,,running
Status,259,10685875283,/g3t1_1,,running
Status,260,10686363158,/g3t1_1,,success
Status,261,10686425269,/g3t1_2,,success
Status,262,10686468614,/g3t1_3,,running
Status,263,10687918830,/g3t1_3,,success
Status,264,10736251295,/g3t1_2,,running
Status,265,10736780229,/g3t1_1,,running
Status,266,10736956292,/g3t1_2,,success
Status,267,10737386107,/g3t1_3,,running
Status,268,10737465984,/g3t1_1,,success
Status,269,10737834939,/g3t1_3,,success
Status,270,10785737134,/g4t1,,fail
Status,271,10786129914,/g3t1_1,,running
Status,272,10786191928,/g3t1_2,,running
Status,273,10787057566,/g3t1_2,,success
Status,274,10787135214,/g3t1_1,,success
Status,275,10787173517,/g3t1_3,,running
Status,276,10787685568,/g3t1_3,,success
Status,277,10836250784,/g3t1_1,,running
Status,278,10836366915,/g3t1_2,,running
Status,279,10837765726,/g3t1_2,,success
Status,280,10837821362,/g3t1_3,,running
Status,281,10837886749,/g3t1_1,,success
Status,282,10837911244,/g3t1_3,,success
Status,283,10886957903,/g4t1,,fail
Status,284,10887035358,/g3t1_2,,running
Status,285,10887138096,/g3t1_2,,success
Status,286,10887177370,/g3t1_1,,running
Status,287,10887211979,/g3t1_1,,success
Status,288,10887334799,/g3t1_3,,running
Status,289,10887793819,/g3t1_3,,success
Status,290,10935919244,/g3t1_2,,running
Status,291,10935971569,/g3t1_1,,running
Status,292,10935986662,/g3t1_2,,success
Status,293,10936021049,/g3t1_1,,success
Status,294,10936980950,/g3t1_3,,running
Status,295,10937088156,/g3t1_3,,success
Status,296,10984958925,/g4t1,,fail
Status,297,10985863354,/g3t1_2,,running
Status,298,10985934949,/g3t1_1,,running
Status,299,10985944970,/g3t1_2,,success
Status,300,10985954470,/g3t1_1,,success
Status,301,10986914758,/g3t1_3,,running
Status,302,10987087739,/g3t1_3,,success
Status,303,11036640971,/g3t1_1,,running
Status,304,11036757825,/g3t1_2,,running
Status,305,11037382468,/g3t1_1,,success
Status,306,11037537183,/g3t1_2,,success
Status,307,11038056141,/g3t1_3,,running
Status,308,11039268396,/g3t1_3,,success
Status,309,11086346351,/g4t1,,fail
Status,310,11086440378,/g3t1_2,,running
Status,311,11086573006,/g3t1_1,,running
Status,312,11087135757,/g3t1_1,,success
Status,313,11087212077,/g3t1_2,,success
Status,314,11088063006,/g3t1_3,,running
Status,315,11088393090,/g3t1_3,,success
Status,316,11136896508,/g3t1_2,,running
Status,317,11136977143,/g3t1_1,,running
Status,318,11137053704,/g3t1_2,,success
Status,319,11138071613,/g3t1_1,,success
Status,320,11138130452,/g3t1_3,,running
Status,321,11138180879,/g3t1_3,,success
Status,322,11186589638,/g4t1,,fail
Status,323,11186683339,/g3t1_2,,running
Status,324,11186724941,/g3t1_1,,running
Status,325,11187174733,/g3t1_2,,success
Status,326,11187254757,/g3t1_1,,success
Status,327,11188233792,/g3t1_3,,running
Status,328,11188306170,/g3t1_3,,success
Status,329,11236676068,/g3t1_2,,running
Status,330,11236729178,/g3t1_1,,running
Status,331,11236747335,/g3t1_1,,success
Status,332,11236892361,/g3t1_2,,success
Status,333,11237524455,/g3t1_3,,running
Status,334,11237554629,/g3t1_3,,success
Status,335,11286171617,/g4t1,,fail
Status,336,11286876639,/g3t1_2,,running
Status,337,11286938358,/g3t1_1,,running
Status,338,11287065734,/g3t1_2,,success
Status,339,11287175263,/g3t1_1,,success
Status,340,11287948450,/g3t1_3,,running
Status,341,11287976441,/g3t1_3,,success
Status,342,11337342463,/g3t1_2,,running
Status,343,11337418069,/g3t1_1,,running
Status,344,11337507744,/g3t1_1,,success
Status,345,11337534755,/g3t1_2,,success
Status,346,11338166404,/g3t1_3,,running
Status,347,11338787826,/g3t1_3,,success
Status,348,11386689796,/g4t1,,fail
Status,349,11387413542,/g3t1_1,,running
Status,350,11387475850,/g3t1_2,,running
Status,351,11388106320,/g3t1_1,,success
Status,352,11388166809,/g3t1_2,,success
Status,353,11388236362,/g3t1_3,,running
Status,354,11388523109,/g3t1_3,,success
Status,355,11436846461,/g3t1_1,,running
Status,356,11436889141,/g3t1_2,,running
Status,357,11437080358,/g3t1_2,,success
Status,358,11437133816,/g3t1_1,,success
Status,359,11437992563,/g3t1_3,,running
Status,360,11438049305,/g3t1_3,,success
Status,361,11486650003,/g4t1,,fail
Status,362,11487338607,/g3t1_1,,running
Status,363,11487407689,/g3t1_2,,running
Status,364,11488471846,/g3t1_2,,success
Status,365,11488542916,/g3t1_1,,success
Status,366,11488648557,/g3t1_3,,running
Status,367,11488678614,/g3t1_3,,success
Status,368,11537579998,/g3t1_2,,running
Status,369,11537630710,/g3t1_1,,running
Status,370,11537700522,/g3t1_2,,success
Status,371,11537727854,/g3t1_1,,success
Status,372,11538725456,/g3t1_3,,running
Status,373,11538778737,/g3t1_3,,success
Status,374,11586302032,/g4t1,,fail
Status,375,11587283333,/g3t1_1,,running
Status,376,11587482233,/g3t1_2,,running
Status,377,11587559553,/g3t1_1,,success
Status,378,11587658600,/g3t1_2,,success
Status,379,11588506195,/g3t1_3,,running
Status,380,11588923300,/g3t1_3,,success
Status,381,11637752878,/g3t1_2,,running
Status,382,11637814611,/g3t1_1,,running
Status,383,11637899015,/g3t1_1,,success
Status,384,11638095938,/g3t1_2,,success
Status,385,11638669586,/g3t1_3,,running
Status,386,11639162755,/g3t1_3,,success
Status,387,11686595108,/g4t1,,fail
Status,388,11688176283,/g3t1_2,,running
Status,389,11688256865,/g3t1_1,,running
Status,390,11688619175,/g3t1_1,,success
Status,391,11689714125,/g3t1_2,,success
Status,392,11689796689,/g3t1_3,,running
Status,393,11689889464,/g3t1_3,,success
Status,394,11737763505,/g3t1_2,,running
Status,395,11738133361,/g3t1_1,,running
Status,396,11738192405,/g3t1_2,,success
Status,397,11738233197,/g3t1_1,,success
Status,398,11738857703,/g3t1_3,,running
Status,399,11739530634,/g3t1_3,,success
Status,400,11787181900,/g4t1,,fail
Status,401,11789170720,/g3t1_1,,running
Status,402,11789254719,/g3t1_2,,running
Status,403,11789646439,/g3t1_1,,success
Status,404,11789704178,/g3t1_3,,running
Status,405,11789757921,/g3t1_3,,success
Status,406,11790020295,/g3t1_2,,success
Status,407,11837643100,/g3t1_1,,running
Status,408,11837685572,/g3t1_2,,running
Status,409,11837844165,/g3t1_2,,success
Status,410,11838023172,/g3t1_1,,success
Status,411,11838603621,/g3t1_3,,running
Status,412,11838767165,/g3t1_3,,success
Status,413,11886279688,/g4t1,,fail
Status,414,11887607170,/g3t1_2,,running
Status,415,11887639622,/g3t1_1,,running
Status,416,11887841787,/g3t1_1,,success
Status,417,11887866782,/g3t1_2,,success
Status,418,11888695578,/g3t1_3,,running
Status,419,11888752526,/g3t1_3,,success
Status,420,11937764608,/g3t1_1,,running
Status,421,11937794103,/g3t1_2,,running
Status,422,11937834298,/g3t1_1,,success
Status,423,11937846979,/g3t1_2,,success
Status,424,11938646375,/g3t1_3,,running
Status,425,11938788492,/g3t1_3,,success
Status,426,11986600942,/g4t1,,fail
Status,427,11987868366,/g3t1_2,,running
Status,428,11987895395,/g3t1_1,,running
Status,429,11987944961,/g3t1_2,,success
Status,430,11988096241,/g3t1_1,,success
Status,431,11989175783,/g3t1_3,,running
Status,432,11989322865,/g3t1_3,,success
Status,433,12038408656,/g3t1_2,,running
Status,434,12038529423,/g3t1_1,,running
Status,435,12038633822,/g3t1_1,,success
Status,436,12038670317,/g3t1_2,,success
Status,437,12039790362,/g3t1_3,,running
Status,438,12039844217,/g3t1_3,,success
Status,439,12087126145,/g4t1,,fail
Status,440,12088631580,/g3t1_2,,running
Status,441,12088694029,/g3t1_1,,running
Status,442,12088844515,/g3t1_1,,success
Status,443,12089178558,/g3t1_2,,success
Status,444,12089633042,/g3t1_3,,running
Status,445,12090126457,/g3t1_3,,success
Status,446,12138658425,/g3t1_2,,running
Status,447,12138741637,/g3t1_1,,running
Status,448,12138934297,/g3t1_1,,success
Status,449,12139255122,/g3t1_2,,success
Status,450,12139652601,/g3t1_3,,running
Status,451,12140040817,/g3t1_3,,success
Status,452,12187386333,/g4t1,,fail
Status,453,12188529718,/g3t1_2,,running
Status,454,12188594692,/g3t1_1,,running
Status,455,12188631774,/g3t1_2,,success
Status,456,12189190827,/g3t1_1,,success
Status,457,12189982026,/g3t1_3,,running
Status,458,12190039694,/g3t1_3,,success
Status,459,12238994547,/g3t1_1,,running
Status,460,12239183393,/g3t1_2,,running
Status,461,12239234284,/g3t1_2,,success
Status,462,12239265664,/g3t1_1,,success
Status,463,12239869931,/g3t1_3,,running
Status,464,12239924790,/g3t1_3,,success
Status,465,12287345610,/g4t1,,fail
Status,466,12288834884,/g3t1_1,,running
Status,467,12289069378,/g3t1_2,,running
Status,468,12289108025,/g3t1_1,,success
Status,469,12289175694,/g3t1_2,,success
Status,470,12289513576,/g3t1_3,,running
Status,471,12290228926,/g3t1_3,,success
Status,472,12338813309,/g3t1_1,,running
Status,473,12339016254,/g3t1_2,,running
Status,474,12340034234,/g3t1_1,,success
Status,475,12340200947,/g3t1_2,,success
Status,476,12340249084,/g3t1_3,,running
Status,477,12340473138,/g3t1_3,,success
Status,478,12387403639,/g4t1,,fail
Status,479,12388938190,/g3t1_1,,running
Status,480,12389157328,/g3t1_2,,running
Status,481,12389967970,/g3t1_2,,success
Status,482,12390035811,/g3t1_1,,success
Status,483,12390486901,/g3t1_3,,running
Status,484,12390591967,/g3t1_3,,success
Status,485,12439261888,/g3t1_1,,running
Status,486,12439313044,/g3t1_2,,running
Status,487,12439419989,/g3t1_1,,success
Status,488,12439900304,/g3t1_2,,success
Status,489,12440618524,/g3t1_3,,running
Status,490,12440899303,/g3t1_3,,success
Status,491,12487553103,/g4t1,,fail
Status,492,12489434838,/g3t1_1,,running
Status,493,12489510165,/g3t1_2,,running
Status,494,12489683422,/g3t1_2,,success
Status,495,12489708473,/g3t1_1,,success
Status,496,12490719182,/g3t1_3,,running
Status,497,12491031767,/g3t1_3,,success
Status,498,12539551097,/g3t1_1,,running
Status,499,12539639137,/g3t1_2,,running
Status,500,12540114371,/g3t1_2,,success
Status,501,12541344467,/g3t1_3,,running
Status,502,12541434539,/g3t1_1,,success
Status,503,12542102261,/g3t1_3,,success
Status,504,12587750260,/g4t1,,fail
Status,505,12589757901,/g3t1_1,,running
Status,506,12589856952,/g3t1_2,,running
Status,507,12589889996,/g3t1_1,,success
Status,508,12589935221,/g3t1_2,,success
Status,509,12591041247,/g3t1_3,,running
Status,510,12591623639,/g3t1_3,,success
Status,511,12640056240,/g3t1_1,,running
Status,512,12640217482,/g3t1_2,,running
Status,513,12640675399,/g3t1_1,,success
Status,514,12641043860,/g3t1_2,,success
Status,515,12642361304,/g3t1_3,,running
Status,516,12642448225,/g3t1_3,,success
Status,517,12687453456,/g4t1,,fail
Status,518,12689795077,/g3t1_1,,running
Status,519,12689852800,/g3t1_2,,running
Status,520,12689869776,/g3t1_1,,success
Status,521,12689888701,/g3t1_2,,success
Status,522,12691207617,/g3t1_3,,running
Status,523,12691266018,/g3t1_3,,success
Status,524,12739940466,/g3t1_1,,running
Status,525,12740036525,/g3t1_2,,running
Status,526,12740434826,/g3t1_1,,success
Status,527,12740503335,/g3t1_2,,success
Status,528,12741312362,/g3t1_3,,running
Status,529,12741768357,/g3t1_3,,success
Status,530,12787468671,/g4t1,,fail
Status,531,12790209913,/g3t1_1,,running
Status,532,12790265245,/g3t1_2,,running
Status,533,12790400827,/g3t1_2,,success
Status,534,12790421002,/g3t1_1,,success
Status,535,12791219756,/g3t1_3,,running
Status,536,12791785864,/g3t1_3,,success
Status,537,12839591299,/g3t1_1,,running
Status,538,12839625793,/g3t1_2,,running
Status,539,12839772791,/g3t1_1,,success
Status,540,12839801989,/g3t1_2,,success
Status,541,12840742123,/g3t1_3,,running
Status,542,12841026945,/g3t1_3,,success
Status,543,12887390204,/g4t1,,fail
Status,544,12889472815,/g3t1_1,,running
Status,545,12889650627,/g3t1_2,,running
Status,546,12889674263,/g3t1_1,,success
Status,547,12889810947,/g3t1_2,,success
Status,548,12890789868,/g3t1_3,,running
Status,549,12890944142,/g3t1_3,,success
Status,550,12939664797,/g3t1_1,,running
Status,551,12939696033,/g3t1_2,,running
Status,552,12939718757,/g3t1_1,,success
Status,553,12939830944,/g3t1_2,,success
Status,554,12940902408,/g3t1_3,,running
Status,555,12941074600,/g3t1_3,,success
Status,556,12987426387,/g4t1,,fail
Status,557,12989644665,/g3t1_1,,running
Status,558,12989674285,/g3t1_2,,running
Status,559,12989860120,/g3t1_1,,success
Status,560,12989886684,/g3t1_2,,success
Status,561,12990990811,/g3t1_3,,running
Status,562,12991008100,/g3t1_3,,success
Status,563,13039879119,/g3t1_1,,running
Status,564,13039914064,/g3t1_2,,running
Status,565,13039949502,/g3t1_1,,success
Status,566,13039959648,/g3t1_2,,success
Status,567,13041089828,/g3t1_3,,running
Status,568,13041238697,/g3t1_3,,success
Status,569,13088068425,/g4t1,,fail
Status,570,13090985002,/g3t1_1,,running
Status,571,13091127575,/g3t1_2,,running
Status,572,13091324717,/g3t1_1,,success
Status,573,13091756039,/g3t1_2,,success
Status,574,13091820350,/g3t1_3,,running
Status,575,13092286730,/g3t1_3,,success
Status,576,13140684883,/g3t1_1,,running
Status,577,13140743375,/g3t1_2,,running
Status,578,13140988884,/g3t1_2,,success
Status,579,13141070127,/g3t1_1,,success
Status,580,13141697700,/g3t1_3,,running
Status,581,13141998348,/g3t1_3,,success
Status,582,13188150454,/g4t1,,fail
Status,583,13190961987,/g3t1_1,,running
Status,584,13191174393,/g3t1_2,,running
Status,585,13191604727,/g3t1_1,,success
Status,586,13191684743,/g3t1_2,,success
Status,587,13192222528,/g3t1_3,,running
Status,588,13192960426,/g3t1_3,,success
Status,589,13241558131,/g3t1_1,,running
Status,590,13241642569,/g3t1_2,,running
Status,591,13241880553,/g3t1_2,,success
Status,592,13241989064,/g3t1_3,,running
Status,593,13242273088,/g3t1_1,,success
Status,594,13242710107,/g3t1_3,,success
Status,595,13288328593,/g4t1,,fail
Status,596,13290995466,/g3t1_2,,running
Status,597,13291066120,/g3t1_1,,running
Status,598,13291460856,/g3t1_1,,success
Status,599,13291610564,/g3t1_2,,success
Status,600,13291863195,/g3t1_3,,running
Status,601,13292519112,/g3t1_3,,success
Status,602,13340707327,/g3t1_1,,running
Status,603,13340728151,/g3t1_2,,running
Status,604,13340751761,/g3t1_2,,success
Status,605,13340758740,/g3t1_1,,success
Status,606,13341607484,/g3t1_3,,running
Status,607,13341700919,/g3t1_3,,success
Status,608,13387792770,/g4t1,,fail
Status,609,13390668981,/g3t1_1,,running
Status,610,13390707775,/g3t1_2,,running
Status,611,13390718896,/g3t1_1,,success
Status,612,13390738364,/g3t1_2,,success
Status,613,13391629167,/g3t1_3,,running
Status,614,13391753557,/g3t1_3,,success
Status,615,13441016131,/g3t1_1,,running
Status,616,13441069348,/g3t1_2,,running
Status,617,13441085053,/g3t1_1,,success
Status,618,13441114595,/g3t1_2,,success
Status,619,13441875370,/g3t1_3,,running
Status,620,13441988890,/g3t1_3,,success
Status,621,13488865807,/g4t1,,fail
Status,622,13491972190,/g3t1_1,,running
Status,623,13492080995,/g3t1_2,,running
Status,624,13492468747,/g3t1_2,,success
Status,625,13492617281,/g3t1_1,,success
Status,626,13492663285,/g3t1_3,,running
Status,627,13493177032,/g3t1_3,,success
Status,628,13542751177,/g3t1_1,,running
Status,629,13542810512,/g3t1_2,,running
Status,630,13542887677,/g3t1_1,,success
Status,631,13542915155,/g3t1_3,,running
Status,632,13542945263,/g3t1_2,,success
Status,633,13543237923,/g3t1_3,,success
Status,634,13588682721,/g4t1,,fail
Status,635,13592077644,/g3t1_2,,running
Status,636,13592177591,/g3t1_1,,running
Status,637,13592219439,/g3t1_1,,success
Status,638,13592608798,/g3t1_3,,running
Status,639,13592706566,/g3t1_2,,success
Status,640,13593085864,/g3t1_3,,success
Status,641,13641870168,/g3t1_1,,running
Status,642,13641943859,/g3t1_2,,running
Status,643,13641983941,/g3t1_1,,success
Status,644,13642063818,/g3t1_2,,success
Status,645,13642271527,/g3t1_3,,running
Status,646,13642686958,/g3t1_3,,success
Status,647,13689011170,/g4t1,,fail
Status,648,13692262854,/g3t1_2,,running
Status,649,13692351738,/g3t1_1,,running
Status,650,13692972786,/g3t1_3,,running
Status,651,13693416803,/g3t1_2,,success
Status,652,13693471771,/g3t1_3,,success
Status,653,13693771870,/g3t1_1,,success
Status,654,13743379535,/g3t1_1,,running
Status,655,13743504108,/g3t1_2,,running
Status,656,13743603911,/g3t1_2,,success
Status,657,13743646848,/g3t1_1,,success
Status,658,13743680625,/g3t1_3,,running
Status,659,13744020936,/g3t1_3,,success
Status,660,13789187322,/g4t1,,fail
Status,661,13792946989,/g3t1_1,,running
Status,662,13793034008,/g3t1_2,,running
Status,663,13793547862,/g3t1_1,,success
Status,664,13793611779,/g3t1_3,,running
Status,665,13793692214,/g3t1_2,,success
Status,666,13794018664,/g3t1_3,,success
Status,667,13842795792,/g3t1_1,,running
Status,668,13842892583,/g3t1_2,,running
Status,669,13843051475,/g3t1_1,,success
Status,670,13843174713,/g3t1_2,,success
Status,671,13843294376,/g3t1_3,,running
Status,672,13843999902,/g3t1_3,,success
Status,673,13889446526,/g4t1,,fail
Status,674,13892992950,/g3t1_1,,running
Status,675,13893081176,/g3t1_2,,running
Status,676,13893290610,/g3t1_1,,success
Status,677,13893380115,/g3t1_2,,success
Status,678,13893484346,/g3t1_3,,running
Status,679,13893942931,/g3t1_3,,success
Status,680,13943450606,/g3t1_1,,running
Status,681,13943517729,/g3t1_2,,running
Status,682,13943543211,/g3t1_2,,success
Status,683,13943581592,/g3t1_1,,success
Status,684,13943668408,/g3t1_3,,running
Status,685,13944038895,/g3t1_3,,success
Status,686,13989592693,/g4t1,,fail
Status,687,13993852767,/g3t1_1,,running
Status,688,13993948577,/g3t1_2,,running
Status,689,13994454831,/g3t1_3,,running
Status,690,13994501346,/g3t1_1,,success
Status,691,13994525251,/g3t1_2,,success
Status,692,13994709251,/g3t1_3,,success
Status,693,14043610758,/g3t1_2,,running
Status,694,14043724694,/g3t1_1,,running
Status,695,14044429594,/g3t1_1,,success
Status,696,14044505767,/g3t1_3,,running
Status,697,14044548525,/g3t1_2,,success
Status,698,14044586923,/g3t1_3,,success
Status,699,14089703298,/g4t1,,fail
Status,700,14093393741,/g3t1_1,,running
Status,701,14093472603,/g3t1_2,,running
Status,702,14094128749,/g3t1_1,,success
Status,703,14094191722,/g3t1_3,,running
Status,704,14094239955,/g3t1_2,,success
Status,705,14094673732,/g3t1_3,,success
Status,706,14143984692,/g3t1_1,,running
Status,707,14144180656,/g3t1_2,,running
Status,708,14144253830,/g3t1_1,,success
Status,709,14144377617,/g3t1_3,,running
Status,710,14144414951,/g3t1_2,,success
Status,711,14145006979,/g3t1_3,,success
Status,712,14189822775,/g4t1,,fail
Status,713,14193633178,/g3t1_1,,running
Status,714,14193763765,/g3t1_2,,running
Status,715,14194456023,/g3t1_2,,success
Status,716,14194525826,/g3t1_3,,running
Status,717,14194653534,/g3t1_1,,success
Status,718,14194950580,/g3t1_3,,success
Status,719,14243950790,/g3t1_1,,running
Status,720,14244104147,/g3t1_2,,running
Status,721,14244852296,/g3t1_1,,success
Status,722,14245223191,/g3t1_3,,running
Status,723,14245886717,/g3t1_2,,success
Status,724,14246024296,/g3t1_3,,success
Status,725,14289833834,/g4t1,,fail
Status,726,14293973274,/g3t1_1,,running
Status,727,14294078067,/g3t1_2,,running
Status,728,14294589634,/g3t1_1,,success
Status,729,14294704763,/g3t1_2,,success
Status,730,14295079758,/g3t1_3,,running
Status,731,14295519383,/g3t1_3,,success
Status,732,14344434896,/g3t1_1,,running
Status,733,14344531359,/g3t1_2,,running
Status,734,14345056422,/g3t1_2,,success
Status,735,14345207881,/g3t1_3,,running
Status,736,14345612808,/g3t1_1,,success
Status,737,14345967979,/g3t1_3,,success
Status,738,14389981792,/g4t1,,fail
Status,739,14394560812,/g3t1_1,,running
Status,740,14394691215,/g3t1_2,,running
Status,741,14394884871,/g3t1_2,,success
Status,742,14395350914,/g3t1_3,,running
Status,743,14395470126,/g3t1_1,,success
Status,744,14396157507,/g3t1_3,,success
Status,745,14444528473,/g3t1_1,,running
Status,746,14445325537,/g3t1_2,,running
Status,747,14445400141,/g3t1_1,,success
Status,748,14445513203,/g3t1_2,,success
Status,749,14445556058,/g3t1_3,,running
Status,750,14445711483,/g3t1_3,,success
Status,751,14490119599,/g4t1,,fail
Status,752,14494568161,/g3t1_2,,running
Status,753,14494656103,/g3t1_1,,running
Status,754,14495251013,/g3t1_1,,success
Status,755,14495318845,/g3t1_2,,success
Status,756,14495471888,/g3t1_3,,running
Status,757,14495826229,/g3t1_3,,success
Status,758,14545425421,/g3t1_2,,running
Status,759,14545513642,/g3t1_1,,running
Status,760,14545630028,/g3t1_2,,success
Status,761,14545669591,/g3t1_3,,running
Status,762,14546059675,/g3t1_1,,success
Status,763,14546122845,/g3t1_3,,success
Status,764,14590214014,/g4t1,,fail
Status,765,14594937207,/g3t1_1,,running
Status,766,14595008799,/g3t1_2,,running
Status,767,14595380557,/g3t1_3,,running
Status,768,14595489960,/g3t1_1,,success
Status,769,14595540724,/g3t1_2,,success
Status,770,14596142897,/g3t1_3,,success
Status,771,14645378001,/g3t1_1,,running
Status,772,14645483629,/g3t1_2,,running
Status,773,14646251557,/g3t1_1,,success
Status,774,14646351313,/g3t1_3,,running
Status,775,14646462565,/g3t1_3,,success
Status,776,14646489297,/g3t1_2,,success
Status,777,14690225019,/g4t1,,fail
Status,778,14695239310,/g3t1_2,,running
Status,779,14695327238,/g3t1_1,,running
Status,780,14695866607,/g3t1_2,,success
Status,781,14695981349,/g3t1_3,,running
Status,782,14696109800,/g3t1_1,,success
Status,783,14696703462,/g3t1_3,,success
Status,784,14745905502,/g3t1_1,,running
Status,785,14746005179,/g3t1_2,,running
Status,786,14746568864,/g3t1_2,,success
Status,787,14746637710,/g3t1_1,,success
Status,788,14746715599,/g3t1_3,,running
Status,789,14746740073,/g3t1_3,,success
Status,790,14790435390,/g4t1,,fail
Status,791,14795828113,/g3t1_1,,running
Status,792,14796126277,/g3t1_2,,running
Status,793,14796185057,/g3t1_3,,running
Status,794,14796211989,/g3t1_2,,success
Status,795,14796397856,/g3t1_1,,success
Status,796,14796854660,/g3t1_3,,success
Status,797,14846311156,/g3t1_1,,running
Status,798,14846391178,/g3t1_2,,running
Status,799,14846866046,/g3t1_2,,success
Status,800,14846935137,/g3t1_3,,running
Status,801,14846976066,/g3t1_1,,success
Status,802,14847009055,/g3t1_3,,success
Status,803,14890441395,/g4t1,,fail
Status,804,14896363170,/g3t1_1,,running
Status,805,14896431071,/g3t1_2,,running
Status,806,14896457449,/g3t1_1,,success
Status,807,14897068277,/g3t1_3,,running
Status,808,14897146626,/g3t1_3,,success
Status,809,14897229248,/g3t1_2,,success
Status,810,14946597318,/g3t1_1,,running
Status,811,14946683031,/g3t1_2,,running
Status,812,14947136324,/g3t1_3,,running
Status,813,14947267291,/g3t1_1,,success
Status,814,14947296994,/g3t1_2,,success
Status,815,14947499991,/g3t1_3,,success
Status,816,14990615234,/g4t1,,fail
Status,817,14996673927,/g3t1_2,,running
Status,818,14996842685,/g3t1_1,,running
Status,819,14996989287,/g3t1_3,,running
Status,820,14997062448,/g3t1_2,,success
Status,821,14997099821,/g3t1_1,,success
Status,822,14997433814,/g3t1_3,,success
Status,823,15047090548,/g3t1_2,,running
Status,824,15047166091,/g3t1_1,,running
Status,825,15047358937,/g3t1_3,,running
Status,826,15047440859,/g3t1_2,,success
Status,827,15047465737,/g3t1_1,,success
Status,828,15047766522,/g3t1_3,,success
Status,829,15090698915,/g4t1,,fail
Status,830,15097387240,/g3t1_2,,running
Status,831,15097589104,/g3t1_1,,running
Status,832,15097633291,/g3t1_2,,success
Status,833,15097693920,/g3t1_3,,running
Status,834,15097743745,/g3t1_3,,success
Status,835,15097815162,/g3t1_1,,success
Status,836,15147237836,/g3t1_1,,running
Status,837,15147455302,/g3t1_2,,running
Status,838,15147526957,/g3t1_2,,success
Status,839,15147624189,/g3t1_1,,success
Status,840,15147647517,/g3t1_3,,running
Status,841,15147806031,/g3t1_3,,success
Status,842,15189993830,/g4t1,,fail
Status,843,15196674241,/g3t1_1,,running
Status,844,15196742717,/g3t1_2,,running
Status,845,15196763561,/g3t1_1,,success
Status,846,15196933735,/g3t1_2,,success
Status,847,15196954322,/g3t1_3,,running
Status,848,15197033997,/g3t1_3,,success
Status,849,15246632106,/g3t1_1,,running
Status,850,15246693199,/g3t1_2,,running
Status,851,15246773714,/g3t1_1,,success
Status,852,15246798199,/g3t1_2,,success
Status,853,15247061071,/g3t1_3,,running
Status,854,15247655165,/g3t1_3,,success
Status,855,15290971149,/g4t1,,fail
Status,856,15296863177,/g3t1_1,,running
Status,857,15297614392,/g3t1_2,,running
Status,858,15297796940,/g3t1_2,,success
Status,859,15297851245,/g3t1_3,,running
Status,860,15297919692,/g3t1_3,,success
Status,861,15298077522,/g3t1_1,,success
Status,862,15347021142,/g3t1_2,,running
Status,863,15347492740,/g3t1_1,,running
Status,864,15348124813,/g3t1_1,,success
Status,865,15348206436,/g3t1_2,,success
Status,866,15348343679,/g3t1_3,,running
Status,867,15348519575,/g3t1_3,,success
Status,868,15391130178,/g4t1,,fail
Status,869,15396748780,/g3t1_1,,running
Status,870,15396816052,/g3t1_2,,running
Status,871,15397065033,/g3t1_2,,success
Status,872,15397101255,/g3t1_1,,success
Status,873,15397506829,/g3t1_3,,running
Status,874,15397566031,/g3t1_3,,success
Status,875,15446769455,/g3t1_1,,running
Status,876,15446805736,/g3t1_2,,running
Status,877,15446819799,/g3t1_2,,success
Status,878,15446831546,/g3t1_1,,success
Status,879,15447246137,/g3t1_3,,running
Status,880,15447454879,/g3t1_3,,success
Status,881,15490282015,/g4t1,,fail
Status,882,15497086449,/g3t1_1,,running
Status,883,15497147787,/g3t1_2,,running
Status,884,15497259895,/g3t1_1,,success
Status,885,15497317766,/g3t1_2,,success
Status,886,15497488060,/g3t1_3,,running
Status,887,15497619494,/g3t1_3,,success
Status,888,15547340917,/g3t1_1,,running
Status,889,15547472742,/g3t1_2,,running
Status,890,15547510668,/g3t1_1,,success
Status,891,15547567976,/g3t1_2,,success
Status,892,15547921918,/g3t1_3,,running
Status,893,15548257008,/g3t1_3,,success
Status,894,15590852786,/g4t1,,fail
Status,895,15597561697,/g3t1_2,,running
Status,896,15597618766,/g3t1_1,,running
Status,897,15598040738,/g3t1_1,,success
Status,898,15598127176,/g3t1_2,,success
Status,899,15598153487,/g3t1_3,,running
Status,900,15598371238,/g3t1_3,,success
Status,901,15647446364,/g3t1_1,,running
Status,902,15647499499,/g3t1_2,,running
Status,903,15647549598,/g3t1_1,,success
Status,904,15647613783,/g3t1_2,,success
Status,905,15647997341,/g3t1_3,,running
Status,906,15648041641,/g3t1_3,,success
Status,907,15690505185,/g4t1,,fail
Status,908,15698388557,/g3t1_2,,running
Status,909,15698467610,/g3t1_1,,running
Status,910,15698862742,/g3t1_3,,running
Status,911,15698908169,/g3t1_2,,success
Status,912,15698956421,/g3t1_1,,success
Status,913,15698980274,/g3t1_3,,success
Status,914,15748043977,/g3t1_1,,running
Status,915,15748105828,/g3t1_2,,running
Status,916,15748521226,/g3t1_1,,success
Status,917,15748573583,/g3t1_2,,success
Status,918,15748597422,/g3t1_3,,running
Status,919,15748623512,/g3t1_3,,success
Status,920,15791113155,/g4t1,,fail
Status,921,15797708174,/g3t1_1,,running
Status,922,15797780263,/g3t1_2,,running
Status,923,15798360296,/g3t1_1,,success
Status,924,15798426499,/g3t1_2,,success
Status,925,15798614325,/g3t1_3,,running
Status,926,15798969062,/g3t1_3,,success
Status,927,15848895202,/g3t1_1,,running
Status,928,15849041256,/g3t1_2,,running
Status,929,15849166262,/g3t1_1,,success
Status,930,15849193007,/g3t1_2,,success
Status,931,15849217305,/g3t1_3,,running
Status,932,15849553053,/g3t1_3,,success
Status,933,15891275144,/g4t1,,fail
Status,934,15900199231,/g3t1_2,,running
Status,935,15900283833,/g3t1_2,,success
Status,936,15900323188,/g3t1_1,,running
Status,937,15900357385,/g3t1_1,,success
Status,938,15900579880,/g3t1_3,,running
Status,939,15900615971,/g3t1_3,,success
Status,940,15947838611,/g3t1_2,,running
Status,941,15948181215,/g3t1_1,,running
Status,942,15948206618,/g3t1_1,,success
Status,943,15948219613,/g3t1_2,,success
Status,944,15948880202,/g3t1_3,,running
Status,945,15948902152,/g3t1_3,,success
Status,946,15990640793,/g4t1,,fail
Status,947,15997962318,/g3t1_2,,running
Status,948,15998127741,/g3t1_1,,running
Status,949,15998163404,/g3t1_2,,success
Status,950,15998361141,/g3t1_1,,success
Status,951,15998674522,/g3t1_3,,running
Status,952,15998781848,/g3t1_3,,success
Status,953,16049180431,/g3t1_2,,running
Status,954,16049230632,/g3t1_1,,running
Status,955,16049274846,/g3t1_2,,success
Status,956,16049289086,/g3t1_3,,running
Status,957,16049311705,/g3t1_3,,success
Status,958,16049324129,/g3t1_1,,success
Status,959,16091779783,/g4t1,,fail
Status,960,16099312360,/g3t1_2,,running
Status,961,16099570688,/g3t1_1,,running
Status,962,16099723990,/g3t1_3,,running
Status,963,16100199145,/g3t1_2,,success
Status,964,16100339829,/g3t1_1,,success
Status,965,16100452306,/g3t1_3,,success
Status,966,16149414816,/g3t1_2,,running
Status,967,16149510790,/g3t1_1,,running
Status,968,16149557040,/g3t1_3,,running
Status,969,16150245227,/g3t1_2,,success
Status,970,16150298328,/g3t1_1,,success
Status,971,16150397954,/g3t1_3,,success
Status,972,16191773827,/g4t1,,fail
Status,973,16199283955,/g3t1_2,,running
Status,974,16199369037,/g3t1_1,,running
Status,975,16199856593,/g3t1_2,,success
Status,976,16199970305,/g3t1_3,,running
Status,977,16200395444,/g3t1_1,,success
Status,978,16200516119,/g3t1_3,,success
Status,979,16249727043,/g3t1_2,,running
Status,980,16249853702,/g3t1_1,,running
Status,981,16250316956,/g3t1_3,,running
Status,982,16250423271,/g3t1_2,,success
Status,983,16250610449,/g3t1_1,,success
Status,984,16250660112,/g3t1_3,,success
Status,985,16291888409,/g4t1,,fail
Status,986,16299497275,/g3t1_2,,running
Status,987,16299657083,/g3t1_1,,running
Status,988,16300190348,/g3t1_1,,success
Status,989,16300265899,/g3t1_2,,success
Status,990,16300345268,/g3t1_3,,running
Status,991,16300631832,/g3t1_3,,success
Status,992,16350261659,/g3t1_1,,running
Status,993,16350445129,/g3t1_2,,running
Status,994,16350480925,/g3t1_3,,running
Status,995,16350505082,/g3t1_2,,success
Status,996,16350830787,/g3t1_3,,success
Status,997,16350901376,/g3t1_1,,success
Status,998,16392178632,/g4t1,,fail
Status,999,16400407824,/g3t1_2,,running
Status,1000,16400601816,/g3t1_1,,running
Status,1001,16400646396,/g3t1_2,,success
Status,1002,16401185986,/g3t1_3,,running
Status,1003,16401273901,/g3t1_1,,success
Status,1004,16401464040,/g3t1_3,,success
Status,1005,16450113655,/g3t1_1,,running
Status,1006,16450210162,/g3t1_2,,running
Status,1007,16450329276,/g3t1_1,,success
Status,1008,16450365843,/g3t1_3,,running
Status,1009,16450708339,/g3t1_2,,success
Status,1010,16450830926,/g3t1_3,,success
Status,1011,16492125730,/g4t1,,fail
Status,1012,16500490400,/g3t1_1,,running
Status,1013,16500560018,/g3t1_2,,running
Status,1014,16500587191,/g3t1_3,,running
Status,1015,16500698793,/g3t1_2,,success
Status,1016,16500737305,/g3t1_1,,success
Status,1017,16501099409,/g3t1_3,,success
Status,1018,16550380958,/g3t1_1,,running
Status,1019,16550477992,/g3t1_2,,running
Status,1020,16550663753,/g3t1_3,,running
Status,1021,16550713585,/g3t1_2,,success
Status,1022,16551246388,/g3t1_1,,success
Status,1023,16551327206,/g3t1_3,,success
Status,1024,16592338924,/g4t1,,fail
Status,1025,16600690003,/g3t1_1,,running
Status,1026,16600882334,/g3t1_2,,running
Status,1027,16600933634,/g3t1_3,,running
Status,1028,16601253360,/g3t1_1,,success
Status,1029,16601301419,/g3t1_2,,success
Status,1030,16601598037,/g3t1_3,,success
Status,1031,16650996784,/g3t1_1,,running
Status,1032,16651118161,/g3t1_2,,running
Status,1033,16651347692,/g3t1_2,,success
Status,1034,16651396245,/g3t1_3,,running
Status,1035,16651429086,/g3t1_3,,success
Status,1036,16651455310,/g3t1_1,,success
Status,1037,16692576577,/g4t1,,fail
Status,1038,16700746157,/g3t1_1,,running
Status,1039,16701079264,/g3t1_2,,running
Status,1040,16701287404,/g3t1_2,,success
Status,1041,16701460765,/g3t1_3,,running
Status,1042,16702216775,/g3t1_3,,success
Status,1043,16702300410,/g3t1_1,,success
Status,1044,16750689332,/g3t1_1,,running
Status,1045,16750833448,/g3t1_2,,running
Status,1046,16751519520,/g3t1_2,,success
Status,1047,16751640071,/g3t1_3,,running
Status,1048,16751677942,/g3t1_1,,success
Status,1049,16752153089,/g3t1_3,,success
Status,1050,16792517440,/g4t1,,fail
Status,1051,16801054611,/g3t1_1,,running
Status,1052,16801238614,/g3t1_2,,running
Status,1053,16801297301,/g3t1_1,,success
Status,1054,16801903591,/g3t1_3,,running
Status,1055,16802265291,/g3t1_3,,success
Status,1056,16802308348,/g3t1_2,,success
Status,1057,16851240176,/g3t1_1,,running
Status,1058,16851316008,/g3t1_2,,running
Status,1059,16851462575,/g3t1_1,,success
Status,1060,16851508469,/g3t1_2,,success
Status,1061,16851546495,/g3t1_3,,running
Status,1062,16853192832,/g3t1_3,,success
Status,1063,16892651089,/g4t1,,fail
Status,1064,16900934984,/g3t1_2,,running
Status,1065,16901031584,/g3t1_1,,running
Status,1066,16901724818,/g3t1_3,,running
Status,1067,16901803960,/g3t1_1,,success
Status,1068,16902120517,/g3t1_2,,success
Status,1069,16902201186,/g3t1_3,,success
Status,1070,16950582487,/g3t1_2,,running
Status,1071,16950642845,/g3t1_1,,running
Status,1072,16951099913,/g3t1_2,,success
Status,1073,16951165812,/g3t1_1,,success
Status,1074,16951577260,/g3t1_3,,running
Status,1075,16951789808,/g3t1_3,,success
Status,1076,16992028479,/g4t1,,fail
Status,1077,17000394221,/g3t1_2,,running
Status,1078,17000502386,/g3t1_1,,running
Status,1079,17000560860,/g3t1_2,,success
Status,1080,17000763736,/g3t1_1,,success
Status,1081,17001222807,/g3t1_3,,running
Status,1082,17001363558,/g3t1_3,,success
Status,1083,17051232426,/g3t1_2,,running
Status,1084,17051292176,/g3t1_2,,success
Status,1085,17051306234,/g3t1_1,,running
Status,1086,17051371971,/g3t1_1,,success
Status,1087,17051383950,/g3t1_3,,running
Status,1088,17051544607,/g3t1_3,,success
Status,1089,17092046571,/g4t1,,fail
Status,1090,17100805670,/g3t1_2,,running
Status,1091,17100835591,/g3t1_1,,running
Status,1092,17100863814,/g3t1_1,,success
Status,1093,17100876150,/g3t1_2,,success
Status,1094,17101284707,/g3t1_3,,running
Status,1095,17101411483,/g3t1_3,,success
Status,1096,17152603784,/g3t1_2,,running
Status,1097,17152718902,/g3t1_1,,running
Status,1098,17152895204,/g3t1_2,,success
Status,1099,17152933344,/g3t1_1,,success
Status,1100,17152965416,/g3t1_3,,running
Status,1101,17152997501,/g3t1_3,,success
Status,1102,17192764462,/g4t1,,fail
Status,1103,17202448990,/g3t1_2,,running
Status,1104,17202606323,/g3t1_1,,running
Status,1105,17202647001,/g3t1_2,,success
Status,1106,17202751141,/g3t1_1,,success
Status,1107,17202788796,/g3t1_3,,running
Status,1108,17203565807,/g3t1_3,,success
Status,1109,17252145416,/g3t1_1,,running
Status,1110,17252217539,/g3t1_2,,running
Status,1111,17253110047,/g3t1_3,,running
Status,1112,17253221045,/g3t1_1,,success
Status,1113,17253252514,/g3t1_2,,success
Status,1114,17253528412,/g3t1_3,,success
Status,1115,17292529423,/g4t1,,fail
Status,1116,17302099969,/g3t1_1,,running
Status,1117,17302285314,/g3t1_2,,running
Status,1118,17303293186,/g3t1_3,,running
Status,1119,17303337322,/g3t1_2,,success
Status,1120,17303425177,/g3t1_1,,success
Status,1121,17303452245,/g3t1_3,,success
Status,1122,17352886871,/g3t1_1,,running
Status,1123,17353005179,/g3t1_2,,running
Status,1124,17353743432,/g3t1_3,,running
Status,1125,17353811439,/g3t1_1,,success
Status,1126,17353955956,/g3t1_2,,success
Status,1127,17353984731,/g3t1_3,,success
Status,1128,17392953180,/g4t1,,fail
Status,1129,17403388149,/g3t1_1,,running
Status,1130,17403598947,/g3t1_2,,running
Status,1131,17403644082,/g3t1_3,,running
Status,1132,17403700641,/g3t1_3,,success
Status,1133,17403787987,/g3t1_1,,success
Status,1134,17404042368,/g3t1_2,,success
Status,1135,17452973750,/g3t1_1,,running
Status,1136,17453143663,/g3t1_2,,running
Status,1137,17453243466,/g3t1_2,,success
Status,1138,17453281533,/g3t1_3,,running
Status,1139,17453584827,/g3t1_1,,success
Status,1140,17453697495,/g3t1_3,,success
Status,1141,17493084077,/g4t1,,fail
Status,1142,17503336125,/g3t1_1,,running
Status,1143,17503408796,/g3t1_2,,running
Status,1144,17503652763,/g3t1_1,,success
Status,1145,17503718191,/g3t1_3,,running
Status,1146,17503823840,/g3t1_2,,success
Status,1147,17504045284,/g3t1_3,,success
Status,1148,17553594969,/g3t1_1,,running
Status,1149,17553669038,/g3t1_2,,running
Status,1150,17553733699,/g3t1_1,,success
Status,1151,17553764756,/g3t1_2,,success
Status,1152,17553794273,/g3t1_3,,running
Status,1153,17553870253,/g3t1_3,,success
Status,1154,17593178500,/g4t1,,fail
Status,1155,17602980854,/g3t1_2,,running
Status,1156,17603060370,/g3t1_1,,running
Status,1157,17603622126,/g3t1_3,,running
Status,1158,17603682070,/g3t1_1,,success
Status,1159,17604235063,/g3t1_3,,success
Status,1160,17604292594,/g3t1_2,,success
Status,1161,17653252459,/g3t1_1,,running
Status,1162,17653347529,/g3t1_2,,running
Status,1163,17653494211,/g3t1_2,,success
Status,1164,17653550262,/g3t1_1,,success
Status,1165,17653735578,/g3t1_3,,running
Status,1166,17653787993,/g3t1_3,,success
Status,1167,17693346554,/g4t1,,fail
Status,1168,17704303748,/g3t1_1,,running
Status,1169,17704439733,/g3t1_2,,running
Status,1170,17704502604,/g3t1_2,,success
Status,1171,17704625312,/g3t1_3,,running
Status,1172,17704651786,/g3t1_3,,success
Status,1173,17704678836,/g3t1_1,,success
Status,1174,17752948677,/g3t1_1,,running
Status,1175,17752978706,/g3t1_2,,running
Status,1176,17753243804,/g3t1_2,,success
Status,1177,17753271973,/g3t1_1,,success
Status,1178,17753428334,/g3t1_3,,running
Status,1179,17753578545,/g3t1_3,,success
Status,1180,17792926245,/g4t1,,fail
Status,1181,17803002471,/g3t1_1,,running
Status,1182,17803040692,/g3t1_2,,running
Status,1183,17803374891,/g3t1_1,,success
Status,1184,17803400821,/g3t1_2,,success
Status,1185,17803443147,/g3t1_3,,running
Status,1186,17803696277,/g3t1_3,,success
Status,1187,17853074200,/g3t1_1,,running
Status,1188,17853127251,/g3t1_2,,running
Status,1189,17853143844,/g3t1_1,,success
Status,1190,17853223967,/g3t1_2,,success
Status,1191,17853700284,/g3t1_3,,running
Status,1192,17853724324,/g3t1_3,,success
Status,1193,17894550728,/g4t1,,fail
Status,1194,17903401956,/g3t1_1,,running
Status,1195,17903476500,/g3t1_2,,running
Status,1196,17904009720,/g3t1_3,,running
Status,1197,17904221362,/g3t1_1,,success
Status,1198,17904265138,/g3t1_2,,success
Status,1199,17905238795,/g3t1_3,,success
Status,1200,17953573321,/g3t1_1,,running
Status,1201,17953644506,/g3t1_2,,running
Status,1202,17954302845,/g3t1_1,,success
Status,1203,17954360802,/g3t1_3,,running
Status,1204,17954400009,/g3t1_2,,success
Status,1205,17954492231,/g3t1_3,,success
Status,1206,17993724434,/g4t1,,fail
Status,1207,18003499465,/g3t1_1,,running
Status,1208,18003557849,/g3t1_2,,running
Status,1209,18004479646,/g3t1_1,,success
Status,1210,18004534395,/g3t1_2,,success
Status,1211,18004641797,/g3t1_3,,running
Status,1212,18004763534,/g3t1_3,,success
Status,1213,18054037559,/g3t1_1,,running
Status,1214,18054660408,/g3t1_2,,running
Status,1215,18054734421,/g3t1_1,,success
Status,1216,18054774058,/g3t1_3,,running
Status,1217,18054808654,/g3t1_2,,success
Status,1218,18054988602,/g3t1_3,,success
Status,1219,18094164221,/g4t1,,fail
Status,1220,18104137557,/g3t1_2,,running
Status,1221,18104204896,/g3t1_1,,running
Status,1222,18104554736,/g3t1_3,,running
Status,1223,18104667661,/g3t1_1,,success
Status,1224,18104700467,/g3t1_2,,success
Status,1225,18104728822,/g3t1_3,,success
Status,1226,18154106288,/g3t1_2,,running
Status,1227,18155009808,/g3t1_1,,running
Status,1228,18155095158,/g3t1_3,,running
Status,1229,18155271542,/g3t1_2,,success
Status,1230,18155436111,/g3t1_1,,success
Status,1231,18155927769,/g3t1_3,,success
Status,1232,18194313138,/g4t1,,fail
Status,1233,18204043756,/g3t1_1,,running
Status,1234,18204110676,/g3t1_2,,running
Status,1235,18204184647,/g3t1_1,,success
Status,1236,18204213274,/g3t1_2,,success
Status,1237,18204235174,/g3t1_3,,running
Status,1238,18204580057,/g3t1_3,,success
Status,1239,18254000634,/g3t1_1,,running
Status,1240,18254497587,/g3t1_2,,running
Status,1241,18254541873,/g3t1_1,,success
Status,1242,18254565756,/g3t1_3,,running
Status,1243,18254793460,/g3t1_2,,success
Status,1244,18255020816,/g3t1_3,,success
Status,1245,18293878208,/g4t1,,fail
Status,1246,18304428240,/g3t1_1,,running
Status,1247,18304484935,/g3t1_2,,running
Status,1248,18304561235,/g3t1_1,,success
Status,1249,18304584401,/g3t1_3,,running
Status,1250,18305005628,/g3t1_3,,success
Status,1251,18305052807,/g3t1_2,,success
Status,1252,18354145220,/g3t1_1,,running
Status,1253,18354740555,/g3t1_2,,running
Status,1254,18354812028,/g3t1_2,,success
Status,1255,18354859044,/g3t1_3,,running
Status,1256,18354875706,/g3t1_1,,success
Status,1257,18354888030,/g3t1_3,,success
Status,1258,18394067130,/g4t1,,fail
Status,1259,18404935877,/g3t1_1,,running
Status,1260,18404982785,/g3t1_2,,running
Status,1261,18405311769,/g3t1_2,,success
Status,1262,18405404879,/g3t1_3,,running
Status,1263,18405433059,/g3t1_1,,success
Status,1264,18405454818,/g3t1_3,,success
Status,1265,18454632749,/g3t1_1,,running
Status,1266,18454692028,/g3t1_2,,running
Status,1267,18455035478,/g3t1_1,,success
Status,1268,18455081487,/g3t1_3,,running
Status,1269,18455773057,/g3t1_3,,success
Status,1270,18455815405,/g3t1_2,,success
Status,1271,18494073024,/g4t1,,fail
Status,1272,18504584299,/g3t1_1,,running
Status,1273,18504651323,/g3t1_2,,running
Status,1274,18505124851,/g3t1_2,,success
Status,1275,18505175522,/g3t1_3,,running
Status,1276,18505253671,/g3t1_1,,success
Status,1277,18505475928,/g3t1_3,,success
Status,1278,18555214801,/g3t1_1,,running
Status,1279,18555566486,/g3t1_2,,running
Status,1280,18555693400,/g3t1_2,,success
Status,1281,18555856911,/g3t1_3,,running
Status,1282,18556258816,/g3t1_3,,success
Status,1283,18556327983,/g3t1_1,,success
Status,1284,18594772800,/g4t1,,fail
Status,1285,18605152454,/g3t1_1,,running
Status,1286,18605262076,/g3t1_2,,running
Status,1287,18606370729,/g3t1_3,,running
Status,1288,18606421227,/g3t1_2,,success
Status,1289,18606591086,/g3t1_1,,success
Status,1290,18606633214,/g3t1_3,,success
Status,1291,18655932666,/g3t1_1,,running
Status,1292,18656010360,/g3t1_2,,running
Status,1293,18656115836,/g3t1_3,,running
Status,1294,18656380539,/g3t1_2,,success
Status,1295,18656659682,/g3t1_3,,success
Status,1296,18656730128,/g3t1_1,,success
Status,1297,18694892661,/g4t1,,fail
Status,1298,18706066678,/g3t1_1,,running
Status,1299,18706147250,/g3t1_2,,running
Status,1300,18706285835,/g3t1_1,,success
Status,1301,18706408800,/g3t1_3,,running
Status,1302,18706446753,/g3t1_3,,success
Status,1303,18706984174,/g3t1_2,,success
Status,1304,18755681053,/g3t1_1,,running
Status,1305,18755764485,/g3t1_2,,running
Status,1306,18755897051,/g3t1_3,,running
Status,1307,18755932063,/g3t1_2,,success
Status,1308,18755971491,/g3t1_1,,success
Status,1309,18756682445,/g3t1_3,,success
Status,1310,18795138433,/g4t1,,fail
Status,1311,18805614201,/g3t1_1,,running
Status,1312,18805705100,/g3t1_2,,running
Status,1313,18806661349,/g3t1_1,,success
Status,1314,18806822720,/g3t1_3,,running
Status,1315,18806876316,/g3t1_3,,success
Status,1316,18806912045,/g3t1_2,,success
Status,1317,18855671473,/g3t1_1,,running
Status,1318,18855774090,/g3t1_2,,running
Status,1319,18856615603,/g3t1_1,,success
Status,1320,18856735072,/g3t1_2,,success
Status,1321,18856891871,/g3t1_3,,running
Status,1322,18857266139,/g3t1_3,,success
Status,1323,18895255229,/g4t1,,fail
Status,1324,18905960225,/g3t1_1,,running
Status,1325,18906050021,/g3t1_2,,running
Status,1326,18906559176,/g3t1_1,,success
Status,1327,18907136612,/g3t1_2,,success
Status,1328,18907201147,/g3t1_3,,running
Status,1329,18907656358,/g3t1_3,,success
Status,1330,18956044957,/g3t1_1,,running
Status,1331,18956138435,/g3t1_2,,running
Status,1332,18956607692,/g3t1_1,,success
Status,1333,18957360295,/g3t1_3,,running
Status,1334,18957434517,/g3t1_3,,success
Status,1335,18957567099,/g3t1_2,,success
Status,1336,18995419164,/g4t1,,fail
Status,1337,19006284401,/g3t1_1,,running
Status,1338,19006829846,/g3t1_2,,running
Status,1339,19006900032,/g3t1_1,,success
Status,1340,19007081159,/g3t1_2,,success
Status,1341,19007113873,/g3t1_3,,running
Status,1342,19007755737,/g3t1_3,,success
Status,1343,19057165193,/g3t1_1,,running
Status,1344,19057715524,/g3t1_2,,running
Status,1345,19057851659,/g3t1_3,,running
Status,1346,19058055821,/g3t1_2,,success
Status,1347,19058087245,/g3t1_1,,success
Status,1348,19058116639,/g3t1_3,,success
Status,1349,19095485526,/g4t1,,fail
Status,1350,19106678161,/g3t1_1,,running
Status,1351,19106820779,/g3t1_2,,running
Status,1352,19107472593,/g3t1_3,,running
Status,1353,19107587139,/g3t1_2,,success
Status,1354,19107714803,/g3t1_1,,success
Status,1355,19107749220,/g3t1_3,,success
Status,1356,19157344368,/g3t1_1,,running
Status,1357,19157440817,/g3t1_2,,running
Status,1358,19157473033,/g3t1_3,,running
Status,1359,19157568647,/g3t1_1,,success
Status,1360,19157651429,/g3t1_2,,success
Status,1361,19158200591,/g3t1_3,,success
Status,1362,19195675250,/g4t1,,fail
Status,1363,19207056946,/g3t1_2,,running
Status,1364,19207272559,/g3t1_1,,running
Status,1365,19207720594,/g3t1_3,,running
Status,1366,19207869010,/g3t1_1,,success
Status,1367,19207919138,/g3t1_2,,success
Status,1368,19208410052,/g3t1_3,,success
Status,1369,19257626482,/g3t1_1,,running
Status,1370,19257734155,/g3t1_2,,running
Status,1371,19257885489,/g3t1_3,,running
Status,1372,19258356619,/g3t1_3,,success
Status,1373,19258459388,/g3t1_1,,success
Status,1374,19259041936,/g3t1_2,,success
Status,1375,19295688020,/g4t1,,fail
Status,1376,19307657740,/g3t1_1,,running
Status,1377,19307764168,/g3t1_2,,running
Status,1378,19307987329,/g3t1_1,,success
Status,1379,19308045536,/g3t1_3,,running
Status,1380,19308641028,/g3t1_3,,success
Status,1381,19309326127,/g3t1_2,,success
Status,1382,19358039963,/g3t1_2,,running
Status,1383,19358139077,/g3t1_1,,running
Status,1384,19358288869,/g3t1_2,,success
Status,1385,19358748955,/g3t1_3,,running
Status,1386,19358896392,/g3t1_1,,success
Status,1387,19358942040,/g3t1_3,,success
Status,1388,19395803617,/g4t1,,fail
Status,1389,19408919663,/g3t1_1,,running
Status,1390,19408999229,/g3t1_2,,running
Status,1391,19409102387,/g3t1_1,,success
Status,1392,19409140028,/g3t1_2,,success
Status,1393,19409172181,/g3t1_3,,running
Status,1394,19409207498,/g3t1_3,,success
Status,1395,19457570324,/g3t1_2,,running
Status,1396,19458629125,/g3t1_1,,running
Status,1397,19458745472,/g3t1_3,,running
Status,1398,19459132677,/g3t1_1,,success
Status,1399,19459264360,/g3t1_2,,success
Status,1400,19459353960,/g3t1_3,,success
Status,1401,19496061232,/g4t1,,fail
Status,1402,19507704968,/g3t1_2,,running
Status,1403,19508738425,/g3t1_1,,running
Status,1404,19508861577,/g3t1_1,,success
Status,1405,19509039944,/g3t1_2,,success
Status,1406,19509112505,/g3t1_3,,running
Status,1407,19509227136,/g3t1_3,,success
Status,1408,19559065819,/g3t1_2,,running
Status,1409,19559120690,/g3t1_1,,running
Status,1410,19559212005,/g3t1_1,,success
Status,1411,19559236765,/g3t1_3,,running
Status,1412,19559262692,/g3t1_2,,success
Status,1413,19559314967,/g3t1_3,,success
Status,1414,19596094636,/g4t1,,fail
Status,1415,19609183626,/g3t1_2,,running
Status,1416,19609276620,/g3t1_1,,running
Status,1417,19609318432,/g3t1_3,,running
Status,1418,19609378235,/g3t1_2,,success
Status,1419,19609622784,/g3t1_3,,success
Status,1420,19609657840,/g3t1_1,,success
Status,1421,19658716739,/g3t1_2,,running
Status,1422,19658819063,/g3t1_1,,running
Status,1423,19658996017,/g3t1_3,,running
Status,1424,19659849794,/g3t1_3,,success
Status,1425,19659914565,/g3t1_1,,success
Status,1426,19660003035,/g3t1_2,,success
Status,1427,19696224994,/g4t1,,fail
Status,1428,19709508138,/g3t1_2,,running
Status,1429,19709583752,/g3t1_1,,running
Status,1430,19709683793,/g3t1_3,,running
Status,1431,19709714703,/g3t1_2,,success
Status,1432,19710005872,/g3t1_3,,success
Status,1433,19710070017,/g3t1_1,,success
Status,1434,19758775579,/g3t1_2,,running
Status,1435,19758867761,/g3t1_1,,running
Status,1436,19759244639,/g3t1_3,,running
Status,1437,19759313304,/g3t1_2,,success
Status,1438,19759756723,/g3t1_1,,success
Status,1439,19759902090,/g3t1_3,,success
Status,1440,19796416712,/g4t1,,fail
Status,1441,19810016364,/g3t1_2,,running
Status,1442,19810296313,/g3t1_1,,running
Status,1443,19810379472,/g3t1_1,,success
Status,1444,19810401131,/g3t1_2,,success
Status,1445,19810426038,/g3t1_3,,running
Status,1446,19810466670,/g3t1_3,,success
Status,1447,19859976841,/g3t1_2,,running
Status,1448,19860054773,/g3t1_1,,running
Status,1449,19860164536,/g3t1_3,,running
Status,1450,19860196332,/g3t1_1,,success
Status,1451,19860218025,/g3t1_2,,success
Status,1452,19860568019,/g3t1_3,,success
Status,1453,19896635075,/g4t1,,fail
Status,1454,19909891269,/g3t1_2,,running
Status,1455,19910155049,/g3t1_1,,running
Status,1456,19910203667,/g3t1_3,,running
Status,1457,19910230721,/g3t1_2,,success
Status,1458,19910253661,/g3t1_3,,success
Status,1459,19910278651,/g3t1_1,,success
Status,1460,19959804112,/g3t1_2,,running
Status,1461,19959884801,/g3t1_1,,running
Status,1462,19959934056,/g3t1_2,,success
Status,1463,19960070037,/g3t1_3,,running
Status,1464,19960723392,/g3t1_3,,success
Status,1465,19960975404,/g3t1_1,,success
Status,1466,19997061178,/g4t1,,fail
Status,1467,20009143463,/g3t1_2,,running
Status,1468,20010330489,/g3t1_2,,success
Status,1469,20010447991,/g3t1_1,,running
Status,1470,20010527156,/g3t1_3,,running
Status,1471,20010551397,/g3t1_1,,success
Status,1472,20010902384,/g3t1_3,,success
Status,1473,20059815342,/g3t1_2,,running
Status,1474,20059915302,/g3t1_1,,running
Status,1475,20060364423,/g3t1_2,,success
Status,1476,20060422166,/g3t1_3,,running
Status,1477,20060500914,/g3t1_1,,success
Status,1478,20061325473,/g3t1_3,,success
Status,1479,20096893823,/g4t1,,fail
Status,1480,20109691564,/g3t1_2,,running
Status,1481,20109800497,/g3t1_1,,running
Status,1482,20110481269,/g3t1_1,,success
Status,1483,20110557617,/g3t1_2,,success
Status,1484,20110610368,/g3t1_3,,running
Status,1485,20110805833,/g3t1_3,,success
Status,1486,20160403431,/g3t1_2,,running
Status,1487,20160441627,/g3t1_2,,success
Status,1488,20160495647,/g3t1_1,,running
Status,1489,20160512522,/g3t1_1,,success
Status,1490,20160528223,/g3t1_3,,running
Status,1491,20160543796,/g3t1_3,,success
Status,1492,20196854557,/g4t1,,fail
Status,1493,20209781729,/g3t1_2,,running
Status,1494,20209867896,/g3t1_1,,running
Status,1495,20210346885,/g3t1_2,,success
Status,1496,20210401330,/g3t1_1,,success
Status,1497,20210489693,/g3t1_3,,running
Status,1498,20210964653,/g3t1_3,,success
Status,1499,20260369974,/g3t1_2,,running
Status,1500,20260467415,/g3t1_1,,running
Status,1501,20261213708,/g3t1_1,,success
Status,1502,20261273884,/g3t1_2,,success
Status,1503,20261312587,/g3t1_3,,running
Status,1504,20261441384,/g3t1_3,,success
Status,1505,20297127919,/g4t1,,fail
Status,1506,20310440566,/g3t1_2,,running
Status,1507,20310521786,/g3t1_1,,running
Status,1508,20311299467,/g3t1_2,,success
Status,1509,20311378671,/g3t1_1,,success
Status,1510,20311508414,/g3t1_3,,running
Status,1511,20312036247,/g3t1_3,,success
Status,1512,20360225405,/g3t1_2,,running
