
Status,2,3365036217,/g4t1,,init
Status,3,8681011943,/g3t1_1,,init
Status,5,8681215994,/g3t1_2,,init
Status,7,8697485796,/g3t1_1,,init
Status,8,8697647801,/g3t1_1,,running
Status,9,8697661027,/g3t1_2,,init
Status,10,8697667902,/g3t1_2,,running
Status,11,8698318840,/g3t1_1,,success
Status,12,8698497299,/g3t1_2,,success
Status,13,8797724996,/g3t1_1,,running
Status,14,8797744973,/g3t1_2,,running
Status,15,8797815500,/g3t1_1,,success
Status,16,8797843173,/g3t1_2,,success
Status,17,8897804202,/g3t1_1,,running
Status,18,8897847444,/g3t1_2,,running
Status,19,8897864191,/g3t1_1,,success
Status,20,8897900207,/g3t1_2,,success
Status,22,8982694246,/g3t1_3,,init
Status,23,8995856252,/g3t1_3,,init
Status,24,8995874869,/g3t1_3,,running
Status,25,8996586945,/g3t1_3,,success
Status,26,8997876170,/g3t1_1,,running
Status,27,8997900522,/g3t1_2,,running
Status,28,8998017428,/g3t1_1,,success
Status,29,8998155625,/g3t1_2,,success
Status,30,9011716563,/g4t1,,success
Status,31,9031777097,/g4t1,,success
Status,32,9096435121,/g3t1_3,,running
Status,33,9096809116,/g3t1_3,,success
Status,34,9098674305,/g3t1_1,,running
Status,35,9098723701,/g3t1_2,,running
Status,36,9098761731,/g3t1_1,,success
Status,37,9098811537,/g3t1_2,,success
Status,38,9112652230,/g4t1,,success
Status,39,9132707878,/g4t1,,success
Status,40,9152725895,/g4t1,,success
Status,41,9172646105,/g4t1,,success
Status,42,9196222168,/g3t1_3,,running
Status,43,9196386717,/g3t1_3,,success
Status,44,9198129254,/g3t1_1,,running
Status,45,9198154133,/g3t1_2,,running
Status,46,9198280531,/g3t1_1,,success
Status,47,9198298761,/g3t1_2,,success
Status,48,9212675630,/g4t1,,success
Status,49,9233380860,/g4t1,,success
Status,50,9253098605,/g4t1,,success
Status,51,9273414230,/g4t1,,success
Status,52,9293496212,/g4t1,,success
Status,53,9296438786,/g3t1_3,,running
Status,54,9297030563,/g3t1_3,,success
Status,55,9298499696,/g3t1_1,,running
Status,56,9298563393,/g3t1_2,,running
Status,57,9298966026,/g3t1_2,,success
Status,58,9299009934,/g3t1_1,,success
Status,59,9313733959,/g4t1,,success
Status,60,9333939582,/g4t1,,success
Status,61,9354211239,/g4t1,,success
Status,62,9374321669,/g4t1,,success
Status,63,9394159457,/g4t1,,success
Status,64,9397004386,/g3t1_3,,running
Status,65,9397110977,/g3t1_3,,success
Status,66,9399115487,/g3t1_2,,running
Status,67,9399156031,/g3t1_1,,running
Status,68,9399174544,/g3t1_1,,success
Status,69,9399192727,/g3t1_2,,success
Status,70,9414587862,/g4t1,,fail
Status,71,9433774024,/g4t1,,success
Status,72,9454113635,/g4t1,,success
Status,73,9474114163,/g4t1,,success
Status,74,9494280789,/g4t1,,success
Status,75,9496469679,/g3t1_3,,running
Status,76,9496623302,/g3t1_3,,success
Status,77,9498387420,/g3t1_1,,running
Status,78,9498414134,/g3t1_2,,running
Status,79,9498428666,/g3t1_1,,success
Status,80,9498500676,/g3t1_2,,success
Status,81,9514287450,/g4t1,,fail
Status,82,9535060054,/g4t1,,success
Status,83,9555400333,/g4t1,,success
Status,84,9575302375,/g4t1,,success
Status,85,9595311684,/g4t1,,success
Status,86,9596875451,/g3t1_3,,running
Status,87,9597225085,/g3t1_3,,success
Status,88,9598977995,/g3t1_1,,running
Status,89,9599061941,/g3t1_2,,running
Status,90,9599093472,/g3t1_1,,success
Status,91,9599380385,/g3t1_2,,success
Status,92,9615421984,/g4t1,,fail
Status,93,9635530288,/g4t1,,success
Status,94,9655855432,/g4t1,,success
Status,95,9676061959,/g4t1,,success
Status,96,9696308231,/g4t1,,success
Status,97,9697680169,/g3t1_3,,running
Status,98,9697749025,/g3t1_3,,success
Status,99,9699295122,/g3t1_1,,running
Status,100,9699354154,/g3t1_2,,running
Status,101,9699387653,/g3t1_1,,success
Status,102,9699612014,/g3t1_2,,success
Status,103,9716210666,/g4t1,,fail
Status,104,9736404484,/g4t1,,success
Status,105,9756675130,/g4t1,,success
Status,106,9776723654,/g4t1,,success
Status,107,9796782490,/g4t1,,success
Status,108,9797134467,/g3t1_3,,running
Status,109,9797921123,/g3t1_3,,success
Status,110,9799256919,/g3t1_1,,running
Status,111,9799319714,/g3t1_2,,running
Status,112,9799536142,/g3t1_2,,success
Status,113,9799775977,/g3t1_1,,success
Status,114,9816914212,/g4t1,,fail
Status,115,9836454302,/g4t1,,success
Status,116,9857524355,/g4t1,,success
Status,117,9877363986,/g4t1,,success
Status,118,9897724026,/g4t1,,success
Status,119,9897796722,/g3t1_3,,running
Status,120,9898190782,/g3t1_3,,success
Status,121,9899428128,/g3t1_1,,running
Status,122,9899518293,/g3t1_2,,running
Status,123,9900826915,/g3t1_1,,success
Status,124,9900894010,/g3t1_2,,success
Status,125,9917534690,/g4t1,,fail
Status,126,9938069380,/g4t1,,success
Status,127,9957870916,/g4t1,,success
Status,128,9978095626,/g4t1,,success
Status,129,9997933037,/g3t1_3,,running
Status,130,9998069803,/g4t1,,success
Status,131,9998095969,/g3t1_3,,success
Status,132,9999680322,/g3t1_1,,running
Status,133,9999755436,/g3t1_2,,running
Status,134,10000055908,/g3t1_1,,success
Status,135,10000205144,/g3t1_2,,success
Status,136,10018150942,/g4t1,,fail
Status,137,10038127615,/g4t1,,success
Status,138,10057801273,/g4t1,,success
Status,139,10078454173,/g4t1,,success
Status,140,10098265057,/g3t1_3,,running
Status,141,10098559609,/g3t1_3,,success
Status,142,10098618807,/g4t1,,success
Status,143,10100279376,/g3t1_1,,running
Status,144,10100342915,/g3t1_2,,running
Status,145,10100384436,/g3t1_1,,success
Status,146,10100530179,/g3t1_2,,success
Status,147,10118910321,/g4t1,,fail
Status,148,10139188129,/g4t1,,success
Status,149,10158995499,/g4t1,,success
Status,150,10178610121,/g4t1,,success
Status,151,10197467292,/g3t1_3,,running
Status,152,10197588696,/g3t1_3,,success
Status,153,10198555808,/g4t1,,fail
Status,154,10199098457,/g3t1_1,,running
Status,155,10199260308,/g3t1_2,,running
Status,156,10199283392,/g3t1_1,,success
Status,157,10199300185,/g3t1_2,,success
Status,158,10218708234,/g4t1,,fail
Status,159,10239575680,/g4t1,,success
Status,160,10259443313,/g4t1,,success
Status,161,10279463522,/g4t1,,success
Status,162,10298391300,/g3t1_3,,running
Status,163,10298468570,/g3t1_3,,success
Status,164,10300347745,/g3t1_1,,running
Status,165,10300421346,/g4t1,,fail
Status,166,10300850490,/g3t1_1,,success
Status,167,10300901387,/g3t1_2,,running
Status,168,10300926910,/g3t1_2,,success
Status,169,10319711822,/g4t1,,fail
Status,170,10340127078,/g4t1,,success
Status,171,10360095560,/g4t1,,success
Status,172,10380248864,/g4t1,,success
Status,173,10398613320,/g3t1_3,,running
Status,174,10398850011,/g3t1_3,,success
Status,175,10400223280,/g3t1_1,,running
Status,176,10400680920,/g3t1_2,,running
Status,177,10400718746,/g4t1,,fail
Status,178,10400737283,/g3t1_1,,success
Status,179,10400756501,/g3t1_2,,success
Status,180,10420532679,/g4t1,,fail
Status,181,10440850777,/g4t1,,success
Status,182,10460875555,/g4t1,,success
Status,183,10480979622,/g4t1,,success
Status,184,10498557077,/g3t1_3,,running
Status,185,10498792188,/g3t1_3,,success
Status,186,10499933734,/g3t1_1,,running
Status,187,10501465170,/g3t1_2,,running
Status,188,10501594522,/g3t1_1,,success
Status,189,10501682467,/g4t1,,fail
Status,190,10503146296,/g3t1_2,,success
Status,191,10521580071,/g4t1,,fail
Status,192,10541220556,/g4t1,,success
Status,193,10561153403,/g4t1,,success
Status,194,10581131783,/g4t1,,success
Status,195,10597981799,/g3t1_3,,running
Status,196,10598073577,/g3t1_3,,success
Status,197,10599364878,/g3t1_1,,running
Status,198,10599423637,/g3t1_1,,success
Status,199,10599745166,/g3t1_2,,running
Status,200,10599966056,/g3t1_2,,success
Status,201,10601081141,/g4t1,,fail
Status,202,10621248087,/g4t1,,success
Status,203,10641313674,/g4t1,,success
Status,204,10661387624,/g4t1,,success
Status,205,10681513458,/g4t1,,success
Status,206,10698353203,/g3t1_3,,running
Status,207,10698532163,/g3t1_3,,success
Status,208,10700141263,/g3t1_1,,running
Status,209,10700294182,/g3t1_1,,success
Status,210,10700858424,/g3t1_2,,running
Status,211,10700874513,/g3t1_2,,success
Status,212,10701467895,/g4t1,,fail
Status,213,10721588013,/g4t1,,success
Status,214,10741766747,/g4t1,,success
Status,215,10761864493,/g4t1,,success
Status,216,10781953228,/g4t1,,success
Status,217,10798251593,/g3t1_3,,running
Status,218,10798274172,/g3t1_3,,success
Status,219,10800127658,/g3t1_1,,running
Status,220,10800502508,/g3t1_1,,success
Status,221,10800523514,/g3t1_2,,running
Status,222,10800533806,/g3t1_2,,success
Status,223,10805292982,/g4t1,,fail
Status,224,10822919963,/g4t1,,success
Status,225,10842623325,/g4t1,,success
Status,226,10862359490,/g4t1,,success
Status,227,10882371897,/g4t1,,success
Status,228,10898230441,/g3t1_3,,running
Status,229,10898263709,/g3t1_3,,success
Status,230,10899593636,/g3t1_1,,running
Status,231,10899770826,/g3t1_1,,success
Status,232,10900097808,/g3t1_2,,running
Status,233,10900228753,/g3t1_2,,success
Status,234,10902847707,/g4t1,,fail
Status,235,10922606488,/g4t1,,success
Status,236,10942710825,/g4t1,,success
Status,237,10962793443,/g4t1,,success
Status,238,10982954174,/g4t1,,success
Status,239,10998270399,/g3t1_3,,running
Status,240,10998289858,/g3t1_3,,success
Status,241,10999592800,/g3t1_1,,running
Status,242,10999686804,/g3t1_1,,success
Status,243,11000082445,/g3t1_2,,running
Status,244,11000339642,/g3t1_2,,success
Status,245,11002741844,/g4t1,,fail
Status,246,11023049783,/g4t1,,success
Status,247,11043062885,/g4t1,,success
Status,248,11063230540,/g4t1,,success
Status,249,11083452988,/g4t1,,success
Status,250,11098307858,/g3t1_3,,running
Status,251,11098324688,/g3t1_3,,success
Status,252,11099657609,/g3t1_1,,running
Status,253,11099843668,/g3t1_1,,success
Status,254,11100157952,/g3t1_2,,running
Status,255,11100255415,/g3t1_2,,success
Status,256,11103352221,/g4t1,,fail
Status,257,11123494288,/g4t1,,success
Status,258,11143710990,/g4t1,,success
Status,259,11163731869,/g4t1,,success
Status,260,11183816107,/g4t1,,success
Status,261,11198330436,/g3t1_3,,running
Status,262,11198466291,/g3t1_3,,success
Status,263,11200838089,/g3t1_1,,running
Status,264,11200899703,/g3t1_1,,success
Status,265,11200911231,/g3t1_2,,running
Status,266,11200920129,/g3t1_2,,success
Status,267,11204472112,/g4t1,,fail
Status,268,11223936685,/g4t1,,success
Status,269,11244070749,/g4t1,,success
Status,270,11264200137,/g4t1,,success
Status,271,11284246304,/g4t1,,success
Status,272,11298446070,/g3t1_3,,running
Status,273,11298571236,/g3t1_3,,success
Status,274,11300308752,/g3t1_1,,running
Status,275,11300602735,/g3t1_1,,success
Status,276,11300621549,/g3t1_2,,running
Status,277,11300853565,/g3t1_2,,success
Status,278,11304764430,/g4t1,,fail
Status,279,11324571263,/g4t1,,success
Status,280,11344574820,/g4t1,,success
Status,281,11364680951,/g4t1,,success
Status,282,11384718120,/g4t1,,success
Status,283,11398527694,/g3t1_3,,running
Status,284,11398634023,/g3t1_3,,success
Status,285,11400541571,/g3t1_1,,running
Status,286,11400797537,/g3t1_1,,success
Status,287,11400828220,/g3t1_2,,running
Status,288,11400946500,/g3t1_2,,success
Status,289,11404864258,/g4t1,,fail
Status,290,11424974277,/g4t1,,success
Status,291,11445113480,/g4t1,,success
Status,292,11465311573,/g4t1,,success
Status,293,11485980220,/g4t1,,success
Status,294,11498872471,/g3t1_3,,running
Status,295,11499430579,/g3t1_3,,success
Status,296,11501251196,/g3t1_1,,running
Status,297,11501356849,/g3t1_2,,running
Status,298,11501391971,/g3t1_1,,success
Status,299,11501529705,/g3t1_2,,success
Status,300,11506388971,/g4t1,,fail
Status,301,11525730188,/g4t1,,success
Status,302,11545942180,/g4t1,,success
Status,303,11566145314,/g4t1,,success
Status,304,11586516471,/g4t1,,success
Status,305,11599333332,/g3t1_3,,running
Status,306,11599396745,/g3t1_3,,success
Status,307,11601451905,/g3t1_1,,running
Status,308,11601521768,/g3t1_1,,success
Status,309,11601716218,/g3t1_2,,running
Status,310,11601748481,/g3t1_2,,success
Status,311,11606725217,/g4t1,,fail
Status,312,11626284870,/g4t1,,success
Status,313,11646110444,/g4t1,,success
Status,314,11666779495,/g4t1,,success
Status,315,11686710981,/g4t1,,success
Status,316,11698923869,/g3t1_3,,running
Status,317,11698951884,/g3t1_3,,success
Status,318,11700606617,/g3t1_1,,running
Status,319,11701006510,/g3t1_1,,success
Status,320,11701035780,/g3t1_2,,running
Status,321,11701192884,/g3t1_2,,success
Status,322,11706509644,/g4t1,,fail
Status,323,11726600251,/g4t1,,success
Status,324,11747010831,/g4t1,,success
Status,325,11767314336,/g4t1,,success
Status,326,11787725533,/g4t1,,success
Status,327,11798889416,/g3t1_3,,running
Status,328,11799453126,/g3t1_3,,success
Status,329,11800708700,/g3t1_1,,running
Status,330,11800859739,/g3t1_1,,success
Status,331,11800976975,/g3t1_2,,running
Status,332,11801347595,/g3t1_2,,success
Status,333,11807259484,/g4t1,,fail
Status,334,11827674207,/g4t1,,success
Status,335,11847785213,/g4t1,,success
Status,336,11867664876,/g4t1,,success
Status,337,11888248528,/g4t1,,success
Status,338,11899368655,/g3t1_3,,running
Status,339,11899592679,/g3t1_3,,success
Status,340,11901437897,/g3t1_1,,running
Status,341,11902222507,/g3t1_1,,success
Status,342,11902530795,/g3t1_2,,running
Status,343,11902589796,/g3t1_2,,success
Status,344,11908302024,/g4t1,,fail
Status,345,11928020123,/g4t1,,success
Status,346,11948017267,/g4t1,,success
Status,347,11968147550,/g4t1,,success
Status,348,11988835992,/g4t1,,success
Status,349,11999591765,/g3t1_3,,running
Status,350,12000416779,/g3t1_3,,success
Status,351,12001620560,/g3t1_1,,running
Status,352,12001968121,/g3t1_1,,success
Status,353,12002270451,/g3t1_2,,running
Status,354,12002310905,/g3t1_2,,success
Status,355,12008843779,/g4t1,,fail
Status,356,12028426903,/g4t1,,success
Status,357,12048609370,/g4t1,,success
Status,358,12068845464,/g4t1,,success
Status,359,12088913958,/g4t1,,success
Status,360,12100159640,/g3t1_3,,running
Status,361,12100233806,/g3t1_3,,success
Status,362,12101270436,/g3t1_1,,running
Status,363,12102217889,/g3t1_2,,running
Status,364,12102963320,/g3t1_2,,success
Status,365,12103248183,/g3t1_1,,success
Status,366,12109308123,/g4t1,,fail
Status,367,12129017892,/g4t1,,success
Status,368,12149198250,/g4t1,,success
Status,369,12169560401,/g4t1,,success
Status,370,12189593238,/g4t1,,success
Status,371,12200338154,/g3t1_3,,running
Status,372,12200607659,/g3t1_3,,success
Status,373,12201468572,/g3t1_1,,running
Status,374,12202481926,/g3t1_1,,success
Status,375,12202559978,/g3t1_2,,running
Status,376,12202808429,/g3t1_2,,success
Status,377,12209746104,/g4t1,,fail
Status,378,12229450937,/g4t1,,success
Status,379,12249649973,/g4t1,,success
Status,380,12269754306,/g4t1,,success
Status,381,12290193243,/g4t1,,success
Status,382,12300227702,/g3t1_3,,running
Status,383,12300521750,/g3t1_3,,success
Status,384,12301479668,/g3t1_1,,running
Status,385,12302420999,/g3t1_1,,success
Status,386,12302503741,/g3t1_2,,running
Status,387,12302524400,/g3t1_2,,success
Status,388,12310372742,/g4t1,,fail
Status,389,12330324036,/g4t1,,success
Status,390,12350931065,/g4t1,,success
Status,391,12370286790,/g4t1,,success
Status,392,12390592844,/g4t1,,success
Status,393,12400547660,/g3t1_3,,running
Status,394,12400622018,/g3t1_3,,success
Status,395,12401696649,/g3t1_1,,running
Status,396,12402644681,/g3t1_1,,success
Status,397,12402712959,/g3t1_2,,running
Status,398,12402978628,/g3t1_2,,success
Status,399,12411164066,/g4t1,,fail
Status,400,12431178469,/g4t1,,success
Status,401,12450587569,/g4t1,,success
Status,402,12470602081,/g4t1,,success
Status,403,12491133548,/g4t1,,success
Status,404,12499886346,/g3t1_3,,running
Status,405,12500163552,/g3t1_3,,success
Status,406,12501195863,/g3t1_1,,running
Status,407,12501385395,/g3t1_1,,success
Status,408,12502042979,/g3t1_2,,running
Status,409,12502059470,/g3t1_2,,success
Status,410,12510764613,/g4t1,,fail
Status,411,12530869796,/g4t1,,success
Status,412,12551068066,/g4t1,,success
Status,413,12571103184,/g4t1,,success
Status,414,12591258622,/g4t1,,success
Status,415,12600857723,/g3t1_3,,running
Status,416,12600888968,/g3t1_3,,success
Status,417,12601490535,/g3t1_1,,running
Status,418,12601703700,/g3t1_1,,success
Status,419,12602052567,/g3t1_2,,running
Status,420,12602556062,/g3t1_2,,success
Status,421,12611433205,/g4t1,,fail
Status,422,12631276419,/g4t1,,success
Status,423,12651539599,/g4t1,,success
Status,424,12671559158,/g4t1,,success
Status,425,12691577636,/g4t1,,success
Status,426,12700191598,/g3t1_3,,running
Status,427,12700317793,/g3t1_3,,success
Status,428,12701333961,/g3t1_1,,running
Status,429,12701523999,/g3t1_1,,success
Status,430,12702133682,/g3t1_2,,running
Status,431,12702284406,/g3t1_2,,success
Status,432,12711601155,/g4t1,,fail
Status,433,12731774290,/g4t1,,success
Status,434,12752293681,/g4t1,,success
Status,435,12772464087,/g4t1,,success
Status,436,12792514521,/g4t1,,success
Status,437,12800800877,/g3t1_3,,running
Status,438,12801042658,/g3t1_3,,success
Status,439,12802041269,/g3t1_1,,running
Status,440,12802777557,/g3t1_1,,success
Status,441,12802837417,/g3t1_2,,running
Status,442,12803144490,/g3t1_2,,success
Status,443,12812696598,/g4t1,,fail
Status,444,12833306327,/g4t1,,success
Status,445,12852888177,/g4t1,,success
Status,446,12873023990,/g4t1,,success
Status,447,12893148179,/g4t1,,success
Status,448,12900710498,/g3t1_3,,running
Status,449,12901191628,/g3t1_3,,success
Status,450,12901916833,/g3t1_1,,running
Status,451,12902483322,/g3t1_1,,success
Status,452,12902786716,/g3t1_2,,running
Status,453,12903153046,/g3t1_2,,success
Status,454,12913004162,/g4t1,,fail
Status,455,12933101051,/g4t1,,success
Status,456,12953844682,/g4t1,,success
Status,457,12973953860,/g4t1,,success
Status,458,12993605999,/g4t1,,success
Status,459,13001207436,/g3t1_3,,running
Status,460,13001291185,/g3t1_3,,success
Status,461,13003036625,/g3t1_1,,running
Status,462,13003114273,/g3t1_2,,running
Status,463,13003269199,/g3t1_1,,success
Status,464,13003937353,/g3t1_2,,success
Status,465,13013988765,/g4t1,,fail
Status,466,13034227853,/g4t1,,success
Status,467,13054348775,/g4t1,,success
Status,468,13074505013,/g4t1,,success
Status,469,13094503029,/g4t1,,success
Status,470,13101130494,/g3t1_3,,running
Status,471,13101457401,/g3t1_3,,success
Status,472,13102686759,/g3t1_1,,running
Status,473,13103246795,/g3t1_1,,success
Status,474,13103352960,/g3t1_2,,running
Status,475,13103662938,/g3t1_2,,success
Status,476,13114565543,/g4t1,,fail
Status,477,13134922767,/g4t1,,success
Status,478,13155066814,/g4t1,,success
Status,479,13174985541,/g4t1,,success
Status,480,13195214223,/g4t1,,success
Status,481,13201529095,/g3t1_3,,running
Status,482,13202717844,/g3t1_3,,success
Status,483,13202787670,/g3t1_1,,running
Status,484,13203216450,/g3t1_2,,running
Status,485,13204058708,/g3t1_2,,success
Status,486,13204132615,/g3t1_1,,success
Status,487,13215054998,/g4t1,,fail
Status,488,13235097685,/g4t1,,success
Status,489,13255610613,/g4t1,,success
Status,490,13275843881,/g4t1,,success
Status,491,13295735225,/g4t1,,success
Status,492,13303488180,/g3t1_3,,running
Status,493,13303575846,/g3t1_3,,success
Status,494,13303656903,/g3t1_1,,running
Status,495,13303681328,/g3t1_1,,success
Status,496,13303720083,/g3t1_2,,running
Status,497,13304123490,/g3t1_2,,success
Status,498,13315299237,/g4t1,,fail
Status,499,13335797323,/g4t1,,success
Status,500,13355542327,/g4t1,,success
Status,501,13375961224,/g4t1,,success
Status,502,13396207250,/g4t1,,success
Status,503,13401221591,/g3t1_3,,running
Status,504,13401640051,/g3t1_3,,success
Status,505,13402483225,/g3t1_1,,running
Status,506,13402681938,/g3t1_1,,success
Status,507,13403183652,/g3t1_2,,running
Status,508,13403527918,/g3t1_2,,success
Status,509,13416217860,/g4t1,,fail
Status,510,13436382055,/g4t1,,success
Status,511,13456971202,/g4t1,,success
Status,512,13476709844,/g4t1,,success
Status,513,13496836904,/g4t1,,success
Status,514,13501614290,/g3t1_3,,running
Status,515,13502177347,/g3t1_3,,success
Status,516,13502735853,/g3t1_1,,running
Status,517,13503305767,/g3t1_1,,success
Status,518,13503367659,/g3t1_2,,running
Status,519,13503988248,/g3t1_2,,success
Status,520,13517169346,/g4t1,,fail
Status,521,13537323516,/g4t1,,success
Status,522,13557606514,/g4t1,,success
Status,523,13577546826,/g4t1,,success
Status,524,13597913876,/g4t1,,success
Status,525,13601550308,/g3t1_3,,running
Status,526,13602045358,/g3t1_3,,success
Status,527,13603053538,/g3t1_1,,running
Status,528,13603893428,/g3t1_2,,running
Status,529,13603952029,/g3t1_1,,success
Status,530,13604029624,/g3t1_2,,success
Status,531,13617953886,/g4t1,,fail
Status,532,13638001428,/g4t1,,success
Status,533,13658212044,/g4t1,,success
Status,534,13678245910,/g4t1,,success
Status,535,13698526219,/g4t1,,success
Status,536,13702875825,/g3t1_3,,running
Status,537,13702983245,/g3t1_3,,success
Status,538,13703106361,/g3t1_1,,running
Status,539,13706948320,/g3t1_2,,running
Status,540,13707115509,/g3t1_2,,success
Status,541,13707276076,/g3t1_1,,success
Status,542,13718020736,/g4t1,,fail
Status,543,13738587807,/g4t1,,success
Status,544,13759077179,/g4t1,,success
Status,545,13778074434,/g4t1,,success
Status,546,13798298741,/g4t1,,success
Status,547,13801428773,/g3t1_3,,running
Status,548,13801684100,/g3t1_3,,success
Status,549,13802777170,/g3t1_1,,running
Status,550,13803021355,/g3t1_1,,success
Status,551,13803573038,/g3t1_2,,running
Status,552,13803715572,/g3t1_2,,success
Status,553,13818290859,/g4t1,,fail
Status,554,13839244835,/g4t1,,success
Status,555,13859325465,/g4t1,,success
Status,556,13879431338,/g4t1,,success
Status,557,13899906148,/g4t1,,success
Status,558,13902346979,/g3t1_3,,running
Status,559,13903091945,/g3t1_3,,success
Status,560,13903170596,/g3t1_1,,running
Status,561,13903760885,/g3t1_1,,success
Status,562,13903813351,/g3t1_2,,running
Status,563,13904917953,/g3t1_2,,success
Status,564,13919750648,/g4t1,,fail
Status,565,13939704285,/g4t1,,success
Status,566,13959865770,/g4t1,,success
Status,567,13980118056,/g4t1,,success
Status,568,14000252046,/g4t1,,success
Status,569,14002003364,/g3t1_3,,running
Status,570,14002314432,/g3t1_3,,success
Status,571,14003205466,/g3t1_1,,running
Status,572,14005018836,/g3t1_1,,success
Status,573,14005097059,/g3t1_2,,running
Status,574,14005188763,/g3t1_2,,success
Status,575,14020285317,/g4t1,,fail
Status,576,14040503369,/g4t1,,success
Status,577,14060549780,/g4t1,,success
Status,578,14080779489,/g4t1,,success
Status,579,14100961438,/g4t1,,success
Status,580,14102664889,/g3t1_3,,running
Status,581,14102968854,/g3t1_3,,success
Status,582,14103494515,/g3t1_1,,running
Status,583,14104027248,/g3t1_1,,success
Status,584,14104355035,/g3t1_2,,running
Status,585,14105099626,/g3t1_2,,success
Status,586,14121026981,/g4t1,,fail
Status,587,14141253176,/g4t1,,success
Status,588,14161748344,/g4t1,,success
Status,589,14181564103,/g4t1,,success
Status,590,14202444193,/g4t1,,success
Status,591,14203849636,/g3t1_3,,running
Status,592,14204433040,/g3t1_3,,success
Status,593,14204512585,/g3t1_1,,running
Status,594,14204553431,/g3t1_1,,success
Status,595,14206439496,/g3t1_2,,running
Status,596,14206824814,/g3t1_2,,success
Status,597,14221485800,/g4t1,,fail
Status,598,14241275118,/g4t1,,success
Status,599,14261374000,/g4t1,,success
Status,600,14281500977,/g4t1,,success
Status,601,14301536394,/g4t1,,success
Status,602,14301792281,/g3t1_3,,running
Status,603,14302193954,/g3t1_3,,success
Status,604,14303000996,/g3t1_1,,running
Status,605,14303099611,/g3t1_1,,success
Status,606,14305137359,/g3t1_2,,running
Status,607,14305160082,/g3t1_2,,success
Status,608,14322266954,/g4t1,,fail
Status,609,14341761589,/g4t1,,success
Status,610,14361928942,/g4t1,,success
Status,611,14382968810,/g4t1,,success
Status,612,14403301787,/g4t1,,success
Status,613,14403678892,/g3t1_3,,running
Status,614,14404344961,/g3t1_3,,success
Status,615,14404536108,/g3t1_1,,running
Status,616,14404602055,/g3t1_1,,success
Status,617,14405322072,/g3t1_2,,running
Status,618,14406054773,/g3t1_2,,success
Status,619,14423105000,/g4t1,,fail
Status,620,14443258997,/g4t1,,success
Status,621,14463269493,/g4t1,,success
Status,622,14483314419,/g4t1,,success
Status,623,14503145055,/g3t1_3,,running
Status,624,14503239170,/g4t1,,success
Status,625,14503612995,/g3t1_3,,success
Status,626,14503737972,/g3t1_1,,running
Status,627,14504594481,/g3t1_1,,success
Status,628,14505537438,/g3t1_2,,running
Status,629,14505975267,/g3t1_2,,success
Status,630,14523423633,/g4t1,,fail
Status,631,14543446066,/g4t1,,success
Status,632,14563794486,/g4t1,,success
Status,633,14583985464,/g4t1,,success
Status,634,14603692104,/g3t1_3,,running
Status,635,14604146316,/g3t1_3,,success
Status,636,14604188092,/g3t1_1,,running
Status,637,14604206860,/g4t1,,success
Status,638,14604224033,/g3t1_1,,success
Status,639,14605912357,/g3t1_2,,running
Status,640,14606004180,/g3t1_2,,success
Status,641,14624164863,/g4t1,,fail
Status,642,14644045825,/g4t1,,success
Status,643,14664506534,/g4t1,,success
Status,644,14684702813,/g4t1,,success
Status,645,14703311981,/g3t1_3,,running
Status,646,14703721776,/g3t1_3,,success
Status,647,14703943404,/g3t1_1,,running
Status,648,14704774062,/g3t1_1,,success
Status,649,14704848733,/g4t1,,success
Status,650,14705536078,/g3t1_2,,running
Status,651,14706260370,/g3t1_2,,success
Status,652,14724727756,/g4t1,,fail
Status,653,14745020257,/g4t1,,success
Status,654,14764883724,/g4t1,,success
Status,655,14785249719,/g4t1,,success
Status,656,14803639461,/g3t1_3,,running
Status,657,14804100545,/g3t1_3,,success
Status,658,14804154573,/g3t1_1,,running
Status,659,14805337132,/g3t1_1,,success
Status,660,14805530574,/g4t1,,fail
Status,661,14806506701,/g3t1_2,,running
Status,662,14806579746,/g3t1_2,,success
Status,663,14825086431,/g4t1,,success
Status,664,14845150656,/g4t1,,success
Status,665,14865287550,/g4t1,,success
Status,666,14885347459,/g4t1,,success
Status,667,14903513682,/g3t1_3,,running
Status,668,14903571834,/g3t1_3,,success
Status,669,14904036219,/g3t1_1,,running
Status,670,14904655924,/g3t1_1,,success
Status,671,14905218316,/g4t1,,fail
Status,672,14905482821,/g3t1_2,,running
Status,673,14905699530,/g3t1_2,,success
Status,674,14925609414,/g4t1,,fail
Status,675,14945815398,/g4t1,,success
Status,676,14966463792,/g4t1,,success
Status,677,14986612862,/g4t1,,success
Status,678,15004137538,/g3t1_3,,running
Status,679,15004422171,/g3t1_3,,success
Status,680,15004516379,/g3t1_1,,running
Status,681,15004654364,/g3t1_1,,success
Status,682,15006319226,/g3t1_2,,running
Status,683,15006804649,/g3t1_2,,success
Status,684,15006862234,/g4t1,,fail
Status,685,15026426469,/g4t1,,success
Status,686,15046201244,/g4t1,,success
Status,687,15066330707,/g4t1,,success
Status,688,15086939999,/g4t1,,success
Status,689,15103432280,/g3t1_3,,running
Status,690,15103600093,/g3t1_3,,success
Status,691,15104225335,/g3t1_1,,running
Status,692,15104255912,/g3t1_1,,success
Status,693,15105812371,/g3t1_2,,running
Status,694,15106013853,/g3t1_2,,success
Status,695,15106592268,/g4t1,,fail
Status,696,15127032984,/g4t1,,success
Status,697,15147220878,/g4t1,,success
Status,698,15167539617,/g4t1,,success
Status,699,15187823095,/g4t1,,success
Status,700,15204310909,/g3t1_3,,running
Status,701,15204596418,/g3t1_3,,success
Status,702,15204693254,/g3t1_1,,running
Status,703,15204953578,/g3t1_1,,success
Status,704,15206240083,/g3t1_2,,running
Status,705,15207482335,/g3t1_2,,success
Status,706,15207540276,/g4t1,,fail
Status,707,15227993286,/g4t1,,success
Status,708,15247811229,/g4t1,,success
Status,709,15268154791,/g4t1,,success
Status,710,15288393888,/g4t1,,success
Status,711,15304533775,/g3t1_3,,running
Status,712,15304620558,/g3t1_1,,running
Status,713,15305134057,/g3t1_3,,success
Status,714,15305215151,/g3t1_1,,success
Status,715,15306393944,/g3t1_2,,running
Status,716,15306843224,/g3t1_2,,success
Status,717,15308044662,/g4t1,,fail
Status,718,15328553209,/g4t1,,success
Status,719,15348595560,/g4t1,,success
Status,720,15368802696,/g4t1,,success
Status,721,15389015993,/g4t1,,success
Status,722,15403998475,/g3t1_3,,running
Status,723,15404269796,/g3t1_3,,success
Status,724,15404515581,/g3t1_1,,running
Status,725,15405159065,/g3t1_1,,success
Status,726,15406472569,/g3t1_2,,running
Status,727,15407078507,/g3t1_2,,success
Status,728,15408786659,/g4t1,,fail
Status,729,15429265712,/g4t1,,success
Status,730,15449465238,/g4t1,,success
Status,731,15469514676,/g4t1,,success
Status,732,15489963124,/g4t1,,success
Status,733,15504407608,/g3t1_3,,running
Status,734,15505036921,/g3t1_1,,running
Status,735,15505150387,/g3t1_3,,success
Status,736,15505532045,/g3t1_1,,success
Status,737,15506831344,/g3t1_2,,running
Status,738,15507102256,/g3t1_2,,success
Status,739,15509522942,/g4t1,,fail
Status,740,15529993767,/g4t1,,success
Status,741,15550094686,/g4t1,,success
Status,742,15570292036,/g4t1,,success
Status,743,15590497930,/g4t1,,success
Status,744,15605108038,/g3t1_3,,running
Status,745,15605201402,/g3t1_1,,running
Status,746,15605280380,/g3t1_3,,success
Status,747,15605650612,/g3t1_1,,success
Status,748,15606898433,/g3t1_2,,running
Status,749,15607116598,/g3t1_2,,success
Status,750,15610191471,/g4t1,,fail
Status,751,15630651338,/g4t1,,success
Status,752,15650956415,/g4t1,,success
Status,753,15671043918,/g4t1,,success
Status,754,15691003565,/g4t1,,success
Status,755,15705047056,/g3t1_3,,running
Status,756,15705107825,/g3t1_1,,running
Status,757,15705394186,/g3t1_3,,success
Status,758,15705564747,/g3t1_1,,success
Status,759,15706758591,/g3t1_2,,running
Status,760,15707275174,/g3t1_2,,success
Status,761,15711059192,/g4t1,,fail
Status,762,15731321077,/g4t1,,success
Status,763,15751600049,/g4t1,,success
Status,764,15771633170,/g4t1,,success
Status,765,15791823103,/g4t1,,success
Status,766,15805059952,/g3t1_3,,running
Status,767,15805457350,/g3t1_3,,success
Status,768,15805513071,/g3t1_1,,running
Status,769,15805798504,/g3t1_1,,success
Status,770,15807059654,/g3t1_2,,running
Status,771,15807301422,/g3t1_2,,success
Status,772,15811742909,/g4t1,,fail
Status,773,15831849889,/g4t1,,success
Status,774,15852223025,/g4t1,,success
Status,775,15872481545,/g4t1,,success
Status,776,15892432734,/g4t1,,success
Status,777,15905802236,/g3t1_3,,running
Status,778,15905994035,/g3t1_3,,success
Status,779,15906270637,/g3t1_1,,running
Status,780,15906345269,/g3t1_1,,success
Status,781,15907375342,/g3t1_2,,running
Status,782,15908925108,/g3t1_2,,success
Status,783,15912178300,/g4t1,,fail
Status,784,15931956544,/g4t1,,success
Status,785,15952607502,/g4t1,,success
Status,786,15972662702,/g4t1,,success
Status,787,15992464058,/g4t1,,success
Status,788,16005067454,/g3t1_3,,running
Status,789,16005094138,/g3t1_1,,running
Status,790,16005261702,/g3t1_3,,success
Status,791,16005296621,/g3t1_1,,success
Status,792,16006670080,/g3t1_2,,running
Status,793,16006792708,/g3t1_2,,success
Status,794,16012494308,/g4t1,,fail
Status,795,16032920683,/g4t1,,success
Status,796,16053239406,/g4t1,,success
Status,797,16073125375,/g4t1,,success
Status,798,16093341261,/g4t1,,success
Status,799,16105993566,/g3t1_3,,running
Status,800,16106049880,/g3t1_1,,running
Status,801,16106112322,/g3t1_3,,success
Status,802,16106129344,/g3t1_1,,success
Status,803,16107308352,/g3t1_2,,running
Status,804,16107352054,/g3t1_2,,success
Status,805,16113474109,/g4t1,,fail
Status,806,16133674504,/g4t1,,success
Status,807,16153702046,/g4t1,,success
Status,808,16173798111,/g4t1,,success
Status,809,16194131443,/g4t1,,success
Status,810,16206354569,/g3t1_3,,running
Status,811,16206416413,/g3t1_1,,running
Status,812,16206436375,/g3t1_1,,success
Status,813,16206456753,/g3t1_3,,success
Status,814,16207473060,/g3t1_2,,running
Status,815,16208286763,/g3t1_2,,success
Status,816,16214078928,/g4t1,,fail
Status,817,16234317012,/g4t1,,success
Status,818,16254570012,/g4t1,,success
Status,819,16274780129,/g4t1,,success
Status,820,16295052279,/g4t1,,success
Status,821,16307039782,/g3t1_1,,running
Status,822,16307139236,/g3t1_3,,running
Status,823,16307201794,/g3t1_3,,success
Status,824,16307583700,/g3t1_1,,success
Status,825,16307662169,/g3t1_2,,running
Status,826,16308446435,/g3t1_2,,success
Status,827,16314872388,/g4t1,,fail
Status,828,16335064305,/g4t1,,success
Status,829,16355190978,/g4t1,,success
Status,830,16375463037,/g4t1,,success
Status,831,16395654784,/g4t1,,success
Status,832,16407055963,/g3t1_1,,running
Status,833,16407118401,/g3t1_3,,running
Status,834,16407403676,/g3t1_3,,success
Status,835,16407540355,/g3t1_1,,success
Status,836,16408410305,/g3t1_2,,running
Status,837,16408496949,/g3t1_2,,success
Status,838,16415449732,/g4t1,,fail
Status,839,16436088881,/g4t1,,success
Status,840,16456025866,/g4t1,,success
Status,841,16476038222,/g4t1,,success
Status,842,16496202077,/g4t1,,success
Status,843,16506470688,/g3t1_3,,running
Status,844,16506795584,/g3t1_1,,running
Status,845,16506857910,/g3t1_1,,success
Status,846,16507703855,/g3t1_3,,success
Status,847,16508148154,/g3t1_2,,running
Status,848,16508222826,/g3t1_2,,success
Status,849,16516411191,/g4t1,,fail
Status,850,16536421970,/g4t1,,success
Status,851,16556572813,/g4t1,,success
Status,852,16576066476,/g4t1,,success
Status,853,16596948819,/g4t1,,success
Status,854,16605996043,/g3t1_3,,running
Status,855,16606020474,/g3t1_1,,running
Status,856,16606028133,/g3t1_1,,success
Status,857,16606034888,/g3t1_3,,success
Status,858,16607390608,/g3t1_2,,running
Status,859,16607547158,/g3t1_2,,success
Status,860,16617210795,/g4t1,,fail
Status,861,16636671233,/g4t1,,success
Status,862,16657226265,/g4t1,,success
Status,863,16677335787,/g4t1,,success
Status,864,16697369114,/g4t1,,success
Status,865,16707128849,/g3t1_1,,running
Status,866,16707207716,/g3t1_3,,running
Status,867,16707529887,/g3t1_1,,success
Status,868,16707566334,/g3t1_3,,success
Status,869,16707926058,/g3t1_2,,running
Status,870,16708580360,/g3t1_2,,success
Status,871,16717403079,/g4t1,,fail
Status,872,16737346455,/g4t1,,success
Status,873,16757856157,/g4t1,,success
Status,874,16778008214,/g4t1,,success
Status,875,16797771960,/g4t1,,success
Status,876,16807216716,/g3t1_1,,running
Status,877,16807286284,/g3t1_3,,running
Status,878,16807356627,/g3t1_1,,success
Status,879,16807381927,/g3t1_3,,success
Status,880,16808173744,/g3t1_2,,running
Status,881,16808688537,/g3t1_2,,success
Status,882,16818157508,/g4t1,,fail
Status,883,16838269156,/g4t1,,success
Status,884,16858517514,/g4t1,,success
Status,885,16878580389,/g4t1,,success
Status,886,16898806720,/g4t1,,success
Status,887,16907196999,/g3t1_1,,running
Status,888,16907262225,/g3t1_3,,running
Status,889,16907354358,/g3t1_1,,success
Status,890,16907593593,/g3t1_3,,success
Status,891,16908502299,/g3t1_2,,running
Status,892,16908743335,/g3t1_2,,success
Status,893,16918656951,/g4t1,,fail
Status,894,16938876707,/g4t1,,success
Status,895,16959032111,/g4t1,,success
Status,896,16979129822,/g4t1,,success
Status,897,16999264036,/g4t1,,success
Status,898,17006983163,/g3t1_3,,running
Status,899,17007198067,/g3t1_1,,running
Status,900,17008012225,/g3t1_1,,success
Status,901,17008442959,/g3t1_3,,success
Status,902,17008560287,/g3t1_2,,running
Status,903,17009054869,/g3t1_2,,success
Status,904,17019393189,/g4t1,,fail
Status,905,17039085138,/g4t1,,success
Status,906,17059027623,/g4t1,,success
Status,907,17079076586,/g4t1,,success
Status,908,17099073271,/g4t1,,success
Status,909,17106956169,/g3t1_1,,running
Status,910,17106982438,/g3t1_3,,running
Status,911,17106992030,/g3t1_1,,success
Status,912,17106998596,/g3t1_3,,success
Status,913,17107887627,/g3t1_2,,running
Status,914,17108006354,/g3t1_2,,success
Status,915,17119261292,/g4t1,,fail
Status,916,17139945708,/g4t1,,success
Status,917,17159820256,/g4t1,,success
Status,918,17180233280,/g4t1,,success
Status,919,17200339626,/g4t1,,success
Status,920,17207448799,/g3t1_3,,running
Status,921,17207535714,/g3t1_1,,running
Status,922,17207829540,/g3t1_3,,success
Status,923,17207887517,/g3t1_1,,success
Status,924,17208525281,/g3t1_2,,running
Status,925,17209018835,/g3t1_2,,success
Status,926,17220172208,/g4t1,,fail
Status,927,17240685377,/g4t1,,success
Status,928,17260921620,/g4t1,,success
Status,929,17280558011,/g4t1,,success
Status,930,17301049846,/g4t1,,success
Status,931,17307287172,/g3t1_1,,running
Status,932,17307369999,/g3t1_3,,running
Status,933,17307538615,/g3t1_3,,success
Status,934,17308647870,/g3t1_1,,success
Status,935,17308706645,/g3t1_2,,running
Status,936,17308746905,/g3t1_2,,success
Status,937,17321133020,/g4t1,,fail
Status,938,17341218720,/g4t1,,success
Status,939,17361482683,/g4t1,,success
Status,940,17381610186,/g4t1,,success
Status,941,17401730607,/g4t1,,success
Status,942,17408006640,/g3t1_1,,running
Status,943,17408054980,/g3t1_1,,success
Status,944,17408134389,/g3t1_3,,running
Status,945,17408162678,/g3t1_3,,success
Status,946,17408817531,/g3t1_2,,running
Status,947,17409024992,/g3t1_2,,success
Status,948,17421760044,/g4t1,,fail
Status,949,17441911286,/g4t1,,success
Status,950,17462062937,/g4t1,,success
Status,951,17482151456,/g4t1,,success
Status,952,17501941375,/g4t1,,success
Status,953,17507102508,/g3t1_1,,running
Status,954,17507145297,/g3t1_3,,running
Status,955,17507363403,/g3t1_3,,success
Status,956,17507395008,/g3t1_1,,success
Status,957,17508365131,/g3t1_2,,running
Status,958,17508531626,/g3t1_2,,success
Status,959,17521688482,/g4t1,,fail
Status,960,17541778488,/g4t1,,success
Status,961,17562482087,/g4t1,,success
Status,962,17582715528,/g4t1,,success
Status,963,17602112223,/g4t1,,success
Status,964,17606964335,/g3t1_1,,running
Status,965,17607104537,/g3t1_3,,running
Status,966,17607122836,/g3t1_3,,success
Status,967,17607129694,/g3t1_1,,success
Status,968,17608318109,/g3t1_2,,running
Status,969,17608626767,/g3t1_2,,success
Status,970,17622118463,/g4t1,,fail
Status,971,17642430071,/g4t1,,success
Status,972,17663077721,/g4t1,,success
Status,973,17683227626,/g4t1,,success
Status,974,17703247723,/g4t1,,success
Status,975,17707791469,/g3t1_1,,running
Status,976,17707868103,/g3t1_3,,running
Status,977,17708189012,/g3t1_3,,success
Status,978,17708268212,/g3t1_1,,success
Status,979,17709186598,/g3t1_2,,running
Status,980,17709616972,/g3t1_2,,success
Status,981,17723320230,/g4t1,,fail
Status,982,17743497308,/g4t1,,success
Status,983,17763378970,/g4t1,,success
Status,984,17783721165,/g4t1,,success
Status,985,17804067878,/g4t1,,success
Status,986,17808205617,/g3t1_3,,running
Status,987,17808268851,/g3t1_1,,running
Status,988,17808287910,/g3t1_1,,success
Status,989,17808304944,/g3t1_3,,success
Status,990,17809003583,/g3t1_2,,running
Status,991,17809668218,/g3t1_2,,success
Status,992,17823847595,/g4t1,,fail
Status,993,17844072356,/g4t1,,success
Status,994,17864232040,/g4t1,,success
Status,995,17884381139,/g4t1,,success
Status,996,17904529539,/g4t1,,success
Status,997,17908144988,/g3t1_1,,running
Status,998,17908202907,/g3t1_3,,running
Status,999,17908538854,/g3t1_1,,success
Status,1000,17908611219,/g3t1_3,,success
Status,1001,17909227375,/g3t1_2,,running
Status,1002,17909807178,/g3t1_2,,success
Status,1003,17924524048,/g4t1,,fail
Status,1004,17944422852,/g4t1,,success
Status,1005,17964842941,/g4t1,,success
Status,1006,17984829291,/g4t1,,success
Status,1007,18005495855,/g4t1,,success
Status,1008,18008285576,/g3t1_3,,running
Status,1009,18008365218,/g3t1_1,,running
Status,1010,18008558789,/g3t1_1,,success
Status,1011,18008607482,/g3t1_3,,success
Status,1012,18009737187,/g3t1_2,,running
Status,1013,18009784404,/g3t1_2,,success
Status,1014,18025144684,/g4t1,,fail
Status,1015,18045499367,/g4t1,,success
Status,1016,18065517314,/g4t1,,success
Status,1017,18085700137,/g4t1,,success
Status,1018,18106020071,/g4t1,,success
Status,1019,18108516990,/g3t1_3,,running
Status,1020,18108592444,/g3t1_1,,running
Status,1021,18109541022,/g3t1_3,,success
Status,1022,18109606886,/g3t1_1,,success
Status,1023,18109645946,/g3t1_2,,running
Status,1024,18110307767,/g3t1_2,,success
Status,1025,18125816658,/g4t1,,fail
Status,1026,18146551163,/g4t1,,success
Status,1027,18166453838,/g4t1,,success
Status,1028,18186221634,/g4t1,,success
Status,1029,18206030927,/g4t1,,success
Status,1030,18207746781,/g3t1_3,,running
Status,1031,18207769193,/g3t1_1,,running
Status,1032,18207917386,/g3t1_1,,success
Status,1033,18207936666,/g3t1_3,,success
Status,1034,18208952754,/g3t1_2,,running
Status,1035,18209034743,/g3t1_2,,success
Status,1036,18226239137,/g4t1,,fail
Status,1037,18246285684,/g4t1,,success
Status,1038,18267135768,/g4t1,,success
Status,1039,18287231051,/g4t1,,success
Status,1040,18307364198,/g4t1,,success
Status,1041,18308649294,/g3t1_1,,running
Status,1042,18308711752,/g3t1_3,,running
Status,1043,18309570259,/g3t1_3,,success
Status,1044,18309631076,/g3t1_1,,success
Status,1045,18309665265,/g3t1_2,,running
Status,1046,18310263518,/g3t1_2,,success
Status,1047,18327528230,/g4t1,,fail
Status,1048,18347607305,/g4t1,,success
Status,1049,18367646226,/g4t1,,success
Status,1050,18387950564,/g4t1,,success
Status,1051,18407904252,/g4t1,,success
Status,1052,18408426837,/g3t1_1,,running
Status,1053,18408518398,/g3t1_3,,running
Status,1054,18408864016,/g3t1_3,,success
Status,1055,18408903509,/g3t1_1,,success
Status,1056,18409609808,/g3t1_2,,running
Status,1057,18409879835,/g3t1_2,,success
Status,1058,18428030535,/g4t1,,fail
Status,1059,18448044645,/g4t1,,success
Status,1060,18468443599,/g4t1,,success
Status,1061,18488526596,/g4t1,,success
Status,1062,18508922271,/g4t1,,success
Status,1063,18509007204,/g3t1_3,,running
Status,1064,18509033215,/g3t1_1,,running
Status,1065,18509543701,/g3t1_3,,success
Status,1066,18510093583,/g3t1_2,,running
Status,1067,18510162855,/g3t1_1,,success
Status,1068,18510971128,/g3t1_2,,success
Status,1069,18528753147,/g4t1,,fail
Status,1070,18548901174,/g4t1,,success
Status,1071,18569029646,/g4t1,,success
Status,1072,18589145360,/g4t1,,success
Status,1073,18609589485,/g3t1_3,,running
Status,1074,18609691705,/g3t1_1,,running
Status,1075,18609870823,/g4t1,,success
Status,1076,18609923487,/g3t1_3,,success
Status,1077,18610606034,/g3t1_1,,success
Status,1078,18610722387,/g3t1_2,,running
Status,1079,18610757498,/g3t1_2,,success
Status,1080,18629574157,/g4t1,,fail
Status,1081,18649700761,/g4t1,,success
Status,1082,18669760738,/g4t1,,success
Status,1083,18689918157,/g4t1,,success
Status,1084,18710262954,/g3t1_3,,running
Status,1085,18710379038,/g3t1_1,,running
Status,1086,18710405788,/g3t1_1,,success
Status,1087,18710428034,/g3t1_3,,success
Status,1088,18710446012,/g3t1_2,,running
Status,1089,18710510974,/g4t1,,success
Status,1090,18710765536,/g3t1_2,,success
Status,1091,18729795748,/g4t1,,fail
Status,1092,18749597271,/g4t1,,success
Status,1093,18770420452,/g4t1,,success
Status,1094,18790504999,/g4t1,,success
Status,1095,18809418671,/g3t1_3,,running
Status,1096,18810356089,/g3t1_1,,running
Status,1097,18810459897,/g3t1_3,,success
Status,1098,18810498090,/g3t1_1,,success
Status,1099,18810523735,/g3t1_2,,running
Status,1100,18810742679,/g4t1,,success
Status,1101,18810794614,/g3t1_2,,success
Status,1102,18830848360,/g4t1,,fail
Status,1103,18851051383,/g4t1,,success
Status,1104,18871157264,/g4t1,,success
Status,1105,18890777658,/g4t1,,success
Status,1106,18909142981,/g3t1_3,,running
Status,1107,18909168729,/g3t1_1,,running
Status,1108,18909178484,/g3t1_1,,success
Status,1109,18909219237,/g3t1_3,,success
Status,1110,18909868997,/g3t1_2,,running
Status,1111,18910216973,/g3t1_2,,success
Status,1112,18910442571,/g4t1,,fail
Status,1113,18930725961,/g4t1,,success
Status,1114,18950932686,/g4t1,,success
Status,1115,18971553974,/g4t1,,success
Status,1116,18991575530,/g4t1,,success
Status,1117,19010264494,/g3t1_1,,running
Status,1118,19010348651,/g3t1_3,,running
Status,1119,19010407033,/g3t1_1,,success
Status,1120,19010613400,/g3t1_3,,success
Status,1121,19010861319,/g3t1_2,,running
Status,1122,19011407499,/g3t1_2,,success
Status,1123,19011815673,/g4t1,,fail
Status,1124,19031737189,/g4t1,,fail
Status,1125,19051942979,/g4t1,,success
Status,1126,19072327550,/g4t1,,success
Status,1127,19092276231,/g4t1,,success
Status,1128,19110657777,/g3t1_3,,running
Status,1129,19110857095,/g3t1_1,,running
Status,1130,19110915686,/g3t1_1,,success
Status,1131,19111266341,/g3t1_2,,running
Status,1132,19111626201,/g3t1_3,,success
Status,1133,19111697286,/g3t1_2,,success
Status,1134,19112115203,/g4t1,,fail
Status,1135,19132646497,/g4t1,,success
Status,1136,19152541309,/g4t1,,success
Status,1137,19172746487,/g4t1,,success
Status,1138,19193012933,/g4t1,,success
Status,1139,19209716629,/g3t1_3,,running
Status,1140,19210250198,/g3t1_1,,running
Status,1141,19210319196,/g3t1_3,,success
Status,1142,19210392428,/g3t1_1,,success
Status,1143,19210796831,/g3t1_2,,running
Status,1144,19210836090,/g3t1_2,,success
Status,1145,19212210482,/g4t1,,fail
Status,1146,19232273192,/g4t1,,success
Status,1147,19252378721,/g4t1,,success
Status,1148,19272399624,/g4t1,,success
Status,1149,19292559480,/g4t1,,success
Status,1150,19310009574,/g3t1_3,,running
Status,1151,19310064331,/g3t1_1,,running
Status,1152,19310659900,/g3t1_3,,success
Status,1153,19310705920,/g3t1_1,,success
Status,1154,19310876595,/g3t1_2,,running
Status,1155,19311344138,/g3t1_2,,success
Status,1156,19312995666,/g4t1,,fail
Status,1157,19332743676,/g4t1,,success
Status,1158,19352927652,/g4t1,,success
Status,1159,19373087876,/g4t1,,success
Status,1160,19393276680,/g4t1,,success
Status,1161,19409891212,/g3t1_1,,running
Status,1162,19409926182,/g3t1_3,,running
Status,1163,19409941769,/g3t1_1,,success
Status,1164,19410227745,/g3t1_3,,success
Status,1165,19410656562,/g3t1_2,,running
Status,1166,19410774305,/g3t1_2,,success
Status,1167,19413067653,/g4t1,,fail
Status,1168,19433439698,/g4t1,,success
Status,1169,19453541174,/g4t1,,success
Status,1170,19474229067,/g4t1,,success
Status,1171,19494360452,/g4t1,,success
Status,1172,19511421224,/g3t1_1,,running
Status,1173,19511475576,/g3t1_1,,success
Status,1174,19511495543,/g3t1_3,,running
Status,1175,19511558597,/g3t1_3,,success
Status,1176,19511595123,/g3t1_2,,running
Status,1177,19511838889,/g3t1_2,,success
Status,1178,19514137545,/g4t1,,fail
Status,1179,19534631684,/g4t1,,success
Status,1180,19554689268,/g4t1,,success
Status,1181,19574972415,/g4t1,,success
Status,1182,19595045148,/g4t1,,success
Status,1183,19611459932,/g3t1_1,,running
Status,1184,19611508759,/g3t1_3,,running
Status,1185,19611532016,/g3t1_3,,success
Status,1186,19611564280,/g3t1_1,,success
Status,1187,19611645067,/g3t1_2,,running
Status,1188,19611677166,/g3t1_2,,success
Status,1189,19614879955,/g4t1,,fail
Status,1190,19635188190,/g4t1,,success
Status,1191,19655336075,/g4t1,,success
Status,1192,19675494453,/g4t1,,success
Status,1193,19695592058,/g4t1,,success
Status,1194,19711142115,/g3t1_3,,running
Status,1195,19711250690,/g3t1_1,,running
Status,1196,19711523606,/g3t1_1,,success
Status,1197,19711571748,/g3t1_3,,success
Status,1198,19711600731,/g3t1_2,,running
Status,1199,19712068243,/g3t1_2,,success
Status,1200,19715495708,/g4t1,,fail
Status,1201,19735667781,/g4t1,,success
Status,1202,19756030645,/g4t1,,success
Status,1203,19776137352,/g4t1,,success
Status,1204,19796373719,/g4t1,,success
Status,1205,19810479874,/g3t1_1,,running
Status,1206,19810519749,/g3t1_3,,running
Status,1207,19810658020,/g3t1_3,,success
Status,1208,19810680807,/g3t1_1,,success
Status,1209,19811113253,/g3t1_2,,running
Status,1210,19811435458,/g3t1_2,,success
Status,1211,19815643591,/g4t1,,fail
Status,1212,19835712355,/g4t1,,success
Status,1213,19856298220,/g4t1,,success
Status,1214,19875980330,/g4t1,,success
Status,1215,19896271445,/g4t1,,success
Status,1216,19910795592,/g3t1_1,,running
Status,1217,19910929299,/g3t1_3,,running
Status,1218,19911538011,/g3t1_1,,success
Status,1219,19911620042,/g3t1_3,,success
Status,1220,19911649095,/g3t1_2,,running
Status,1221,19912457913,/g3t1_2,,success
Status,1222,19916385599,/g4t1,,fail
Status,1223,19936862363,/g4t1,,success
Status,1224,19957020160,/g4t1,,success
Status,1225,19977321577,/g4t1,,success
Status,1226,19997319032,/g4t1,,success
Status,1227,20011169799,/g3t1_1,,running
Status,1228,20011244392,/g3t1_3,,running
Status,1229,20012116114,/g3t1_3,,success
Status,1230,20012369980,/g3t1_2,,running
Status,1231,20012424346,/g3t1_1,,success
Status,1232,20012906747,/g3t1_2,,success
Status,1233,20017325513,/g4t1,,fail
Status,1234,20037763014,/g4t1,,success
Status,1235,20057874894,/g4t1,,success
Status,1236,20077907320,/g4t1,,success
Status,1237,20098165876,/g4t1,,success
Status,1238,20111311959,/g3t1_1,,running
Status,1239,20111489307,/g3t1_3,,running
Status,1240,20111790603,/g3t1_3,,success
Status,1241,20111911459,/g3t1_1,,success
Status,1242,20112393782,/g3t1_2,,running
Status,1243,20112571407,/g3t1_2,,success
Status,1244,20118132054,/g4t1,,fail
Status,1245,20138367497,/g4t1,,success
Status,1246,20158754353,/g4t1,,success
Status,1247,20178539044,/g4t1,,success
Status,1248,20198810837,/g4t1,,success
Status,1249,20212184279,/g3t1_1,,running
Status,1250,20212235306,/g3t1_3,,running
Status,1251,20212259893,/g3t1_1,,success
Status,1252,20212331746,/g3t1_3,,success
Status,1253,20212357446,/g3t1_2,,running
Status,1254,20212596419,/g3t1_2,,success
Status,1255,20218976022,/g4t1,,fail
Status,1256,20239063531,/g4t1,,success
Status,1257,20259187772,/g4t1,,success
Status,1258,20279265191,/g4t1,,success
Status,1259,20299714202,/g4t1,,success
Status,1260,20312042160,/g3t1_1,,running
Status,1261,20312116942,/g3t1_3,,running
Status,1262,20312230332,/g3t1_3,,success
Status,1263,20312270270,/g3t1_2,,running
Status,1264,20312364460,/g3t1_1,,success
Status,1265,20312579854,/g3t1_2,,success
Status,1266,20319489946,/g4t1,,fail
Status,1267,20339661769,/g4t1,,success
Status,1268,20359807674,/g4t1,,success
Status,1269,20379975055,/g4t1,,success
Status,1270,20400118589,/g4t1,,success
Status,1271,20412620587,/g3t1_1,,running
Status,1272,20412687426,/g3t1_3,,running
Status,1273,20412766878,/g3t1_1,,success
Status,1274,20412793865,/g3t1_3,,success
Status,1275,20412819574,/g3t1_2,,running
Status,1276,20412989905,/g3t1_2,,success
Status,1277,20420352399,/g4t1,,fail
Status,1278,20440243908,/g4t1,,success
Status,1279,20459773120,/g4t1,,success
Status,1280,20479842157,/g4t1,,success
Status,1281,20500236416,/g4t1,,success
Status,1282,20511202853,/g3t1_1,,running
Status,1283,20511233915,/g3t1_3,,running
Status,1284,20511262189,/g3t1_3,,success
Status,1285,20511486326,/g3t1_1,,success
Status,1286,20511766011,/g3t1_2,,running
Status,1287,20511982987,/g3t1_2,,success
Status,1288,20520577948,/g4t1,,fail
Status,1289,20541017911,/g4t1,,success
Status,1290,20561079317,/g4t1,,success
Status,1291,20581292819,/g4t1,,success
Status,1292,20601348316,/g4t1,,success
Status,1293,20612283121,/g3t1_1,,running
Status,1294,20612362571,/g3t1_3,,running
Status,1295,20612733020,/g3t1_1,,success
Status,1296,20612909877,/g3t1_2,,running
Status,1297,20612941932,/g3t1_3,,success
Status,1298,20613295924,/g3t1_2,,success
Status,1299,20621464551,/g4t1,,fail
Status,1300,20641734894,/g4t1,,success
Status,1301,20661670507,/g4t1,,success
Status,1302,20681805931,/g4t1,,success
Status,1303,20701951292,/g4t1,,success
Status,1304,20713012754,/g3t1_1,,running
Status,1305,20713083097,/g3t1_3,,running
Status,1306,20713115480,/g3t1_3,,success
Status,1307,20713198010,/g3t1_2,,running
Status,1308,20713223383,/g3t1_1,,success
Status,1309,20713251396,/g3t1_2,,success
Status,1310,20722201354,/g4t1,,fail
Status,1311,20742272195,/g4t1,,success
Status,1312,20762430269,/g4t1,,success
Status,1313,20782642591,/g4t1,,success
Status,1314,20802735290,/g4t1,,success
Status,1315,20813097244,/g3t1_3,,running
Status,1316,20813180019,/g3t1_1,,running
Status,1317,20813222620,/g3t1_3,,success
Status,1318,20813263814,/g3t1_2,,running
Status,1319,20813286962,/g3t1_1,,success
Status,1320,20813629514,/g3t1_2,,success
Status,1321,20822612745,/g4t1,,fail
Status,1322,20843177819,/g4t1,,success
Status,1323,20863365891,/g4t1,,success
Status,1324,20883379930,/g4t1,,success
Status,1325,20903518697,/g4t1,,success
Status,1326,20913262540,/g3t1_3,,running
Status,1327,20913339719,/g3t1_1,,running
Status,1328,20913384311,/g3t1_1,,success
Status,1329,20913411440,/g3t1_2,,running
Status,1330,20913699345,/g3t1_3,,success
Status,1331,20913755163,/g3t1_2,,success
Status,1332,20923599217,/g4t1,,fail
Status,1333,20943712752,/g4t1,,success
Status,1334,20963587073,/g4t1,,success
Status,1335,20984090018,/g4t1,,success
Status,1336,21004175230,/g4t1,,success
Status,1337,21013106296,/g3t1_3,,running
Status,1338,21013210410,/g3t1_1,,running
Status,1339,21013626509,/g3t1_2,,running
Status,1340,21013738274,/g3t1_1,,success
Status,1341,21013773077,/g3t1_3,,success
Status,1342,21013801946,/g3t1_2,,success
Status,1343,21024264158,/g4t1,,fail
Status,1344,21044408243,/g4t1,,success
Status,1345,21064623515,/g4t1,,success
Status,1346,21084630945,/g4t1,,success
Status,1347,21104814629,/g4t1,,success
Status,1348,21113262924,/g3t1_3,,running
Status,1349,21113445340,/g3t1_1,,running
Status,1350,21113495497,/g3t1_3,,success
Status,1351,21113527329,/g3t1_2,,running
Status,1352,21113750248,/g3t1_1,,success
Status,1353,21113805672,/g3t1_2,,success
Status,1354,21124793486,/g4t1,,fail
Status,1355,21145032880,/g4t1,,success
Status,1356,21165164248,/g4t1,,success
Status,1357,21185475476,/g4t1,,success
Status,1358,21205292743,/g4t1,,success
Status,1359,21213002440,/g3t1_3,,running
Status,1360,21213062974,/g3t1_1,,running
Status,1361,21213657402,/g3t1_1,,success
Status,1362,21213728448,/g3t1_2,,running
Status,1363,21213788140,/g3t1_3,,success
Status,1364,21214123263,/g3t1_2,,success
Status,1365,21225881799,/g4t1,,fail
Status,1366,21245581951,/g4t1,,success
Status,1367,21265659093,/g4t1,,success
Status,1368,21285771357,/g4t1,,success
Status,1369,21306032045,/g4t1,,success
Status,1370,21313675003,/g3t1_3,,running
Status,1371,21313742495,/g3t1_1,,running
Status,1372,21313979789,/g3t1_1,,success
Status,1373,21314010458,/g3t1_2,,running
Status,1374,21314269649,/g3t1_3,,success
Status,1375,21314502278,/g3t1_2,,success
Status,1376,21326256511,/g4t1,,fail
Status,1377,21346145153,/g4t1,,success
Status,1378,21366844954,/g4t1,,success
Status,1379,21386717380,/g4t1,,success
Status,1380,21406874515,/g4t1,,success
Status,1381,21414342341,/g3t1_3,,running
Status,1382,21414391106,/g3t1_1,,running
Status,1383,21414465613,/g3t1_2,,running
Status,1384,21414495639,/g3t1_2,,success
Status,1385,21414563325,/g3t1_1,,success
Status,1386,21414585319,/g3t1_3,,success
Status,1387,21427008384,/g4t1,,fail
Status,1388,21447239442,/g4t1,,success
Status,1389,21467270740,/g4t1,,success
Status,1390,21487314655,/g4t1,,success
Status,1391,21507346227,/g4t1,,success
Status,1392,21514037377,/g3t1_3,,running
Status,1393,21514090828,/g3t1_3,,success
Status,1394,21514166724,/g3t1_1,,running
Status,1395,21514184854,/g3t1_1,,success
Status,1396,21514217822,/g3t1_2,,running
Status,1397,21514401287,/g3t1_2,,success
Status,1398,21527509753,/g4t1,,fail
Status,1399,21547282625,/g4t1,,success
Status,1400,21567776942,/g4t1,,success
Status,1401,21587912386,/g4t1,,success
Status,1402,21608044478,/g4t1,,success
Status,1403,21614143082,/g3t1_3,,running
Status,1404,21614220451,/g3t1_1,,running
Status,1405,21614252516,/g3t1_2,,running
Status,1406,21614270698,/g3t1_3,,success
Status,1407,21614537786,/g3t1_2,,success
Status,1408,21614591489,/g3t1_1,,success
Status,1409,21628065520,/g4t1,,fail
Status,1410,21648242122,/g4t1,,success
Status,1411,21668262436,/g4t1,,success
Status,1412,21688472316,/g4t1,,success
Status,1413,21708661336,/g4t1,,success
Status,1414,21714448022,/g3t1_1,,running
Status,1415,21714518541,/g3t1_3,,running
Status,1416,21714553998,/g3t1_2,,running
Status,1417,21714616558,/g3t1_2,,success
Status,1418,21714643365,/g3t1_3,,success
Status,1419,21714671194,/g3t1_1,,success
Status,1420,21728543912,/g4t1,,fail
Status,1421,21748351934,/g4t1,,success
Status,1422,21768408371,/g4t1,,success
Status,1423,21788866174,/g4t1,,success
Status,1424,21808979976,/g4t1,,success
Status,1425,21813568127,/g3t1_1,,running
Status,1426,21813682765,/g3t1_3,,running
Status,1427,21814489063,/g3t1_2,,running
Status,1428,21814543198,/g3t1_1,,success
Status,1429,21814576210,/g3t1_3,,success
Status,1430,21814917129,/g3t1_2,,success
Status,1431,21829044580,/g4t1,,fail
Status,1432,21849641156,/g4t1,,success
Status,1433,21869849193,/g4t1,,success
Status,1434,21889884540,/g4t1,,success
Status,1435,21910088587,/g4t1,,success
Status,1436,21914455207,/g3t1_3,,running
Status,1437,21914515180,/g3t1_1,,running
Status,1438,21914550897,/g3t1_1,,success
Status,1439,21914579567,/g3t1_3,,success
Status,1440,21914632494,/g3t1_2,,running
Status,1441,21914692170,/g3t1_2,,success
Status,1442,21930045203,/g4t1,,fail
Status,1443,21950167248,/g4t1,,success
Status,1444,21970639949,/g4t1,,success
Status,1445,21990534670,/g4t1,,success
Status,1446,22010737363,/g4t1,,success
Status,1447,22013752128,/g3t1_1,,running
Status,1448,22013985321,/g3t1_3,,running
Status,1449,22014746585,/g3t1_2,,running
Status,1450,22014811135,/g3t1_3,,success
Status,1451,22014902006,/g3t1_1,,success
Status,1452,22014967744,/g3t1_2,,success
Status,1453,22030818228,/g4t1,,fail
Status,1454,22050978000,/g4t1,,success
Status,1455,22071049021,/g4t1,,success
Status,1456,22091338580,/g4t1,,success
Status,1457,22111577831,/g4t1,,success
Status,1458,22114583980,/g3t1_1,,running
Status,1459,22114641304,/g3t1_3,,running
Status,1460,22114679365,/g3t1_2,,running
Status,1461,22114765037,/g3t1_3,,success
Status,1462,22114798240,/g3t1_1,,success
Status,1463,22115270865,/g3t1_2,,success
Status,1464,22131614503,/g4t1,,fail
Status,1465,22151786407,/g4t1,,success
Status,1466,22171876787,/g4t1,,success
Status,1467,22192073017,/g4t1,,success
Status,1468,22212168572,/g4t1,,success
Status,1469,22214767109,/g3t1_1,,running
Status,1470,22214818461,/g3t1_1,,success
Status,1471,22214841881,/g3t1_3,,running
Status,1472,22214860170,/g3t1_3,,success
Status,1473,22214910981,/g3t1_2,,running
Status,1474,22215077795,/g3t1_2,,success
Status,1475,22232217606,/g4t1,,fail
Status,1476,22252166660,/g4t1,,success
Status,1477,22272716680,/g4t1,,success
Status,1478,22292568561,/g4t1,,success
Status,1479,22312498769,/g4t1,,success
Status,1480,22314940907,/g3t1_1,,running
Status,1481,22315056144,/g3t1_3,,running
Status,1482,22315102389,/g3t1_3,,success
Status,1483,22315124785,/g3t1_1,,success
Status,1484,22315189872,/g3t1_2,,running
Status,1485,22315342720,/g3t1_2,,success
Status,1486,22332886349,/g4t1,,fail
Status,1487,22353126613,/g4t1,,success
Status,1488,22373443089,/g4t1,,success
Status,1489,22393468187,/g4t1,,success
Status,1490,22414162776,/g4t1,,success
Status,1491,22414934223,/g3t1_3,,running
Status,1492,22414992935,/g3t1_1,,running
Status,1493,22415040332,/g3t1_3,,success
Status,1494,22415130837,/g3t1_2,,running
Status,1495,22415222349,/g3t1_1,,success
Status,1496,22415467193,/g3t1_2,,success
Status,1497,22433805675,/g4t1,,fail
Status,1498,22454031212,/g4t1,,success
Status,1499,22474124058,/g4t1,,success
Status,1500,22494356915,/g4t1,,success
Status,1501,22516013282,/g4t1,,success
Status,1502,22516080153,/g3t1_3,,running
Status,1503,22516115839,/g3t1_3,,success
Status,1504,22516142090,/g3t1_1,,running
Status,1505,22516234819,/g3t1_1,,success
Status,1506,22516262334,/g3t1_2,,running
Status,1507,22516285158,/g3t1_2,,success
Status,1508,22534520655,/g4t1,,fail
Status,1509,22554209312,/g4t1,,success
Status,1510,22574107324,/g4t1,,success
Status,1511,22593971064,/g4t1,,success
Status,1512,22614026929,/g3t1_3,,running
Status,1513,22614052617,/g3t1_1,,running
Status,1514,22614086230,/g4t1,,success
Status,1515,22614094517,/g3t1_1,,success
Status,1516,22614186424,/g3t1_3,,success
Status,1517,22614646783,/g3t1_2,,running
Status,1518,22614782975,/g3t1_2,,success
Status,1519,22634157223,/g4t1,,fail
Status,1520,22654852197,/g4t1,,success
Status,1521,22674832637,/g4t1,,success
Status,1522,22695213800,/g4t1,,success
Status,1523,22715698621,/g3t1_3,,running
Status,1524,22715762870,/g3t1_1,,running
Status,1525,22715798618,/g3t1_3,,success
Status,1526,22715963798,/g4t1,,success
Status,1527,22716021277,/g3t1_1,,success
Status,1528,22716066736,/g3t1_2,,running
Status,1529,22716632375,/g3t1_2,,success
Status,1530,22735429067,/g4t1,,fail
Status,1531,22755695588,/g4t1,,success
Status,1532,22775754366,/g4t1,,success
Status,1533,22795859469,/g4t1,,success
Status,1534,22815199883,/g3t1_1,,running
Status,1535,22815264454,/g3t1_3,,running
Status,1536,22815574083,/g3t1_2,,running
Status,1537,22815622331,/g3t1_3,,success
Status,1538,22815787590,/g3t1_1,,success
Status,1539,22816275543,/g4t1,,fail
Status,1540,22816355559,/g3t1_2,,success
Status,1541,22835981327,/g4t1,,fail
