
Status,1,3439541776,/g4t1,,init
Status,4,8656087194,/g3t1_1,,init
Status,5,8656226145,/g3t1_2,,init
Status,7,8666657261,/g3t1_1,,init
Status,8,8666679500,/g3t1_1,,running
Status,9,8667298185,/g3t1_2,,init
Status,10,8667314576,/g3t1_2,,running
Status,11,8667498489,/g3t1_1,,success
Status,12,8667767366,/g3t1_2,,success
Status,13,8716918554,/g3t1_1,,running
Status,14,8716936378,/g3t1_1,,success
Status,15,8717428091,/g3t1_2,,running
Status,16,8717440243,/g3t1_2,,success
Status,17,8766946489,/g3t1_1,,running
Status,18,8767033603,/g3t1_1,,success
Status,19,8767459021,/g3t1_2,,running
Status,20,8767533610,/g3t1_2,,success
Status,21,8817013795,/g3t1_1,,running
Status,22,8817112156,/g3t1_1,,success
Status,23,8817510365,/g3t1_2,,running
Status,24,8817667581,/g3t1_2,,success
Status,25,8867048240,/g3t1_1,,running
Status,26,8867065003,/g3t1_1,,success
Status,27,8867640167,/g3t1_2,,running
Status,28,8867655508,/g3t1_2,,success
Status,29,8917094106,/g3t1_1,,running
Status,30,8917114151,/g3t1_1,,success
Status,31,8917627093,/g3t1_2,,running
Status,32,8917809440,/g3t1_2,,success
Status,34,8958601221,/g3t1_3,,init
Status,35,8965054662,/g3t1_3,,init
Status,36,8965068137,/g3t1_3,,running
Status,37,8965512083,/g3t1_3,,success
Status,38,8967024031,/g3t1_1,,running
Status,39,8967089421,/g3t1_1,,success
Status,40,8967671928,/g3t1_2,,running
Status,41,8967830501,/g3t1_2,,success
Status,42,9015561858,/g3t1_3,,running
Status,43,9015690982,/g3t1_3,,success
Status,44,9017379197,/g3t1_1,,running
Status,45,9017551609,/g3t1_1,,success
Status,46,9018296861,/g3t1_2,,running
Status,47,9018475363,/g3t1_2,,success
Status,48,9059032381,/g4t1,,success
Status,49,9065870919,/g3t1_3,,running
Status,50,9066527108,/g3t1_3,,success
Status,51,9067967854,/g3t1_1,,running
Status,52,9068029097,/g3t1_1,,success
Status,53,9068376594,/g3t1_2,,running
Status,54,9068859137,/g3t1_2,,success
Status,55,9116538967,/g3t1_3,,running
Status,56,9116973392,/g3t1_3,,success
Status,57,9118485471,/g3t1_1,,running
Status,58,9118573667,/g3t1_2,,running
Status,59,9118663743,/g3t1_1,,success
Status,60,9118976153,/g3t1_2,,success
Status,61,9158827193,/g4t1,,success
Status,62,9166413173,/g3t1_3,,running
Status,63,9166869277,/g3t1_3,,success
Status,64,9168276211,/g3t1_1,,running
Status,65,9168512588,/g3t1_1,,success
Status,66,9168678397,/g3t1_2,,running
Status,67,9169117523,/g3t1_2,,success
Status,68,9217000302,/g3t1_3,,running
Status,69,9217242951,/g3t1_3,,success
Status,70,9218228619,/g3t1_1,,running
Status,71,9218850594,/g3t1_2,,running
Status,72,9218959686,/g3t1_1,,success
Status,73,9219313677,/g3t1_2,,success
Status,74,9259042335,/g4t1,,success
Status,75,9266696335,/g3t1_3,,running
Status,76,9267292392,/g3t1_3,,success
Status,77,9268183391,/g3t1_1,,running
Status,78,9269361107,/g3t1_1,,success
Status,79,9269428722,/g3t1_2,,running
Status,80,9269504912,/g3t1_2,,success
Status,81,9317389444,/g3t1_3,,running
Status,82,9317547400,/g3t1_3,,success
Status,83,9318263881,/g3t1_1,,running
Status,84,9318782460,/g3t1_1,,success
Status,85,9319276538,/g3t1_2,,running
Status,86,9319665384,/g3t1_2,,success
Status,87,9359406941,/g4t1,,fail
Status,88,9367168073,/g3t1_3,,running
Status,89,9367606001,/g3t1_3,,success
Status,90,9368452581,/g3t1_1,,running
Status,91,9369005173,/g3t1_1,,success
Status,92,9369368028,/g3t1_2,,running
Status,93,9369711269,/g3t1_2,,success
Status,94,9417722009,/g3t1_3,,running
Status,95,9417806036,/g3t1_3,,success
Status,96,9418874293,/g3t1_1,,running
Status,97,9419240456,/g3t1_1,,success
Status,98,9419320656,/g3t1_2,,running
Status,99,9420114112,/g3t1_2,,success
Status,100,9459470551,/g4t1,,fail
Status,101,9467519720,/g3t1_3,,running
Status,102,9467851310,/g3t1_3,,success
Status,103,9468705775,/g3t1_1,,running
Status,104,9469239714,/g3t1_1,,success
Status,105,9469371757,/g3t1_2,,running
Status,106,9469917129,/g3t1_2,,success
Status,107,9517932010,/g3t1_3,,running
Status,108,9518425008,/g3t1_3,,success
Status,109,9518868579,/g3t1_1,,running
Status,110,9519679824,/g3t1_2,,running
Status,111,9519785881,/g3t1_1,,success
Status,112,9520215234,/g3t1_2,,success
Status,113,9559732907,/g4t1,,fail
Status,114,9567926820,/g3t1_3,,running
Status,115,9568279705,/g3t1_3,,success
Status,116,9568918860,/g3t1_1,,running
Status,117,9569721673,/g3t1_2,,running
Status,118,9569844978,/g3t1_1,,success
Status,119,9570307402,/g3t1_2,,success
Status,120,9617986693,/g3t1_3,,running
Status,121,9618280088,/g3t1_3,,success
Status,122,9619090934,/g3t1_1,,running
Status,123,9619797575,/g3t1_1,,success
Status,124,9619923192,/g3t1_2,,running
Status,125,9620813657,/g3t1_2,,success
Status,126,9659695408,/g4t1,,fail
Status,127,9668060756,/g3t1_3,,running
Status,128,9669172250,/g3t1_3,,success
Status,129,9669260398,/g3t1_1,,running
Status,130,9670270325,/g3t1_1,,success
Status,131,9670350967,/g3t1_2,,running
Status,132,9671059693,/g3t1_2,,success
Status,133,9718004294,/g3t1_3,,running
Status,134,9718026591,/g3t1_3,,success
Status,135,9718742951,/g3t1_1,,running
Status,136,9718763574,/g3t1_1,,success
Status,137,9719312056,/g3t1_2,,running
Status,138,9719512087,/g3t1_2,,success
Status,139,9759523135,/g4t1,,fail
Status,140,9768652141,/g3t1_3,,running
Status,141,9769161957,/g3t1_3,,success
Status,142,9769339860,/g3t1_1,,running
Status,143,9770869291,/g3t1_2,,running
Status,144,9770934966,/g3t1_2,,success
Status,145,9771020479,/g3t1_1,,success
Status,146,9818766226,/g3t1_3,,running
Status,147,9819681677,/g3t1_1,,running
Status,148,9819767701,/g3t1_3,,success
Status,149,9820550118,/g3t1_2,,running
Status,150,9820782833,/g3t1_1,,success
Status,151,9820835023,/g3t1_2,,success
Status,152,9859806878,/g4t1,,fail
Status,153,9869565352,/g3t1_3,,running
Status,154,9869663595,/g3t1_3,,success
Status,155,9869710990,/g3t1_1,,running
Status,156,9870717299,/g3t1_1,,success
Status,157,9870773994,/g3t1_2,,running
Status,158,9871230913,/g3t1_2,,success
Status,159,9919018423,/g3t1_3,,running
Status,160,9919947282,/g3t1_3,,success
Status,161,9920030066,/g3t1_1,,running
Status,162,9920953541,/g3t1_2,,running
Status,163,9921014624,/g3t1_1,,success
Status,164,9921129549,/g3t1_2,,success
Status,165,9959676699,/g4t1,,fail
Status,166,9969200907,/g3t1_3,,running
Status,167,9969651826,/g3t1_3,,success
Status,168,9970260760,/g3t1_1,,running
Status,169,9971045995,/g3t1_1,,success
Status,170,9971105323,/g3t1_2,,running
Status,171,9971530123,/g3t1_2,,success
Status,172,10019668665,/g3t1_3,,running
Status,173,10019970100,/g3t1_3,,success
Status,174,10020047390,/g3t1_1,,running
Status,175,10020917451,/g3t1_1,,success
Status,176,10021004924,/g3t1_2,,running
Status,177,10021432423,/g3t1_2,,success
Status,178,10060020642,/g4t1,,fail
Status,179,10069882063,/g3t1_3,,running
Status,180,10070365703,/g3t1_3,,success
Status,181,10070751774,/g3t1_1,,running
Status,182,10071591804,/g3t1_1,,success
Status,183,10071723572,/g3t1_2,,running
Status,184,10071805518,/g3t1_2,,success
Status,185,10120032127,/g3t1_3,,running
Status,186,10120898768,/g3t1_3,,success
Status,187,10121085554,/g3t1_1,,running
Status,188,10121222776,/g3t1_1,,success
Status,189,10121272088,/g3t1_2,,running
Status,190,10122023073,/g3t1_2,,success
Status,191,10160096716,/g4t1,,fail
Status,192,10169817634,/g3t1_3,,running
Status,193,10170617840,/g3t1_3,,success
Status,194,10170809920,/g3t1_1,,running
Status,195,10171464523,/g3t1_1,,success
Status,196,10171670853,/g3t1_2,,running
Status,197,10172154448,/g3t1_2,,success
Status,198,10219903858,/g3t1_3,,running
Status,199,10220405997,/g3t1_3,,success
Status,200,10221052847,/g3t1_1,,running
Status,201,10221912820,/g3t1_1,,success
Status,202,10222016351,/g3t1_2,,running
Status,203,10222099062,/g3t1_2,,success
Status,204,10260322548,/g4t1,,fail
Status,205,10269961006,/g3t1_3,,running
Status,206,10270485291,/g3t1_3,,success
Status,207,10270578621,/g3t1_1,,running
Status,208,10271267428,/g3t1_1,,success
Status,209,10271934761,/g3t1_2,,running
Status,210,10272498502,/g3t1_2,,success
Status,211,10320311825,/g3t1_3,,running
Status,212,10321872629,/g3t1_3,,success
Status,213,10322148039,/g3t1_1,,running
Status,214,10322266483,/g3t1_1,,success
Status,215,10322298607,/g3t1_2,,running
Status,216,10322604129,/g3t1_2,,success
Status,217,10360100839,/g4t1,,fail
Status,218,10370420422,/g3t1_3,,running
Status,219,10371289434,/g3t1_1,,running
Status,220,10371376828,/g3t1_3,,success
Status,221,10372187265,/g3t1_2,,running
Status,222,10372256642,/g3t1_1,,success
Status,223,10372640092,/g3t1_2,,success
Status,224,10420547599,/g3t1_3,,running
Status,225,10421731068,/g3t1_3,,success
Status,226,10421886334,/g3t1_1,,running
Status,227,10421929567,/g3t1_1,,success
Status,228,10422398069,/g3t1_2,,running
Status,229,10422896652,/g3t1_2,,success
Status,230,10460207998,/g4t1,,fail
Status,231,10470703437,/g3t1_3,,running
Status,232,10471478028,/g3t1_3,,success
Status,233,10471604501,/g3t1_1,,running
Status,234,10472227827,/g3t1_1,,success
Status,235,10472909544,/g3t1_2,,running
Status,236,10473596127,/g3t1_2,,success
Status,237,10521000823,/g3t1_3,,running
Status,238,10521526078,/g3t1_3,,success
Status,239,10521605592,/g3t1_1,,running
Status,240,10522359154,/g3t1_1,,success
Status,241,10522480352,/g3t1_2,,running
Status,242,10523224519,/g3t1_2,,success
Status,243,10560787090,/g4t1,,fail
Status,244,10571787894,/g3t1_3,,running
Status,245,10571881053,/g3t1_1,,running
Status,246,10571926308,/g3t1_3,,success
Status,247,10572054740,/g3t1_1,,success
Status,248,10572508296,/g3t1_2,,running
Status,249,10573208889,/g3t1_2,,success
Status,250,10621519924,/g3t1_3,,running
Status,251,10621645471,/g3t1_3,,success
Status,252,10621733313,/g3t1_1,,running
Status,253,10622358492,/g3t1_1,,success
Status,254,10622652105,/g3t1_2,,running
Status,255,10623260621,/g3t1_2,,success
Status,256,10660727750,/g4t1,,fail
Status,257,10672423113,/g3t1_3,,running
Status,258,10672513884,/g3t1_3,,success
Status,259,10672703548,/g3t1_1,,running
Status,260,10672734046,/g3t1_1,,success
Status,261,10672759458,/g3t1_2,,running
Status,262,10673139043,/g3t1_2,,success
Status,263,10721555844,/g3t1_3,,running
Status,264,10721724693,/g3t1_3,,success
Status,265,10722142572,/g3t1_1,,running
Status,266,10722553840,/g3t1_1,,success
Status,267,10722649348,/g3t1_2,,running
Status,268,10723490480,/g3t1_2,,success
Status,269,10760986505,/g4t1,,fail
Status,270,10771426625,/g3t1_3,,running
Status,271,10772722136,/g3t1_1,,running
Status,272,10772882038,/g3t1_3,,success
Status,273,10773496393,/g3t1_1,,success
Status,274,10773558743,/g3t1_2,,running
Status,275,10773680894,/g3t1_2,,success
Status,276,10821395937,/g3t1_3,,running
Status,277,10821873488,/g3t1_3,,success
Status,278,10821946633,/g3t1_1,,running
Status,279,10822575980,/g3t1_1,,success
Status,280,10822984925,/g3t1_2,,running
Status,281,10823548712,/g3t1_2,,success
Status,282,10860856295,/g4t1,,fail
Status,283,10871594578,/g3t1_3,,running
Status,284,10872174900,/g3t1_3,,success
Status,285,10872252112,/g3t1_1,,running
Status,286,10873079704,/g3t1_1,,success
Status,287,10873157753,/g3t1_2,,running
Status,288,10873738668,/g3t1_2,,success
Status,289,10921728247,/g3t1_3,,running
Status,290,10922552128,/g3t1_1,,running
Status,291,10922622728,/g3t1_3,,success
Status,292,10923342802,/g3t1_1,,success
Status,293,10923476276,/g3t1_2,,running
Status,294,10923512661,/g3t1_2,,success
Status,295,10961096789,/g4t1,,fail
Status,296,10971825986,/g3t1_3,,running
Status,297,10972930574,/g3t1_3,,success
Status,298,10973005796,/g3t1_1,,running
Status,299,10973041225,/g3t1_1,,success
Status,300,10973574683,/g3t1_2,,running
Status,301,10973992945,/g3t1_2,,success
Status,302,11021904105,/g3t1_3,,running
Status,303,11022516915,/g3t1_3,,success
Status,304,11022611186,/g3t1_1,,running
Status,305,11023275236,/g3t1_1,,success
Status,306,11023387491,/g3t1_2,,running
Status,307,11023812948,/g3t1_2,,success
Status,308,11061244969,/g4t1,,fail
Status,309,11071969933,/g3t1_3,,running
Status,310,11072725791,/g3t1_3,,success
Status,311,11072859415,/g3t1_1,,running
Status,312,11073726539,/g3t1_2,,running
Status,313,11073795845,/g3t1_1,,success
Status,314,11074259219,/g3t1_2,,success
Status,315,11122216516,/g3t1_3,,running
Status,316,11122464556,/g3t1_3,,success
Status,317,11122982100,/g3t1_1,,running
Status,318,11123562913,/g3t1_1,,success
Status,319,11123639392,/g3t1_2,,running
Status,320,11124533664,/g3t1_2,,success
Status,321,11161331749,/g4t1,,fail
Status,322,11172293452,/g3t1_3,,running
Status,323,11172938490,/g3t1_3,,success
Status,324,11173049787,/g3t1_1,,running
Status,325,11173932608,/g3t1_2,,running
Status,326,11174081061,/g3t1_1,,success
Status,327,11174247455,/g3t1_2,,success
Status,328,11222390559,/g3t1_3,,running
Status,329,11222958991,/g3t1_3,,success
Status,330,11223029086,/g3t1_1,,running
Status,331,11223994995,/g3t1_1,,success
Status,332,11224171805,/g3t1_2,,running
Status,333,11224944163,/g3t1_2,,success
Status,334,11261382653,/g4t1,,fail
Status,335,11272453773,/g3t1_3,,running
Status,336,11273180480,/g3t1_3,,success
Status,337,11273301074,/g3t1_1,,running
Status,338,11274093465,/g3t1_1,,success
Status,339,11274177298,/g3t1_2,,running
Status,340,11274570882,/g3t1_2,,success
Status,341,11322846810,/g3t1_3,,running
Status,342,11323339734,/g3t1_3,,success
Status,343,11323637340,/g3t1_1,,running
Status,344,11324272648,/g3t1_1,,success
Status,345,11324488380,/g3t1_2,,running
Status,346,11324613616,/g3t1_2,,success
Status,347,11361563166,/g4t1,,fail
Status,348,11373056622,/g3t1_3,,running
Status,349,11373305171,/g3t1_3,,success
Status,350,11373429833,/g3t1_1,,running
Status,351,11374530027,/g3t1_1,,success
Status,352,11374625144,/g3t1_2,,running
Status,353,11375151006,/g3t1_2,,success
Status,354,11423241684,/g3t1_3,,running
Status,355,11423683291,/g3t1_1,,running
Status,356,11423789588,/g3t1_3,,success
Status,357,11425172233,/g3t1_1,,success
Status,358,11425245134,/g3t1_2,,running
Status,359,11425315901,/g3t1_2,,success
Status,360,11461846192,/g4t1,,fail
Status,361,11473224281,/g3t1_3,,running
Status,362,11474374798,/g3t1_3,,success
Status,363,11474508652,/g3t1_1,,running
Status,364,11474573474,/g3t1_1,,success
Status,365,11474620102,/g3t1_2,,running
Status,366,11475210516,/g3t1_2,,success
Status,367,11523975807,/g3t1_3,,running
Status,368,11524355229,/g3t1_3,,success
Status,369,11524418197,/g3t1_1,,running
Status,370,11524461341,/g3t1_1,,success
Status,371,11524500787,/g3t1_2,,running
Status,372,11525294491,/g3t1_2,,success
Status,373,11561778855,/g4t1,,fail
Status,374,11573945248,/g3t1_3,,running
Status,375,11574025419,/g3t1_1,,running
Status,376,11574206706,/g3t1_3,,success
Status,377,11574801563,/g3t1_1,,success
Status,378,11574899213,/g3t1_2,,running
Status,379,11575911705,/g3t1_2,,success
Status,380,11623866456,/g3t1_3,,running
Status,381,11624726980,/g3t1_1,,running
Status,382,11624782578,/g3t1_3,,success
Status,383,11624857683,/g3t1_1,,success
Status,384,11624893010,/g3t1_2,,running
Status,385,11625528457,/g3t1_2,,success
Status,386,11661934463,/g4t1,,fail
Status,387,11673900563,/g3t1_3,,running
Status,388,11674018251,/g3t1_3,,success
Status,389,11674712737,/g3t1_1,,running
Status,390,11674918803,/g3t1_1,,success
Status,391,11675254559,/g3t1_2,,running
Status,392,11675704831,/g3t1_2,,success
Status,393,11724650793,/g3t1_3,,running
Status,394,11724729926,/g3t1_1,,running
Status,395,11724850243,/g3t1_3,,success
Status,396,11725294441,/g3t1_2,,running
Status,397,11725922390,/g3t1_1,,success
Status,398,11726007501,/g3t1_2,,success
Status,399,11761964018,/g4t1,,fail
Status,400,11774693905,/g3t1_3,,running
Status,401,11774790800,/g3t1_1,,running
Status,402,11774834154,/g3t1_1,,success
Status,403,11774871027,/g3t1_3,,success
Status,404,11775383752,/g3t1_2,,running
Status,405,11775817648,/g3t1_2,,success
Status,406,11825398208,/g3t1_3,,running
Status,407,11825524662,/g3t1_1,,running
Status,408,11825646961,/g3t1_1,,success
Status,409,11825689666,/g3t1_3,,success
Status,410,11825722320,/g3t1_2,,running
Status,411,11826017973,/g3t1_2,,success
Status,412,11862141430,/g4t1,,fail
Status,413,11874661150,/g3t1_3,,running
Status,414,11875322312,/g3t1_1,,running
Status,415,11875691423,/g3t1_3,,success
Status,416,11875808954,/g3t1_1,,success
Status,417,11876011894,/g3t1_2,,running
Status,418,11876420844,/g3t1_2,,success
Status,419,11925359797,/g3t1_1,,running
Status,420,11925453097,/g3t1_3,,running
Status,421,11925897204,/g3t1_3,,success
Status,422,11925961055,/g3t1_1,,success
Status,423,11925998264,/g3t1_2,,running
Status,424,11926426913,/g3t1_2,,success
Status,425,11962216648,/g4t1,,fail
Status,426,11975183781,/g3t1_1,,running
Status,427,11975272975,/g3t1_3,,running
Status,428,11975900950,/g3t1_1,,success
Status,429,11976012189,/g3t1_2,,running
Status,430,11976063150,/g3t1_3,,success
Status,431,11977053625,/g3t1_2,,success
Status,432,12025480992,/g3t1_3,,running
Status,433,12025576289,/g3t1_1,,running
Status,434,12026134378,/g3t1_1,,success
Status,435,12026216226,/g3t1_3,,success
Status,436,12026710286,/g3t1_2,,running
Status,437,12026815910,/g3t1_2,,success
Status,438,12062173501,/g4t1,,fail
Status,439,12075461630,/g3t1_1,,running
Status,440,12075667570,/g3t1_3,,running
Status,441,12076720507,/g3t1_3,,success
Status,442,12076810180,/g3t1_2,,running
Status,443,12076903464,/g3t1_1,,success
Status,444,12077284188,/g3t1_2,,success
Status,445,12125843608,/g3t1_1,,running
Status,446,12126670878,/g3t1_3,,running
Status,447,12126747078,/g3t1_1,,success
Status,448,12126788994,/g3t1_3,,success
Status,449,12126819772,/g3t1_2,,running
Status,450,12127274233,/g3t1_2,,success
Status,451,12162287101,/g4t1,,fail
Status,452,12176330786,/g3t1_1,,running
Status,453,12176681816,/g3t1_3,,running
Status,454,12176928116,/g3t1_2,,running
Status,455,12176974357,/g3t1_1,,success
Status,456,12176999814,/g3t1_3,,success
Status,457,12177640671,/g3t1_2,,success
Status,458,12225863867,/g3t1_1,,running
Status,459,12225984373,/g3t1_3,,running
Status,460,12226253844,/g3t1_3,,success
Status,461,12226738479,/g3t1_1,,success
Status,462,12226894653,/g3t1_2,,running
Status,463,12227125303,/g3t1_2,,success
Status,464,12262446193,/g4t1,,fail
Status,465,12276332861,/g3t1_3,,running
Status,466,12276442863,/g3t1_1,,running
Status,467,12277024162,/g3t1_1,,success
Status,468,12277148350,/g3t1_3,,success
Status,469,12277366462,/g3t1_2,,running
Status,470,12278503718,/g3t1_2,,success
Status,471,12326301221,/g3t1_3,,running
Status,472,12326388216,/g3t1_1,,running
Status,473,12327301288,/g3t1_1,,success
Status,474,12327353420,/g3t1_3,,success
Status,475,12327515673,/g3t1_2,,running
Status,476,12327553429,/g3t1_2,,success
Status,477,12362607673,/g4t1,,fail
Status,478,12376888414,/g3t1_3,,running
Status,479,12376991335,/g3t1_1,,running
Status,480,12377104998,/g3t1_1,,success
Status,481,12377144887,/g3t1_2,,running
Status,482,12377169540,/g3t1_3,,success
Status,483,12378295007,/g3t1_2,,success
Status,484,12426220318,/g3t1_3,,running
Status,485,12426344668,/g3t1_1,,running
Status,486,12427047160,/g3t1_1,,success
Status,487,12427173289,/g3t1_3,,success
Status,488,12427210084,/g3t1_2,,running
Status,489,12427556303,/g3t1_2,,success
Status,490,12462781333,/g4t1,,fail
Status,491,12477439636,/g3t1_3,,running
Status,492,12477549949,/g3t1_1,,running
Status,493,12477816738,/g3t1_1,,success
Status,494,12477891747,/g3t1_2,,running
Status,495,12478030171,/g3t1_3,,success
Status,496,12478444124,/g3t1_2,,success
Status,497,12526642201,/g3t1_1,,running
Status,498,12526790898,/g3t1_3,,running
Status,499,12527536336,/g3t1_3,,success
Status,500,12527631618,/g3t1_1,,success
Status,501,12528066270,/g3t1_2,,running
Status,502,12528456812,/g3t1_2,,success
Status,503,12562723688,/g4t1,,fail
Status,504,12577187225,/g3t1_3,,running
Status,505,12577316095,/g3t1_1,,running
Status,506,12578749976,/g3t1_3,,success
Status,507,12578903087,/g3t1_1,,success
Status,508,12578959259,/g3t1_2,,running
Status,509,12579390394,/g3t1_2,,success
Status,510,12627163353,/g3t1_1,,running
Status,511,12627249064,/g3t1_3,,running
Status,512,12627320688,/g3t1_3,,success
Status,513,12627621640,/g3t1_1,,success
Status,514,12628971130,/g3t1_2,,running
Status,515,12629101637,/g3t1_2,,success
Status,516,12662983243,/g4t1,,fail
Status,517,12677529610,/g3t1_1,,running
Status,518,12677626111,/g3t1_3,,running
Status,519,12678795595,/g3t1_1,,success
Status,520,12678896763,/g3t1_3,,success
Status,521,12678938726,/g3t1_2,,running
Status,522,12679047960,/g3t1_2,,success
Status,523,12727643665,/g3t1_1,,running
Status,524,12727720980,/g3t1_3,,running
Status,525,12727840739,/g3t1_3,,success
Status,526,12728216012,/g3t1_1,,success
Status,527,12728336748,/g3t1_2,,running
Status,528,12729161630,/g3t1_2,,success
Status,529,12763095531,/g4t1,,fail
Status,530,12777903872,/g3t1_1,,running
Status,531,12778011730,/g3t1_3,,running
Status,532,12778511765,/g3t1_3,,success
Status,533,12778616523,/g3t1_1,,success
Status,534,12779095628,/g3t1_2,,running
Status,535,12779171326,/g3t1_2,,success
Status,536,12827708153,/g3t1_3,,running
Status,537,12827789341,/g3t1_1,,running
Status,538,12827940094,/g3t1_1,,success
Status,539,12828647247,/g3t1_3,,success
Status,540,12829513107,/g3t1_2,,running
Status,541,12829590710,/g3t1_2,,success
Status,542,12863197080,/g4t1,,fail
Status,543,12878170400,/g3t1_1,,running
Status,544,12878640117,/g3t1_3,,running
Status,545,12878886351,/g3t1_1,,success
Status,546,12879249303,/g3t1_3,,success
Status,547,12879357970,/g3t1_2,,running
Status,548,12880074792,/g3t1_2,,success
Status,549,12928227598,/g3t1_1,,running
Status,550,12928304459,/g3t1_3,,running
Status,551,12928410222,/g3t1_1,,success
Status,552,12928444167,/g3t1_3,,success
Status,553,12928967379,/g3t1_2,,running
Status,554,12929704750,/g3t1_2,,success
Status,555,12963347965,/g4t1,,fail
Status,556,12978450371,/g3t1_1,,running
Status,557,12978630757,/g3t1_3,,running
Status,558,12978799373,/g3t1_1,,success
Status,559,12978850132,/g3t1_3,,success
Status,560,12979164942,/g3t1_2,,running
Status,561,12979873800,/g3t1_2,,success
Status,562,13028666341,/g3t1_1,,running
Status,563,13028750016,/g3t1_3,,running
Status,564,13028829181,/g3t1_1,,success
Status,565,13028870407,/g3t1_3,,success
Status,566,13029243189,/g3t1_2,,running
Status,567,13029905268,/g3t1_2,,success
Status,568,13063411085,/g4t1,,fail
Status,569,13079081542,/g3t1_1,,running
Status,570,13079166395,/g3t1_3,,running
Status,571,13079318162,/g3t1_1,,success
Status,572,13079356004,/g3t1_3,,success
Status,573,13079389928,/g3t1_2,,running
Status,574,13079927925,/g3t1_2,,success
Status,575,13128526444,/g3t1_1,,running
Status,576,13129098266,/g3t1_3,,running
Status,577,13129160896,/g3t1_3,,success
Status,578,13129197949,/g3t1_1,,success
Status,579,13129290770,/g3t1_2,,running
Status,580,13130035600,/g3t1_2,,success
Status,581,13163620579,/g4t1,,fail
Status,582,13178883369,/g3t1_1,,running
Status,583,13179018233,/g3t1_3,,running
Status,584,13179085822,/g3t1_1,,success
Status,585,13179781163,/g3t1_2,,running
Status,586,13179973946,/g3t1_3,,success
Status,587,13180287410,/g3t1_2,,success
Status,588,13228949377,/g3t1_1,,running
Status,589,13229029551,/g3t1_3,,running
Status,590,13229782938,/g3t1_3,,success
Status,591,13229883321,/g3t1_2,,running
Status,592,13230179095,/g3t1_1,,success
Status,593,13230325709,/g3t1_2,,success
Status,594,13263755951,/g4t1,,fail
Status,595,13278965030,/g3t1_1,,running
Status,596,13279372836,/g3t1_3,,running
Status,597,13280150618,/g3t1_3,,success
Status,598,13280196963,/g3t1_1,,success
Status,599,13280221350,/g3t1_2,,running
Status,600,13280397404,/g3t1_2,,success
Status,601,13329387646,/g3t1_1,,running
Status,602,13329774671,/g3t1_3,,running
Status,603,13329939014,/g3t1_2,,running
Status,604,13329984200,/g3t1_3,,success
Status,605,13330576217,/g3t1_1,,success
Status,606,13330651422,/g3t1_2,,success
Status,607,13364071826,/g4t1,,fail
Status,608,13379271583,/g3t1_1,,running
Status,609,13379545322,/g3t1_3,,running
Status,610,13379601294,/g3t1_1,,success
Status,611,13380081306,/g3t1_3,,success
Status,612,13380225779,/g3t1_2,,running
Status,613,13380963228,/g3t1_2,,success
Status,614,13429358647,/g3t1_3,,running
Status,615,13430037436,/g3t1_1,,running
Status,616,13430222333,/g3t1_3,,success
Status,617,13430438692,/g3t1_2,,running
Status,618,13430506467,/g3t1_1,,success
Status,619,13430856611,/g3t1_2,,success
Status,620,13464035732,/g4t1,,fail
Status,621,13479844134,/g3t1_1,,running
Status,622,13479949588,/g3t1_3,,running
Status,623,13480080932,/g3t1_3,,success
Status,624,13480121870,/g3t1_1,,success
Status,625,13480163049,/g3t1_2,,running
Status,626,13480531200,/g3t1_2,,success
Status,627,13530338931,/g3t1_1,,running
Status,628,13530433380,/g3t1_3,,running
Status,629,13530526141,/g3t1_3,,success
Status,630,13530562755,/g3t1_1,,success
Status,631,13530587139,/g3t1_2,,running
Status,632,13531046333,/g3t1_2,,success
Status,633,13564094147,/g4t1,,fail
Status,634,13579913634,/g3t1_3,,running
Status,635,13580160252,/g3t1_1,,running
Status,636,13580490621,/g3t1_1,,success
Status,637,13580601058,/g3t1_2,,running
Status,638,13580648203,/g3t1_3,,success
Status,639,13581119405,/g3t1_2,,success
Status,640,13630179254,/g3t1_1,,running
Status,641,13630271166,/g3t1_3,,running
Status,642,13631229027,/g3t1_1,,success
Status,643,13631313816,/g3t1_2,,running
Status,644,13631354761,/g3t1_3,,success
Status,645,13631424781,/g3t1_2,,success
Status,646,13664231717,/g4t1,,fail
Status,647,13680177759,/g3t1_1,,running
Status,648,13680280101,/g3t1_3,,running
Status,649,13680915920,/g3t1_2,,running
Status,650,13680983148,/g3t1_1,,success
Status,651,13681091694,/g3t1_3,,success
Status,652,13681458392,/g3t1_2,,success
Status,653,13730365906,/g3t1_1,,running
Status,654,13730782000,/g3t1_3,,running
Status,655,13730868834,/g3t1_1,,success
Status,656,13730981758,/g3t1_3,,success
Status,657,13731804090,/g3t1_2,,running
Status,658,13731885461,/g3t1_2,,success
Status,659,13764414915,/g4t1,,fail
Status,660,13780426997,/g3t1_1,,running
Status,661,13780510749,/g3t1_3,,running
Status,662,13781032025,/g3t1_1,,success
Status,663,13781389710,/g3t1_2,,running
Status,664,13781536729,/g3t1_2,,success
Status,665,13781674412,/g3t1_3,,success
Status,666,13830352105,/g3t1_3,,running
Status,667,13830422595,/g3t1_1,,running
Status,668,13831157762,/g3t1_3,,success
Status,669,13831219536,/g3t1_1,,success
Status,670,13831339859,/g3t1_2,,running
Status,671,13831992436,/g3t1_2,,success
Status,672,13864428520,/g4t1,,fail
Status,673,13880744879,/g3t1_3,,running
Status,674,13880857641,/g3t1_1,,running
Status,675,13881487900,/g3t1_2,,running
Status,676,13881553977,/g3t1_1,,success
Status,677,13881645928,/g3t1_3,,success
Status,678,13881959853,/g3t1_2,,success
Status,679,13930981439,/g3t1_3,,running
Status,680,13931058118,/g3t1_1,,running
Status,681,13931099162,/g3t1_3,,success
Status,682,13931517637,/g3t1_2,,running
Status,683,13931622970,/g3t1_1,,success
Status,684,13931648673,/g3t1_2,,success
Status,685,13964711695,/g4t1,,fail
Status,686,13980886795,/g3t1_3,,running
Status,687,13980964346,/g3t1_1,,running
Status,688,13981001429,/g3t1_1,,success
Status,689,13981181244,/g3t1_3,,success
Status,690,13981715950,/g3t1_2,,running
Status,691,13982528880,/g3t1_2,,success
Status,692,14031148836,/g3t1_3,,running
Status,693,14031259775,/g3t1_1,,running
Status,694,14031329473,/g3t1_1,,success
Status,695,14032282897,/g3t1_2,,running
Status,696,14032538869,/g3t1_3,,success
Status,697,14032657555,/g3t1_2,,success
Status,698,14064763134,/g4t1,,fail
Status,699,14081098369,/g3t1_3,,running
Status,700,14081231258,/g3t1_1,,running
Status,701,14081344515,/g3t1_3,,success
Status,702,14081798978,/g3t1_1,,success
Status,703,14081885654,/g3t1_2,,running
Status,704,14081928830,/g3t1_2,,success
Status,705,14131681941,/g3t1_3,,running
Status,706,14131736167,/g3t1_1,,running
Status,707,14132010807,/g3t1_3,,success
Status,708,14132051157,/g3t1_1,,success
Status,709,14132084446,/g3t1_2,,running
Status,710,14132518790,/g3t1_2,,success
Status,711,14164852815,/g4t1,,fail
Status,712,14181569641,/g3t1_3,,running
Status,713,14181676179,/g3t1_1,,running
Status,714,14182199418,/g3t1_3,,success
Status,715,14182311958,/g3t1_1,,success
Status,716,14182352162,/g3t1_2,,running
Status,717,14182512308,/g3t1_2,,success
Status,718,14232082178,/g3t1_1,,running
Status,719,14232163425,/g3t1_3,,running
Status,720,14232251320,/g3t1_3,,success
Status,721,14232284460,/g3t1_2,,running
Status,722,14232319643,/g3t1_1,,success
Status,723,14232652175,/g3t1_2,,success
Status,724,14265237605,/g4t1,,fail
Status,725,14282318501,/g3t1_3,,running
Status,726,14282398722,/g3t1_1,,running
Status,727,14282439287,/g3t1_3,,success
Status,728,14282534333,/g3t1_2,,running
Status,729,14282566074,/g3t1_1,,success
Status,730,14282604788,/g3t1_2,,success
Status,731,14331951895,/g3t1_1,,running
Status,732,14332045012,/g3t1_3,,running
Status,733,14332180704,/g3t1_1,,success
Status,734,14332700319,/g3t1_2,,running
Status,735,14333260744,/g3t1_3,,success
Status,736,14333690944,/g3t1_2,,success
Status,737,14365239911,/g4t1,,fail
Status,738,14381995065,/g3t1_1,,running
Status,739,14382215593,/g3t1_3,,running
Status,740,14382279470,/g3t1_1,,success
Status,741,14382387876,/g3t1_3,,success
Status,742,14382487475,/g3t1_2,,running
Status,743,14382873107,/g3t1_2,,success
Status,744,14432104565,/g3t1_1,,running
Status,745,14432279856,/g3t1_3,,running
Status,746,14432950520,/g3t1_2,,running
Status,747,14433028063,/g3t1_1,,success
Status,748,14433112126,/g3t1_3,,success
Status,749,14433237013,/g3t1_2,,success
Status,750,14465436050,/g4t1,,fail
Status,751,14482105431,/g3t1_1,,running
Status,752,14482305299,/g3t1_3,,running
Status,753,14482515352,/g3t1_1,,success
Status,754,14482654691,/g3t1_3,,success
Status,755,14482804784,/g3t1_2,,running
Status,756,14483193901,/g3t1_2,,success
Status,757,14531737575,/g3t1_1,,running
Status,758,14531785147,/g3t1_3,,running
Status,759,14532123829,/g3t1_3,,success
Status,760,14532293736,/g3t1_1,,success
Status,761,14532343194,/g3t1_2,,running
Status,762,14532548594,/g3t1_2,,success
Status,763,14565389864,/g4t1,,fail
Status,764,14582514409,/g3t1_1,,running
Status,765,14582604465,/g3t1_3,,running
Status,766,14583156247,/g3t1_2,,running
Status,767,14583215793,/g3t1_1,,success
Status,768,14583714899,/g3t1_3,,success
Status,769,14583816863,/g3t1_2,,success
Status,770,14633278992,/g3t1_1,,running
Status,771,14633384269,/g3t1_3,,running
Status,772,14633463197,/g3t1_1,,success
Status,773,14633486788,/g3t1_3,,success
Status,774,14633530758,/g3t1_2,,running
Status,775,14633964457,/g3t1_2,,success
Status,776,14665443784,/g4t1,,fail
Status,777,14683034606,/g3t1_1,,running
Status,778,14683125680,/g3t1_3,,running
Status,779,14683459138,/g3t1_3,,success
Status,780,14683504158,/g3t1_2,,running
Status,781,14683537135,/g3t1_1,,success
Status,782,14683896680,/g3t1_2,,success
Status,783,14733994470,/g3t1_1,,running
Status,784,14734054432,/g3t1_2,,running
Status,785,14734244511,/g3t1_1,,success
Status,786,14734358962,/g3t1_3,,running
Status,787,14734387775,/g3t1_3,,success
Status,788,14734478214,/g3t1_2,,success
Status,789,14766040958,/g4t1,,fail
Status,790,14783459026,/g3t1_1,,running
Status,791,14783552973,/g3t1_3,,running
Status,792,14783682301,/g3t1_2,,running
Status,793,14783972927,/g3t1_2,,success
Status,794,14784058181,/g3t1_1,,success
Status,795,14784143849,/g3t1_3,,success
Status,796,14833846930,/g3t1_1,,running
Status,797,14833935413,/g3t1_3,,running
Status,798,14834061327,/g3t1_2,,running
Status,799,14834342331,/g3t1_3,,success
Status,800,14834409034,/g3t1_1,,success
Status,801,14834447148,/g3t1_2,,success
Status,802,14866240706,/g4t1,,fail
Status,803,14883880470,/g3t1_1,,running
Status,804,14883968232,/g3t1_3,,running
Status,805,14884031123,/g3t1_2,,running
Status,806,14884211435,/g3t1_1,,success
Status,807,14884259233,/g3t1_2,,success
Status,808,14884349930,/g3t1_3,,success
Status,809,14934144021,/g3t1_3,,running
Status,810,14934319931,/g3t1_1,,running
Status,811,14934394975,/g3t1_2,,running
Status,812,14934508965,/g3t1_2,,success
Status,813,14934684590,/g3t1_3,,success
Status,814,14935261894,/g3t1_1,,success
Status,815,14966169493,/g4t1,,fail
Status,816,14984503753,/g3t1_3,,running
Status,817,14984672280,/g3t1_1,,running
Status,818,14984705329,/g3t1_2,,running
Status,819,14984728554,/g3t1_3,,success
Status,820,14984812448,/g3t1_1,,success
Status,821,14984836914,/g3t1_2,,success
Status,822,15034903176,/g3t1_3,,running
Status,823,15035053463,/g3t1_3,,success
Status,824,15035098220,/g3t1_1,,running
Status,825,15035173472,/g3t1_1,,success
Status,826,15035206387,/g3t1_2,,running
Status,827,15035238141,/g3t1_2,,success
Status,828,15066264573,/g4t1,,fail
Status,829,15085301301,/g3t1_2,,running
Status,830,15085384444,/g3t1_3,,running
Status,831,15085450080,/g3t1_1,,running
Status,832,15085546355,/g3t1_1,,success
Status,833,15085577000,/g3t1_2,,success
Status,834,15085613614,/g3t1_3,,success
Status,835,15134684212,/g3t1_1,,running
Status,836,15134801299,/g3t1_3,,running
Status,837,15134848176,/g3t1_2,,running
Status,838,15135175802,/g3t1_1,,success
Status,839,15135332796,/g3t1_3,,success
Status,840,15135900892,/g3t1_2,,success
Status,841,15166471391,/g4t1,,fail
Status,842,15184921960,/g3t1_3,,running
Status,843,15184997165,/g3t1_3,,success
Status,844,15185094497,/g3t1_2,,running
Status,845,15185134103,/g3t1_2,,success
Status,846,15185180472,/g3t1_1,,running
Status,847,15185280416,/g3t1_1,,success
Status,848,15235041171,/g3t1_2,,running
Status,849,15235176613,/g3t1_1,,running
Status,850,15235203906,/g3t1_3,,running
Status,851,15235884862,/g3t1_2,,success
Status,852,15235950658,/g3t1_3,,success
Status,853,15235988739,/g3t1_1,,success
Status,854,15266677455,/g4t1,,fail
Status,855,15284984830,/g3t1_1,,running
Status,856,15285073011,/g3t1_3,,running
Status,857,15285240287,/g3t1_2,,running
Status,858,15285568206,/g3t1_2,,success
Status,859,15285674680,/g3t1_3,,success
Status,860,15286015098,/g3t1_1,,success
Status,861,15335297622,/g3t1_1,,running
Status,862,15335381358,/g3t1_3,,running
Status,863,15335886640,/g3t1_2,,running
Status,864,15336037156,/g3t1_3,,success
Status,865,15336081059,/g3t1_1,,success
Status,866,15336115098,/g3t1_2,,success
Status,867,15366736200,/g4t1,,fail
Status,868,15385551810,/g3t1_3,,running
Status,869,15385661455,/g3t1_1,,running
Status,870,15385958567,/g3t1_2,,running
Status,871,15386028809,/g3t1_2,,success
Status,872,15386736085,/g3t1_1,,success
Status,873,15386842308,/g3t1_3,,success
Status,874,15435414098,/g3t1_1,,running
Status,875,15435501307,/g3t1_2,,running
Status,876,15436184310,/g3t1_3,,running
Status,877,15436252997,/g3t1_3,,success
Status,878,15436293161,/g3t1_2,,success
Status,879,15436741115,/g3t1_1,,success
Status,880,15466826010,/g4t1,,fail
Status,881,15485748182,/g3t1_1,,running
Status,882,15485838994,/g3t1_3,,running
Status,883,15485954935,/g3t1_2,,running
Status,884,15486078313,/g3t1_3,,success
Status,885,15486106937,/g3t1_1,,success
Status,886,15486137811,/g3t1_2,,success
Status,887,15536087240,/g3t1_1,,running
Status,888,15536201353,/g3t1_3,,running
Status,889,15536842328,/g3t1_2,,running
Status,890,15536902589,/g3t1_1,,success
Status,891,15536985590,/g3t1_2,,success
Status,892,15537026938,/g3t1_3,,success
Status,893,15567148214,/g4t1,,fail
Status,894,15586570358,/g3t1_2,,running
Status,895,15586695531,/g3t1_3,,running
Status,896,15586722515,/g3t1_3,,success
Status,897,15586750626,/g3t1_2,,success
Status,898,15586853838,/g3t1_1,,running
Status,899,15586889856,/g3t1_1,,success
Status,900,15636547179,/g3t1_1,,running
Status,901,15636696525,/g3t1_2,,running
Status,902,15636731963,/g3t1_3,,running
Status,903,15637269673,/g3t1_2,,success
Status,904,15637684975,/g3t1_3,,success
Status,905,15637761237,/g3t1_1,,success
Status,906,15667187591,/g4t1,,fail
Status,907,15687381588,/g3t1_3,,running
Status,908,15687450379,/g3t1_1,,running
Status,909,15687476454,/g3t1_2,,running
Status,910,15687653073,/g3t1_3,,success
Status,911,15687686160,/g3t1_1,,success
Status,912,15687761480,/g3t1_2,,success
Status,913,15737544589,/g3t1_1,,running
Status,914,15737623872,/g3t1_2,,running
Status,915,15737799645,/g3t1_3,,running
Status,916,15737848555,/g3t1_2,,success
Status,917,15737910029,/g3t1_3,,success
Status,918,15738107725,/g3t1_1,,success
Status,919,15767459493,/g4t1,,fail
Status,920,15786929172,/g3t1_2,,running
Status,921,15787074314,/g3t1_3,,running
Status,922,15787113503,/g3t1_1,,running
Status,923,15787964148,/g3t1_1,,success
Status,924,15788053682,/g3t1_2,,success
Status,925,15788214008,/g3t1_3,,success
Status,926,15837270056,/g3t1_2,,running
Status,927,15837346128,/g3t1_1,,running
Status,928,15837396376,/g3t1_3,,running
Status,929,15837436945,/g3t1_3,,success
Status,930,15837567133,/g3t1_1,,success
Status,931,15837867939,/g3t1_2,,success
Status,932,15867486428,/g4t1,,fail
Status,933,15887136584,/g3t1_1,,running
Status,934,15887709645,/g3t1_3,,running
Status,935,15887771743,/g3t1_2,,running
Status,936,15887807437,/g3t1_3,,success
Status,937,15887833966,/g3t1_1,,success
Status,938,15888061048,/g3t1_2,,success
Status,939,15937269542,/g3t1_1,,running
Status,940,15937363339,/g3t1_2,,running
Status,941,15937413078,/g3t1_3,,running
Status,942,15938491998,/g3t1_2,,success
Status,943,15938568348,/g3t1_1,,success
Status,944,15938609733,/g3t1_3,,success
Status,945,15967606900,/g4t1,,fail
Status,946,15987836240,/g3t1_2,,running
Status,947,15987923324,/g3t1_2,,success
Status,948,15987954264,/g3t1_3,,running
Status,949,15987980690,/g3t1_1,,running
Status,950,15988164975,/g3t1_1,,success
Status,951,15988366283,/g3t1_3,,success
Status,952,16038064997,/g3t1_1,,running
Status,953,16038146954,/g3t1_2,,running
Status,954,16038181895,/g3t1_3,,running
Status,955,16038210190,/g3t1_2,,success
Status,956,16038265197,/g3t1_1,,success
Status,957,16038463876,/g3t1_3,,success
Status,958,16067714215,/g4t1,,fail
Status,959,16088220456,/g3t1_2,,running
Status,960,16088279771,/g3t1_1,,running
Status,961,16088308049,/g3t1_3,,running
Status,962,16088407407,/g3t1_1,,success
Status,963,16088430479,/g3t1_2,,success
Status,964,16088455982,/g3t1_3,,success
Status,965,16137849085,/g3t1_2,,running
Status,966,16137926613,/g3t1_2,,success
Status,967,16137968726,/g3t1_1,,running
Status,968,16138136980,/g3t1_1,,success
Status,969,16138170146,/g3t1_3,,running
Status,970,16138196722,/g3t1_3,,success
Status,971,16167950178,/g4t1,,fail
Status,972,16188226069,/g3t1_1,,running
Status,973,16188295102,/g3t1_2,,running
Status,974,16188319922,/g3t1_2,,success
Status,975,16188342838,/g3t1_3,,running
Status,976,16188380872,/g3t1_3,,success
Status,977,16188489433,/g3t1_1,,success
Status,978,16238056964,/g3t1_1,,running
Status,979,16238145173,/g3t1_2,,running
Status,980,16238248869,/g3t1_3,,running
Status,981,16238274934,/g3t1_3,,success
Status,982,16238560843,/g3t1_1,,success
Status,983,16238654228,/g3t1_2,,success
Status,984,16267934573,/g4t1,,fail
Status,985,16288081917,/g3t1_1,,running
Status,986,16288173962,/g3t1_2,,running
Status,987,16288745936,/g3t1_3,,running
Status,988,16288807231,/g3t1_3,,success
Status,989,16288891754,/g3t1_2,,success
Status,990,16288925871,/g3t1_1,,success
Status,991,16337959733,/g3t1_1,,running
Status,992,16338107364,/g3t1_3,,running
Status,993,16338275661,/g3t1_2,,running
Status,994,16338662311,/g3t1_2,,success
Status,995,16338716483,/g3t1_3,,success
Status,996,16338851347,/g3t1_1,,success
Status,997,16367999444,/g4t1,,fail
Status,998,16388406592,/g3t1_1,,running
Status,999,16388464408,/g3t1_2,,running
Status,1000,16388493732,/g3t1_3,,running
Status,1001,16388611689,/g3t1_3,,success
Status,1002,16389024172,/g3t1_1,,success
Status,1003,16389376956,/g3t1_2,,success
Status,1004,16438049441,/g3t1_1,,running
Status,1005,16438338451,/g3t1_2,,running
Status,1006,16438389022,/g3t1_3,,running
Status,1007,16439081329,/g3t1_3,,success
Status,1008,16439151405,/g3t1_1,,success
Status,1009,16439452438,/g3t1_2,,success
Status,1010,16468035761,/g4t1,,fail
Status,1011,16488325890,/g3t1_1,,running
Status,1012,16488653840,/g3t1_2,,running
Status,1013,16489301868,/g3t1_3,,running
Status,1014,16489436809,/g3t1_3,,success
Status,1015,16489553971,/g3t1_1,,success
Status,1016,16489589273,/g3t1_2,,success
Status,1017,16538184055,/g3t1_1,,running
Status,1018,16538434679,/g3t1_2,,running
Status,1019,16538825820,/g3t1_3,,running
Status,1020,16538978775,/g3t1_1,,success
Status,1021,16539122281,/g3t1_2,,success
Status,1022,16539374618,/g3t1_3,,success
Status,1023,16568181765,/g4t1,,fail
Status,1024,16589190548,/g3t1_1,,running
Status,1025,16589318491,/g3t1_2,,running
Status,1026,16589364375,/g3t1_3,,running
Status,1027,16589431871,/g3t1_3,,success
Status,1028,16589454729,/g3t1_1,,success
Status,1029,16589476052,/g3t1_2,,success
Status,1030,16638549231,/g3t1_1,,running
Status,1031,16638625966,/g3t1_2,,running
Status,1032,16638662002,/g3t1_3,,running
Status,1033,16639091948,/g3t1_2,,success
Status,1034,16639272084,/g3t1_1,,success
Status,1035,16639303544,/g3t1_3,,success
Status,1036,16668383953,/g4t1,,fail
Status,1037,16689242853,/g3t1_1,,running
Status,1038,16689326774,/g3t1_2,,running
Status,1039,16689409309,/g3t1_3,,running
Status,1040,16689442315,/g3t1_1,,success
Status,1041,16689471582,/g3t1_3,,success
Status,1042,16689842113,/g3t1_2,,success
Status,1043,16739210766,/g3t1_1,,running
Status,1044,16739296830,/g3t1_2,,running
Status,1045,16739467908,/g3t1_2,,success
Status,1046,16739502618,/g3t1_3,,running
Status,1047,16739535566,/g3t1_3,,success
Status,1048,16739927590,/g3t1_1,,success
Status,1049,16768490332,/g4t1,,fail
Status,1050,16789164012,/g3t1_1,,running
Status,1051,16789420068,/g3t1_2,,running
Status,1052,16790216271,/g3t1_3,,running
Status,1053,16790294279,/g3t1_1,,success
Status,1054,16790404696,/g3t1_2,,success
Status,1055,16790444165,/g3t1_3,,success
Status,1056,16839448213,/g3t1_1,,running
Status,1057,16839536597,/g3t1_2,,running
Status,1058,16839648096,/g3t1_3,,running
Status,1059,16839685196,/g3t1_2,,success
Status,1060,16840078471,/g3t1_1,,success
Status,1061,16840482756,/g3t1_3,,success
Status,1062,16868368247,/g4t1,,fail
Status,1063,16889551062,/g3t1_2,,running
Status,1064,16889642368,/g3t1_1,,running
Status,1065,16889682821,/g3t1_3,,running
Status,1066,16889719499,/g3t1_2,,success
Status,1067,16889917352,/g3t1_3,,success
Status,1068,16890257864,/g3t1_1,,success
Status,1069,16939625563,/g3t1_1,,running
Status,1070,16939727984,/g3t1_2,,running
Status,1071,16939778742,/g3t1_3,,running
Status,1072,16940497513,/g3t1_3,,success
Status,1073,16940736970,/g3t1_1,,success
Status,1074,16940789488,/g3t1_2,,success
Status,1075,16968670782,/g4t1,,fail
Status,1076,16989857932,/g3t1_1,,running
Status,1077,16989933101,/g3t1_2,,running
Status,1078,16990063410,/g3t1_3,,running
Status,1079,16990101821,/g3t1_1,,success
Status,1080,16990134376,/g3t1_2,,success
Status,1081,16990430218,/g3t1_3,,success
Status,1082,17040376543,/g3t1_2,,running
Status,1083,17040464451,/g3t1_3,,running
Status,1084,17040550767,/g3t1_1,,running
Status,1085,17040655770,/g3t1_2,,success
Status,1086,17040972821,/g3t1_1,,success
Status,1087,17041042667,/g3t1_3,,success
Status,1088,17068888058,/g4t1,,fail
Status,1089,17090440986,/g3t1_2,,running
Status,1090,17090574185,/g3t1_3,,running
Status,1091,17090617479,/g3t1_1,,running
Status,1092,17090710108,/g3t1_1,,success
Status,1093,17090741016,/g3t1_2,,success
Status,1094,17090790536,/g3t1_3,,success
Status,1095,17140334798,/g3t1_2,,running
Status,1096,17140416055,/g3t1_1,,running
Status,1097,17140535666,/g3t1_3,,running
Status,1098,17140622950,/g3t1_3,,success
Status,1099,17140662181,/g3t1_2,,success
Status,1100,17140697155,/g3t1_1,,success
Status,1101,17169030225,/g4t1,,fail
Status,1102,17190379787,/g3t1_2,,running
Status,1103,17190526786,/g3t1_3,,running
Status,1104,17190569587,/g3t1_1,,running
Status,1105,17191056438,/g3t1_2,,success
Status,1106,17191152666,/g3t1_3,,success
Status,1107,17191221373,/g3t1_1,,success
Status,1108,17240802794,/g3t1_1,,running
Status,1109,17240903047,/g3t1_3,,running
Status,1110,17241034747,/g3t1_2,,running
Status,1111,17241078797,/g3t1_1,,success
Status,1112,17241219314,/g3t1_3,,success
Status,1113,17241342385,/g3t1_2,,success
Status,1114,17269106882,/g4t1,,fail
Status,1115,17290385886,/g3t1_1,,running
Status,1116,17290476564,/g3t1_3,,running
Status,1117,17290664473,/g3t1_2,,running
Status,1118,17291053480,/g3t1_3,,success
Status,1119,17291113759,/g3t1_1,,success
Status,1120,17291269352,/g3t1_2,,success
Status,1121,17341660744,/g3t1_3,,running
Status,1122,17341755364,/g3t1_2,,running
Status,1123,17341866435,/g3t1_1,,running
Status,1124,17341905723,/g3t1_3,,success
Status,1125,17341944428,/g3t1_1,,success
Status,1126,17342009437,/g3t1_2,,success
Status,1127,17369193336,/g4t1,,fail
Status,1128,17390892064,/g3t1_2,,running
Status,1129,17390946671,/g3t1_1,,running
Status,1130,17391087330,/g3t1_3,,running
Status,1131,17391141376,/g3t1_3,,success
Status,1132,17391308703,/g3t1_2,,success
Status,1133,17391344894,/g3t1_1,,success
Status,1134,17441160042,/g3t1_1,,running
Status,1135,17441292942,/g3t1_2,,running
Status,1136,17441445429,/g3t1_3,,running
Status,1137,17442020634,/g3t1_3,,success
Status,1138,17442125791,/g3t1_2,,success
Status,1139,17442548505,/g3t1_1,,success
Status,1140,17469197924,/g4t1,,fail
Status,1141,17491486254,/g3t1_1,,running
Status,1142,17491580396,/g3t1_2,,running
Status,1143,17491610577,/g3t1_3,,running
Status,1144,17491723161,/g3t1_3,,success
Status,1145,17491748660,/g3t1_2,,success
Status,1146,17491772312,/g3t1_1,,success
Status,1147,17541588944,/g3t1_1,,running
Status,1148,17541925880,/g3t1_3,,running
Status,1149,17541980627,/g3t1_2,,running
Status,1150,17542293462,/g3t1_2,,success
Status,1151,17542359924,/g3t1_1,,success
Status,1152,17542498553,/g3t1_3,,success
Status,1153,17569285773,/g4t1,,fail
Status,1154,17591502838,/g3t1_2,,running
Status,1155,17591821644,/g3t1_3,,running
Status,1156,17591884161,/g3t1_1,,running
Status,1157,17592177676,/g3t1_2,,success
Status,1158,17592251999,/g3t1_1,,success
Status,1159,17592528269,/g3t1_3,,success
Status,1160,17641926471,/g3t1_2,,running
Status,1161,17642010958,/g3t1_1,,running
Status,1162,17642148603,/g3t1_3,,running
Status,1163,17642190185,/g3t1_1,,success
Status,1164,17642650308,/g3t1_2,,success
Status,1165,17642729226,/g3t1_3,,success
Status,1166,17669428788,/g4t1,,fail
Status,1167,17692240154,/g3t1_1,,running
Status,1168,17692371549,/g3t1_3,,running
Status,1169,17692760633,/g3t1_2,,running
Status,1170,17692829330,/g3t1_3,,success
Status,1171,17692936911,/g3t1_2,,success
Status,1172,17693205646,/g3t1_1,,success
Status,1173,17742402697,/g3t1_3,,running
Status,1174,17742486681,/g3t1_1,,running
Status,1175,17742513761,/g3t1_2,,running
Status,1176,17742537385,/g3t1_3,,success
Status,1177,17742637042,/g3t1_2,,success
Status,1178,17743091616,/g3t1_1,,success
Status,1179,17769834396,/g4t1,,fail
Status,1180,17792328417,/g3t1_2,,running
Status,1181,17792445756,/g3t1_1,,running
Status,1182,17792548814,/g3t1_3,,running
Status,1183,17793102959,/g3t1_3,,success
Status,1184,17793185312,/g3t1_2,,success
Status,1185,17793212653,/g3t1_1,,success
Status,1186,17842782851,/g3t1_1,,running
Status,1187,17842854407,/g3t1_3,,running
Status,1188,17842925472,/g3t1_2,,running
Status,1189,17842947673,/g3t1_2,,success
Status,1190,17842969997,/g3t1_3,,success
Status,1191,17842996445,/g3t1_1,,success
Status,1192,17869711445,/g4t1,,fail
Status,1193,17892885345,/g3t1_1,,running
Status,1194,17893038534,/g3t1_3,,running
Status,1195,17893080846,/g3t1_2,,running
Status,1196,17893671427,/g3t1_3,,success
Status,1197,17893753615,/g3t1_2,,success
Status,1198,17894442968,/g3t1_1,,success
Status,1199,17943034000,/g3t1_2,,running
Status,1200,17943117773,/g3t1_3,,running
Status,1201,17943161724,/g3t1_1,,running
Status,1202,17943192094,/g3t1_1,,success
Status,1203,17943224659,/g3t1_3,,success
Status,1204,17943614519,/g3t1_2,,success
Status,1205,17969813158,/g4t1,,fail
Status,1206,17993582847,/g3t1_2,,running
Status,1207,17993701852,/g3t1_1,,running
Status,1208,17993843166,/g3t1_3,,running
Status,1209,17993875154,/g3t1_1,,success
Status,1210,17993898532,/g3t1_2,,success
Status,1211,17994302327,/g3t1_3,,success
Status,1212,18043400842,/g3t1_1,,running
Status,1213,18043540822,/g3t1_2,,running
Status,1214,18043570059,/g3t1_3,,running
Status,1215,18043637265,/g3t1_3,,success
Status,1216,18043663735,/g3t1_1,,success
Status,1217,18043688830,/g3t1_2,,success
Status,1218,18069905402,/g4t1,,fail
Status,1219,18094149701,/g3t1_1,,running
Status,1220,18094216800,/g3t1_3,,running
Status,1221,18094240215,/g3t1_2,,running
Status,1222,18094263102,/g3t1_2,,success
Status,1223,18094290036,/g3t1_1,,success
Status,1224,18094462550,/g3t1_3,,success
Status,1225,18143433816,/g3t1_1,,running
Status,1226,18143564787,/g3t1_2,,running
Status,1227,18143641433,/g3t1_3,,running
Status,1228,18143684628,/g3t1_3,,success
Status,1229,18144198573,/g3t1_1,,success
Status,1230,18144311860,/g3t1_2,,success
Status,1231,18170060731,/g4t1,,fail
Status,1232,18193886064,/g3t1_2,,running
Status,1233,18194643351,/g3t1_1,,running
Status,1234,18194777507,/g3t1_3,,running
Status,1235,18194824766,/g3t1_1,,success
Status,1236,18194862728,/g3t1_2,,success
Status,1237,18195142243,/g3t1_3,,success
Status,1238,18244305509,/g3t1_1,,running
Status,1239,18244385631,/g3t1_3,,running
Status,1240,18244488312,/g3t1_2,,running
Status,1241,18244520466,/g3t1_1,,success
Status,1242,18244552781,/g3t1_2,,success
Status,1243,18244664276,/g3t1_3,,success
Status,1244,18270228008,/g4t1,,fail
Status,1245,18295011212,/g3t1_2,,running
Status,1246,18295091414,/g3t1_2,,success
Status,1247,18295169943,/g3t1_3,,running
Status,1248,18295193140,/g3t1_1,,running
Status,1249,18295223570,/g3t1_1,,success
Status,1250,18295424067,/g3t1_3,,success
Status,1251,18344798633,/g3t1_2,,running
Status,1252,18345161613,/g3t1_1,,running
Status,1253,18345232824,/g3t1_3,,running
Status,1254,18345267910,/g3t1_2,,success
Status,1255,18345574448,/g3t1_1,,success
Status,1256,18345657593,/g3t1_3,,success
Status,1257,18370358202,/g4t1,,fail
Status,1258,18394639090,/g3t1_2,,running
Status,1259,18394745287,/g3t1_1,,running
Status,1260,18394802976,/g3t1_3,,running
Status,1261,18395341692,/g3t1_2,,success
Status,1262,18395740605,/g3t1_3,,success
Status,1263,18395840447,/g3t1_1,,success
Status,1264,18445422308,/g3t1_1,,running
Status,1265,18445498384,/g3t1_2,,running
Status,1266,18445525445,/g3t1_3,,running
Status,1267,18445554662,/g3t1_1,,success
Status,1268,18445584748,/g3t1_2,,success
Status,1269,18445698095,/g3t1_3,,success
Status,1270,18470702348,/g4t1,,fail
Status,1271,18494702778,/g3t1_3,,running
Status,1272,18494940073,/g3t1_2,,running
Status,1273,18494994709,/g3t1_1,,running
Status,1274,18495021380,/g3t1_1,,success
Status,1275,18495045928,/g3t1_3,,success
Status,1276,18495847719,/g3t1_2,,success
Status,1277,18545165353,/g3t1_3,,running
Status,1278,18545260304,/g3t1_2,,running
Status,1279,18545302502,/g3t1_1,,running
Status,1280,18545780728,/g3t1_1,,success
Status,1281,18545853105,/g3t1_3,,success
Status,1282,18545894937,/g3t1_2,,success
Status,1283,18570510143,/g4t1,,fail
Status,1284,18594926244,/g3t1_2,,running
Status,1285,18595074203,/g3t1_1,,running
Status,1286,18595122231,/g3t1_3,,running
Status,1287,18595306311,/g3t1_3,,success
Status,1288,18595777473,/g3t1_2,,success
Status,1289,18595902113,/g3t1_1,,success
Status,1290,18645381616,/g3t1_3,,running
Status,1291,18645581134,/g3t1_1,,running
Status,1292,18645748936,/g3t1_2,,running
Status,1293,18646129993,/g3t1_2,,success
Status,1294,18646192226,/g3t1_1,,success
Status,1295,18646230270,/g3t1_3,,success
Status,1296,18670695311,/g4t1,,fail
Status,1297,18694950466,/g3t1_1,,running
Status,1298,18694978604,/g3t1_1,,success
Status,1299,18694988129,/g3t1_3,,running
Status,1300,18694996760,/g3t1_3,,success
Status,1301,18695005614,/g3t1_2,,running
Status,1302,18695014626,/g3t1_2,,success
Status,1303,18745300673,/g3t1_1,,running
Status,1304,18745352483,/g3t1_2,,running
Status,1305,18745367697,/g3t1_3,,running
Status,1306,18745379721,/g3t1_1,,success
Status,1307,18745392950,/g3t1_2,,success
Status,1308,18745481507,/g3t1_3,,success
Status,1309,18770923828,/g4t1,,fail
Status,1310,18796376185,/g3t1_1,,running
Status,1311,18796447484,/g3t1_1,,success
Status,1312,18796476817,/g3t1_3,,running
Status,1313,18796639388,/g3t1_3,,success
Status,1314,18796665102,/g3t1_2,,running
Status,1315,18796681263,/g3t1_2,,success
Status,1316,18845920263,/g3t1_1,,running
Status,1317,18845973261,/g3t1_1,,success
Status,1318,18846021282,/g3t1_2,,running
Status,1319,18846042251,/g3t1_3,,running
Status,1320,18846067696,/g3t1_3,,success
Status,1321,18846088388,/g3t1_2,,success
Status,1322,18870829319,/g4t1,,fail
Status,1323,18895879480,/g3t1_3,,running
Status,1324,18895995394,/g3t1_1,,running
Status,1325,18896056186,/g3t1_2,,running
Status,1326,18896080224,/g3t1_2,,success
Status,1327,18896102411,/g3t1_3,,success
Status,1328,18896311226,/g3t1_1,,success
Status,1329,18946557908,/g3t1_1,,running
Status,1330,18946803938,/g3t1_2,,running
Status,1331,18946894588,/g3t1_3,,running
Status,1332,18947151407,/g3t1_2,,success
Status,1333,18947199445,/g3t1_1,,success
Status,1334,18947249627,/g3t1_3,,success
Status,1335,18971007824,/g4t1,,fail
Status,1336,18996479207,/g3t1_2,,running
Status,1337,18996678699,/g3t1_3,,running
Status,1338,18997174347,/g3t1_1,,running
Status,1339,18997264533,/g3t1_2,,success
Status,1340,18997623469,/g3t1_3,,success
Status,1341,18997674346,/g3t1_1,,success
Status,1342,19047200929,/g3t1_1,,running
Status,1343,19047267255,/g3t1_2,,running
Status,1344,19047372472,/g3t1_3,,running
Status,1345,19047402956,/g3t1_1,,success
Status,1346,19047429394,/g3t1_3,,success
Status,1347,19047478741,/g3t1_2,,success
Status,1348,19071367341,/g4t1,,fail
Status,1349,19096388724,/g3t1_1,,running
Status,1350,19096840717,/g3t1_3,,running
Status,1351,19096928973,/g3t1_2,,running
Status,1352,19097133493,/g3t1_2,,success
Status,1353,19097184295,/g3t1_3,,success
Status,1354,19097221170,/g3t1_1,,success
Status,1355,19146796171,/g3t1_1,,running
Status,1356,19146883854,/g3t1_2,,running
Status,1357,19147001795,/g3t1_3,,running
Status,1358,19147662285,/g3t1_1,,success
Status,1359,19147712868,/g3t1_2,,success
Status,1360,19147759287,/g3t1_3,,success
Status,1361,19171438578,/g4t1,,fail
Status,1362,19196983320,/g3t1_1,,running
Status,1363,19197064880,/g3t1_2,,running
Status,1364,19197239775,/g3t1_3,,running
Status,1365,19197282369,/g3t1_2,,success
Status,1366,19197332542,/g3t1_1,,success
Status,1367,19197703041,/g3t1_3,,success
Status,1368,19247141476,/g3t1_1,,running
Status,1369,19247206591,/g3t1_2,,running
Status,1370,19247340810,/g3t1_3,,running
Status,1371,19247382820,/g3t1_3,,success
Status,1372,19247426231,/g3t1_1,,success
Status,1373,19247597970,/g3t1_2,,success
Status,1374,19271694790,/g4t1,,fail
Status,1375,19297249906,/g3t1_1,,running
Status,1376,19297347841,/g3t1_2,,running
Status,1377,19297442981,/g3t1_3,,running
Status,1378,19297467086,/g3t1_2,,success
Status,1379,19297960385,/g3t1_1,,success
Status,1380,19298025991,/g3t1_3,,success
Status,1381,19347278265,/g3t1_1,,running
Status,1382,19347370030,/g3t1_2,,running
Status,1383,19347438575,/g3t1_3,,running
Status,1384,19347469894,/g3t1_3,,success
Status,1385,19347850047,/g3t1_1,,success
Status,1386,19347925372,/g3t1_2,,success
Status,1387,19371768178,/g4t1,,fail
Status,1388,19397725561,/g3t1_1,,running
Status,1389,19397834802,/g3t1_2,,running
Status,1390,19397861967,/g3t1_3,,running
Status,1391,19397927979,/g3t1_1,,success
Status,1392,19397953072,/g3t1_2,,success
Status,1393,19398047243,/g3t1_3,,success
Status,1394,19447529112,/g3t1_1,,running
Status,1395,19447702289,/g3t1_2,,running
Status,1396,19447753357,/g3t1_3,,running
Status,1397,19447853607,/g3t1_3,,success
Status,1398,19447902367,/g3t1_2,,success
Status,1399,19447938220,/g3t1_1,,success
Status,1400,19471921624,/g4t1,,fail
Status,1401,19497851044,/g3t1_3,,running
Status,1402,19497942064,/g3t1_1,,running
Status,1403,19497991022,/g3t1_2,,running
Status,1404,19498376164,/g3t1_1,,success
Status,1405,19498454627,/g3t1_3,,success
Status,1406,19498551076,/g3t1_2,,success
Status,1407,19548214777,/g3t1_1,,running
Status,1408,19548298690,/g3t1_3,,running
Status,1409,19548473277,/g3t1_2,,running
Status,1410,19548519251,/g3t1_2,,success
Status,1411,19548998930,/g3t1_1,,success
Status,1412,19549121830,/g3t1_3,,success
Status,1413,19572140022,/g4t1,,fail
Status,1414,19597923674,/g3t1_1,,running
Status,1415,19598049003,/g3t1_3,,running
Status,1416,19598440299,/g3t1_2,,running
Status,1417,19598515505,/g3t1_3,,success
Status,1418,19598539604,/g3t1_1,,success
Status,1419,19598582372,/g3t1_2,,success
Status,1420,19647804806,/g3t1_1,,running
Status,1421,19647999963,/g3t1_3,,running
Status,1422,19648058432,/g3t1_2,,running
Status,1423,19648663316,/g3t1_3,,success
Status,1424,19648952206,/g3t1_1,,success
Status,1425,19649067097,/g3t1_2,,success
Status,1426,19672102311,/g4t1,,fail
Status,1427,19697545360,/g3t1_1,,running
Status,1428,19697586166,/g3t1_3,,running
Status,1429,19697668565,/g3t1_2,,running
Status,1430,19697687971,/g3t1_3,,success
Status,1431,19697839178,/g3t1_1,,success
Status,1432,19697953124,/g3t1_2,,success
Status,1433,19748119909,/g3t1_3,,running
Status,1434,19748187047,/g3t1_1,,running
Status,1435,19748617246,/g3t1_2,,running
Status,1436,19748667785,/g3t1_1,,success
Status,1437,19748820229,/g3t1_3,,success
Status,1438,19748947167,/g3t1_2,,success
Status,1439,19772000402,/g4t1,,fail
Status,1440,19798645891,/g3t1_1,,running
Status,1441,19798779983,/g3t1_3,,running
Status,1442,19798814486,/g3t1_2,,running
Status,1443,19798838307,/g3t1_1,,success
Status,1444,19798868431,/g3t1_2,,success
Status,1445,19799204876,/g3t1_3,,success
Status,1446,19848927201,/g3t1_1,,running
Status,1447,19849111350,/g3t1_2,,running
Status,1448,19849150479,/g3t1_3,,running
Status,1449,19849177269,/g3t1_2,,success
Status,1450,19849201121,/g3t1_3,,success
Status,1451,19849223037,/g3t1_1,,success
Status,1452,19872247221,/g4t1,,fail
Status,1453,19898762993,/g3t1_1,,running
Status,1454,19898863407,/g3t1_2,,running
Status,1455,19899288959,/g3t1_3,,running
Status,1456,19899345856,/g3t1_1,,success
Status,1457,19899422804,/g3t1_3,,success
Status,1458,19899452015,/g3t1_2,,success
Status,1459,19949192250,/g3t1_1,,running
Status,1460,19949293666,/g3t1_3,,running
Status,1461,19949335874,/g3t1_2,,running
Status,1462,19950260366,/g3t1_3,,success
Status,1463,19950342178,/g3t1_1,,success
Status,1464,19950441596,/g3t1_2,,success
Status,1465,19972356470,/g4t1,,fail
Status,1466,19999393111,/g3t1_3,,running
Status,1467,19999542260,/g3t1_1,,running
Status,1468,19999617988,/g3t1_2,,running
Status,1469,19999718021,/g3t1_1,,success
Status,1470,19999751060,/g3t1_2,,success
Status,1471,19999781304,/g3t1_3,,success
Status,1472,20049493438,/g3t1_3,,running
Status,1473,20049609383,/g3t1_1,,running
Status,1474,20049657940,/g3t1_2,,running
Status,1475,20050443561,/g3t1_2,,success
Status,1476,20050563237,/g3t1_1,,success
Status,1477,20050694286,/g3t1_3,,success
Status,1478,20072483325,/g4t1,,fail
Status,1479,20099879565,/g3t1_3,,running
Status,1480,20099988662,/g3t1_2,,running
Status,1481,20100061758,/g3t1_1,,running
Status,1482,20100084862,/g3t1_2,,success
Status,1483,20100109211,/g3t1_1,,success
Status,1484,20100402656,/g3t1_3,,success
Status,1485,20149897536,/g3t1_3,,running
Status,1486,20150007418,/g3t1_1,,running
Status,1487,20150416445,/g3t1_2,,running
Status,1488,20150959187,/g3t1_2,,success
Status,1489,20151023548,/g3t1_3,,success
Status,1490,20151071560,/g3t1_1,,success
Status,1491,20172893466,/g4t1,,fail
Status,1492,20200342831,/g3t1_3,,running
Status,1493,20200432520,/g3t1_1,,running
Status,1494,20200472435,/g3t1_2,,running
Status,1495,20200498800,/g3t1_3,,success
Status,1496,20200643578,/g3t1_2,,success
Status,1497,20200668870,/g3t1_1,,success
Status,1498,20250299546,/g3t1_2,,running
Status,1499,20250459895,/g3t1_3,,running
Status,1500,20250667110,/g3t1_1,,running
Status,1501,20251098026,/g3t1_3,,success
Status,1502,20251538593,/g3t1_1,,success
Status,1503,20251621680,/g3t1_2,,success
Status,1504,20272917275,/g4t1,,fail
Status,1505,20300819163,/g3t1_1,,running
Status,1506,20301046900,/g3t1_3,,running
Status,1507,20301086450,/g3t1_2,,running
Status,1508,20301109872,/g3t1_1,,success
Status,1509,20301131826,/g3t1_3,,success
Status,1510,20301234000,/g3t1_2,,success
Status,1511,20350874734,/g3t1_2,,running
Status,1512,20350955011,/g3t1_3,,running
