
Status,2,3481830905,/g4t1,,init
Status,3,8654791506,/g3t1_1,,init
Status,5,8661133769,/g3t1_1,,init
Status,6,8661147529,/g3t1_1,,running
Status,7,8661659927,/g3t1_1,,success
Status,8,8711299562,/g3t1_1,,running
Status,9,8711426370,/g3t1_1,,success
Status,11,8757178766,/g3t1_2,,init
Status,12,8761388142,/g3t1_1,,running
Status,13,8761405344,/g3t1_1,,success
Status,14,8765026204,/g3t1_2,,init
Status,15,8765038848,/g3t1_2,,running
Status,16,8765417638,/g3t1_2,,success
Status,17,8811515213,/g3t1_1,,running
Status,18,8811544771,/g3t1_1,,success
Status,19,8815087208,/g3t1_2,,running
Status,20,8815246792,/g3t1_2,,success
Status,22,8857745452,/g3t1_3,,init
Status,23,8861553627,/g3t1_1,,running
Status,24,8861569362,/g3t1_1,,success
Status,25,8865210104,/g3t1_2,,running
Status,26,8865297715,/g3t1_2,,success
Status,27,8865649151,/g3t1_3,,init
Status,28,8865663651,/g3t1_3,,running
Status,29,8866133896,/g3t1_3,,success
Status,30,8912318761,/g3t1_1,,running
Status,31,8912779521,/g3t1_1,,success
Status,32,8915690242,/g3t1_2,,running
Status,33,8916400245,/g3t1_3,,running
Status,34,8916486016,/g3t1_2,,success
Status,35,8916791479,/g3t1_3,,success
Status,39,8962462124,/g3t1_1,,running
Status,40,8962740891,/g3t1_1,,fail
Status,41,8965828564,/g3t1_2,,running
Status,42,8966601063,/g3t1_3,,running
Status,43,8966673203,/g3t1_2,,success
Status,44,8967437844,/g3t1_3,,success
Status,45,8998856268,/g4t1,,success
Status,46,9012720145,/g3t1_1,,running
Status,47,9012941020,/g3t1_1,,fail
Status,48,9016044385,/g3t1_2,,running
Status,49,9016592160,/g3t1_2,,success
Status,50,9016681925,/g3t1_3,,running
Status,51,9017223332,/g3t1_3,,success
Status,52,9062751006,/g3t1_1,,running
Status,53,9063268723,/g3t1_1,,fail
Status,54,9066193408,/g3t1_2,,running
Status,55,9066822043,/g3t1_2,,success
Status,56,9067215766,/g3t1_3,,running
Status,57,9067301716,/g3t1_3,,success
Status,58,9099102678,/g4t1,,success
Status,59,9112859143,/g3t1_1,,running
Status,60,9112919739,/g3t1_1,,fail
Status,61,9116251879,/g3t1_2,,running
Status,62,9116605539,/g3t1_2,,success
Status,63,9117061152,/g3t1_3,,running
Status,64,9117992398,/g3t1_3,,success
Status,68,9163288101,/g3t1_1,,running
Status,69,9163355266,/g3t1_1,,fail
Status,70,9166629743,/g3t1_2,,running
Status,71,9167591000,/g3t1_2,,fail
Status,72,9167671386,/g3t1_3,,running
Status,73,9168469561,/g3t1_3,,fail
Status,74,9199360109,/g4t1,,success
Status,75,9213369774,/g3t1_1,,running
Status,76,9213610078,/g3t1_1,,fail
Status,77,9216773511,/g3t1_2,,running
Status,78,9217225556,/g3t1_2,,success
Status,79,9217584156,/g3t1_3,,running
Status,80,9217718269,/g3t1_3,,fail
Status,81,9263358867,/g3t1_1,,running
Status,82,9263450878,/g3t1_1,,fail
Status,83,9266681320,/g3t1_2,,running
Status,84,9266760054,/g3t1_2,,fail
Status,85,9267548141,/g3t1_3,,running
Status,86,9267963961,/g3t1_3,,fail
Status,87,9299507077,/g4t1,,success
Status,88,9313423538,/g3t1_1,,running
Status,89,9313487943,/g3t1_1,,fail
Status,90,9316779567,/g3t1_2,,running
Status,91,9316886618,/g3t1_2,,fail
Status,92,9317589960,/g3t1_3,,running
Status,93,9317981926,/g3t1_3,,fail
Status,97,9363592459,/g3t1_1,,running
Status,98,9363654938,/g3t1_1,,fail
Status,99,9367016187,/g3t1_2,,running
Status,100,9367073655,/g3t1_2,,fail
Status,101,9367675281,/g3t1_3,,running
Status,102,9368057013,/g3t1_3,,fail
Status,103,9399079513,/g4t1,,success
Status,104,9413105023,/g3t1_1,,running
Status,105,9413130726,/g3t1_1,,fail
Status,106,9416671255,/g3t1_2,,running
Status,107,9416694864,/g3t1_2,,fail
Status,108,9417415245,/g3t1_3,,running
Status,109,9417441124,/g3t1_3,,fail
Status,110,9463902976,/g3t1_1,,running
Status,111,9464059868,/g3t1_1,,fail
Status,112,9467252724,/g3t1_2,,running
Status,113,9467676744,/g3t1_2,,fail
Status,114,9467851746,/g3t1_3,,running
Status,115,9468547067,/g3t1_3,,fail
Status,116,9499468560,/g4t1,,success
Status,117,9514063217,/g3t1_1,,running
Status,118,9514151055,/g3t1_1,,fail
Status,119,9517597230,/g3t1_2,,running
Status,120,9517694423,/g3t1_2,,fail
Status,121,9518071655,/g3t1_3,,running
Status,122,9518343285,/g3t1_3,,fail
Status,126,9563787493,/g3t1_1,,running
Status,127,9563830455,/g3t1_1,,fail
Status,128,9567451456,/g3t1_2,,running
Status,129,9567493060,/g3t1_2,,fail
Status,130,9568000092,/g3t1_3,,running
Status,131,9568356811,/g3t1_3,,fail
Status,132,9599730112,/g4t1,,success
Status,133,9614329702,/g3t1_1,,running
Status,134,9614428430,/g3t1_1,,fail
Status,135,9617711166,/g3t1_2,,running
Status,136,9617891247,/g3t1_2,,fail
Status,137,9618334590,/g3t1_3,,running
Status,138,9619031449,/g3t1_3,,fail
Status,139,9664550717,/g3t1_1,,running
Status,140,9664620543,/g3t1_1,,fail
Status,141,9668029975,/g3t1_2,,running
Status,142,9668121078,/g3t1_2,,fail
Status,143,9668517825,/g3t1_3,,running
Status,144,9668668986,/g3t1_3,,fail
Status,145,9700008027,/g4t1,,success
Status,146,9714571274,/g3t1_1,,running
Status,147,9714637745,/g3t1_1,,fail
Status,148,9718111091,/g3t1_2,,running
Status,149,9718189278,/g3t1_2,,fail
Status,150,9718749016,/g3t1_3,,running
Status,151,9718822866,/g3t1_3,,fail
Status,155,9764336105,/g3t1_1,,running
Status,156,9764376058,/g3t1_1,,fail
Status,157,9767779802,/g3t1_2,,running
Status,158,9767840253,/g3t1_2,,fail
Status,159,9768253360,/g3t1_3,,running
Status,160,9768457114,/g3t1_3,,fail
Status,161,9800039079,/g4t1,,success
Status,162,9814900033,/g3t1_1,,running
Status,163,9815102497,/g3t1_1,,success
Status,164,9818651208,/g3t1_2,,running
Status,165,9818743475,/g3t1_3,,running
Status,166,9818853730,/g3t1_2,,fail
Status,167,9819161403,/g3t1_3,,fail
Status,168,9865217995,/g3t1_1,,running
Status,169,9865658055,/g3t1_1,,success
Status,170,9868590067,/g3t1_2,,running
Status,171,9868809913,/g3t1_2,,fail
Status,172,9868866777,/g3t1_3,,running
Status,173,9869419205,/g3t1_3,,fail
Status,174,9900312638,/g4t1,,success
Status,175,9915291035,/g3t1_1,,running
Status,176,9915359545,/g3t1_1,,fail
Status,177,9918878430,/g3t1_2,,running
Status,178,9918955620,/g3t1_2,,fail
Status,179,9919005714,/g3t1_3,,running
Status,180,9919263307,/g3t1_3,,fail
Status,184,9965160875,/g3t1_1,,running
Status,185,9965204388,/g3t1_1,,fail
Status,186,9968504381,/g3t1_2,,running
Status,187,9968739840,/g3t1_2,,fail
Status,188,9968979903,/g3t1_3,,running
Status,189,9969018437,/g3t1_3,,fail
Status,190,10000276087,/g4t1,,success
Status,191,10015378840,/g3t1_1,,running
Status,192,10015438700,/g3t1_1,,fail
Status,193,10018879937,/g3t1_2,,running
Status,194,10019459494,/g3t1_3,,running
Status,195,10019667908,/g3t1_2,,fail
Status,196,10019704847,/g3t1_3,,fail
Status,197,10065819962,/g3t1_1,,running
Status,198,10066132556,/g3t1_1,,fail
Status,199,10069230357,/g3t1_2,,running
Status,200,10069319997,/g3t1_2,,fail
Status,201,10069359312,/g3t1_3,,running
Status,202,10069764785,/g3t1_3,,fail
Status,203,10100492473,/g4t1,,success
Status,204,10115808552,/g3t1_1,,running
Status,205,10115877457,/g3t1_1,,fail
Status,206,10119439368,/g3t1_2,,running
Status,207,10119500082,/g3t1_3,,running
Status,208,10119598243,/g3t1_2,,fail
Status,209,10119902920,/g3t1_3,,fail
Status,213,10165831502,/g3t1_1,,running
Status,214,10166402604,/g3t1_1,,success
Status,215,10169256991,/g3t1_2,,running
Status,216,10169879252,/g3t1_2,,fail
Status,217,10169926313,/g3t1_3,,running
Status,218,10169990674,/g3t1_3,,fail
Status,219,10200557925,/g4t1,,success
Status,220,10216469194,/g3t1_1,,running
Status,221,10216607202,/g3t1_1,,success
Status,222,10219107059,/g3t1_2,,running
Status,223,10219161276,/g3t1_2,,fail
Status,224,10219610435,/g3t1_3,,running
Status,225,10219673002,/g3t1_3,,fail
Status,226,10265601950,/g3t1_1,,running
Status,227,10265625103,/g3t1_1,,fail
Status,228,10268952945,/g3t1_2,,running
Status,229,10268971765,/g3t1_2,,fail
Status,230,10269286415,/g3t1_3,,running
Status,231,10269340621,/g3t1_3,,fail
Status,232,10300338682,/g4t1,,success
Status,233,10316536029,/g3t1_1,,running
Status,234,10316600687,/g3t1_1,,success
Status,235,10320040986,/g3t1_2,,running
Status,236,10320102721,/g3t1_2,,fail
Status,237,10320168498,/g3t1_3,,running
Status,238,10320860739,/g3t1_3,,fail
Status,242,10366286945,/g3t1_1,,running
Status,243,10366676475,/g3t1_1,,success
Status,244,10369597678,/g3t1_2,,running
Status,245,10370317273,/g3t1_2,,fail
Status,246,10370419077,/g3t1_3,,running
Status,247,10370533184,/g3t1_3,,fail
Status,248,10400981116,/g4t1,,success
Status,249,10416841006,/g3t1_1,,running
Status,250,10416901000,/g3t1_1,,fail
Status,251,10420255477,/g3t1_2,,running
Status,252,10420342712,/g3t1_2,,fail
Status,253,10420428863,/g3t1_3,,running
Status,254,10420457330,/g3t1_3,,fail
Status,255,10466748598,/g3t1_1,,running
Status,256,10467052824,/g3t1_1,,success
Status,257,10470162512,/g3t1_2,,running
Status,258,10470246736,/g3t1_3,,running
Status,259,10470619581,/g3t1_2,,success
Status,260,10470690121,/g3t1_3,,fail
Status,261,10501038898,/g4t1,,success
Status,262,10516843757,/g3t1_1,,running
Status,263,10516909106,/g3t1_1,,fail
Status,264,10520210945,/g3t1_2,,running
Status,265,10520452789,/g3t1_3,,running
Status,266,10520948917,/g3t1_3,,fail
Status,267,10521017660,/g3t1_2,,success
Status,271,10567116910,/g3t1_1,,running
Status,272,10567200532,/g3t1_1,,fail
Status,273,10570516866,/g3t1_2,,running
Status,274,10570668201,/g3t1_3,,running
Status,275,10570708066,/g3t1_2,,fail
Status,276,10571399461,/g3t1_3,,fail
Status,277,10601049682,/g4t1,,success
Status,278,10617029868,/g3t1_1,,running
Status,279,10617104058,/g3t1_1,,fail
Status,280,10620468131,/g3t1_2,,running
Status,281,10620585304,/g3t1_3,,running
Status,282,10620647237,/g3t1_2,,fail
Status,283,10620972119,/g3t1_3,,fail
Status,284,10667267058,/g3t1_1,,running
Status,285,10667344392,/g3t1_1,,fail
Status,286,10670589101,/g3t1_2,,running
Status,287,10670667570,/g3t1_3,,running
Status,288,10670780685,/g3t1_2,,fail
Status,289,10671012401,/g3t1_3,,fail
Status,290,10701248475,/g4t1,,success
Status,291,10717391860,/g3t1_1,,running
Status,292,10717458684,/g3t1_1,,fail
Status,293,10720649894,/g3t1_2,,running
Status,294,10720758897,/g3t1_3,,running
Status,295,10720798897,/g3t1_2,,fail
Status,296,10721098409,/g3t1_3,,fail
Status,300,10767435856,/g3t1_1,,running
Status,301,10767511458,/g3t1_1,,fail
Status,302,10771221387,/g3t1_2,,running
Status,303,10771307903,/g3t1_3,,running
Status,304,10771382078,/g3t1_2,,fail
Status,305,10771415677,/g3t1_3,,fail
Status,306,10801268112,/g4t1,,success
Status,307,10817543967,/g3t1_1,,running
Status,308,10817892974,/g3t1_1,,fail
Status,309,10821043347,/g3t1_2,,running
Status,310,10821133908,/g3t1_3,,running
Status,311,10821224941,/g3t1_2,,fail
Status,312,10821505232,/g3t1_3,,fail
Status,313,10868003831,/g3t1_1,,running
Status,314,10868076879,/g3t1_1,,fail
Status,315,10871030763,/g3t1_2,,running
Status,316,10871113861,/g3t1_2,,fail
Status,317,10871145735,/g3t1_3,,running
Status,318,10871483132,/g3t1_3,,fail
Status,319,10901327324,/g4t1,,success
Status,320,10917784267,/g3t1_1,,running
Status,321,10917923689,/g3t1_1,,fail
Status,322,10921037522,/g3t1_2,,running
Status,323,10921173848,/g3t1_3,,running
Status,324,10921219321,/g3t1_2,,fail
Status,325,10921381447,/g3t1_3,,fail
Status,329,10968011351,/g3t1_1,,running
Status,330,10968123975,/g3t1_1,,fail
Status,331,10971523997,/g3t1_2,,running
Status,332,10971598089,/g3t1_3,,running
Status,333,10971668280,/g3t1_2,,success
Status,334,10972063581,/g3t1_3,,success
Status,335,11001210200,/g4t1,,success
Status,336,11017803922,/g3t1_1,,running
Status,337,11017863685,/g3t1_1,,fail
Status,338,11021237926,/g3t1_2,,running
Status,339,11021282557,/g3t1_2,,success
Status,340,11021297623,/g3t1_3,,running
Status,341,11021312855,/g3t1_3,,fail
Status,342,11067786027,/g3t1_1,,running
Status,343,11067813226,/g3t1_1,,success
Status,344,11070927099,/g3t1_2,,running
Status,345,11070951887,/g3t1_3,,running
Status,346,11070962583,/g3t1_2,,success
Status,347,11071076189,/g3t1_3,,fail
Status,348,11101703066,/g4t1,,success
Status,349,11118410910,/g3t1_1,,running
Status,350,11118478405,/g3t1_1,,fail
Status,351,11121441353,/g3t1_2,,running
Status,352,11121737693,/g3t1_2,,fail
Status,353,11121849259,/g3t1_3,,running
Status,354,11122254863,/g3t1_3,,fail
Status,358,11168665721,/g3t1_1,,running
Status,359,11168729735,/g3t1_1,,fail
Status,360,11171900208,/g3t1_2,,running
Status,361,11172024290,/g3t1_3,,running
Status,362,11172053239,/g3t1_3,,fail
Status,363,11172157390,/g3t1_2,,fail
Status,364,11201633450,/g4t1,,success
Status,365,11218259546,/g3t1_1,,running
Status,366,11218293488,/g3t1_1,,fail
Status,367,11221327981,/g3t1_2,,running
Status,368,11221357499,/g3t1_3,,running
Status,369,11221370367,/g3t1_2,,fail
Status,370,11221596064,/g3t1_3,,fail
Status,371,11269011616,/g3t1_1,,running
Status,372,11269080481,/g3t1_1,,fail
Status,373,11271829323,/g3t1_2,,running
Status,374,11271985365,/g3t1_3,,running
Status,375,11272322181,/g3t1_2,,fail
Status,376,11272385665,/g3t1_3,,fail
Status,377,11301982802,/g4t1,,success
Status,378,11319006801,/g3t1_1,,running
Status,379,11319094895,/g3t1_1,,fail
Status,380,11322160996,/g3t1_2,,running
Status,381,11322224580,/g3t1_3,,running
Status,382,11322298917,/g3t1_2,,fail
Status,383,11322328843,/g3t1_3,,fail
Status,387,11368957023,/g3t1_1,,running
Status,388,11369031704,/g3t1_1,,fail
Status,389,11372391886,/g3t1_2,,running
Status,390,11372473259,/g3t1_3,,running
Status,391,11372580442,/g3t1_2,,fail
Status,392,11372603709,/g3t1_3,,fail
Status,393,11401836442,/g4t1,,success
Status,394,11419068480,/g3t1_1,,running
Status,395,11419366502,/g3t1_1,,fail
Status,396,11422700920,/g3t1_2,,running
Status,397,11422763867,/g3t1_3,,running
Status,398,11422789162,/g3t1_2,,fail
Status,399,11422811632,/g3t1_3,,fail
Status,400,11469186937,/g3t1_1,,running
Status,401,11469253119,/g3t1_1,,fail
Status,402,11472440820,/g3t1_2,,running
Status,403,11472517877,/g3t1_3,,running
Status,404,11472954867,/g3t1_3,,fail
Status,405,11473026347,/g3t1_2,,fail
Status,406,11502060063,/g4t1,,success
Status,407,11519191076,/g3t1_1,,running
Status,408,11519484363,/g3t1_1,,fail
Status,409,11523013065,/g3t1_2,,running
Status,410,11523319307,/g3t1_3,,running
Status,411,11523395951,/g3t1_3,,fail
Status,412,11523435428,/g3t1_2,,fail
Status,413,11569271308,/g3t1_1,,running
Status,414,11569521720,/g3t1_1,,fail
Status,415,11572808182,/g3t1_3,,running
Status,416,11572871938,/g3t1_2,,running
Status,417,11572923366,/g3t1_2,,fail
Status,418,11573074989,/g3t1_3,,fail
Status,419,11602429687,/g4t1,,success
Status,420,11619580820,/g3t1_1,,running
Status,421,11619651208,/g3t1_1,,fail
Status,422,11622961592,/g3t1_3,,running
Status,423,11623040818,/g3t1_2,,running
Status,424,11623091142,/g3t1_2,,fail
Status,425,11623692552,/g3t1_3,,fail
Status,426,11669582395,/g3t1_1,,running
Status,427,11669651178,/g3t1_1,,fail
Status,428,11673379052,/g3t1_3,,running
Status,429,11673445797,/g3t1_3,,fail
Status,430,11673472199,/g3t1_2,,running
Status,431,11673545641,/g3t1_2,,fail
Status,432,11702544022,/g4t1,,success
Status,433,11719848614,/g3t1_1,,running
Status,434,11720091739,/g3t1_1,,fail
Status,435,11723283888,/g3t1_3,,running
Status,436,11723346965,/g3t1_3,,fail
Status,437,11723380598,/g3t1_2,,running
Status,438,11723413983,/g3t1_2,,fail
Status,439,11770057222,/g3t1_1,,running
Status,440,11770199339,/g3t1_1,,fail
Status,441,11773558260,/g3t1_3,,running
Status,442,11773636294,/g3t1_2,,running
Status,443,11773664172,/g3t1_2,,fail
Status,444,11774065576,/g3t1_3,,fail
Status,445,11802462570,/g4t1,,success
Status,446,11820119948,/g3t1_1,,running
Status,447,11820227314,/g3t1_1,,fail
Status,448,11823457809,/g3t1_3,,running
Status,449,11823525162,/g3t1_2,,running
Status,450,11823657054,/g3t1_2,,fail
Status,451,11823719405,/g3t1_3,,fail
Status,452,11870122985,/g3t1_1,,running
Status,453,11870501983,/g3t1_1,,fail
Status,454,11873347615,/g3t1_3,,running
Status,455,11873434440,/g3t1_2,,running
Status,456,11873479755,/g3t1_3,,fail
Status,457,11873893360,/g3t1_2,,fail
Status,458,11902847457,/g4t1,,success
Status,459,11920342589,/g3t1_1,,running
Status,460,11920427887,/g3t1_1,,fail
Status,461,11923645288,/g3t1_3,,running
Status,462,11923710779,/g3t1_2,,running
Status,463,11923807529,/g3t1_3,,fail
Status,464,11924189821,/g3t1_2,,fail
Status,465,11970444261,/g3t1_1,,running
Status,466,11970513015,/g3t1_1,,fail
Status,467,11973367748,/g3t1_3,,running
Status,468,11973407892,/g3t1_2,,running
Status,469,11973423515,/g3t1_3,,fail
Status,470,11973576189,/g3t1_2,,fail
Status,471,12002530827,/g4t1,,success
Status,472,12020372757,/g3t1_1,,running
Status,473,12020526046,/g3t1_1,,fail
Status,474,12023409571,/g3t1_3,,running
Status,475,12023443480,/g3t1_2,,running
Status,476,12023507736,/g3t1_3,,fail
Status,477,12023660582,/g3t1_2,,fail
Status,478,12070797415,/g3t1_1,,running
Status,479,12070867750,/g3t1_1,,fail
Status,480,12074338780,/g3t1_3,,running
Status,481,12074438915,/g3t1_3,,fail
Status,482,12074536368,/g3t1_2,,running
Status,483,12074969231,/g3t1_2,,fail
Status,484,12102900770,/g4t1,,success
Status,485,12121028928,/g3t1_1,,running
Status,486,12121099163,/g3t1_1,,fail
Status,487,12124313764,/g3t1_3,,running
Status,488,12124372355,/g3t1_2,,running
Status,489,12124475432,/g3t1_3,,fail
Status,490,12124866060,/g3t1_2,,fail
Status,491,12171038897,/g3t1_1,,running
Status,492,12171106486,/g3t1_1,,fail
Status,493,12174306253,/g3t1_3,,running
Status,494,12174373188,/g3t1_2,,running
Status,495,12174552628,/g3t1_2,,fail
Status,496,12174619715,/g3t1_3,,fail
Status,497,12203150656,/g4t1,,success
Status,498,12220968014,/g3t1_1,,running
Status,499,12221334149,/g3t1_1,,fail
Status,500,12224620350,/g3t1_3,,running
Status,501,12224690962,/g3t1_2,,running
Status,502,12224770096,/g3t1_3,,fail
Status,503,12224794839,/g3t1_2,,fail
Status,504,12271388399,/g3t1_1,,running
Status,505,12271458846,/g3t1_1,,fail
Status,506,12274472920,/g3t1_3,,running
Status,507,12274552787,/g3t1_2,,running
Status,508,12274958464,/g3t1_2,,fail
Status,509,12275039468,/g3t1_3,,fail
Status,510,12303466256,/g4t1,,success
Status,511,12321389165,/g3t1_1,,running
Status,512,12321459610,/g3t1_1,,fail
Status,513,12324686366,/g3t1_3,,running
Status,514,12324775344,/g3t1_2,,running
Status,515,12325156150,/g3t1_3,,fail
Status,516,12325282621,/g3t1_2,,fail
Status,520,12371502864,/g3t1_1,,running
Status,521,12371879741,/g3t1_1,,success
Status,522,12375121616,/g3t1_3,,running
Status,523,12375391145,/g3t1_2,,running
Status,524,12375444225,/g3t1_2,,fail
Status,525,12375468521,/g3t1_3,,fail
Status,526,12403447299,/g4t1,,success
Status,527,12421571896,/g3t1_1,,running
Status,528,12421665176,/g3t1_1,,fail
Status,529,12425218484,/g3t1_3,,running
Status,530,12425307370,/g3t1_2,,running
Status,531,12425396114,/g3t1_2,,fail
Status,532,12425436102,/g3t1_3,,fail
Status,533,12471354853,/g3t1_1,,running
Status,534,12471521781,/g3t1_1,,success
Status,535,12474709314,/g3t1_3,,running
Status,536,12474748715,/g3t1_2,,running
Status,537,12474790757,/g3t1_3,,fail
Status,538,12474858200,/g3t1_2,,success
Status,539,12503094432,/g4t1,,success
Status,540,12521382539,/g3t1_1,,running
Status,541,12521407300,/g3t1_1,,fail
Status,542,12524464006,/g3t1_3,,running
Status,543,12524501669,/g3t1_2,,running
Status,544,12524598410,/g3t1_3,,fail
Status,545,12524617440,/g3t1_2,,success
Status,549,12571837546,/g3t1_1,,running
Status,550,12571887419,/g3t1_1,,fail
Status,551,12575434309,/g3t1_3,,running
Status,552,12575505497,/g3t1_3,,fail
Status,553,12575543393,/g3t1_2,,running
Status,554,12575833895,/g3t1_2,,success
Status,555,12603710632,/g4t1,,success
Status,556,12622161332,/g3t1_1,,running
Status,557,12622247213,/g3t1_1,,fail
Status,558,12625141196,/g3t1_3,,running
Status,559,12625292552,/g3t1_2,,running
Status,560,12625481482,/g3t1_3,,fail
Status,561,12625885560,/g3t1_2,,success
Status,562,12672418075,/g3t1_1,,running
Status,563,12672487549,/g3t1_1,,fail
Status,564,12675332994,/g3t1_3,,running
Status,565,12675717747,/g3t1_2,,running
Status,566,12676213337,/g3t1_2,,success
Status,567,12676321713,/g3t1_3,,fail
Status,568,12703804188,/g4t1,,success
Status,569,12722524049,/g3t1_1,,running
Status,570,12722593634,/g3t1_1,,fail
Status,571,12725605173,/g3t1_3,,running
Status,572,12725741159,/g3t1_3,,fail
Status,573,12725900221,/g3t1_2,,running
Status,574,12725932565,/g3t1_2,,success
Status,578,12772432449,/g3t1_1,,running
Status,579,12772649509,/g3t1_1,,success
Status,580,12775294101,/g3t1_3,,running
Status,581,12775332798,/g3t1_2,,running
Status,582,12775402553,/g3t1_3,,fail
Status,583,12775637781,/g3t1_2,,fail
Status,584,12803535697,/g4t1,,success
Status,585,12822763553,/g3t1_1,,running
Status,586,12822846637,/g3t1_1,,fail
Status,587,12825583428,/g3t1_3,,running
Status,588,12825674472,/g3t1_2,,running
Status,589,12825742073,/g3t1_3,,fail
Status,590,12826090997,/g3t1_2,,fail
Status,591,12873106657,/g3t1_1,,running
Status,592,12873177748,/g3t1_1,,fail
Status,593,12875833442,/g3t1_3,,running
Status,594,12875964664,/g3t1_3,,fail
Status,595,12876132946,/g3t1_2,,running
Status,596,12876348902,/g3t1_2,,fail
Status,597,12904072991,/g4t1,,success
Status,598,12922995155,/g3t1_1,,running
Status,599,12923087556,/g3t1_1,,fail
Status,600,12925954408,/g3t1_3,,running
Status,601,12926031305,/g3t1_2,,running
Status,602,12926363231,/g3t1_3,,fail
Status,603,12926490268,/g3t1_2,,fail
Status,607,12972479910,/g3t1_1,,running
Status,608,12972513333,/g3t1_1,,fail
Status,609,12975608578,/g3t1_3,,running
Status,610,12975630975,/g3t1_2,,running
Status,611,12975658566,/g3t1_3,,fail
Status,612,12975665900,/g3t1_2,,fail
Status,613,13003367763,/g4t1,,success
Status,614,13023096719,/g3t1_1,,running
Status,615,13023341864,/g3t1_1,,fail
Status,616,13026298921,/g3t1_3,,running
Status,617,13026384913,/g3t1_2,,running
Status,618,13026519234,/g3t1_3,,fail
Status,619,13026864700,/g3t1_2,,fail
Status,620,13073381119,/g3t1_1,,running
Status,621,13073932576,/g3t1_1,,fail
Status,622,13076215037,/g3t1_3,,running
Status,623,13076309087,/g3t1_3,,fail
Status,624,13076426303,/g3t1_2,,running
Status,625,13076720970,/g3t1_2,,fail
Status,626,13104097719,/g4t1,,success
Status,627,13123454112,/g3t1_1,,running
Status,628,13123526525,/g3t1_1,,fail
Status,629,13126642401,/g3t1_2,,running
Status,630,13126707550,/g3t1_3,,running
Status,631,13126799348,/g3t1_2,,fail
Status,632,13126822423,/g3t1_3,,fail
Status,636,13173183944,/g3t1_1,,running
Status,637,13173217182,/g3t1_1,,fail
Status,638,13176147379,/g3t1_3,,running
Status,639,13176184568,/g3t1_2,,running
Status,640,13176235295,/g3t1_2,,fail
Status,641,13176246378,/g3t1_3,,fail
Status,642,13203820509,/g4t1,,success
Status,643,13223679877,/g3t1_1,,running
Status,644,13223745050,/g3t1_1,,fail
Status,645,13226627978,/g3t1_3,,running
Status,646,13226685016,/g3t1_2,,running
Status,647,13226784396,/g3t1_2,,fail
Status,648,13227139423,/g3t1_3,,fail
Status,649,13273935156,/g3t1_1,,running
Status,650,13274004686,/g3t1_1,,fail
Status,651,13277130711,/g3t1_3,,running
Status,652,13277206769,/g3t1_3,,fail
Status,653,13277235721,/g3t1_2,,running
Status,654,13277334383,/g3t1_2,,fail
Status,655,13304685302,/g4t1,,success
Status,656,13324012097,/g3t1_1,,running
Status,657,13324088370,/g3t1_1,,fail
Status,658,13326997856,/g3t1_3,,running
Status,659,13327063892,/g3t1_2,,running
Status,660,13327091503,/g3t1_2,,fail
Status,661,13327115440,/g3t1_3,,fail
Status,665,13373718468,/g3t1_1,,running
Status,666,13374024130,/g3t1_1,,fail
Status,667,13377264014,/g3t1_3,,running
Status,668,13377354221,/g3t1_2,,running
Status,669,13377379964,/g3t1_3,,fail
Status,670,13377408121,/g3t1_2,,fail
Status,671,13404811675,/g4t1,,success
Status,672,13424159409,/g3t1_1,,running
Status,673,13424244408,/g3t1_1,,fail
Status,674,13427193265,/g3t1_2,,running
Status,675,13427288764,/g3t1_3,,running
Status,676,13427673612,/g3t1_3,,fail
Status,677,13427734280,/g3t1_2,,fail
Status,678,13474562686,/g3t1_1,,running
Status,679,13474633010,/g3t1_1,,fail
Status,680,13477463298,/g3t1_3,,running
Status,681,13477944562,/g3t1_2,,running
Status,682,13478008134,/g3t1_3,,fail
Status,683,13478307796,/g3t1_2,,fail
Status,684,13504806594,/g4t1,,success
Status,685,13524648028,/g3t1_1,,running
Status,686,13524712119,/g3t1_1,,fail
Status,687,13527504151,/g3t1_2,,running
Status,688,13527567236,/g3t1_3,,running
Status,689,13527594353,/g3t1_3,,fail
Status,690,13527795931,/g3t1_2,,fail
Status,694,13574239355,/g3t1_1,,running
Status,695,13574269740,/g3t1_1,,fail
Status,696,13577116991,/g3t1_2,,running
Status,697,13577142667,/g3t1_3,,running
Status,698,13577178404,/g3t1_3,,fail
Status,699,13577187802,/g3t1_2,,success
Status,700,13604513042,/g4t1,,success
Status,701,13624811419,/g3t1_1,,running
Status,702,13625280441,/g3t1_1,,success
Status,703,13627758267,/g3t1_2,,running
Status,704,13627827727,/g3t1_3,,running
Status,705,13627855701,/g3t1_2,,fail
Status,706,13627883172,/g3t1_3,,fail
Status,707,13674990653,/g3t1_1,,running
Status,708,13675511125,/g3t1_1,,success
Status,709,13677642626,/g3t1_3,,running
Status,710,13677727006,/g3t1_2,,running
Status,711,13678165484,/g3t1_2,,success
Status,712,13678227574,/g3t1_3,,fail
Status,713,13705279044,/g4t1,,success
Status,714,13725114756,/g3t1_1,,running
Status,715,13725637927,/g3t1_1,,success
Status,716,13727820777,/g3t1_3,,running
Status,717,13727876659,/g3t1_2,,running
Status,718,13727901362,/g3t1_2,,fail
Status,719,13728047064,/g3t1_3,,fail
Status,723,13775630838,/g3t1_1,,running
Status,724,13775723836,/g3t1_1,,success
Status,725,13778258527,/g3t1_2,,running
Status,726,13778315938,/g3t1_3,,running
Status,727,13778384009,/g3t1_3,,fail
Status,728,13778408058,/g3t1_2,,success
Status,729,13805338523,/g4t1,,success
Status,730,13825372044,/g3t1_1,,running
Status,731,13825556191,/g3t1_1,,fail
Status,732,13828385004,/g3t1_2,,running
Status,733,13828544186,/g3t1_3,,running
Status,734,13828593383,/g3t1_2,,fail
Status,735,13828915923,/g3t1_3,,fail
Status,736,13875423320,/g3t1_1,,running
Status,737,13876167425,/g3t1_1,,success
Status,738,13878272411,/g3t1_3,,running
Status,739,13878331010,/g3t1_2,,running
Status,740,13878389505,/g3t1_2,,fail
Status,741,13878414096,/g3t1_3,,fail
Status,742,13905345126,/g4t1,,success
Status,743,13925501368,/g3t1_1,,running
Status,744,13925834190,/g3t1_1,,fail
Status,745,13928412673,/g3t1_3,,running
Status,746,13928481109,/g3t1_2,,running
Status,747,13928790464,/g3t1_3,,fail
Status,748,13928859605,/g3t1_2,,success
Status,752,13975127815,/g3t1_1,,running
Status,753,13975170805,/g3t1_1,,fail
Status,754,13977909845,/g3t1_2,,running
Status,755,13977945516,/g3t1_3,,running
Status,756,13978023041,/g3t1_2,,fail
Status,757,13978041495,/g3t1_3,,success
Status,758,14004874139,/g4t1,,success
Status,759,14025229083,/g3t1_1,,running
Status,760,14025261291,/g3t1_1,,fail
Status,761,14028042975,/g3t1_3,,running
Status,762,14028082095,/g3t1_2,,running
Status,763,14028319969,/g3t1_3,,fail
Status,764,14028374354,/g3t1_2,,fail
Status,765,14076068549,/g3t1_1,,running
Status,766,14076155926,/g3t1_1,,fail
Status,767,14078882568,/g3t1_2,,running
Status,768,14078948037,/g3t1_3,,running
Status,769,14079124396,/g3t1_2,,fail
Status,770,14079176987,/g3t1_3,,success
Status,771,14105457196,/g4t1,,success
Status,772,14126130824,/g3t1_1,,running
Status,773,14126225275,/g3t1_1,,success
Status,774,14128847210,/g3t1_3,,running
Status,775,14128935919,/g3t1_2,,running
Status,776,14128975533,/g3t1_2,,fail
Status,777,14129956116,/g3t1_3,,success
Status,781,14176391572,/g3t1_1,,running
Status,782,14176470779,/g3t1_1,,fail
Status,783,14178954638,/g3t1_2,,running
Status,784,14179086218,/g3t1_3,,running
Status,785,14179117972,/g3t1_3,,fail
Status,786,14179439305,/g3t1_2,,success
Status,787,14205696486,/g4t1,,success
Status,788,14226284746,/g3t1_1,,running
Status,789,14226388684,/g3t1_1,,fail
Status,790,14229161022,/g3t1_2,,running
Status,791,14229240389,/g3t1_3,,running
Status,792,14229371553,/g3t1_3,,fail
Status,793,14229413193,/g3t1_2,,fail
Status,794,14276643984,/g3t1_1,,running
Status,795,14276731115,/g3t1_1,,fail
Status,796,14279136265,/g3t1_2,,running
Status,797,14279222577,/g3t1_3,,running
Status,798,14279865174,/g3t1_3,,fail
Status,799,14280051936,/g3t1_2,,success
Status,800,14305884999,/g4t1,,success
Status,801,14326786294,/g3t1_1,,running
Status,802,14327072250,/g3t1_1,,fail
Status,803,14329011386,/g3t1_2,,running
Status,804,14329091227,/g3t1_3,,running
Status,805,14329729603,/g3t1_3,,fail
Status,806,14330076464,/g3t1_2,,success
Status,810,14376724623,/g3t1_1,,running
Status,811,14376989487,/g3t1_1,,fail
Status,812,14379226747,/g3t1_3,,running
Status,813,14379651436,/g3t1_2,,running
Status,814,14379716491,/g3t1_2,,fail
Status,815,14379803301,/g3t1_3,,fail
Status,816,14405786233,/g4t1,,success
Status,817,14426397290,/g3t1_1,,running
Status,818,14426433533,/g3t1_1,,fail
Status,819,14428831389,/g3t1_2,,running
Status,820,14428860052,/g3t1_3,,running
Status,821,14428910904,/g3t1_2,,fail
Status,822,14428932136,/g3t1_3,,fail
Status,823,14477236155,/g3t1_1,,running
Status,824,14477492378,/g3t1_1,,fail
Status,825,14479438978,/g3t1_2,,running
Status,826,14479580090,/g3t1_3,,running
Status,827,14479812930,/g3t1_2,,fail
Status,828,14479963533,/g3t1_3,,fail
Status,829,14506011170,/g4t1,,success
Status,830,14527453268,/g3t1_1,,running
Status,831,14527520287,/g3t1_1,,fail
Status,832,14529721533,/g3t1_2,,running
Status,833,14529784057,/g3t1_3,,running
Status,834,14529807435,/g3t1_2,,fail
Status,835,14529831095,/g3t1_3,,fail
Status,839,14577491724,/g3t1_1,,running
Status,840,14577559505,/g3t1_1,,fail
Status,841,14579838119,/g3t1_2,,running
Status,842,14579888732,/g3t1_3,,running
Status,843,14580122867,/g3t1_3,,fail
Status,844,14580152079,/g3t1_2,,fail
Status,845,14605619904,/g4t1,,success
Status,846,14627290926,/g3t1_1,,running
Status,847,14627342719,/g3t1_1,,fail
Status,848,14629511374,/g3t1_2,,running
Status,849,14629583458,/g3t1_3,,running
Status,850,14629681149,/g3t1_2,,fail
Status,851,14629877246,/g3t1_3,,success
Status,852,14677848011,/g3t1_1,,running
Status,853,14677922296,/g3t1_1,,fail
Status,854,14679885743,/g3t1_2,,running
Status,855,14680186580,/g3t1_2,,fail
Status,856,14680243560,/g3t1_3,,running
Status,857,14680524697,/g3t1_3,,success
Status,858,14706008633,/g4t1,,success
Status,859,14727790625,/g3t1_1,,running
Status,860,14728021866,/g3t1_1,,fail
Status,861,14729817670,/g3t1_2,,running
Status,862,14730357360,/g3t1_3,,running
Status,863,14730411364,/g3t1_2,,fail
Status,864,14730734268,/g3t1_3,,success
Status,868,14778007557,/g3t1_1,,running
Status,869,14778072773,/g3t1_1,,fail
Status,870,14780206522,/g3t1_2,,running
Status,871,14780267357,/g3t1_2,,fail
Status,872,14780704066,/g3t1_3,,running
Status,873,14781220280,/g3t1_3,,fail
Status,874,14806244274,/g4t1,,success
Status,875,14828239142,/g3t1_1,,running
Status,876,14828306869,/g3t1_1,,fail
Status,877,14830627593,/g3t1_2,,running
Status,878,14830726268,/g3t1_2,,fail
Status,879,14830755739,/g3t1_3,,running
Status,880,14830797007,/g3t1_3,,fail
Status,881,14878368255,/g3t1_1,,running
Status,882,14878445305,/g3t1_1,,fail
Status,883,14880570944,/g3t1_2,,running
Status,884,14880652023,/g3t1_2,,fail
Status,885,14880691485,/g3t1_3,,running
Status,886,14880873286,/g3t1_3,,fail
Status,887,14906460813,/g4t1,,success
Status,888,14928458572,/g3t1_1,,running
Status,889,14928767541,/g3t1_1,,fail
Status,890,14931327982,/g3t1_2,,running
Status,891,14931393555,/g3t1_2,,fail
Status,892,14931418172,/g3t1_3,,running
Status,893,14931443067,/g3t1_3,,fail
Status,897,14978703045,/g3t1_1,,running
Status,898,14978770372,/g3t1_1,,fail
Status,899,14980569686,/g3t1_2,,running
Status,900,14980962304,/g3t1_2,,fail
Status,901,14981044564,/g3t1_3,,running
Status,902,14981312662,/g3t1_3,,fail
Status,903,15006147557,/g4t1,,success
Status,904,15028762594,/g3t1_1,,running
Status,905,15029059330,/g3t1_1,,fail
Status,906,15030501966,/g3t1_2,,running
Status,907,15030805699,/g3t1_2,,fail
Status,908,15030878173,/g3t1_3,,running
Status,909,15031294434,/g3t1_3,,fail
Status,910,15079042265,/g3t1_1,,running
Status,911,15079111890,/g3t1_1,,fail
Status,912,15080732463,/g3t1_2,,running
Status,913,15081081269,/g3t1_3,,running
Status,914,15081145281,/g3t1_2,,fail
Status,915,15081481497,/g3t1_3,,fail
Status,916,15106735169,/g4t1,,success
Status,917,15129036659,/g3t1_1,,running
Status,918,15129325970,/g3t1_1,,fail
Status,919,15131103033,/g3t1_2,,running
Status,920,15131227549,/g3t1_2,,fail
Status,921,15131269971,/g3t1_3,,running
Status,922,15131476174,/g3t1_3,,fail
Status,926,15179258040,/g3t1_1,,running
Status,927,15179486022,/g3t1_1,,fail
Status,928,15180884591,/g3t1_2,,running
Status,929,15181273888,/g3t1_2,,fail
Status,930,15181356417,/g3t1_3,,running
Status,931,15181959995,/g3t1_3,,success
Status,932,15206559148,/g4t1,,success
Status,933,15229332181,/g3t1_1,,running
Status,934,15229406942,/g3t1_1,,fail
Status,935,15231009720,/g3t1_2,,running
Status,936,15231175574,/g3t1_2,,fail
Status,937,15231335122,/g3t1_3,,running
Status,938,15231826970,/g3t1_3,,success
Status,939,15279303573,/g3t1_1,,running
Status,940,15279372786,/g3t1_1,,fail
Status,941,15281082106,/g3t1_2,,running
Status,942,15281563234,/g3t1_2,,fail
Status,943,15281640755,/g3t1_3,,running
Status,944,15282023853,/g3t1_3,,success
Status,945,15306797354,/g4t1,,success
Status,946,15329488440,/g3t1_1,,running
Status,947,15330063622,/g3t1_1,,fail
Status,948,15331188896,/g3t1_2,,running
Status,949,15331606281,/g3t1_3,,running
Status,950,15331672863,/g3t1_2,,fail
Status,951,15332259135,/g3t1_3,,success
Status,955,15379611286,/g3t1_1,,running
Status,956,15379676689,/g3t1_1,,fail
Status,957,15381662815,/g3t1_2,,running
Status,958,15381732741,/g3t1_3,,running
Status,959,15382126582,/g3t1_2,,fail
Status,960,15382282737,/g3t1_3,,fail
Status,961,15406644189,/g4t1,,success
Status,962,15429728810,/g3t1_1,,running
Status,963,15429796418,/g3t1_1,,fail
Status,964,15431764916,/g3t1_2,,running
Status,965,15431881997,/g3t1_3,,running
Status,966,15432049161,/g3t1_2,,fail
Status,967,15432091866,/g3t1_3,,fail
Status,968,15479995880,/g3t1_1,,running
Status,969,15480096389,/g3t1_1,,fail
Status,970,15481528430,/g3t1_2,,running
Status,971,15481916873,/g3t1_3,,running
Status,972,15482006229,/g3t1_2,,fail
Status,973,15482422244,/g3t1_3,,fail
Status,974,15506931006,/g4t1,,success
Status,975,15529998732,/g3t1_1,,running
Status,976,15530092953,/g3t1_1,,fail
Status,977,15531643880,/g3t1_2,,running
Status,978,15531763473,/g3t1_2,,fail
Status,979,15532361274,/g3t1_3,,running
Status,980,15532430070,/g3t1_3,,fail
Status,981,15580267523,/g3t1_1,,running
Status,982,15580729849,/g3t1_1,,fail
Status,983,15581774460,/g3t1_2,,running
Status,984,15582220827,/g3t1_3,,running
Status,985,15582292668,/g3t1_2,,fail
Status,986,15582433851,/g3t1_3,,fail
Status,987,15606934082,/g4t1,,success
Status,988,15630321536,/g3t1_1,,running
Status,989,15630410473,/g3t1_1,,fail
Status,990,15632021661,/g3t1_2,,running
Status,991,15632280569,/g3t1_2,,fail
Status,992,15632393772,/g3t1_3,,running
Status,993,15633050192,/g3t1_3,,fail
Status,994,15680771056,/g3t1_1,,running
Status,995,15680860133,/g3t1_1,,fail
Status,996,15682171241,/g3t1_2,,running
Status,997,15682246267,/g3t1_3,,running
Status,998,15682394269,/g3t1_2,,fail
Status,999,15682813123,/g3t1_3,,fail
Status,1000,15707176384,/g4t1,,success
Status,1001,15730652936,/g3t1_1,,running
Status,1002,15730945642,/g3t1_1,,fail
Status,1003,15732319184,/g3t1_2,,running
Status,1004,15732395593,/g3t1_2,,fail
Status,1005,15732784993,/g3t1_3,,running
Status,1006,15732878660,/g3t1_3,,fail
Status,1007,15780911338,/g3t1_1,,running
Status,1008,15781315267,/g3t1_1,,fail
Status,1009,15782497025,/g3t1_2,,running
Status,1010,15782548835,/g3t1_2,,fail
Status,1011,15782639033,/g3t1_3,,running
Status,1012,15782862309,/g3t1_3,,fail
Status,1013,15807102780,/g4t1,,success
Status,1014,15830799098,/g3t1_1,,running
Status,1015,15831223639,/g3t1_1,,fail
Status,1016,15832458152,/g3t1_2,,running
Status,1017,15832909852,/g3t1_2,,fail
Status,1018,15832987631,/g3t1_3,,running
Status,1019,15833351192,/g3t1_3,,fail
Status,1020,15881185908,/g3t1_1,,running
Status,1021,15881478028,/g3t1_1,,fail
Status,1022,15882392837,/g3t1_2,,running
Status,1023,15882824511,/g3t1_2,,fail
Status,1024,15882997552,/g3t1_3,,running
Status,1025,15883489185,/g3t1_3,,fail
Status,1026,15907390556,/g4t1,,success
Status,1027,15931582964,/g3t1_1,,running
Status,1028,15931659337,/g3t1_1,,fail
Status,1029,15932982038,/g3t1_2,,running
Status,1030,15933353943,/g3t1_3,,running
Status,1031,15934305357,/g3t1_2,,fail
Status,1032,15934341087,/g3t1_3,,fail
Status,1033,15981570320,/g3t1_1,,running
Status,1034,15981641787,/g3t1_1,,fail
Status,1035,15982799278,/g3t1_2,,running
Status,1036,15983051683,/g3t1_2,,fail
Status,1037,15983377340,/g3t1_3,,running
Status,1038,15983471071,/g3t1_3,,fail
Status,1039,16007513523,/g4t1,,success
Status,1040,16031520811,/g3t1_1,,running
Status,1041,16031588374,/g3t1_1,,fail
Status,1042,16033270200,/g3t1_2,,running
Status,1043,16033319401,/g3t1_3,,running
Status,1044,16033383963,/g3t1_3,,fail
Status,1045,16033408079,/g3t1_2,,fail
Status,1046,16081840487,/g3t1_1,,running
Status,1047,16081910536,/g3t1_1,,fail
Status,1048,16082987422,/g3t1_2,,running
Status,1049,16083483659,/g3t1_3,,running
Status,1050,16083536659,/g3t1_2,,fail
Status,1051,16083819094,/g3t1_3,,fail
Status,1052,16107519642,/g4t1,,success
Status,1053,16132022735,/g3t1_1,,running
Status,1054,16132108643,/g3t1_1,,fail
Status,1055,16133370744,/g3t1_2,,running
Status,1056,16133502968,/g3t1_2,,fail
Status,1057,16133529984,/g3t1_3,,running
Status,1058,16133785880,/g3t1_3,,fail
Status,1059,16182163877,/g3t1_1,,running
Status,1060,16182236581,/g3t1_1,,fail
Status,1061,16183159693,/g3t1_2,,running
Status,1062,16183318439,/g3t1_2,,fail
Status,1063,16183741267,/g3t1_3,,running
Status,1064,16183793706,/g3t1_3,,fail
Status,1065,16207692094,/g4t1,,success
Status,1066,16232196570,/g3t1_1,,running
Status,1067,16232564985,/g3t1_1,,fail
Status,1068,16233068648,/g3t1_2,,running
Status,1069,16233505269,/g3t1_2,,fail
Status,1070,16233616357,/g3t1_3,,running
Status,1071,16234034493,/g3t1_3,,fail
Status,1072,16282586054,/g3t1_1,,running
Status,1073,16282686316,/g3t1_1,,fail
Status,1074,16283185448,/g3t1_2,,running
Status,1075,16283672033,/g3t1_2,,fail
Status,1076,16283779120,/g3t1_3,,running
Status,1077,16284231650,/g3t1_3,,fail
Status,1078,16307651717,/g4t1,,success
Status,1079,16332810596,/g3t1_1,,running
Status,1080,16333028748,/g3t1_1,,fail
Status,1081,16333557019,/g3t1_2,,running
Status,1082,16333785385,/g3t1_2,,fail
Status,1083,16333855000,/g3t1_3,,running
Status,1084,16334208868,/g3t1_3,,fail
Status,1088,16382973867,/g3t1_1,,running
Status,1089,16383061484,/g3t1_1,,fail
Status,1090,16383653843,/g3t1_2,,running
Status,1091,16383874803,/g3t1_2,,fail
Status,1092,16384086926,/g3t1_3,,running
Status,1093,16384596256,/g3t1_3,,fail
Status,1094,16408027904,/g4t1,,success
Status,1095,16433009887,/g3t1_1,,running
Status,1096,16433087746,/g3t1_1,,fail
Status,1097,16433494348,/g3t1_2,,running
Status,1098,16434057412,/g3t1_2,,fail
Status,1099,16434131733,/g3t1_3,,running
Status,1100,16434340102,/g3t1_3,,fail
Status,1101,16483039688,/g3t1_1,,running
Status,1102,16483130078,/g3t1_1,,fail
Status,1103,16483536163,/g3t1_2,,running
Status,1104,16484091342,/g3t1_2,,fail
Status,1105,16484227270,/g3t1_3,,running
Status,1106,16484591830,/g3t1_3,,fail
Status,1107,16508063006,/g4t1,,success
Status,1108,16533437761,/g3t1_1,,running
Status,1109,16533757270,/g3t1_1,,fail
Status,1110,16533823409,/g3t1_2,,running
Status,1111,16534581701,/g3t1_3,,running
Status,1112,16534659787,/g3t1_2,,fail
Status,1113,16534850200,/g3t1_3,,fail
Status,1117,16583306087,/g3t1_1,,running
Status,1118,16583413251,/g3t1_1,,fail
Status,1119,16584212018,/g3t1_2,,running
Status,1120,16584509240,/g3t1_2,,fail
Status,1121,16584746044,/g3t1_3,,running
Status,1122,16585177750,/g3t1_3,,fail
Status,1123,16608227674,/g4t1,,success
Status,1124,16633350799,/g3t1_1,,running
Status,1125,16633491062,/g3t1_1,,fail
Status,1126,16633696289,/g3t1_2,,running
Status,1127,16634835153,/g3t1_2,,success
Status,1128,16634946686,/g3t1_3,,running
Status,1129,16635041946,/g3t1_3,,fail
Status,1130,16683551380,/g3t1_1,,running
Status,1131,16683644655,/g3t1_1,,fail
Status,1132,16684206739,/g3t1_2,,running
Status,1133,16684921167,/g3t1_3,,running
Status,1134,16685075708,/g3t1_2,,success
Status,1135,16685358482,/g3t1_3,,fail
Status,1136,16708478548,/g4t1,,success
Status,1137,16733518266,/g3t1_1,,running
Status,1138,16733611115,/g3t1_1,,fail
Status,1139,16734051869,/g3t1_2,,running
Status,1140,16734535333,/g3t1_2,,success
Status,1141,16735136770,/g3t1_3,,running
Status,1142,16735235213,/g3t1_3,,fail
Status,1146,16783257320,/g3t1_1,,running
Status,1147,16783308825,/g3t1_1,,fail
Status,1148,16783838667,/g3t1_2,,running
Status,1149,16783871750,/g3t1_2,,fail
Status,1150,16784447317,/g3t1_3,,running
Status,1151,16784630295,/g3t1_3,,fail
Status,1152,16807971697,/g4t1,,success
Status,1153,16834116632,/g3t1_1,,running
Status,1154,16834193586,/g3t1_1,,fail
Status,1155,16834277389,/g3t1_2,,running
Status,1156,16834962223,/g3t1_2,,fail
Status,1157,16835329347,/g3t1_3,,running
Status,1158,16835425193,/g3t1_3,,fail
Status,1159,16884430285,/g3t1_1,,running
Status,1160,16884577160,/g3t1_1,,fail
Status,1161,16884733736,/g3t1_2,,running
Status,1162,16885058323,/g3t1_2,,fail
Status,1163,16885379314,/g3t1_3,,running
Status,1164,16885453069,/g3t1_3,,fail
Status,1165,16908442189,/g4t1,,success
Status,1166,16934161965,/g3t1_1,,running
Status,1167,16934245272,/g3t1_1,,fail
Status,1168,16934417451,/g3t1_2,,running
Status,1169,16935150535,/g3t1_2,,fail
Status,1170,16935229455,/g3t1_3,,running
Status,1171,16935690469,/g3t1_3,,fail
Status,1175,16984396758,/g3t1_1,,running
Status,1176,16984863572,/g3t1_1,,fail
Status,1177,16984994991,/g3t1_2,,running
Status,1178,16985388846,/g3t1_2,,fail
Status,1179,16985472674,/g3t1_3,,running
Status,1180,16985902765,/g3t1_3,,fail
Status,1181,17008605399,/g4t1,,success
Status,1182,17034722793,/g3t1_1,,running
Status,1183,17034992701,/g3t1_2,,running
Status,1184,17035625385,/g3t1_1,,fail
Status,1185,17035698752,/g3t1_2,,fail
Status,1186,17035808145,/g3t1_3,,running
Status,1187,17036246457,/g3t1_3,,fail
Status,1188,17084926157,/g3t1_1,,running
Status,1189,17085676950,/g3t1_2,,running
Status,1190,17085975450,/g3t1_1,,fail
Status,1191,17086020060,/g3t1_2,,success
Status,1192,17086143154,/g3t1_3,,running
Status,1193,17086169411,/g3t1_3,,fail
Status,1194,17108639104,/g4t1,,success
Status,1195,17135332726,/g3t1_1,,running
Status,1196,17135643865,/g3t1_2,,running
Status,1197,17135711096,/g3t1_1,,fail
Status,1198,17136092215,/g3t1_2,,fail
Status,1199,17136146193,/g3t1_3,,running
Status,1200,17136423463,/g3t1_3,,fail
Status,1204,17184602383,/g3t1_1,,running
Status,1205,17184659336,/g3t1_1,,fail
Status,1206,17184848733,/g3t1_2,,running
Status,1207,17184877413,/g3t1_2,,fail
Status,1208,17185502182,/g3t1_3,,running
Status,1209,17185545220,/g3t1_3,,fail
Status,1210,17208675425,/g4t1,,success
Status,1211,17235534828,/g3t1_1,,running
Status,1212,17235629278,/g3t1_2,,running
Status,1213,17235782385,/g3t1_1,,fail
Status,1214,17236307568,/g3t1_3,,running
Status,1215,17236503154,/g3t1_2,,success
Status,1216,17236536049,/g3t1_3,,fail
Status,1217,17285558237,/g3t1_1,,running
Status,1218,17285650309,/g3t1_2,,running
Status,1219,17285775759,/g3t1_1,,fail
Status,1220,17286149202,/g3t1_2,,fail
Status,1221,17286222949,/g3t1_3,,running
Status,1222,17286628683,/g3t1_3,,fail
Status,1223,17308927361,/g4t1,,success
Status,1224,17335630420,/g3t1_1,,running
Status,1225,17335722210,/g3t1_2,,running
Status,1226,17335843255,/g3t1_1,,fail
Status,1227,17335881544,/g3t1_2,,fail
Status,1228,17336304284,/g3t1_3,,running
Status,1229,17336947243,/g3t1_3,,fail
Status,1233,17385563693,/g3t1_1,,running
Status,1234,17385634636,/g3t1_2,,running
Status,1235,17385673239,/g3t1_1,,fail
Status,1236,17386141526,/g3t1_2,,fail
Status,1237,17386447609,/g3t1_3,,running
Status,1238,17386651473,/g3t1_3,,fail
Status,1239,17408883322,/g4t1,,success
Status,1240,17435747098,/g3t1_1,,running
Status,1241,17435870071,/g3t1_2,,running
Status,1242,17436348898,/g3t1_1,,fail
Status,1243,17436478731,/g3t1_2,,fail
Status,1244,17436522749,/g3t1_3,,running
Status,1245,17436927179,/g3t1_3,,fail
Status,1246,17485855488,/g3t1_1,,running
Status,1247,17485953869,/g3t1_2,,running
Status,1248,17486044706,/g3t1_1,,fail
Status,1249,17486088879,/g3t1_2,,fail
Status,1250,17486814492,/g3t1_3,,running
Status,1251,17486904136,/g3t1_3,,fail
Status,1252,17508997989,/g4t1,,success
Status,1253,17535964875,/g3t1_1,,running
Status,1254,17536054293,/g3t1_2,,running
Status,1255,17536103082,/g3t1_1,,fail
Status,1256,17536587605,/g3t1_2,,fail
Status,1257,17536724484,/g3t1_3,,running
Status,1258,17537037224,/g3t1_3,,fail
Status,1262,17585838339,/g3t1_1,,running
Status,1263,17585883531,/g3t1_2,,running
Status,1264,17585903095,/g3t1_1,,fail
Status,1265,17585958519,/g3t1_2,,fail
Status,1266,17586521610,/g3t1_3,,running
Status,1267,17586742529,/g3t1_3,,fail
Status,1268,17608656644,/g4t1,,success
Status,1269,17636345429,/g3t1_1,,running
Status,1270,17636417074,/g3t1_1,,fail
Status,1271,17636780916,/g3t1_2,,running
Status,1272,17636849342,/g3t1_2,,fail
Status,1273,17636960314,/g3t1_3,,running
Status,1274,17637356978,/g3t1_3,,fail
Status,1275,17686404372,/g3t1_1,,running
Status,1276,17686568461,/g3t1_2,,running
Status,1277,17686700074,/g3t1_1,,fail
Status,1278,17687117277,/g3t1_3,,running
Status,1279,17687593842,/g3t1_2,,fail
Status,1280,17687676362,/g3t1_3,,fail
Status,1281,17709285609,/g4t1,,success
Status,1282,17737333534,/g3t1_1,,running
Status,1283,17737414485,/g3t1_2,,running
Status,1284,17737520444,/g3t1_1,,fail
Status,1285,17737556040,/g3t1_3,,running
Status,1286,17737648472,/g3t1_3,,fail
Status,1287,17737671316,/g3t1_2,,fail
Status,1291,17786223815,/g3t1_1,,running
Status,1292,17786264227,/g3t1_1,,fail
Status,1293,17786295286,/g3t1_2,,running
Status,1294,17786417135,/g3t1_2,,fail
Status,1295,17787015411,/g3t1_3,,running
Status,1296,17787393940,/g3t1_3,,success
Status,1297,17808867583,/g4t1,,success
Status,1298,17836709252,/g3t1_1,,running
Status,1299,17836768103,/g3t1_2,,running
Status,1300,17836875026,/g3t1_1,,success
Status,1301,17837368974,/g3t1_3,,running
Status,1302,17837420882,/g3t1_2,,success
Status,1303,17837479347,/g3t1_3,,success
Status,1304,17886969160,/g3t1_1,,running
Status,1305,17887061709,/g3t1_2,,running
Status,1306,17887524064,/g3t1_1,,fail
Status,1307,17887613370,/g3t1_2,,fail
Status,1308,17887747436,/g3t1_3,,running
Status,1309,17888235886,/g3t1_3,,success
Status,1310,17908713924,/g4t1,,success
Status,1311,17937498184,/g3t1_1,,running
Status,1312,17937585482,/g3t1_1,,fail
Status,1313,17937710740,/g3t1_2,,running
Status,1314,17937746599,/g3t1_2,,fail
Status,1315,17938100857,/g3t1_3,,running
Status,1316,17938179128,/g3t1_3,,success
Status,1320,17986498326,/g3t1_1,,running
Status,1321,17986532728,/g3t1_1,,fail
Status,1322,17986563530,/g3t1_2,,running
Status,1323,17986572209,/g3t1_2,,fail
Status,1324,17987225759,/g3t1_3,,running
Status,1325,17987256084,/g3t1_3,,fail
Status,1326,18008750258,/g4t1,,success
Status,1327,18036733124,/g3t1_1,,running
Status,1328,18036784892,/g3t1_1,,fail
Status,1329,18036808748,/g3t1_2,,running
Status,1330,18037158488,/g3t1_2,,fail
Status,1331,18037374693,/g3t1_3,,running
Status,1332,18037449344,/g3t1_3,,fail
Status,1333,18087470290,/g3t1_1,,running
Status,1334,18087583246,/g3t1_2,,running
Status,1335,18087690265,/g3t1_1,,fail
Status,1336,18087860299,/g3t1_3,,running
Status,1337,18087968915,/g3t1_2,,fail
Status,1338,18088010814,/g3t1_3,,fail
Status,1339,18109505183,/g4t1,,success
Status,1340,18138011252,/g3t1_1,,running
Status,1341,18138080675,/g3t1_1,,fail
Status,1342,18138103861,/g3t1_2,,running
Status,1343,18138127210,/g3t1_2,,fail
Status,1344,18138149748,/g3t1_3,,running
Status,1345,18138193364,/g3t1_3,,fail
Status,1349,18187621508,/g3t1_1,,running
Status,1350,18187723225,/g3t1_2,,running
Status,1351,18188260453,/g3t1_1,,fail
Status,1352,18188321035,/g3t1_2,,fail
Status,1353,18188403089,/g3t1_3,,running
Status,1354,18188428126,/g3t1_3,,fail
Status,1355,18209492632,/g4t1,,success
Status,1356,18237214466,/g3t1_1,,running
Status,1357,18237267373,/g3t1_2,,running
Status,1358,18237339297,/g3t1_1,,fail
Status,1359,18237961333,/g3t1_3,,running
Status,1360,18238005796,/g3t1_2,,fail
Status,1361,18238162807,/g3t1_3,,fail
Status,1362,18288265444,/g3t1_1,,running
Status,1363,18288413297,/g3t1_2,,running
Status,1364,18288456773,/g3t1_3,,running
Status,1365,18288766829,/g3t1_2,,fail
Status,1366,18288835495,/g3t1_1,,fail
Status,1367,18288876946,/g3t1_3,,fail
Status,1368,18309699441,/g4t1,,success
Status,1369,18338431586,/g3t1_1,,running
Status,1370,18338500970,/g3t1_1,,fail
Status,1371,18338586352,/g3t1_2,,running
Status,1372,18338609578,/g3t1_3,,running
Status,1373,18338720401,/g3t1_2,,fail
Status,1374,18339103892,/g3t1_3,,fail
Status,1378,18388415750,/g3t1_1,,running
Status,1379,18388496992,/g3t1_2,,running
Status,1380,18388596985,/g3t1_2,,fail
Status,1381,18388621307,/g3t1_1,,fail
Status,1382,18388647863,/g3t1_3,,running
Status,1383,18389404490,/g3t1_3,,fail
Status,1384,18409705362,/g4t1,,success
Status,1385,18438273402,/g3t1_1,,running
Status,1386,18438357550,/g3t1_2,,running
Status,1387,18438467356,/g3t1_1,,fail
Status,1388,18438521903,/g3t1_3,,running
Status,1389,18438816804,/g3t1_2,,fail
Status,1390,18439453955,/g3t1_3,,fail
Status,1391,18488990015,/g3t1_1,,running
Status,1392,18489121333,/g3t1_2,,running
Status,1393,18489180550,/g3t1_3,,running
Status,1394,18489205777,/g3t1_1,,fail
Status,1395,18489272461,/g3t1_2,,fail
Status,1396,18489295005,/g3t1_3,,fail
Status,1397,18509873303,/g4t1,,success
Status,1398,18538309533,/g3t1_1,,running
Status,1399,18538443109,/g3t1_1,,fail
Status,1400,18538644225,/g3t1_2,,running
Status,1401,18538705927,/g3t1_2,,fail
Status,1402,18538741773,/g3t1_3,,running
Status,1403,18539188269,/g3t1_3,,fail
Status,1407,18588671019,/g3t1_1,,running
Status,1408,18588767510,/g3t1_2,,running
Status,1409,18588802361,/g3t1_1,,fail
Status,1410,18588824368,/g3t1_2,,fail
Status,1411,18589222635,/g3t1_3,,running
Status,1412,18589286614,/g3t1_3,,fail
Status,1413,18609861387,/g4t1,,success
Status,1414,18639092809,/g3t1_1,,running
Status,1415,18639223010,/g3t1_2,,running
Status,1416,18639250663,/g3t1_3,,running
Status,1417,18639271031,/g3t1_1,,fail
Status,1418,18639353576,/g3t1_2,,fail
Status,1419,18639383402,/g3t1_3,,fail
Status,1420,18688868983,/g3t1_1,,running
Status,1421,18688994487,/g3t1_2,,running
Status,1422,18689382432,/g3t1_1,,fail
Status,1423,18689517274,/g3t1_3,,running
Status,1424,18689779024,/g3t1_2,,fail
Status,1425,18689863776,/g3t1_3,,fail
Status,1426,18710136612,/g4t1,,success
Status,1427,18738826391,/g3t1_1,,running
Status,1428,18739028229,/g3t1_2,,running
Status,1429,18739163563,/g3t1_1,,fail
Status,1430,18739645243,/g3t1_2,,fail
Status,1431,18739704493,/g3t1_3,,running
Status,1432,18739799693,/g3t1_3,,fail
Status,1436,18789236691,/g3t1_1,,running
Status,1437,18789326073,/g3t1_2,,running
Status,1438,18789365036,/g3t1_1,,fail
Status,1439,18789702480,/g3t1_2,,fail
Status,1440,18789771092,/g3t1_3,,running
Status,1441,18789987687,/g3t1_3,,fail
Status,1442,18810308565,/g4t1,,success
Status,1443,18839727237,/g3t1_1,,running
Status,1444,18839815243,/g3t1_2,,running
Status,1445,18839992757,/g3t1_1,,fail
Status,1446,18840027269,/g3t1_3,,running
Status,1447,18840152590,/g3t1_3,,fail
Status,1448,18840315994,/g3t1_2,,fail
Status,1449,18889192696,/g3t1_1,,running
Status,1450,18889487521,/g3t1_2,,running
Status,1451,18889542069,/g3t1_2,,fail
Status,1452,18889784545,/g3t1_1,,fail
Status,1453,18890102370,/g3t1_3,,running
Status,1454,18890187286,/g3t1_3,,fail
Status,1455,18910230617,/g4t1,,success
Status,1456,18939272064,/g3t1_1,,running
Status,1457,18939361383,/g3t1_2,,running
Status,1458,18939548517,/g3t1_1,,fail
Status,1459,18939614741,/g3t1_2,,fail
Status,1460,18940134442,/g3t1_3,,running
Status,1461,18940312312,/g3t1_3,,fail
Status,1465,18989488106,/g3t1_1,,running
Status,1466,18989564688,/g3t1_2,,running
Status,1467,18989698359,/g3t1_1,,fail
Status,1468,18990227401,/g3t1_2,,fail
Status,1469,18990298117,/g3t1_3,,running
Status,1470,18990717159,/g3t1_3,,fail
Status,1471,19010363531,/g4t1,,success
Status,1472,19039980483,/g3t1_1,,running
Status,1473,19040137552,/g3t1_2,,running
Status,1474,19040176166,/g3t1_2,,fail
Status,1475,19040207949,/g3t1_1,,fail
Status,1476,19040635391,/g3t1_3,,running
Status,1477,19040720063,/g3t1_3,,fail
Status,1478,19089835999,/g3t1_2,,running
Status,1479,19089913250,/g3t1_1,,running
Status,1480,19089953978,/g3t1_2,,fail
Status,1481,19090080591,/g3t1_1,,fail
Status,1482,19090113027,/g3t1_3,,running
Status,1483,19090459405,/g3t1_3,,fail
Status,1484,19110528301,/g4t1,,success
Status,1485,19140199426,/g3t1_1,,running
Status,1486,19140340841,/g3t1_2,,running
Status,1487,19140409670,/g3t1_1,,fail
Status,1488,19140483912,/g3t1_2,,fail
Status,1489,19140515587,/g3t1_3,,running
Status,1490,19140753321,/g3t1_3,,fail
Status,1494,19190142777,/g3t1_1,,running
Status,1495,19190262632,/g3t1_2,,running
Status,1496,19190293404,/g3t1_1,,success
Status,1497,19190316646,/g3t1_2,,fail
Status,1498,19190431028,/g3t1_3,,running
Status,1499,19190641385,/g3t1_3,,fail
Status,1500,19211077349,/g4t1,,success
Status,1501,19240326739,/g3t1_1,,running
Status,1502,19240428366,/g3t1_2,,running
Status,1503,19240603293,/g3t1_1,,fail
Status,1504,19240712125,/g3t1_2,,fail
Status,1505,19240964438,/g3t1_3,,running
Status,1506,19241054444,/g3t1_3,,fail
Status,1507,19290485740,/g3t1_1,,running
Status,1508,19290583142,/g3t1_2,,running
Status,1509,19290633162,/g3t1_1,,fail
Status,1510,19290729653,/g3t1_2,,fail
Status,1511,19290756116,/g3t1_3,,running
Status,1512,19291034561,/g3t1_3,,fail
Status,1513,19310768280,/g4t1,,success
Status,1514,19340658000,/g3t1_1,,running
Status,1515,19340738760,/g3t1_2,,running
Status,1516,19340779522,/g3t1_1,,fail
Status,1517,19341024261,/g3t1_3,,running
Status,1518,19341078622,/g3t1_2,,fail
Status,1519,19341106020,/g3t1_3,,fail
Status,1523,19390690577,/g3t1_1,,running
Status,1524,19390831516,/g3t1_2,,running
Status,1525,19391163689,/g3t1_2,,fail
Status,1526,19391335625,/g3t1_1,,fail
Status,1527,19391437765,/g3t1_3,,running
Status,1528,19391514685,/g3t1_3,,fail
Status,1529,19411101029,/g4t1,,success
Status,1530,19440567731,/g3t1_1,,running
Status,1531,19441192603,/g3t1_2,,running
Status,1532,19441334270,/g3t1_1,,fail
Status,1533,19441434114,/g3t1_3,,running
Status,1534,19441467890,/g3t1_2,,fail
Status,1535,19441503215,/g3t1_3,,fail
Status,1536,19490675159,/g3t1_2,,running
Status,1537,19490750964,/g3t1_1,,running
Status,1538,19490790224,/g3t1_1,,fail
Status,1539,19490927324,/g3t1_3,,running
Status,1540,19491416697,/g3t1_3,,fail
Status,1541,19491489336,/g3t1_2,,fail
Status,1542,19511179563,/g4t1,,success
Status,1543,19541099260,/g3t1_1,,running
Status,1544,19541199339,/g3t1_2,,running
Status,1545,19541477686,/g3t1_1,,fail
Status,1546,19541528847,/g3t1_2,,fail
Status,1547,19541549358,/g3t1_3,,running
Status,1548,19541575077,/g3t1_3,,fail
Status,1549,19591347225,/g3t1_1,,running
Status,1550,19591429469,/g3t1_2,,running
Status,1551,19591474388,/g3t1_1,,fail
Status,1552,19591866146,/g3t1_2,,fail
Status,1553,19592082518,/g3t1_3,,running
Status,1554,19592227090,/g3t1_3,,fail
Status,1555,19611331867,/g4t1,,success
Status,1556,19641655708,/g3t1_1,,running
Status,1557,19641766597,/g3t1_2,,running
Status,1558,19641867214,/g3t1_1,,fail
Status,1559,19641909077,/g3t1_3,,running
Status,1560,19641938749,/g3t1_2,,fail
Status,1561,19641972952,/g3t1_3,,fail
Status,1562,19691320668,/g3t1_1,,running
Status,1563,19691380708,/g3t1_2,,running
Status,1564,19691434996,/g3t1_1,,fail
Status,1565,19691522072,/g3t1_2,,fail
Status,1566,19691579567,/g3t1_3,,running
Status,1567,19692091246,/g3t1_3,,fail
Status,1568,19711468371,/g4t1,,success
Status,1569,19742131409,/g3t1_1,,running
Status,1570,19742221021,/g3t1_2,,running
Status,1571,19742244338,/g3t1_1,,fail
Status,1572,19742266925,/g3t1_3,,running
Status,1573,19742289822,/g3t1_3,,fail
Status,1574,19742362963,/g3t1_2,,fail
Status,1575,19791699679,/g3t1_2,,running
Status,1576,19791772495,/g3t1_1,,running
Status,1577,19791866117,/g3t1_3,,running
Status,1578,19791955405,/g3t1_2,,fail
Status,1579,19792055118,/g3t1_1,,fail
Status,1580,19792423785,/g3t1_3,,fail
Status,1581,19811589938,/g4t1,,success
Status,1582,19841955898,/g3t1_1,,running
Status,1583,19842035209,/g3t1_2,,running
Status,1584,19842080145,/g3t1_1,,fail
Status,1585,19842104927,/g3t1_2,,fail
Status,1586,19842142535,/g3t1_3,,running
Status,1587,19842309286,/g3t1_3,,fail
Status,1588,19892306936,/g3t1_1,,running
Status,1589,19892369357,/g3t1_2,,running
Status,1590,19892452256,/g3t1_1,,fail
Status,1591,19892475988,/g3t1_2,,fail
Status,1592,19892504158,/g3t1_3,,running
Status,1593,19892769280,/g3t1_3,,fail
Status,1594,19911783899,/g4t1,,success
Status,1595,19942499471,/g3t1_1,,running
Status,1596,19942702156,/g3t1_1,,fail
Status,1597,19942749173,/g3t1_3,,running
Status,1598,19942779499,/g3t1_2,,running
Status,1599,19942865563,/g3t1_2,,fail
Status,1600,19942899450,/g3t1_3,,fail
Status,1601,19992634603,/g3t1_2,,running
Status,1602,19992703017,/g3t1_2,,fail
Status,1603,19992893377,/g3t1_1,,running
Status,1604,19992922137,/g3t1_1,,fail
Status,1605,19993026723,/g3t1_3,,running
Status,1606,19993072338,/g3t1_3,,fail
Status,1607,20011779922,/g4t1,,success
Status,1608,20042270052,/g3t1_1,,running
Status,1609,20042369749,/g3t1_2,,running
Status,1610,20042415441,/g3t1_2,,fail
Status,1611,20042446594,/g3t1_1,,fail
Status,1612,20042483769,/g3t1_3,,running
Status,1613,20043148372,/g3t1_3,,fail
Status,1614,20092820726,/g3t1_2,,running
Status,1615,20092893428,/g3t1_1,,running
Status,1616,20092966069,/g3t1_3,,running
Status,1617,20092992217,/g3t1_1,,fail
Status,1618,20093013154,/g3t1_2,,fail
Status,1619,20093363806,/g3t1_3,,fail
Status,1620,20111836566,/g4t1,,success
Status,1621,20143218464,/g3t1_2,,running
Status,1622,20143364795,/g3t1_2,,fail
Status,1623,20143408784,/g3t1_1,,running
Status,1624,20143502133,/g3t1_1,,fail
Status,1625,20143534405,/g3t1_3,,running
Status,1626,20143568501,/g3t1_3,,fail
Status,1627,20193033790,/g3t1_1,,running
Status,1628,20193163133,/g3t1_2,,running
Status,1629,20193196087,/g3t1_2,,fail
Status,1630,20193219895,/g3t1_3,,running
Status,1631,20193242319,/g3t1_1,,fail
Status,1632,20193612134,/g3t1_3,,fail
Status,1633,20212161884,/g4t1,,success
Status,1634,20242976549,/g3t1_2,,running
Status,1635,20243308757,/g3t1_1,,running
Status,1636,20243375528,/g3t1_1,,fail
Status,1637,20243413466,/g3t1_2,,fail
Status,1638,20243630718,/g3t1_3,,running
Status,1639,20243664973,/g3t1_3,,fail
Status,1640,20293626606,/g3t1_2,,running
Status,1641,20293700924,/g3t1_1,,running
Status,1642,20293868523,/g3t1_2,,fail
Status,1643,20293976038,/g3t1_3,,running
Status,1644,20294107399,/g3t1_1,,fail
Status,1645,20294197519,/g3t1_3,,fail
Status,1646,20312241892,/g4t1,,success
Status,1647,20343200060,/g3t1_2,,running
Status,1648,20343348662,/g3t1_1,,running
Status,1649,20343652755,/g3t1_3,,running
Status,1650,20343722930,/g3t1_2,,fail
Status,1651,20344119373,/g3t1_3,,fail
Status,1652,20344461060,/g3t1_1,,fail
Status,1656,20393143390,/g3t1_1,,running
Status,1657,20393403347,/g3t1_2,,running
Status,1658,20393544643,/g3t1_2,,fail
Status,1659,20393609094,/g3t1_1,,fail
Status,1660,20393644734,/g3t1_3,,running
Status,1661,20393960884,/g3t1_3,,fail
Status,1662,20412498164,/g4t1,,success
Status,1663,20444111852,/g3t1_2,,running
Status,1664,20444179952,/g3t1_1,,running
Status,1665,20444288591,/g3t1_2,,fail
Status,1666,20444320845,/g3t1_3,,running
Status,1667,20444385796,/g3t1_3,,fail
Status,1668,20444474976,/g3t1_1,,success
Status,1669,20493393692,/g3t1_2,,running
Status,1670,20493720504,/g3t1_1,,running
Status,1671,20493793846,/g3t1_2,,fail
Status,1672,20494105661,/g3t1_3,,running
Status,1673,20494160168,/g3t1_3,,fail
Status,1674,20494213373,/g3t1_1,,success
Status,1675,20512678367,/g4t1,,success
Status,1676,20543447154,/g3t1_2,,running
Status,1677,20543547786,/g3t1_1,,running
Status,1678,20544318899,/g3t1_2,,fail
Status,1679,20544353577,/g3t1_1,,fail
Status,1680,20544380368,/g3t1_3,,running
Status,1681,20544419153,/g3t1_3,,fail
Status,1685,20593505927,/g3t1_2,,running
Status,1686,20593636597,/g3t1_2,,fail
Status,1687,20593739282,/g3t1_1,,running
Status,1688,20593936272,/g3t1_1,,fail
Status,1689,20594066098,/g3t1_3,,running
