
Status,2,3393583093,/g4t1,,init
Status,4,8607929914,/g3t1_1,,init
Status,5,8617358081,/g3t1_1,,init
Status,6,8617378382,/g3t1_1,,running
Status,7,8617765403,/g3t1_1,,success
Status,8,8667410378,/g3t1_1,,running
Status,9,8667522071,/g3t1_1,,success
Status,10,8717434260,/g3t1_1,,running
Status,11,8717547840,/g3t1_1,,success
Status,12,8767570191,/g3t1_1,,running
Status,13,8767591937,/g3t1_1,,success
Status,14,8817656181,/g3t1_1,,running
Status,15,8817739059,/g3t1_1,,success
Status,17,8836694651,/g3t1_2,,init
Status,18,8844235522,/g3t1_2,,init
Status,19,8844252457,/g3t1_2,,running
Status,20,8844623624,/g3t1_2,,success
Status,21,8867944483,/g3t1_1,,running
Status,22,8868131314,/g3t1_1,,success
Status,23,8894321857,/g3t1_2,,running
Status,24,8894390959,/g3t1_2,,success
Status,25,8911293942,/g4t1,,success
Status,26,8917940505,/g3t1_1,,running
Status,27,8917954845,/g3t1_1,,success
Status,29,8937360996,/g3t1_3,,init
Status,30,8944345134,/g3t1_2,,running
Status,31,8944456092,/g3t1_2,,success
Status,32,8945459012,/g3t1_3,,init
Status,33,8945473810,/g3t1_3,,running
Status,34,8945942086,/g3t1_3,,success
Status,35,8967980270,/g3t1_1,,running
Status,36,8968086027,/g3t1_1,,success
Status,37,8994672796,/g3t1_2,,running
Status,38,8995102963,/g3t1_2,,success
Status,39,8995829236,/g3t1_3,,running
Status,40,8995967338,/g3t1_3,,success
Status,44,9011755104,/g4t1,,success
Status,45,9018305533,/g3t1_1,,running
Status,46,9018619900,/g3t1_1,,success
Status,47,9044704087,/g3t1_2,,running
Status,48,9044868685,/g3t1_2,,success
Status,49,9045694410,/g3t1_3,,running
Status,50,9045921462,/g3t1_3,,success
Status,51,9068121192,/g3t1_1,,running
Status,52,9068292600,/g3t1_1,,success
Status,53,9095118509,/g3t1_2,,running
Status,54,9095420291,/g3t1_2,,success
Status,55,9096178805,/g3t1_3,,running
Status,56,9096485216,/g3t1_3,,success
Status,57,9111944176,/g4t1,,success
Status,58,9118629253,/g3t1_1,,running
Status,59,9118909852,/g3t1_1,,fail
Status,60,9145114190,/g3t1_2,,running
Status,61,9145347652,/g3t1_2,,success
Status,62,9146127210,/g3t1_3,,running
Status,63,9146329899,/g3t1_3,,success
Status,64,9168456658,/g3t1_1,,running
Status,65,9168485685,/g3t1_1,,success
Status,66,9195613832,/g3t1_2,,running
Status,67,9195963252,/g3t1_2,,success
Status,68,9196598929,/g3t1_3,,running
Status,69,9196678915,/g3t1_3,,success
Status,73,9211973986,/g4t1,,success
Status,74,9219433621,/g3t1_1,,running
Status,75,9219490514,/g3t1_1,,success
Status,76,9245512009,/g3t1_2,,running
Status,77,9245773730,/g3t1_2,,success
Status,78,9246366378,/g3t1_3,,running
Status,79,9246960380,/g3t1_3,,success
Status,80,9268889581,/g3t1_1,,running
Status,81,9269447041,/g3t1_1,,success
Status,82,9295874079,/g3t1_2,,running
Status,83,9296838935,/g3t1_2,,success
Status,84,9296923430,/g3t1_3,,running
Status,85,9297596119,/g3t1_3,,success
Status,86,9312092279,/g4t1,,success
Status,87,9319173756,/g3t1_1,,running
Status,88,9319220452,/g3t1_1,,fail
Status,89,9345667537,/g3t1_2,,running
Status,90,9346008740,/g3t1_2,,success
Status,91,9346787276,/g3t1_3,,running
Status,92,9347645750,/g3t1_3,,success
Status,93,9369067268,/g3t1_1,,running
Status,94,9369415407,/g3t1_1,,success
Status,95,9396008573,/g3t1_2,,running
Status,96,9396291168,/g3t1_2,,success
Status,97,9396952595,/g3t1_3,,running
Status,98,9397629735,/g3t1_3,,success
Status,102,9412312211,/g4t1,,success
Status,103,9419707015,/g3t1_1,,running
Status,104,9419988762,/g3t1_1,,success
Status,105,9446052838,/g3t1_2,,running
Status,106,9446908242,/g3t1_2,,success
Status,107,9447072784,/g3t1_3,,running
Status,108,9447510404,/g3t1_3,,success
Status,109,9469515722,/g3t1_1,,running
Status,110,9470129632,/g3t1_1,,success
Status,111,9496145202,/g3t1_2,,running
Status,112,9496816262,/g3t1_2,,success
Status,113,9496966763,/g3t1_3,,running
Status,114,9497580846,/g3t1_3,,success
Status,115,9512790869,/g4t1,,fail
Status,116,9519291091,/g3t1_1,,running
Status,117,9519747652,/g3t1_1,,success
Status,118,9545777663,/g3t1_2,,running
Status,119,9545811874,/g3t1_2,,success
Status,120,9546678224,/g3t1_3,,running
Status,121,9546794611,/g3t1_3,,success
Status,122,9569252367,/g3t1_1,,running
Status,123,9569277131,/g3t1_1,,success
Status,124,9595819794,/g3t1_2,,running
Status,125,9595897189,/g3t1_2,,success
Status,126,9596704942,/g3t1_3,,running
Status,127,9596946795,/g3t1_3,,success
Status,131,9611927043,/g4t1,,fail
Status,132,9619146076,/g3t1_1,,running
Status,133,9619326394,/g3t1_1,,success
Status,134,9646294355,/g3t1_2,,running
Status,135,9646343505,/g3t1_2,,success
Status,136,9647361232,/g3t1_3,,running
Status,137,9647753355,/g3t1_3,,success
Status,138,9669427637,/g3t1_1,,running
Status,139,9669545239,/g3t1_1,,success
Status,140,9696424198,/g3t1_2,,running
Status,141,9696644661,/g3t1_2,,success
Status,142,9697266954,/g3t1_3,,running
Status,143,9697795005,/g3t1_3,,success
Status,144,9712756510,/g4t1,,fail
Status,145,9719794049,/g3t1_1,,running
Status,146,9720525620,/g3t1_1,,success
Status,147,9747073803,/g3t1_2,,running
Status,148,9747150223,/g3t1_2,,success
Status,149,9747458163,/g3t1_3,,running
Status,150,9748281643,/g3t1_3,,success
Status,151,9769835949,/g3t1_1,,running
Status,152,9769875678,/g3t1_1,,success
Status,153,9796357141,/g3t1_2,,running
Status,154,9796597946,/g3t1_2,,success
Status,155,9797162786,/g3t1_3,,running
Status,156,9797486254,/g3t1_3,,success
Status,160,9812587067,/g4t1,,fail
Status,161,9820029203,/g3t1_1,,running
Status,162,9820363627,/g3t1_1,,success
Status,163,9847079690,/g3t1_2,,running
Status,164,9847155129,/g3t1_2,,success
Status,165,9847603730,/g3t1_3,,running
Status,166,9848169603,/g3t1_3,,success
Status,167,9870165435,/g3t1_1,,running
Status,168,9870702924,/g3t1_1,,success
Status,169,9897317445,/g3t1_2,,running
Status,170,9897405701,/g3t1_2,,success
Status,171,9897792373,/g3t1_3,,running
Status,172,9898065824,/g3t1_3,,success
Status,173,9912968449,/g4t1,,fail
Status,174,9920416427,/g3t1_1,,running
Status,175,9920919205,/g3t1_1,,success
Status,176,9947222767,/g3t1_2,,running
Status,177,9947304048,/g3t1_2,,success
Status,178,9948264879,/g3t1_3,,running
Status,179,9948320424,/g3t1_3,,success
Status,180,9970763403,/g3t1_1,,running
Status,181,9970982754,/g3t1_1,,success
Status,182,9997212429,/g3t1_2,,running
Status,183,9998064718,/g3t1_2,,success
Status,184,9998135251,/g3t1_3,,running
Status,185,9998515574,/g3t1_3,,success
Status,189,10012903840,/g4t1,,fail
Status,190,10020650599,/g3t1_1,,running
Status,191,10021010619,/g3t1_1,,success
Status,192,10047403827,/g3t1_2,,running
Status,193,10048153972,/g3t1_2,,success
Status,194,10048468427,/g3t1_3,,running
Status,195,10048636350,/g3t1_3,,success
Status,196,10070702825,/g3t1_1,,running
Status,197,10071127820,/g3t1_1,,success
Status,198,10097335320,/g3t1_2,,running
Status,199,10098164515,/g3t1_2,,success
Status,200,10098223967,/g3t1_3,,running
Status,201,10098482597,/g3t1_3,,success
Status,202,10113096352,/g4t1,,fail
Status,203,10120822196,/g3t1_1,,running
Status,204,10121251439,/g3t1_1,,success
Status,205,10147625410,/g3t1_2,,running
Status,206,10148325915,/g3t1_2,,success
Status,207,10148436599,/g3t1_3,,running
Status,208,10148740429,/g3t1_3,,success
Status,209,10171580245,/g3t1_1,,running
Status,210,10171782140,/g3t1_1,,success
Status,211,10197424710,/g3t1_2,,running
Status,212,10197474071,/g3t1_2,,success
Status,213,10198095166,/g3t1_3,,running
Status,214,10198474301,/g3t1_3,,success
Status,218,10212825926,/g4t1,,fail
Status,219,10221200998,/g3t1_1,,running
Status,220,10221624315,/g3t1_1,,success
Status,221,10248131278,/g3t1_2,,running
Status,222,10248592149,/g3t1_2,,success
Status,223,10248696816,/g3t1_3,,running
Status,224,10249416857,/g3t1_3,,success
Status,225,10271483118,/g3t1_1,,running
Status,226,10271920200,/g3t1_1,,success
Status,227,10298149281,/g3t1_2,,running
Status,228,10298702858,/g3t1_3,,running
Status,229,10298947852,/g3t1_2,,success
Status,230,10299367716,/g3t1_3,,success
Status,231,10313770993,/g4t1,,fail
Status,232,10321496105,/g3t1_1,,running
Status,233,10322444177,/g3t1_1,,success
Status,234,10348688179,/g3t1_2,,running
Status,235,10349136930,/g3t1_3,,running
Status,236,10349201254,/g3t1_2,,success
Status,237,10349282630,/g3t1_3,,success
Status,238,10371778365,/g3t1_1,,running
Status,239,10372056581,/g3t1_1,,success
Status,240,10398471996,/g3t1_2,,running
Status,241,10398803782,/g3t1_2,,success
Status,242,10398903644,/g3t1_3,,running
Status,243,10399443506,/g3t1_3,,success
Status,247,10413741353,/g4t1,,fail
Status,248,10421586058,/g3t1_1,,running
Status,249,10422102081,/g3t1_1,,success
Status,250,10449189253,/g3t1_2,,running
Status,251,10449350444,/g3t1_2,,success
Status,252,10449598461,/g3t1_3,,running
Status,253,10449913058,/g3t1_3,,success
Status,254,10471473684,/g3t1_1,,running
Status,255,10471582338,/g3t1_1,,success
Status,256,10499584666,/g3t1_2,,running
Status,257,10499671928,/g3t1_3,,running
Status,258,10499808896,/g3t1_3,,success
Status,259,10499842759,/g3t1_2,,success
Status,260,10513808555,/g4t1,,fail
Status,261,10522130549,/g3t1_1,,running
Status,262,10522218672,/g3t1_1,,success
Status,263,10549190764,/g3t1_2,,running
Status,264,10549271227,/g3t1_3,,running
Status,265,10549819544,/g3t1_2,,success
Status,266,10550581710,/g3t1_3,,success
Status,267,10571932106,/g3t1_1,,running
Status,268,10572277838,/g3t1_1,,success
Status,269,10599429418,/g3t1_2,,running
Status,270,10599543760,/g3t1_3,,running
Status,271,10599578960,/g3t1_2,,success
Status,272,10600099138,/g3t1_3,,success
Status,276,10613785707,/g4t1,,fail
Status,277,10622017904,/g3t1_1,,running
Status,278,10622403628,/g3t1_1,,success
Status,279,10649364709,/g3t1_2,,running
Status,280,10649492552,/g3t1_3,,running
Status,281,10650058073,/g3t1_3,,success
Status,282,10650116299,/g3t1_2,,success
Status,283,10672235415,/g3t1_1,,running
Status,284,10672719259,/g3t1_1,,success
Status,285,10699678215,/g3t1_2,,running
Status,286,10700076205,/g3t1_3,,running
Status,287,10700438839,/g3t1_2,,success
Status,288,10700521708,/g3t1_3,,success
Status,289,10714090500,/g4t1,,fail
Status,290,10722392968,/g3t1_1,,running
Status,291,10722460558,/g3t1_1,,success
Status,292,10749984689,/g3t1_2,,running
Status,293,10750108343,/g3t1_3,,running
Status,294,10750544158,/g3t1_2,,success
Status,295,10750650763,/g3t1_3,,success
Status,296,10772573107,/g3t1_1,,running
Status,297,10773029846,/g3t1_1,,success
Status,298,10800085352,/g3t1_2,,running
Status,299,10800205688,/g3t1_3,,running
Status,300,10800513016,/g3t1_2,,success
Status,301,10800585058,/g3t1_3,,success
Status,305,10814030111,/g4t1,,fail
Status,306,10822498021,/g3t1_1,,running
Status,307,10822875343,/g3t1_1,,success
Status,308,10850336122,/g3t1_3,,running
Status,309,10850778053,/g3t1_2,,running
Status,310,10850863824,/g3t1_3,,success
Status,311,10850891695,/g3t1_2,,success
Status,312,10872609776,/g3t1_1,,running
Status,313,10873083559,/g3t1_1,,success
Status,314,10900397059,/g3t1_3,,running
Status,315,10900475780,/g3t1_2,,running
Status,316,10900845457,/g3t1_3,,success
Status,317,10900917964,/g3t1_2,,success
Status,318,10914274662,/g4t1,,fail
Status,319,10922904631,/g3t1_1,,running
Status,320,10923024934,/g3t1_1,,success
Status,321,10950991843,/g3t1_3,,running
Status,322,10951085986,/g3t1_2,,running
Status,323,10951124017,/g3t1_2,,success
Status,324,10951689001,/g3t1_3,,success
Status,325,10972860657,/g3t1_1,,running
Status,326,10973303469,/g3t1_1,,success
Status,327,11000743327,/g3t1_3,,running
Status,328,11001036398,/g3t1_2,,running
Status,329,11001126927,/g3t1_2,,success
Status,330,11001155144,/g3t1_3,,success
Status,334,11014187165,/g4t1,,fail
Status,335,11023062083,/g3t1_1,,running
Status,336,11023384100,/g3t1_1,,success
Status,337,11050494764,/g3t1_3,,running
Status,338,11050566166,/g3t1_2,,running
Status,339,11050697478,/g3t1_2,,success
Status,340,11050808347,/g3t1_3,,success
Status,341,11076027300,/g3t1_1,,running
Status,342,11076097149,/g3t1_1,,success
Status,343,11100162039,/g3t1_3,,running
Status,344,11100184617,/g3t1_2,,running
Status,345,11100193179,/g3t1_3,,success
Status,346,11100200039,/g3t1_2,,success
Status,347,11113707851,/g4t1,,fail
Status,348,11122537709,/g3t1_1,,running
Status,349,11122639990,/g3t1_1,,success
Status,350,11150042275,/g3t1_2,,running
Status,351,11150127601,/g3t1_3,,running
Status,352,11150145315,/g3t1_3,,success
Status,353,11150255011,/g3t1_2,,success
Status,354,11172658808,/g3t1_1,,running
Status,355,11172797016,/g3t1_1,,success
Status,356,11200474982,/g3t1_2,,running
Status,357,11200505648,/g3t1_3,,running
Status,358,11200517704,/g3t1_3,,success
Status,359,11200766815,/g3t1_2,,success
Status,363,11213593108,/g4t1,,fail
Status,364,11222792201,/g3t1_1,,running
Status,365,11222815315,/g3t1_1,,success
Status,366,11250397978,/g3t1_2,,running
Status,367,11250442814,/g3t1_3,,running
Status,368,11250456292,/g3t1_2,,success
Status,369,11250467660,/g3t1_3,,success
Status,370,11273064402,/g3t1_1,,running
Status,371,11273204476,/g3t1_1,,success
Status,372,11301949994,/g3t1_2,,running
Status,373,11302034761,/g3t1_3,,running
Status,374,11302073817,/g3t1_3,,success
Status,375,11302318644,/g3t1_2,,success
Status,376,11314681797,/g4t1,,fail
Status,377,11323732434,/g3t1_1,,running
Status,378,11324085409,/g3t1_1,,success
Status,379,11351706649,/g3t1_2,,running
Status,380,11351835853,/g3t1_3,,running
Status,381,11351877693,/g3t1_2,,success
Status,382,11351982715,/g3t1_3,,success
Status,383,11373708171,/g3t1_1,,running
Status,384,11374165707,/g3t1_1,,success
Status,385,11401797683,/g3t1_2,,running
Status,386,11401920886,/g3t1_3,,running
Status,387,11402457311,/g3t1_3,,success
Status,388,11402580302,/g3t1_2,,success
Status,392,11414601122,/g4t1,,fail
Status,393,11423863715,/g3t1_1,,running
Status,394,11423946557,/g3t1_1,,fail
Status,395,11451938569,/g3t1_2,,running
Status,396,11452208914,/g3t1_3,,running
Status,397,11452254745,/g3t1_2,,success
Status,398,11452495700,/g3t1_3,,success
Status,399,11473851817,/g3t1_1,,running
Status,400,11474309720,/g3t1_1,,success
Status,401,11501000558,/g3t1_2,,running
Status,402,11501038534,/g3t1_2,,success
Status,403,11501123553,/g3t1_3,,running
Status,404,11501253669,/g3t1_3,,success
Status,405,11514076543,/g4t1,,fail
Status,406,11523379317,/g3t1_1,,running
Status,407,11523401903,/g3t1_1,,success
Status,408,11551016724,/g3t1_2,,running
Status,409,11551078529,/g3t1_2,,success
Status,410,11551164252,/g3t1_3,,running
Status,411,11551188183,/g3t1_3,,success
Status,412,11573473302,/g3t1_1,,running
Status,413,11573491115,/g3t1_1,,success
Status,414,11601089115,/g3t1_2,,running
Status,415,11601108271,/g3t1_3,,running
Status,416,11601129637,/g3t1_2,,success
Status,417,11601262772,/g3t1_3,,success
Status,421,11614201194,/g4t1,,fail
Status,422,11623540704,/g3t1_1,,running
Status,423,11623562159,/g3t1_1,,success
Status,424,11652040842,/g3t1_2,,running
Status,425,11652192425,/g3t1_2,,success
Status,426,11652393276,/g3t1_3,,running
Status,427,11653218480,/g3t1_3,,success
Status,428,11673620907,/g3t1_1,,running
Status,429,11673794622,/g3t1_1,,success
Status,430,11702287123,/g3t1_2,,running
Status,431,11702758506,/g3t1_2,,success
Status,432,11702812640,/g3t1_3,,running
Status,433,11702837328,/g3t1_3,,success
Status,434,11714406204,/g4t1,,fail
Status,435,11724059145,/g3t1_1,,running
Status,436,11724089163,/g3t1_1,,success
Status,437,11751510834,/g3t1_2,,running
Status,438,11751552684,/g3t1_3,,running
Status,439,11751585279,/g3t1_2,,success
Status,440,11751745725,/g3t1_3,,success
Status,441,11773807639,/g3t1_1,,running
Status,442,11773931553,/g3t1_1,,success
Status,443,11802002570,/g3t1_2,,running
Status,444,11802036651,/g3t1_3,,running
Status,445,11802049144,/g3t1_2,,success
Status,446,11802187089,/g3t1_3,,success
Status,450,11815197490,/g4t1,,fail
Status,451,11824309716,/g3t1_1,,running
Status,452,11824404035,/g3t1_1,,success
Status,453,11852617254,/g3t1_2,,running
Status,454,11852707841,/g3t1_3,,running
Status,455,11852751093,/g3t1_3,,success
Status,456,11852878134,/g3t1_2,,success
Status,457,11874695334,/g3t1_1,,running
Status,458,11874932851,/g3t1_1,,success
Status,459,11902594210,/g3t1_2,,running
Status,460,11902685059,/g3t1_3,,running
Status,461,11903172793,/g3t1_2,,success
Status,462,11903246668,/g3t1_3,,success
Status,463,11915291232,/g4t1,,fail
Status,464,11924471834,/g3t1_1,,running
Status,465,11925642723,/g3t1_1,,success
Status,466,11952554518,/g3t1_2,,running
Status,467,11952599749,/g3t1_3,,running
Status,468,11952612954,/g3t1_2,,success
Status,469,11952625140,/g3t1_3,,success
Status,470,11974230451,/g3t1_1,,running
Status,471,11974410908,/g3t1_1,,success
Status,472,12002843319,/g3t1_2,,running
Status,473,12002900808,/g3t1_3,,running
Status,474,12003001611,/g3t1_2,,success
Status,475,12003028688,/g3t1_3,,success
Status,479,12015666645,/g4t1,,fail
Status,480,12024888216,/g3t1_1,,running
Status,481,12024937194,/g3t1_1,,success
Status,482,12052863329,/g3t1_3,,running
Status,483,12052922628,/g3t1_2,,running
Status,484,12053059354,/g3t1_2,,success
Status,485,12053090033,/g3t1_3,,success
Status,486,12074716125,/g3t1_1,,running
Status,487,12075021670,/g3t1_1,,success
Status,488,12102894182,/g3t1_2,,running
Status,489,12102985540,/g3t1_3,,running
Status,490,12103015757,/g3t1_2,,success
Status,491,12103363120,/g3t1_3,,success
Status,492,12115696550,/g4t1,,fail
Status,493,12124966159,/g3t1_1,,running
Status,494,12125194491,/g3t1_1,,fail
Status,495,12153440606,/g3t1_2,,running
Status,496,12153532530,/g3t1_3,,running
Status,497,12154072666,/g3t1_3,,success
Status,498,12154139586,/g3t1_2,,success
Status,499,12175214675,/g3t1_1,,running
Status,500,12175668216,/g3t1_1,,success
Status,501,12203982815,/g3t1_3,,running
Status,502,12204087668,/g3t1_2,,running
Status,503,12204228924,/g3t1_2,,success
Status,504,12204258677,/g3t1_3,,success
Status,508,12215821060,/g4t1,,fail
Status,509,12225387539,/g3t1_1,,running
Status,510,12225808895,/g3t1_1,,success
Status,511,12253761251,/g3t1_2,,running
Status,512,12253946927,/g3t1_3,,running
Status,513,12253987381,/g3t1_2,,success
Status,514,12254031829,/g3t1_3,,success
Status,515,12275473105,/g3t1_1,,running
Status,516,12276165333,/g3t1_1,,success
Status,517,12303412528,/g3t1_2,,running
Status,518,12303472269,/g3t1_3,,running
Status,519,12303890233,/g3t1_2,,success
Status,520,12303940809,/g3t1_3,,success
Status,521,12315192718,/g4t1,,fail
Status,522,12325074905,/g3t1_1,,running
Status,523,12325105465,/g3t1_1,,success
Status,524,12352997107,/g3t1_2,,running
Status,525,12353204993,/g3t1_2,,success
Status,526,12353234135,/g3t1_3,,running
Status,527,12353412686,/g3t1_3,,success
Status,528,12375121665,/g3t1_1,,running
Status,529,12375350632,/g3t1_1,,success
Status,530,12403141737,/g3t1_2,,running
Status,531,12403184590,/g3t1_2,,success
Status,532,12403436091,/g3t1_3,,running
Status,533,12403468099,/g3t1_3,,success
Status,537,12415129779,/g4t1,,fail
Status,538,12425277652,/g3t1_1,,running
Status,539,12425315259,/g3t1_1,,success
Status,540,12453230323,/g3t1_2,,running
Status,541,12453264917,/g3t1_2,,success
Status,542,12453413706,/g3t1_3,,running
Status,543,12453761296,/g3t1_3,,success
Status,544,12475424054,/g3t1_1,,running
Status,545,12475447241,/g3t1_1,,success
Status,546,12504430556,/g3t1_2,,running
Status,547,12504927075,/g3t1_3,,running
Status,548,12504999591,/g3t1_3,,success
Status,549,12505123134,/g3t1_2,,success
Status,550,12516123553,/g4t1,,fail
Status,551,12526281792,/g3t1_1,,running
Status,552,12526377442,/g3t1_1,,success
Status,553,12553822393,/g3t1_2,,running
Status,554,12554325446,/g3t1_3,,running
Status,555,12554678552,/g3t1_2,,success
Status,556,12554737862,/g3t1_3,,success
Status,557,12576090081,/g3t1_1,,running
Status,558,12576811378,/g3t1_1,,success
Status,559,12604551687,/g3t1_2,,running
Status,560,12604662151,/g3t1_3,,running
Status,561,12604833641,/g3t1_2,,success
Status,562,12605692635,/g3t1_3,,success
Status,566,12616255662,/g4t1,,fail
Status,567,12626500051,/g3t1_1,,running
Status,568,12626586998,/g3t1_1,,success
Status,569,12654685651,/g3t1_2,,running
Status,570,12654783474,/g3t1_3,,running
Status,571,12655175386,/g3t1_2,,success
Status,572,12655240734,/g3t1_3,,success
Status,573,12676149311,/g3t1_1,,running
Status,574,12676212474,/g3t1_1,,fail
Status,575,12703748623,/g3t1_2,,running
Status,576,12703918717,/g3t1_3,,running
Status,577,12703940100,/g3t1_2,,success
Status,578,12704121582,/g3t1_3,,success
Status,579,12715569965,/g4t1,,fail
Status,580,12725837023,/g3t1_1,,running
Status,581,12725862924,/g3t1_1,,success
Status,582,12754293411,/g3t1_2,,running
Status,583,12754318399,/g3t1_2,,success
Status,584,12754326718,/g3t1_3,,running
Status,585,12754334718,/g3t1_3,,success
Status,586,12776028226,/g3t1_1,,running
Status,587,12776188727,/g3t1_1,,success
Status,588,12804730258,/g3t1_2,,running
Status,589,12804781179,/g3t1_3,,running
Status,590,12805101520,/g3t1_3,,success
Status,591,12805152460,/g3t1_2,,success
Status,595,12815695753,/g4t1,,fail
Status,596,12826540331,/g3t1_1,,running
Status,597,12826771972,/g3t1_1,,success
Status,598,12854346094,/g3t1_2,,running
Status,599,12854376351,/g3t1_3,,running
Status,600,12854405785,/g3t1_3,,success
Status,601,12854414280,/g3t1_2,,success
Status,602,12876184560,/g3t1_1,,running
Status,603,12876328106,/g3t1_1,,success
Status,604,12904641093,/g3t1_2,,running
Status,605,12904702525,/g3t1_3,,running
Status,606,12904721123,/g3t1_3,,success
Status,607,12904756981,/g3t1_2,,success
Status,608,12916308049,/g4t1,,fail
Status,609,12926294255,/g3t1_1,,running
Status,610,12926356284,/g3t1_1,,success
Status,611,12954585309,/g3t1_2,,running
Status,612,12954629598,/g3t1_3,,running
Status,613,12954817783,/g3t1_2,,success
Status,614,12954853162,/g3t1_3,,success
Status,615,12976670625,/g3t1_1,,running
Status,616,12976736013,/g3t1_1,,success
Status,617,13004413164,/g3t1_2,,running
Status,618,13004528857,/g3t1_2,,success
Status,619,13004614185,/g3t1_3,,running
Status,620,13004629078,/g3t1_3,,success
Status,624,13016490520,/g4t1,,fail
Status,625,13026490350,/g3t1_1,,running
Status,626,13026626777,/g3t1_1,,success
Status,627,13054568537,/g3t1_2,,running
Status,628,13054608470,/g3t1_3,,running
Status,629,13054886061,/g3t1_2,,success
Status,630,13054904127,/g3t1_3,,success
Status,631,13076509776,/g3t1_1,,running
Status,632,13076532501,/g3t1_1,,fail
Status,633,13104569493,/g3t1_2,,running
Status,634,13104604201,/g3t1_3,,running
Status,635,13104790858,/g3t1_2,,success
Status,636,13104816096,/g3t1_3,,success
Status,637,13116526483,/g4t1,,fail
Status,638,13126692874,/g3t1_1,,running
Status,639,13126835189,/g3t1_1,,success
Status,640,13155261241,/g3t1_2,,running
Status,641,13155345854,/g3t1_3,,running
Status,642,13155435937,/g3t1_2,,success
Status,643,13155949653,/g3t1_3,,success
Status,644,13177042308,/g3t1_1,,running
Status,645,13177366488,/g3t1_1,,success
Status,646,13205280646,/g3t1_2,,running
Status,647,13205355239,/g3t1_3,,running
Status,648,13205394340,/g3t1_2,,success
Status,649,13205423330,/g3t1_3,,success
Status,653,13217128796,/g4t1,,fail
Status,654,13227336607,/g3t1_1,,running
Status,655,13227762174,/g3t1_1,,success
Status,656,13255050630,/g3t1_2,,running
Status,657,13255079569,/g3t1_3,,running
Status,658,13255111491,/g3t1_2,,success
Status,659,13255298022,/g3t1_3,,success
Status,660,13277043860,/g3t1_1,,running
Status,661,13277072114,/g3t1_1,,fail
Status,662,13305040360,/g3t1_2,,running
Status,663,13305093242,/g3t1_3,,running
Status,664,13305137313,/g3t1_2,,success
Status,665,13305244978,/g3t1_3,,success
Status,666,13316759032,/g4t1,,fail
Status,667,13327144315,/g3t1_1,,running
Status,668,13327265865,/g3t1_1,,success
Status,669,13355190081,/g3t1_2,,running
Status,670,13355226551,/g3t1_3,,running
Status,671,13355244008,/g3t1_2,,success
Status,672,13355562376,/g3t1_3,,success
Status,673,13377278650,/g3t1_1,,running
Status,674,13377308720,/g3t1_1,,success
Status,675,13405878225,/g3t1_2,,running
Status,676,13405975300,/g3t1_3,,running
Status,677,13406278291,/g3t1_2,,success
Status,678,13406339864,/g3t1_3,,success
Status,682,13417346717,/g4t1,,fail
Status,683,13427761379,/g3t1_1,,running
Status,684,13428291409,/g3t1_1,,success
Status,685,13456327769,/g3t1_2,,running
Status,686,13456437036,/g3t1_3,,running
Status,687,13456478628,/g3t1_2,,success
Status,688,13456578546,/g3t1_3,,success
Status,689,13478181823,/g3t1_1,,running
Status,690,13478255292,/g3t1_1,,fail
Status,691,13506450919,/g3t1_2,,running
Status,692,13506546109,/g3t1_3,,running
Status,693,13506923057,/g3t1_2,,success
Status,694,13506963637,/g3t1_3,,success
Status,695,13516752169,/g4t1,,fail
Status,696,13528306906,/g3t1_1,,running
Status,697,13528486899,/g3t1_1,,success
Status,698,13555835789,/g3t1_2,,running
Status,699,13555883174,/g3t1_3,,running
Status,700,13555945253,/g3t1_2,,success
Status,701,13555966498,/g3t1_3,,success
Status,702,13578098088,/g3t1_1,,running
Status,703,13578454360,/g3t1_1,,success
Status,704,13605936254,/g3t1_2,,running
Status,705,13606001894,/g3t1_3,,running
Status,706,13606283651,/g3t1_2,,success
Status,707,13606325977,/g3t1_3,,success
Status,711,13616893181,/g4t1,,fail
Status,712,13628151525,/g3t1_1,,running
Status,713,13628524155,/g3t1_1,,success
Status,714,13656615097,/g3t1_2,,running
Status,715,13656677965,/g3t1_3,,running
Status,716,13656763820,/g3t1_2,,success
Status,717,13656790038,/g3t1_3,,success
Status,718,13678437908,/g3t1_1,,running
Status,719,13678940457,/g3t1_1,,success
Status,720,13707021217,/g3t1_3,,running
Status,721,13707240089,/g3t1_2,,running
Status,722,13707289082,/g3t1_2,,success
Status,723,13707398743,/g3t1_3,,success
Status,724,13717446257,/g4t1,,fail
Status,725,13728478733,/g3t1_1,,running
Status,726,13728552614,/g3t1_1,,success
Status,727,13756481776,/g3t1_2,,running
Status,728,13756576924,/g3t1_3,,running
Status,729,13756638783,/g3t1_2,,success
Status,730,13756658160,/g3t1_3,,success
Status,731,13778400430,/g3t1_1,,running
Status,732,13778441744,/g3t1_1,,success
Status,733,13806263731,/g3t1_3,,running
Status,734,13806310724,/g3t1_2,,running
Status,735,13806594811,/g3t1_2,,success
Status,736,13806618890,/g3t1_3,,success
Status,740,13816971828,/g4t1,,fail
Status,741,13828356459,/g3t1_1,,running
Status,742,13828772276,/g3t1_1,,success
Status,743,13856787528,/g3t1_3,,running
Status,744,13856864647,/g3t1_2,,running
Status,745,13857094856,/g3t1_2,,success
Status,746,13857136005,/g3t1_3,,fail
Status,747,13879154207,/g3t1_1,,running
Status,748,13879381689,/g3t1_1,,success
Status,749,13907302952,/g3t1_2,,running
Status,750,13907388942,/g3t1_3,,running
Status,751,13907827186,/g3t1_3,,success
Status,752,13907945414,/g3t1_2,,success
Status,753,13917580027,/g4t1,,fail
Status,754,13929233590,/g3t1_1,,running
Status,755,13929309514,/g3t1_1,,success
Status,756,13957176796,/g3t1_2,,running
Status,757,13957290300,/g3t1_3,,running
Status,758,13957674124,/g3t1_3,,success
Status,759,13957921794,/g3t1_2,,success
Status,760,13979309335,/g3t1_1,,running
Status,761,13979610981,/g3t1_1,,success
Status,762,14007292164,/g3t1_3,,running
Status,763,14007405926,/g3t1_2,,running
Status,764,14007861789,/g3t1_2,,success
Status,765,14007942718,/g3t1_3,,success
Status,769,14017379162,/g4t1,,fail
Status,770,14029149710,/g3t1_1,,running
Status,771,14029215285,/g3t1_1,,fail
Status,772,14057069737,/g3t1_2,,running
Status,773,14057227277,/g3t1_3,,running
Status,774,14057266719,/g3t1_2,,success
Status,775,14057434230,/g3t1_3,,success
Status,776,14079115293,/g3t1_1,,running
Status,777,14079157995,/g3t1_1,,fail
Status,778,14107685459,/g3t1_3,,running
Status,779,14107773696,/g3t1_2,,running
Status,780,14108483364,/g3t1_2,,success
Status,781,14108550095,/g3t1_3,,success
Status,782,14117936305,/g4t1,,fail
Status,783,14129457679,/g3t1_1,,running
Status,784,14129919949,/g3t1_1,,success
Status,785,14157621647,/g3t1_3,,running
Status,786,14157696520,/g3t1_2,,running
Status,787,14158085831,/g3t1_3,,success
Status,788,14158177852,/g3t1_2,,success
Status,789,14180101883,/g3t1_1,,running
Status,790,14180179966,/g3t1_1,,fail
Status,791,14207958529,/g3t1_2,,running
Status,792,14208050800,/g3t1_3,,running
Status,793,14208272078,/g3t1_2,,success
Status,794,14208325576,/g3t1_3,,success
Status,798,14218055310,/g4t1,,fail
Status,799,14229897443,/g3t1_1,,running
Status,800,14230339051,/g3t1_1,,success
Status,801,14258001195,/g3t1_3,,running
Status,802,14258094277,/g3t1_2,,running
Status,803,14258553423,/g3t1_2,,success
Status,804,14258988173,/g3t1_3,,success
Status,805,14281194714,/g3t1_1,,running
Status,806,14281271938,/g3t1_1,,success
Status,807,14307303628,/g3t1_2,,running
Status,808,14307337484,/g3t1_3,,running
Status,809,14307418776,/g3t1_2,,success
Status,810,14307430089,/g3t1_3,,success
Status,811,14317339257,/g4t1,,fail
Status,812,14329652755,/g3t1_1,,running
Status,813,14329680225,/g3t1_1,,success
Status,814,14357561471,/g3t1_3,,running
Status,815,14357619691,/g3t1_2,,running
Status,816,14357663358,/g3t1_3,,success
Status,817,14357904291,/g3t1_2,,success
Status,818,14379444198,/g3t1_1,,running
Status,819,14379477345,/g3t1_1,,success
Status,820,14407584021,/g3t1_3,,running
Status,821,14407616635,/g3t1_2,,running
Status,822,14407631723,/g3t1_3,,success
Status,823,14407786699,/g3t1_2,,success
Status,827,14417655596,/g4t1,,fail
Status,828,14429605679,/g3t1_1,,running
Status,829,14429632933,/g3t1_1,,success
Status,830,14457721584,/g3t1_3,,running
Status,831,14457751356,/g3t1_2,,running
Status,832,14457788254,/g3t1_3,,success
Status,833,14457872856,/g3t1_2,,success
Status,834,14479870206,/g3t1_1,,running
Status,835,14480007686,/g3t1_1,,success
Status,836,14507713924,/g3t1_3,,running
Status,837,14507745896,/g3t1_2,,running
Status,838,14507816873,/g3t1_3,,success
Status,839,14508081546,/g3t1_2,,success
Status,840,14517712385,/g4t1,,fail
Status,841,14530204359,/g3t1_1,,running
Status,842,14530607261,/g3t1_1,,success
Status,843,14557750532,/g3t1_3,,running
Status,844,14557785508,/g3t1_2,,running
Status,845,14557901734,/g3t1_2,,success
Status,846,14557937610,/g3t1_3,,success
Status,847,14579977660,/g3t1_1,,running
Status,848,14580183119,/g3t1_1,,success
Status,849,14607865337,/g3t1_3,,running
Status,850,14607915632,/g3t1_2,,running
Status,851,14607928266,/g3t1_3,,success
Status,852,14607993117,/g3t1_2,,success
Status,856,14617781007,/g4t1,,fail
Status,857,14629972061,/g3t1_1,,running
Status,858,14629996851,/g3t1_1,,success
Status,859,14657956627,/g3t1_3,,running
Status,860,14658002382,/g3t1_2,,running
Status,861,14658015532,/g3t1_3,,success
Status,862,14658077192,/g3t1_2,,success
Status,863,14679893253,/g3t1_1,,running
Status,864,14679998390,/g3t1_1,,success
Status,865,14707873435,/g3t1_3,,running
Status,866,14707956586,/g3t1_2,,running
Status,867,14708059898,/g3t1_3,,success
Status,868,14708081678,/g3t1_2,,success
Status,869,14717616936,/g4t1,,fail
Status,870,14730086647,/g3t1_1,,running
Status,871,14730134739,/g3t1_1,,success
Status,872,14758025965,/g3t1_3,,running
Status,873,14758048392,/g3t1_2,,running
Status,874,14758157859,/g3t1_2,,success
Status,875,14758333585,/g3t1_3,,success
Status,876,14779936318,/g3t1_1,,running
Status,877,14780198086,/g3t1_1,,success
Status,878,14808137508,/g3t1_3,,running
Status,879,14808161495,/g3t1_2,,running
Status,880,14808272580,/g3t1_2,,success
Status,881,14808299368,/g3t1_3,,success
Status,885,14817842014,/g4t1,,fail
Status,886,14830112572,/g3t1_1,,running
Status,887,14830134556,/g3t1_1,,success
Status,888,14858343896,/g3t1_2,,running
Status,889,14858363091,/g3t1_3,,running
Status,890,14858369246,/g3t1_3,,success
Status,891,14858375171,/g3t1_2,,success
Status,892,14880112312,/g3t1_1,,running
Status,893,14880205345,/g3t1_1,,success
Status,894,14908292434,/g3t1_3,,running
Status,895,14908443444,/g3t1_2,,running
Status,896,14908457665,/g3t1_2,,success
Status,897,14908466259,/g3t1_3,,success
Status,898,14918018477,/g4t1,,fail
Status,899,14930305852,/g3t1_1,,running
Status,900,14930333648,/g3t1_1,,success
Status,901,14958526135,/g3t1_3,,running
Status,902,14958553403,/g3t1_2,,running
Status,903,14958708748,/g3t1_2,,success
Status,904,14958731655,/g3t1_3,,success
Status,905,14980928718,/g3t1_1,,running
Status,906,14981005510,/g3t1_1,,fail
Status,907,15009447620,/g3t1_3,,running
Status,908,15009598528,/g3t1_2,,running
Status,909,15009638926,/g3t1_2,,success
Status,910,15009775936,/g3t1_3,,success
Status,914,15019198528,/g4t1,,fail
Status,915,15030562257,/g3t1_1,,running
Status,916,15030655131,/g3t1_1,,success
Status,917,15058806767,/g3t1_3,,running
Status,918,15058852509,/g3t1_2,,running
Status,919,15058879259,/g3t1_3,,success
Status,920,15058891739,/g3t1_2,,success
Status,921,15080862914,/g3t1_1,,running
Status,922,15080924653,/g3t1_1,,success
Status,923,15108707937,/g3t1_3,,running
Status,924,15108820343,/g3t1_2,,running
Status,925,15108838713,/g3t1_2,,success
Status,926,15108869458,/g3t1_3,,success
Status,927,15118456710,/g4t1,,fail
Status,928,15130698549,/g3t1_1,,running
Status,929,15130745465,/g3t1_1,,success
Status,930,15158925727,/g3t1_3,,running
Status,931,15158948352,/g3t1_2,,running
Status,932,15158978577,/g3t1_3,,success
Status,933,15158985631,/g3t1_2,,success
Status,934,15180803762,/g3t1_1,,running
Status,935,15180829222,/g3t1_1,,success
Status,936,15209043302,/g3t1_3,,running
Status,937,15209075620,/g3t1_2,,running
Status,938,15209100851,/g3t1_3,,success
Status,939,15209116187,/g3t1_2,,success
Status,943,15218317115,/g4t1,,fail
Status,944,15230869191,/g3t1_1,,running
Status,945,15230898498,/g3t1_1,,success
Status,946,15259944427,/g3t1_2,,running
Status,947,15260009407,/g3t1_3,,running
Status,948,15260700899,/g3t1_2,,success
Status,949,15260741458,/g3t1_3,,success
Status,950,15280993888,/g3t1_1,,running
Status,951,15281139169,/g3t1_1,,success
Status,952,15309293833,/g3t1_2,,running
Status,953,15309324546,/g3t1_3,,running
Status,954,15309358097,/g3t1_2,,success
Status,955,15309483122,/g3t1_3,,success
Status,956,15318404619,/g4t1,,fail
Status,957,15331913918,/g3t1_1,,running
Status,958,15331970340,/g3t1_1,,fail
Status,959,15359256339,/g3t1_3,,running
Status,960,15359285582,/g3t1_2,,running
Status,961,15359378966,/g3t1_2,,success
Status,962,15359393395,/g3t1_3,,success
Status,963,15381236539,/g3t1_1,,running
Status,964,15381368522,/g3t1_1,,success
Status,965,15409335944,/g3t1_2,,running
Status,966,15409364349,/g3t1_3,,running
Status,967,15409377313,/g3t1_2,,success
Status,968,15409503722,/g3t1_3,,success
Status,972,15418546868,/g4t1,,fail
Status,973,15431835811,/g3t1_1,,running
Status,974,15431864692,/g3t1_1,,success
Status,975,15459425200,/g3t1_3,,running
Status,976,15459443903,/g3t1_2,,running
Status,977,15459463228,/g3t1_3,,success
Status,978,15459469413,/g3t1_2,,success
Status,979,15481444680,/g3t1_1,,running
Status,980,15481466404,/g3t1_1,,success
Status,981,15509540352,/g3t1_3,,running
Status,982,15509559299,/g3t1_2,,running
Status,983,15509566480,/g3t1_2,,success
Status,984,15509572525,/g3t1_3,,success
Status,985,15518607756,/g4t1,,fail
Status,986,15531445177,/g3t1_1,,running
Status,987,15531498285,/g3t1_1,,success
Status,988,15559572615,/g3t1_3,,running
Status,989,15559598814,/g3t1_2,,running
Status,990,15559683163,/g3t1_3,,success
Status,991,15559699454,/g3t1_2,,success
Status,992,15581765400,/g3t1_1,,running
Status,993,15581785828,/g3t1_1,,success
Status,994,15609738511,/g3t1_3,,running
Status,995,15609823043,/g3t1_2,,running
Status,996,15609838220,/g3t1_3,,success
Status,997,15609846636,/g3t1_2,,success
Status,1001,15618851655,/g4t1,,fail
Status,1002,15631775719,/g3t1_1,,running
Status,1003,15631951101,/g3t1_1,,success
Status,1004,15660175782,/g3t1_3,,running
Status,1005,15660202150,/g3t1_2,,running
Status,1006,15660212510,/g3t1_2,,success
Status,1007,15660765047,/g3t1_3,,success
Status,1008,15682035153,/g3t1_1,,running
Status,1009,15682077114,/g3t1_1,,success
Status,1010,15710389650,/g3t1_3,,running
Status,1011,15710435763,/g3t1_2,,running
Status,1012,15710537646,/g3t1_3,,success
Status,1013,15710554174,/g3t1_2,,fail
Status,1014,15719005928,/g4t1,,fail
Status,1015,15732506064,/g3t1_1,,running
Status,1016,15732585505,/g3t1_1,,fail
Status,1017,15760795357,/g3t1_2,,running
Status,1018,15760860221,/g3t1_3,,running
Status,1019,15761005107,/g3t1_2,,success
Status,1020,15761025224,/g3t1_3,,success
Status,1021,15782777695,/g3t1_1,,running
Status,1022,15783220137,/g3t1_1,,success
Status,1023,15811032692,/g3t1_3,,running
Status,1024,15811140944,/g3t1_2,,running
Status,1028,15812701423,/g3t1_3,,success
Status,1029,15813143786,/g3t1_2,,success
Status,1030,15819723565,/g4t1,,fail
Status,1031,15833084821,/g3t1_1,,running
Status,1032,15833160392,/g3t1_1,,fail
Status,1033,15861088803,/g3t1_3,,running
Status,1034,15861159552,/g3t1_2,,running
Status,1035,15861507090,/g3t1_3,,success
Status,1036,15861587351,/g3t1_2,,success
Status,1037,15883081284,/g3t1_1,,running
Status,1038,15883670316,/g3t1_1,,success
Status,1039,15911136110,/g3t1_3,,running
Status,1040,15911246526,/g3t1_2,,running
Status,1041,15911695188,/g3t1_3,,success
Status,1042,15911745131,/g3t1_2,,success
Status,1043,15919283394,/g4t1,,fail
Status,1044,15933094343,/g3t1_1,,running
Status,1045,15933165205,/g3t1_1,,fail
Status,1046,15961656871,/g3t1_3,,running
Status,1047,15962051909,/g3t1_3,,success
Status,1048,15962084850,/g3t1_2,,running
Status,1049,15962106437,/g3t1_2,,success
Status,1050,15983313915,/g3t1_1,,running
Status,1051,15983372736,/g3t1_1,,fail
Status,1052,16010793218,/g3t1_2,,running
Status,1053,16010851921,/g3t1_3,,running
Status,1054,16010875863,/g3t1_3,,success
Status,1058,16011403839,/g3t1_2,,success
Status,1059,16019236647,/g4t1,,fail
Status,1060,16033166075,/g3t1_1,,running
Status,1061,16033392168,/g3t1_1,,success
Status,1062,16060839836,/g3t1_3,,running
Status,1063,16060880548,/g3t1_2,,running
Status,1064,16061007499,/g3t1_3,,success
Status,1065,16061030723,/g3t1_2,,success
Status,1066,16083630813,/g3t1_1,,running
Status,1067,16083670047,/g3t1_1,,success
Status,1068,16111125198,/g3t1_3,,running
Status,1069,16111157433,/g3t1_2,,running
Status,1070,16111253255,/g3t1_3,,success
Status,1071,16111282251,/g3t1_2,,success
Status,1072,16119412318,/g4t1,,fail
Status,1073,16133649481,/g3t1_1,,running
Status,1074,16133920341,/g3t1_1,,success
Status,1075,16161137922,/g3t1_2,,running
Status,1076,16161167290,/g3t1_3,,running
Status,1077,16161182769,/g3t1_3,,success
Status,1078,16161273189,/g3t1_2,,success
Status,1079,16183583812,/g3t1_1,,running
Status,1080,16183654393,/g3t1_1,,success
Status,1081,16211007703,/g3t1_3,,running
Status,1082,16211036654,/g3t1_2,,running
Status,1086,16211372635,/g3t1_2,,success
Status,1087,16211407612,/g3t1_3,,success
Status,1088,16219577268,/g4t1,,fail
Status,1089,16233365931,/g3t1_1,,running
Status,1090,16233391215,/g3t1_1,,success
Status,1091,16261098209,/g3t1_3,,running
Status,1092,16261150593,/g3t1_2,,running
Status,1093,16261165636,/g3t1_3,,success
Status,1094,16261178231,/g3t1_2,,success
Status,1095,16283462720,/g3t1_1,,running
Status,1096,16283648986,/g3t1_1,,success
Status,1097,16311223296,/g3t1_2,,running
Status,1098,16311253951,/g3t1_3,,running
Status,1099,16311298769,/g3t1_2,,success
Status,1100,16311696686,/g3t1_3,,success
Status,1101,16319949341,/g4t1,,fail
Status,1102,16333725554,/g3t1_1,,running
Status,1103,16333912978,/g3t1_1,,success
Status,1104,16361312134,/g3t1_3,,running
Status,1105,16361598121,/g3t1_2,,running
Status,1106,16361622595,/g3t1_3,,success
Status,1107,16361870034,/g3t1_2,,success
Status,1108,16383565815,/g3t1_1,,running
Status,1109,16383719171,/g3t1_1,,success
Status,1111,16411669911,/g3t1_2,,running
Status,1112,16411695800,/g3t1_3,,running
Status,1115,16412053979,/g3t1_3,,success
Status,1116,16412100058,/g3t1_2,,success
Status,1117,16419475168,/g4t1,,fail
Status,1118,16433885257,/g3t1_1,,running
Status,1119,16433974863,/g3t1_1,,fail
Status,1120,16461547307,/g3t1_2,,running
Status,1121,16461577200,/g3t1_3,,running
Status,1122,16461660110,/g3t1_2,,success
Status,1123,16461675423,/g3t1_3,,success
Status,1124,16483823671,/g3t1_1,,running
Status,1125,16483957154,/g3t1_1,,fail
Status,1126,16511575888,/g3t1_2,,running
Status,1127,16511608095,/g3t1_3,,running
Status,1128,16511955050,/g3t1_2,,success
Status,1129,16512028088,/g3t1_3,,success
Status,1130,16520075523,/g4t1,,fail
Status,1131,16534269495,/g3t1_1,,running
Status,1132,16534297991,/g3t1_1,,success
Status,1133,16561616606,/g3t1_2,,running
Status,1134,16561644882,/g3t1_2,,success
Status,1135,16561728147,/g3t1_3,,running
Status,1136,16561752759,/g3t1_3,,success
Status,1137,16584678177,/g3t1_1,,running
Status,1138,16584751971,/g3t1_1,,success
Status,1142,16611774074,/g3t1_3,,running
Status,1143,16611799158,/g3t1_2,,running
Status,1144,16611906844,/g3t1_3,,success
Status,1145,16611918837,/g3t1_2,,success
Status,1146,16619551891,/g4t1,,fail
Status,1147,16634217494,/g3t1_1,,running
Status,1148,16634239442,/g3t1_1,,success
Status,1149,16661737802,/g3t1_2,,running
Status,1150,16661766455,/g3t1_3,,running
Status,1151,16661918601,/g3t1_2,,success
Status,1152,16661939000,/g3t1_3,,success
Status,1153,16684128570,/g3t1_1,,running
Status,1154,16684269514,/g3t1_1,,success
Status,1155,16711689321,/g3t1_2,,running
Status,1156,16711752294,/g3t1_3,,running
Status,1157,16711797373,/g3t1_2,,success
Status,1158,16711814869,/g3t1_3,,success
Status,1159,16719581497,/g4t1,,fail
Status,1160,16734231381,/g3t1_1,,running
Status,1161,16734465812,/g3t1_1,,success
Status,1162,16761849107,/g3t1_3,,running
Status,1163,16761873365,/g3t1_2,,running
Status,1164,16761903830,/g3t1_3,,success
Status,1165,16761922788,/g3t1_2,,success
Status,1166,16784335069,/g3t1_1,,running
Status,1167,16784357719,/g3t1_1,,success
Status,1171,16811801912,/g3t1_2,,running
Status,1172,16811825430,/g3t1_3,,running
Status,1173,16811929141,/g3t1_2,,success
Status,1174,16811951862,/g3t1_3,,success
Status,1175,16819746183,/g4t1,,fail
Status,1176,16834331932,/g3t1_1,,running
Status,1177,16834545755,/g3t1_1,,success
Status,1178,16862035687,/g3t1_2,,running
Status,1179,16862093439,/g3t1_2,,success
Status,1180,16862104140,/g3t1_3,,running
Status,1181,16862120571,/g3t1_3,,success
Status,1182,16884654411,/g3t1_1,,running
Status,1183,16884679518,/g3t1_1,,fail
Status,1184,16912071232,/g3t1_3,,running
Status,1185,16912163860,/g3t1_2,,running
Status,1186,16912184749,/g3t1_2,,success
Status,1187,16912362942,/g3t1_3,,success
Status,1188,16920625094,/g4t1,,fail
Status,1189,16934750460,/g3t1_1,,running
Status,1190,16934886471,/g3t1_1,,success
Status,1191,16962481625,/g3t1_2,,running
Status,1192,16962515412,/g3t1_3,,running
Status,1193,16962552590,/g3t1_2,,success
Status,1194,16962563292,/g3t1_3,,success
Status,1195,16985572034,/g3t1_1,,running
Status,1196,16985647960,/g3t1_1,,success
Status,1200,17012842643,/g3t1_2,,running
Status,1201,17013269211,/g3t1_3,,running
Status,1202,17013364678,/g3t1_3,,success
Status,1203,17013682408,/g3t1_2,,success
Status,1204,17020959457,/g4t1,,fail
Status,1205,17035700748,/g3t1_1,,running
Status,1206,17035774466,/g3t1_1,,fail
Status,1207,17063154225,/g3t1_2,,running
Status,1208,17063277625,/g3t1_3,,running
Status,1209,17063311064,/g3t1_2,,success
Status,1210,17063616351,/g3t1_3,,success
Status,1211,17085403076,/g3t1_1,,running
Status,1212,17085689626,/g3t1_1,,fail
Status,1213,17112735082,/g3t1_3,,running
Status,1214,17112789546,/g3t1_2,,running
Status,1215,17112889028,/g3t1_3,,success
Status,1216,17112909608,/g3t1_2,,success
Status,1217,17120635894,/g4t1,,fail
Status,1218,17135388233,/g3t1_1,,running
Status,1219,17135760627,/g3t1_1,,success
Status,1220,17162971796,/g3t1_2,,running
Status,1221,17163021523,/g3t1_3,,running
Status,1222,17163045002,/g3t1_2,,success
Status,1223,17163138589,/g3t1_3,,success
Status,1224,17185253854,/g3t1_1,,running
Status,1225,17185333412,/g3t1_1,,fail
Status,1229,17212859563,/g3t1_2,,running
Status,1230,17212913909,/g3t1_3,,running
Status,1231,17213161826,/g3t1_3,,success
Status,1232,17213194715,/g3t1_2,,success
Status,1233,17220729505,/g4t1,,fail
Status,1234,17235427976,/g3t1_1,,running
Status,1235,17235457832,/g3t1_1,,success
Status,1236,17263613699,/g3t1_3,,running
Status,1237,17263681952,/g3t1_2,,running
Status,1238,17263703406,/g3t1_2,,success
Status,1239,17263870104,/g3t1_3,,success
Status,1240,17285567974,/g3t1_1,,running
Status,1241,17285603151,/g3t1_1,,success
Status,1242,17313408595,/g3t1_3,,running
Status,1243,17313482588,/g3t1_2,,running
Status,1244,17313657842,/g3t1_2,,success
Status,1245,17313889311,/g3t1_3,,success
Status,1246,17320660456,/g4t1,,fail
Status,1247,17335737654,/g3t1_1,,running
Status,1248,17335904814,/g3t1_1,,fail
Status,1249,17363836476,/g3t1_3,,running
Status,1250,17363921057,/g3t1_2,,running
Status,1251,17364017218,/g3t1_3,,success
Status,1252,17364357753,/g3t1_2,,success
Status,1253,17386551910,/g3t1_1,,running
Status,1254,17387092653,/g3t1_1,,success
Status,1258,17413917448,/g3t1_2,,running
Status,1259,17413990388,/g3t1_3,,running
Status,1260,17414072231,/g3t1_3,,success
Status,1261,17414250637,/g3t1_2,,success
Status,1262,17421150717,/g4t1,,fail
Status,1263,17436288456,/g3t1_1,,running
Status,1264,17436910960,/g3t1_1,,success
Status,1265,17463719032,/g3t1_3,,running
Status,1266,17463811005,/g3t1_2,,running
Status,1267,17464035615,/g3t1_3,,success
Status,1268,17464282130,/g3t1_2,,success
Status,1269,17486318474,/g3t1_1,,running
Status,1270,17486434842,/g3t1_1,,success
Status,1271,17513703441,/g3t1_3,,running
Status,1272,17513779441,/g3t1_2,,running
Status,1273,17514161878,/g3t1_3,,success
Status,1274,17514221125,/g3t1_2,,success
Status,1275,17521506808,/g4t1,,fail
Status,1276,17536398771,/g3t1_1,,running
Status,1277,17536718089,/g3t1_1,,success
Status,1278,17563840710,/g3t1_3,,running
Status,1279,17563917683,/g3t1_2,,running
Status,1280,17564361415,/g3t1_2,,success
Status,1281,17564637968,/g3t1_3,,success
Status,1282,17587111717,/g3t1_1,,running
Status,1283,17587211813,/g3t1_1,,success
Status,1287,17614046399,/g3t1_3,,running
Status,1288,17614122775,/g3t1_2,,running
Status,1289,17614502276,/g3t1_3,,success
Status,1290,17614562332,/g3t1_2,,success
Status,1291,17621846921,/g4t1,,fail
Status,1292,17636519592,/g3t1_1,,running
Status,1293,17636816807,/g3t1_1,,success
Status,1294,17663971768,/g3t1_3,,running
Status,1295,17664026140,/g3t1_2,,running
Status,1296,17664263150,/g3t1_3,,success
Status,1297,17664308756,/g3t1_2,,success
Status,1298,17686808213,/g3t1_1,,running
Status,1299,17686883789,/g3t1_1,,success
Status,1300,17714292801,/g3t1_2,,running
Status,1301,17714360339,/g3t1_3,,running
Status,1302,17714701608,/g3t1_2,,success
Status,1303,17714748676,/g3t1_3,,success
Status,1304,17721132236,/g4t1,,fail
Status,1305,17736854024,/g3t1_1,,running
Status,1306,17737430041,/g3t1_1,,success
Status,1307,17764352902,/g3t1_3,,running
Status,1308,17764596277,/g3t1_2,,running
Status,1309,17764892742,/g3t1_2,,fail
Status,1310,17764960404,/g3t1_3,,success
Status,1311,17787219142,/g3t1_1,,running
Status,1312,17787317464,/g3t1_1,,success
Status,1316,17814808561,/g3t1_3,,running
Status,1317,17814894134,/g3t1_2,,running
Status,1318,17815229604,/g3t1_3,,success
Status,1319,17815336390,/g3t1_2,,success
Status,1320,17821925491,/g4t1,,fail
Status,1321,17837271846,/g3t1_1,,running
Status,1322,17837622425,/g3t1_1,,success
Status,1323,17865059997,/g3t1_3,,running
Status,1324,17865135526,/g3t1_2,,running
Status,1325,17865160769,/g3t1_2,,success
Status,1326,17865187832,/g3t1_3,,success
Status,1327,17887460240,/g3t1_1,,running
Status,1328,17887560620,/g3t1_1,,success
Status,1329,17915006108,/g3t1_3,,running
Status,1330,17915092979,/g3t1_2,,running
Status,1331,17915455553,/g3t1_2,,success
Status,1332,17915649717,/g3t1_3,,success
Status,1333,17921882027,/g4t1,,fail
Status,1334,17937356585,/g3t1_1,,running
Status,1335,17938036167,/g3t1_1,,success
Status,1336,17965219199,/g3t1_2,,running
Status,1337,17965321863,/g3t1_3,,running
Status,1338,17965482157,/g3t1_3,,success
Status,1339,17965832318,/g3t1_2,,success
Status,1340,17987781676,/g3t1_1,,running
Status,1341,17988171244,/g3t1_1,,success
Status,1345,18015309803,/g3t1_3,,running
Status,1346,18015648733,/g3t1_2,,running
Status,1347,18015736008,/g3t1_3,,success
Status,1348,18015920260,/g3t1_2,,success
Status,1349,18021974748,/g4t1,,fail
Status,1350,18038014949,/g3t1_1,,running
Status,1351,18038103403,/g3t1_1,,success
Status,1352,18065166362,/g3t1_3,,running
Status,1353,18065626430,/g3t1_2,,running
Status,1354,18065941471,/g3t1_2,,success
Status,1355,18065995634,/g3t1_3,,success
Status,1356,18087984800,/g3t1_1,,running
Status,1357,18088065740,/g3t1_1,,fail
Status,1358,18115177376,/g3t1_2,,running
Status,1359,18115305059,/g3t1_3,,running
Status,1360,18115753759,/g3t1_3,,success
Status,1361,18115823267,/g3t1_2,,success
Status,1362,18121417488,/g4t1,,fail
Status,1363,18137417635,/g3t1_1,,running
Status,1364,18137446185,/g3t1_1,,fail
Status,1365,18164933237,/g3t1_3,,running
Status,1366,18164969208,/g3t1_2,,running
Status,1367,18165191901,/g3t1_3,,success
Status,1368,18165647115,/g3t1_2,,success
Status,1369,18187422762,/g3t1_1,,running
Status,1370,18187555219,/g3t1_1,,success
Status,1374,18215410849,/g3t1_3,,running
Status,1375,18215843717,/g3t1_2,,running
Status,1376,18215910099,/g3t1_3,,success
Status,1377,18216130211,/g3t1_2,,success
Status,1378,18221596044,/g4t1,,fail
Status,1379,18237643611,/g3t1_1,,running
Status,1380,18237670394,/g3t1_1,,success
Status,1381,18265689662,/g3t1_3,,running
Status,1382,18265786025,/g3t1_2,,running
Status,1383,18266280491,/g3t1_3,,success
Status,1384,18266363069,/g3t1_2,,success
Status,1385,18288297465,/g3t1_1,,running
Status,1386,18288830812,/g3t1_1,,success
Status,1387,18315924838,/g3t1_3,,running
Status,1388,18316108582,/g3t1_2,,running
Status,1389,18316599922,/g3t1_3,,success
Status,1390,18316765344,/g3t1_2,,success
Status,1391,18322305773,/g4t1,,fail
Status,1392,18338407940,/g3t1_1,,running
Status,1393,18338950799,/g3t1_1,,success
Status,1394,18365955710,/g3t1_3,,running
Status,1395,18366092026,/g3t1_2,,running
Status,1396,18366469497,/g3t1_3,,success
Status,1397,18366560104,/g3t1_2,,success
Status,1398,18388777496,/g3t1_1,,running
Status,1399,18389083946,/g3t1_1,,success
Status,1403,18416325061,/g3t1_3,,running
Status,1404,18416403670,/g3t1_2,,running
Status,1405,18417118402,/g3t1_3,,success
Status,1406,18417225504,/g3t1_2,,success
Status,1407,18422363376,/g4t1,,fail
Status,1408,18438992142,/g3t1_1,,running
Status,1409,18439336638,/g3t1_1,,success
Status,1410,18466430180,/g3t1_2,,running
Status,1411,18466527953,/g3t1_3,,running
Status,1412,18467065463,/g3t1_2,,success
Status,1413,18467430227,/g3t1_3,,success
Status,1414,18488998528,/g3t1_1,,running
Status,1415,18489262128,/g3t1_1,,success
Status,1416,18516941676,/g3t1_2,,running
Status,1417,18517615327,/g3t1_3,,running
Status,1418,18517708535,/g3t1_2,,success
Status,1419,18517766191,/g3t1_3,,success
Status,1420,18522459882,/g4t1,,fail
Status,1421,18539124826,/g3t1_1,,running
Status,1422,18539607026,/g3t1_1,,success
Status,1423,18566620924,/g3t1_3,,running
Status,1424,18566710121,/g3t1_2,,running
Status,1425,18566920482,/g3t1_2,,success
Status,1426,18567281911,/g3t1_3,,success
Status,1427,18589317766,/g3t1_1,,running
Status,1428,18589571905,/g3t1_1,,success
Status,1432,18616713383,/g3t1_3,,running
Status,1433,18616822334,/g3t1_2,,running
Status,1434,18617367387,/g3t1_2,,success
Status,1435,18617491422,/g3t1_3,,success
Status,1436,18622720971,/g4t1,,fail
Status,1437,18639461111,/g3t1_1,,running
Status,1438,18639554989,/g3t1_1,,fail
Status,1439,18666909625,/g3t1_3,,running
Status,1440,18666994116,/g3t1_2,,running
Status,1441,18667021379,/g3t1_2,,success
Status,1442,18667897996,/g3t1_3,,success
Status,1443,18689447234,/g3t1_1,,running
Status,1444,18689753317,/g3t1_1,,fail
Status,1445,18717353103,/g3t1_3,,running
Status,1446,18717428215,/g3t1_2,,running
Status,1447,18717684986,/g3t1_3,,success
Status,1448,18717740085,/g3t1_2,,success
Status,1449,18722649551,/g4t1,,fail
Status,1450,18739954297,/g3t1_1,,running
Status,1451,18740336526,/g3t1_1,,fail
Status,1452,18767147847,/g3t1_3,,running
Status,1453,18767242375,/g3t1_2,,running
Status,1454,18767840439,/g3t1_2,,success
Status,1455,18767924790,/g3t1_3,,success
Status,1456,18789951278,/g3t1_1,,running
Status,1457,18790033245,/g3t1_1,,fail
Status,1461,18817999559,/g3t1_3,,running
Status,1462,18818078859,/g3t1_2,,running
Status,1463,18818103935,/g3t1_2,,success
Status,1464,18818516928,/g3t1_3,,success
Status,1465,18822822386,/g4t1,,fail
Status,1466,18840091820,/g3t1_1,,running
Status,1467,18840476465,/g3t1_1,,success
Status,1468,18867443029,/g3t1_3,,running
Status,1469,18867662245,/g3t1_2,,running
Status,1470,18867745324,/g3t1_3,,success
Status,1471,18868189983,/g3t1_2,,success
Status,1472,18890211594,/g3t1_1,,running
Status,1473,18890375964,/g3t1_1,,success
Status,1474,18917604344,/g3t1_3,,running
Status,1475,18918018521,/g3t1_2,,running
Status,1476,18918165262,/g3t1_2,,success
Status,1477,18918518889,/g3t1_3,,success
Status,1478,18923132797,/g4t1,,fail
Status,1479,18940355492,/g3t1_1,,running
Status,1480,18940701897,/g3t1_1,,success
Status,1481,18967910913,/g3t1_2,,running
Status,1482,18967971088,/g3t1_3,,running
Status,1483,18968089553,/g3t1_2,,success
Status,1484,18968128639,/g3t1_3,,success
Status,1485,18990543834,/g3t1_1,,running
Status,1486,18990630052,/g3t1_1,,fail
Status,1490,19019090936,/g3t1_3,,running
Status,1491,19019164819,/g3t1_2,,running
Status,1492,19019276993,/g3t1_2,,success
Status,1493,19019398158,/g3t1_3,,success
Status,1494,19023177141,/g4t1,,fail
Status,1495,19040391816,/g3t1_1,,running
Status,1496,19040639872,/g3t1_1,,success
Status,1497,19068503200,/g3t1_2,,running
Status,1498,19068574140,/g3t1_3,,running
Status,1499,19068597928,/g3t1_2,,success
Status,1500,19068619998,/g3t1_3,,success
Status,1501,19090817394,/g3t1_1,,running
Status,1502,19090887268,/g3t1_1,,fail
Status,1503,19118089004,/g3t1_2,,running
Status,1504,19118360732,/g3t1_3,,running
Status,1505,19118719679,/g3t1_3,,success
Status,1506,19118788862,/g3t1_2,,success
Status,1507,19123231885,/g4t1,,fail
Status,1508,19140845711,/g3t1_1,,running
Status,1509,19141203512,/g3t1_1,,success
Status,1510,19168522145,/g3t1_3,,running
Status,1511,19168739182,/g3t1_2,,running
Status,1512,19169261798,/g3t1_2,,success
Status,1513,19169364595,/g3t1_3,,success
Status,1514,19191444216,/g3t1_1,,running
Status,1515,19191579936,/g3t1_1,,success
Status,1519,19218835199,/g3t1_3,,running
Status,1520,19218918541,/g3t1_2,,running
Status,1521,19219839295,/g3t1_3,,success
Status,1522,19219900347,/g3t1_2,,success
Status,1523,19223389623,/g4t1,,fail
Status,1524,19241147218,/g3t1_1,,running
Status,1525,19241215759,/g3t1_1,,fail
Status,1526,19269058638,/g3t1_3,,running
Status,1527,19269152284,/g3t1_2,,running
Status,1528,19269538909,/g3t1_2,,success
Status,1529,19269602092,/g3t1_3,,success
Status,1530,19291261392,/g3t1_1,,running
Status,1531,19292022285,/g3t1_1,,success
Status,1532,19319110984,/g3t1_2,,running
Status,1533,19319199186,/g3t1_3,,running
Status,1534,19319386935,/g3t1_3,,success
Status,1535,19319438233,/g3t1_2,,success
Status,1536,19323344121,/g4t1,,fail
Status,1537,19341512014,/g3t1_1,,running
Status,1538,19341812097,/g3t1_1,,success
Status,1539,19369096491,/g3t1_2,,running
Status,1540,19369191263,/g3t1_3,,running
Status,1541,19369720065,/g3t1_2,,success
Status,1542,19369898665,/g3t1_3,,success
Status,1543,19391388949,/g3t1_1,,running
Status,1544,19391856422,/g3t1_1,,success
Status,1548,19419144103,/g3t1_3,,running
Status,1549,19419503471,/g3t1_2,,running
Status,1550,19419629372,/g3t1_2,,success
Status,1551,19419705334,/g3t1_3,,success
Status,1552,19423512235,/g4t1,,fail
Status,1553,19441977158,/g3t1_1,,running
Status,1554,19442236944,/g3t1_1,,success
Status,1555,19469512427,/g3t1_3,,running
Status,1556,19469604930,/g3t1_2,,running
Status,1557,19469714603,/g3t1_3,,success
Status,1558,19469739604,/g3t1_2,,success
Status,1559,19491773023,/g3t1_1,,running
Status,1560,19492197424,/g3t1_1,,success
Status,1561,19519938080,/g3t1_3,,running
Status,1562,19520009438,/g3t1_2,,running
Status,1563,19520184344,/g3t1_2,,success
Status,1564,19520231977,/g3t1_3,,success
Status,1565,19523888590,/g4t1,,fail
Status,1566,19542020351,/g3t1_1,,running
Status,1567,19542089097,/g3t1_1,,success
Status,1568,19569596063,/g3t1_2,,running
Status,1569,19569707211,/g3t1_3,,running
Status,1570,19570109360,/g3t1_2,,success
Status,1571,19570241582,/g3t1_3,,success
Status,1572,19592167410,/g3t1_1,,running
Status,1573,19592469078,/g3t1_1,,success
Status,1577,19620544647,/g3t1_3,,running
Status,1578,19620898695,/g3t1_3,,success
Status,1579,19621003467,/g3t1_2,,running
Status,1580,19621038161,/g3t1_2,,success
Status,1581,19624469909,/g4t1,,fail
Status,1582,19642332993,/g3t1_1,,running
Status,1583,19642901947,/g3t1_1,,success
Status,1584,19669863079,/g3t1_2,,running
Status,1585,19669909182,/g3t1_3,,running
Status,1586,19669925135,/g3t1_3,,success
Status,1587,19669941813,/g3t1_2,,success
Status,1588,19692474740,/g3t1_1,,running
Status,1589,19692844364,/g3t1_1,,fail
Status,1590,19720126668,/g3t1_2,,running
Status,1591,19720218971,/g3t1_3,,running
Status,1592,19720743387,/g3t1_3,,success
Status,1593,19721043686,/g3t1_2,,success
Status,1594,19724138541,/g4t1,,fail
Status,1595,19742817045,/g3t1_1,,running
Status,1596,19742876252,/g3t1_1,,success
Status,1597,19770469283,/g3t1_2,,running
Status,1598,19770562035,/g3t1_3,,running
Status,1599,19770842800,/g3t1_2,,success
Status,1600,19770896228,/g3t1_3,,success
Status,1601,19792617632,/g3t1_1,,running
Status,1602,19793077994,/g3t1_1,,success
Status,1606,19820821382,/g3t1_2,,running
Status,1607,19820890646,/g3t1_3,,running
Status,1608,19820914657,/g3t1_3,,success
Status,1609,19820937415,/g3t1_2,,success
Status,1610,19824258419,/g4t1,,fail
Status,1611,19842987565,/g3t1_1,,running
Status,1612,19843447529,/g3t1_1,,success
Status,1613,19870707649,/g3t1_2,,running
Status,1614,19870781346,/g3t1_3,,running
Status,1615,19870852959,/g3t1_2,,success
Status,1616,19870876716,/g3t1_3,,success
Status,1617,19892963016,/g3t1_1,,running
Status,1618,19893033163,/g3t1_1,,fail
Status,1619,19920796766,/g3t1_2,,running
Status,1620,19921350634,/g3t1_3,,running
Status,1621,19921446671,/g3t1_2,,success
Status,1622,19922324719,/g3t1_3,,success
Status,1623,19924546243,/g4t1,,fail
Status,1624,19942910339,/g3t1_1,,running
Status,1625,19943375280,/g3t1_1,,success
Status,1626,19970889704,/g3t1_2,,running
Status,1627,19970992084,/g3t1_3,,running
Status,1628,19971394118,/g3t1_3,,success
Status,1629,19971512439,/g3t1_2,,success
Status,1630,19993199443,/g3t1_1,,running
Status,1631,19993286418,/g3t1_1,,fail
Status,1635,20021019728,/g3t1_2,,running
Status,1636,20021089595,/g3t1_3,,running
Status,1637,20021517231,/g3t1_2,,success
Status,1638,20021585300,/g3t1_3,,success
Status,1639,20024514536,/g4t1,,fail
Status,1640,20043615762,/g3t1_1,,running
Status,1641,20044223078,/g3t1_1,,success
Status,1642,20071022696,/g3t1_2,,running
Status,1643,20071109691,/g3t1_3,,running
Status,1644,20071654545,/g3t1_2,,success
Status,1645,20072159810,/g3t1_3,,success
Status,1646,20093429621,/g3t1_1,,running
Status,1647,20093871631,/g3t1_1,,success
Status,1648,20121778560,/g3t1_2,,running
Status,1649,20121853347,/g3t1_3,,running
Status,1650,20121951736,/g3t1_3,,success
Status,1651,20121984700,/g3t1_2,,success
Status,1652,20124662847,/g4t1,,fail
Status,1653,20143620620,/g3t1_1,,running
Status,1654,20143681546,/g3t1_1,,fail
Status,1655,20171218374,/g3t1_2,,running
Status,1656,20171295076,/g3t1_3,,running
Status,1657,20172126122,/g3t1_3,,success
Status,1658,20172222865,/g3t1_2,,success
Status,1659,20193869476,/g3t1_1,,running
Status,1660,20193960322,/g3t1_1,,fail
Status,1664,20221755318,/g3t1_2,,running
Status,1665,20221842068,/g3t1_3,,running
Status,1666,20222266770,/g3t1_3,,success
Status,1667,20222368357,/g3t1_2,,success
Status,1668,20224422899,/g4t1,,fail
Status,1669,20244381076,/g3t1_1,,running
Status,1670,20244453773,/g3t1_1,,success
Status,1671,20271606149,/g3t1_3,,running
Status,1672,20271719276,/g3t1_2,,running
Status,1673,20272221454,/g3t1_3,,success
Status,1674,20272306821,/g3t1_2,,success
Status,1675,20294372241,/g3t1_1,,running
Status,1676,20294441186,/g3t1_1,,success
Status,1677,20321800272,/g3t1_2,,running
Status,1678,20321898863,/g3t1_3,,running
Status,1679,20322183867,/g3t1_3,,success
Status,1680,20322234085,/g3t1_2,,success
Status,1681,20324767210,/g4t1,,fail
Status,1682,20344249827,/g3t1_1,,running
Status,1683,20344321659,/g3t1_1,,fail
