
Status,1,3358978522,/g4t1,,init
Status,4,8678498059,/g3t1_1,,init
Status,5,8692356612,/g3t1_1,,init
Status,6,8692379027,/g3t1_1,,running
Status,7,8693132571,/g3t1_1,,success
Status,8,8792508222,/g3t1_1,,running
Status,9,8792850163,/g3t1_1,,success
Status,10,8880752797,/g3t1_2,,init
Status,12,8892563991,/g3t1_1,,running
Status,13,8893138339,/g3t1_1,,success
Status,14,8916321565,/g3t1_2,,init
Status,15,8916349193,/g3t1_2,,running
Status,16,8917762693,/g3t1_2,,success
Status,17,8994071296,/g3t1_1,,running
Status,18,8994095811,/g3t1_1,,success
Status,19,9007535996,/g4t1,,success
Status,20,9016426928,/g3t1_2,,running
Status,21,9016563621,/g3t1_2,,success
Status,22,9093380554,/g3t1_1,,running
Status,23,9093419106,/g3t1_1,,success
Status,24,9107947587,/g4t1,,success
Status,25,9117094139,/g3t1_2,,running
Status,26,9117191270,/g3t1_2,,success
Status,27,9128070116,/g4t1,,success
Status,28,9181063500,/g3t1_3,,init
Status,30,9190017244,/g3t1_3,,init
Status,31,9190036456,/g3t1_3,,running
Status,32,9190535786,/g3t1_3,,success
Status,33,9192712938,/g3t1_1,,running
Status,34,9192847807,/g3t1_1,,success
Status,35,9208538088,/g4t1,,success
Status,36,9216669223,/g3t1_2,,running
Status,37,9216796888,/g3t1_2,,success
Status,38,9228598689,/g4t1,,success
Status,39,9248751526,/g4t1,,success
Status,40,9268837618,/g4t1,,success
Status,41,9288880709,/g4t1,,success
Status,42,9290112075,/g3t1_3,,running
Status,43,9290234906,/g3t1_3,,success
Status,44,9292836342,/g3t1_1,,running
Status,45,9293214773,/g3t1_1,,success
Status,46,9309043394,/g4t1,,success
Status,47,9316774560,/g3t1_2,,running
Status,48,9316893635,/g3t1_2,,success
Status,49,9329085037,/g4t1,,success
Status,50,9349831793,/g4t1,,success
Status,51,9370260362,/g4t1,,success
Status,52,9389644289,/g4t1,,success
Status,53,9390270347,/g3t1_3,,running
Status,54,9390410332,/g3t1_3,,success
Status,55,9392889771,/g3t1_1,,running
Status,56,9393100954,/g3t1_1,,success
Status,57,9409597821,/g4t1,,fail
Status,58,9417897046,/g3t1_2,,running
Status,59,9418541448,/g3t1_2,,success
Status,60,9429892737,/g4t1,,success
Status,61,9449978473,/g4t1,,success
Status,62,9470183479,/g4t1,,success
Status,63,9490850533,/g4t1,,success
Status,64,9490938865,/g3t1_3,,running
Status,65,9491487426,/g3t1_3,,success
Status,66,9493369655,/g3t1_1,,running
Status,67,9493692866,/g3t1_1,,success
Status,68,9510516536,/g4t1,,fail
Status,69,9518401303,/g3t1_2,,running
Status,70,9518812007,/g3t1_2,,success
Status,71,9530573277,/g4t1,,success
Status,72,9551080170,/g4t1,,success
Status,73,9571241893,/g4t1,,success
Status,74,9591943098,/g4t1,,success
Status,75,9592094820,/g3t1_3,,running
Status,76,9592132490,/g3t1_3,,success
Status,77,9594092853,/g3t1_1,,running
Status,78,9594199737,/g3t1_1,,success
Status,79,9611018533,/g4t1,,fail
Status,80,9618031649,/g3t1_2,,running
Status,81,9619229724,/g3t1_2,,success
Status,82,9631027404,/g4t1,,fail
Status,83,9651306649,/g4t1,,success
Status,84,9671579362,/g4t1,,success
Status,85,9691447081,/g3t1_3,,running
Status,86,9691829110,/g3t1_3,,success
Status,87,9691911564,/g4t1,,success
Status,88,9693667259,/g3t1_1,,running
Status,89,9693903096,/g3t1_1,,success
Status,90,9711734506,/g4t1,,fail
Status,91,9718484854,/g3t1_2,,running
Status,92,9718562333,/g3t1_2,,success
Status,93,9731703562,/g4t1,,fail
Status,94,9751788200,/g4t1,,success
Status,95,9772574679,/g4t1,,success
Status,96,9791380789,/g3t1_3,,running
Status,97,9792007370,/g3t1_3,,success
Status,98,9792055232,/g4t1,,success
Status,99,9794162945,/g3t1_1,,running
Status,100,9794228976,/g3t1_1,,success
Status,101,9812167266,/g4t1,,fail
Status,102,9818067374,/g3t1_2,,running
Status,103,9818182687,/g3t1_2,,success
Status,104,9832537408,/g4t1,,fail
Status,105,9852875293,/g4t1,,success
Status,106,9873152934,/g4t1,,success
Status,107,9891540642,/g3t1_3,,running
Status,108,9891583705,/g3t1_3,,success
Status,109,9892099293,/g4t1,,fail
Status,110,9894588300,/g3t1_1,,running
Status,111,9894634290,/g3t1_1,,success
Status,112,9912229538,/g4t1,,fail
Status,113,9918019417,/g3t1_2,,running
Status,114,9918235584,/g3t1_2,,success
Status,115,9932774068,/g4t1,,fail
Status,116,9953201222,/g4t1,,success
Status,117,9973474649,/g4t1,,success
Status,118,9991025472,/g3t1_3,,running
Status,119,9991084055,/g3t1_3,,success
Status,120,9992555576,/g4t1,,fail
Status,121,9993793016,/g3t1_1,,running
Status,122,9993819308,/g3t1_1,,success
Status,123,10012768029,/g4t1,,fail
Status,124,10017693703,/g3t1_2,,running
Status,125,10017744854,/g3t1_2,,success
Status,126,10032941819,/g4t1,,fail
Status,127,10053744702,/g4t1,,success
Status,128,10073463597,/g4t1,,success
Status,129,10091155081,/g3t1_3,,running
Status,130,10091217569,/g3t1_3,,success
Status,131,10093142824,/g4t1,,fail
Status,132,10093616677,/g3t1_1,,running
Status,133,10093780534,/g3t1_1,,success
Status,134,10113320323,/g4t1,,fail
Status,135,10117922571,/g3t1_2,,running
Status,136,10118329044,/g3t1_2,,success
Status,137,10133297252,/g4t1,,fail
Status,138,10153461243,/g4t1,,success
Status,139,10173559800,/g4t1,,success
Status,140,10191183524,/g3t1_3,,running
Status,141,10191320469,/g3t1_3,,success
Status,142,10193511777,/g4t1,,fail
Status,143,10193579914,/g3t1_1,,running
Status,144,10193758599,/g3t1_1,,success
Status,145,10213992568,/g4t1,,fail
Status,146,10218371480,/g3t1_2,,running
Status,147,10218411305,/g3t1_2,,success
Status,148,10233841224,/g4t1,,fail
Status,149,10253934850,/g4t1,,success
Status,150,10273992249,/g4t1,,success
Status,151,10291279425,/g3t1_3,,running
Status,152,10291368568,/g3t1_3,,success
Status,153,10293762495,/g3t1_1,,running
Status,154,10293783243,/g3t1_1,,success
Status,155,10293814798,/g4t1,,fail
Status,156,10314142178,/g4t1,,fail
Status,157,10317920722,/g3t1_2,,running
Status,158,10318029051,/g3t1_2,,success
Status,159,10334268896,/g4t1,,fail
Status,160,10354344828,/g4t1,,success
Status,161,10374414950,/g4t1,,success
Status,162,10391266512,/g3t1_3,,running
Status,163,10391307900,/g3t1_3,,success
Status,164,10393765072,/g3t1_1,,running
Status,165,10393835261,/g3t1_1,,success
Status,166,10394311595,/g4t1,,fail
Status,167,10414538266,/g4t1,,success
Status,168,10417970159,/g3t1_2,,running
Status,169,10417987955,/g3t1_2,,success
Status,170,10434628597,/g4t1,,fail
Status,171,10454743231,/g4t1,,success
Status,172,10474799095,/g4t1,,success
Status,173,10491716791,/g3t1_3,,running
Status,174,10491744381,/g3t1_3,,success
Status,175,10494063809,/g3t1_1,,running
Status,176,10494090345,/g3t1_1,,success
Status,177,10494833343,/g4t1,,fail
Status,178,10515609176,/g4t1,,success
Status,179,10518956731,/g3t1_2,,running
Status,180,10519330002,/g3t1_2,,success
Status,181,10535683777,/g4t1,,fail
Status,182,10555283417,/g4t1,,success
Status,183,10575395843,/g4t1,,success
Status,184,10591955808,/g3t1_3,,running
Status,185,10591987372,/g3t1_3,,success
Status,186,10594042483,/g3t1_1,,running
Status,187,10594222941,/g3t1_1,,success
Status,188,10595188414,/g4t1,,fail
Status,189,10616464013,/g4t1,,success
Status,190,10618699762,/g3t1_2,,running
Status,191,10619279842,/g3t1_2,,success
Status,192,10636491015,/g4t1,,fail
Status,193,10656476649,/g4t1,,success
Status,194,10676110498,/g4t1,,success
Status,195,10692108701,/g3t1_3,,running
Status,196,10692344235,/g3t1_3,,success
Status,197,10694249048,/g3t1_1,,running
Status,198,10694387667,/g3t1_1,,success
Status,199,10695860386,/g4t1,,fail
Status,200,10717027346,/g4t1,,success
Status,201,10718397798,/g3t1_2,,running
Status,202,10718491427,/g3t1_2,,success
Status,203,10736341454,/g4t1,,fail
Status,204,10756449732,/g4t1,,success
Status,205,10776752261,/g4t1,,success
Status,206,10791941113,/g3t1_3,,running
Status,207,10792412967,/g3t1_3,,success
Status,208,10794496087,/g3t1_1,,running
Status,209,10794540082,/g3t1_1,,success
Status,210,10796600917,/g4t1,,fail
Status,211,10816993919,/g4t1,,success
Status,212,10818696463,/g3t1_2,,running
Status,213,10818874439,/g3t1_2,,success
Status,214,10837561486,/g4t1,,fail
Status,215,10857679789,/g4t1,,success
Status,216,10876995782,/g4t1,,success
Status,217,10891854340,/g3t1_3,,running
Status,218,10892080262,/g3t1_3,,success
Status,219,10894327251,/g3t1_1,,running
Status,220,10894517452,/g3t1_1,,success
Status,221,10896893591,/g4t1,,fail
Status,222,10917109668,/g4t1,,success
Status,223,10919028545,/g3t1_2,,running
Status,224,10919138741,/g3t1_2,,success
Status,225,10937415532,/g4t1,,fail
Status,226,10957879535,/g4t1,,success
Status,227,10978208342,/g4t1,,success
Status,228,10992228720,/g3t1_3,,running
Status,229,10992269443,/g3t1_3,,success
Status,230,10995022798,/g3t1_1,,running
Status,231,10995229259,/g3t1_1,,success
Status,232,10997610295,/g4t1,,fail
Status,233,11017781618,/g4t1,,success
Status,234,11018552717,/g3t1_2,,running
Status,235,11018803146,/g3t1_2,,success
Status,236,11038246447,/g4t1,,fail
Status,237,11057937365,/g4t1,,success
Status,238,11078057106,/g4t1,,success
Status,239,11092788393,/g3t1_3,,running
Status,240,11093499753,/g3t1_3,,success
Status,241,11095244575,/g3t1_1,,running
Status,242,11095756975,/g3t1_1,,success
Status,243,11098777489,/g4t1,,fail
Status,244,11118803239,/g4t1,,success
Status,245,11119057393,/g3t1_2,,running
Status,246,11120009458,/g3t1_2,,success
Status,247,11139141149,/g4t1,,fail
Status,248,11159607118,/g4t1,,success
Status,249,11178723535,/g4t1,,success
Status,250,11192137831,/g3t1_3,,running
Status,251,11192266624,/g3t1_3,,success
Status,252,11194817053,/g3t1_1,,running
Status,253,11194846462,/g3t1_1,,success
Status,254,11199468840,/g4t1,,fail
Status,255,11218994978,/g3t1_2,,running
Status,256,11219029804,/g4t1,,success
Status,257,11219161943,/g3t1_2,,success
Status,258,11239013432,/g4t1,,fail
Status,259,11259255811,/g4t1,,success
Status,260,11279230916,/g4t1,,success
Status,261,11292248676,/g3t1_3,,running
Status,262,11292620222,/g3t1_3,,success
Status,263,11294880690,/g3t1_1,,running
Status,264,11295104662,/g3t1_1,,success
Status,265,11299599955,/g4t1,,fail
Status,266,11319238548,/g3t1_2,,running
Status,267,11319343913,/g3t1_2,,success
Status,268,11319669304,/g4t1,,success
Status,269,11339936413,/g4t1,,fail
Status,270,11359924637,/g4t1,,success
Status,271,11380127728,/g4t1,,success
Status,272,11392875112,/g3t1_3,,running
Status,273,11394109457,/g3t1_3,,success
Status,274,11395166665,/g3t1_1,,running
Status,275,11395663850,/g3t1_1,,success
Status,276,11400279571,/g4t1,,fail
Status,277,11419974553,/g3t1_2,,running
Status,278,11420038933,/g3t1_2,,success
Status,279,11420236693,/g4t1,,success
Status,280,11440422595,/g4t1,,fail
Status,281,11460561093,/g4t1,,success
Status,282,11480690068,/g4t1,,success
Status,283,11493367085,/g3t1_3,,running
Status,284,11493732686,/g3t1_3,,success
Status,285,11495579149,/g3t1_1,,running
Status,286,11496159030,/g3t1_1,,success
Status,287,11501273689,/g4t1,,fail
Status,288,11519863050,/g3t1_2,,running
Status,289,11520612099,/g3t1_2,,success
Status,290,11521099156,/g4t1,,fail
Status,291,11541489049,/g4t1,,success
Status,292,11561438856,/g4t1,,success
Status,293,11581734091,/g4t1,,success
Status,294,11593397336,/g3t1_3,,running
Status,295,11593748611,/g3t1_3,,success
Status,296,11595830465,/g3t1_1,,running
Status,297,11596113045,/g3t1_1,,success
Status,298,11601769199,/g4t1,,fail
Status,299,11619992874,/g3t1_2,,running
Status,300,11620381941,/g3t1_2,,success
Status,301,11621221247,/g4t1,,fail
Status,302,11641270303,/g4t1,,success
Status,303,11661271502,/g4t1,,success
Status,304,11681308067,/g4t1,,success
Status,305,11692697859,/g3t1_3,,running
Status,306,11692756518,/g3t1_3,,success
Status,307,11695395779,/g3t1_1,,running
Status,308,11695422639,/g3t1_1,,success
Status,309,11701865560,/g4t1,,fail
Status,310,11719453398,/g3t1_2,,running
Status,311,11719502617,/g3t1_2,,success
Status,312,11721459689,/g4t1,,fail
Status,313,11741685435,/g4t1,,success
Status,314,11762369926,/g4t1,,success
Status,315,11782413103,/g4t1,,success
Status,316,11793200627,/g3t1_3,,running
Status,317,11793460017,/g3t1_3,,success
Status,318,11795834667,/g3t1_1,,running
Status,319,11796219629,/g3t1_1,,success
Status,320,11802504327,/g4t1,,fail
Status,321,11820594354,/g3t1_2,,running
Status,322,11820796254,/g3t1_2,,success
Status,323,11822426566,/g4t1,,fail
Status,324,11842939715,/g4t1,,success
Status,325,11862917167,/g4t1,,success
Status,326,11883193618,/g4t1,,success
Status,327,11893843740,/g3t1_3,,running
Status,328,11894067371,/g3t1_3,,success
Status,329,11896010006,/g3t1_1,,running
Status,330,11896357065,/g3t1_1,,success
Status,331,11903104357,/g4t1,,fail
Status,332,11920170720,/g3t1_2,,running
Status,333,11920215265,/g3t1_2,,success
Status,334,11922548840,/g4t1,,fail
Status,335,11942635705,/g4t1,,success
Status,336,11962802120,/g4t1,,success
Status,337,11982938999,/g4t1,,success
Status,338,11993173982,/g3t1_3,,running
Status,339,11993257781,/g3t1_3,,success
Status,340,11996037358,/g3t1_1,,running
Status,341,11996074563,/g3t1_1,,success
Status,342,12003110239,/g4t1,,fail
Status,343,12020022414,/g3t1_2,,running
Status,344,12020090040,/g3t1_2,,success
Status,345,12023765434,/g4t1,,fail
Status,346,12043711508,/g4t1,,success
Status,347,12063695037,/g4t1,,success
Status,348,12084188934,/g4t1,,success
Status,349,12093773994,/g3t1_3,,running
Status,350,12094306376,/g3t1_3,,success
Status,351,12096459376,/g3t1_1,,running
Status,352,12096530416,/g3t1_1,,success
Status,353,12104281513,/g4t1,,fail
Status,354,12120590619,/g3t1_2,,running
Status,355,12121408496,/g3t1_2,,success
Status,356,12124539768,/g4t1,,fail
Status,357,12144581610,/g4t1,,success
Status,358,12164658983,/g4t1,,success
Status,359,12184867127,/g4t1,,success
Status,360,12194018164,/g3t1_3,,running
Status,361,12194606483,/g3t1_3,,success
Status,362,12196535657,/g3t1_1,,running
Status,363,12196616011,/g3t1_1,,success
Status,364,12204759705,/g4t1,,fail
Status,365,12220825566,/g3t1_2,,running
Status,366,12220893778,/g3t1_2,,success
Status,367,12225067194,/g4t1,,fail
Status,368,12245277920,/g4t1,,success
Status,369,12265472197,/g4t1,,success
Status,370,12285687839,/g4t1,,success
Status,371,12294266841,/g3t1_3,,running
Status,372,12294475865,/g3t1_3,,success
Status,373,12296513736,/g3t1_1,,running
Status,374,12297285677,/g3t1_1,,success
Status,375,12305626593,/g4t1,,fail
Status,376,12320986760,/g3t1_2,,running
Status,377,12321342199,/g3t1_2,,success
Status,378,12325780591,/g4t1,,fail
Status,379,12346089516,/g4t1,,success
Status,380,12366154495,/g4t1,,success
Status,381,12388292845,/g4t1,,success
Status,382,12394212511,/g3t1_3,,running
Status,383,12394679048,/g3t1_3,,success
Status,384,12396338772,/g3t1_1,,running
Status,385,12396659302,/g3t1_1,,success
Status,386,12405689098,/g4t1,,fail
Status,387,12420641632,/g3t1_2,,running
Status,388,12420884678,/g3t1_2,,success
Status,389,12425780040,/g4t1,,fail
Status,390,12445826213,/g4t1,,success
Status,391,12466595888,/g4t1,,success
Status,392,12486770137,/g4t1,,success
Status,393,12494093825,/g3t1_3,,running
Status,394,12494218187,/g3t1_3,,success
Status,395,12496232827,/g3t1_1,,running
Status,396,12496364649,/g3t1_1,,success
Status,397,12506151871,/g4t1,,fail
Status,398,12521071434,/g3t1_2,,running
Status,399,12521247299,/g3t1_2,,success
Status,400,12526351781,/g4t1,,fail
Status,401,12546982034,/g4t1,,success
Status,402,12566402004,/g4t1,,success
Status,403,12586443012,/g4t1,,success
Status,404,12594613120,/g3t1_3,,running
Status,405,12594830773,/g3t1_3,,success
Status,406,12596819334,/g3t1_1,,running
Status,407,12596860866,/g3t1_1,,success
Status,408,12606555650,/g4t1,,fail
Status,409,12621126721,/g3t1_2,,running
Status,410,12621164426,/g3t1_2,,success
Status,411,12626711410,/g4t1,,fail
Status,412,12646796801,/g4t1,,success
Status,413,12667426170,/g4t1,,success
Status,414,12686966303,/g4t1,,success
Status,415,12694635803,/g3t1_3,,running
Status,416,12694689723,/g3t1_3,,success
Status,417,12697020675,/g3t1_1,,running
Status,418,12697113839,/g3t1_1,,success
Status,419,12707089013,/g4t1,,fail
Status,420,12720854896,/g3t1_2,,running
Status,421,12721020887,/g3t1_2,,success
Status,422,12727741147,/g4t1,,fail
Status,423,12747498975,/g4t1,,success
Status,424,12767459532,/g4t1,,success
Status,425,12787619284,/g4t1,,success
Status,426,12794052992,/g3t1_3,,running
Status,427,12794280135,/g3t1_3,,success
Status,428,12798055241,/g3t1_1,,running
Status,429,12798102926,/g3t1_1,,success
Status,430,12807570887,/g4t1,,fail
Status,431,12821149674,/g3t1_2,,running
Status,432,12821292088,/g3t1_2,,success
Status,433,12827640540,/g4t1,,fail
Status,434,12847661297,/g4t1,,success
Status,435,12868009767,/g4t1,,success
Status,436,12888196129,/g4t1,,success
Status,437,12894147628,/g3t1_3,,running
Status,438,12894183335,/g3t1_3,,success
Status,439,12896544034,/g3t1_1,,running
Status,440,12896644079,/g3t1_1,,success
Status,441,12908663649,/g4t1,,fail
Status,442,12920975149,/g3t1_2,,running
Status,443,12921319729,/g3t1_2,,success
Status,444,12928233901,/g4t1,,fail
Status,445,12948784280,/g4t1,,success
Status,446,12968853340,/g4t1,,success
Status,447,12989100433,/g4t1,,success
Status,448,12994233687,/g3t1_3,,running
Status,449,12994260691,/g3t1_3,,success
Status,450,12996664920,/g3t1_1,,running
Status,451,12996785880,/g3t1_1,,success
Status,452,13008782796,/g4t1,,fail
Status,453,13021061942,/g3t1_2,,running
Status,454,13021084205,/g3t1_2,,success
Status,455,13029032194,/g4t1,,fail
Status,456,13048650793,/g4t1,,success
Status,457,13068770156,/g4t1,,success
Status,458,13089058578,/g4t1,,success
Status,459,13094201967,/g3t1_3,,running
Status,460,13094372262,/g3t1_3,,success
Status,461,13096669067,/g3t1_1,,running
Status,462,13096817713,/g3t1_1,,success
Status,463,13108879459,/g4t1,,fail
Status,464,13121009797,/g3t1_2,,running
Status,465,13121146931,/g3t1_2,,success
Status,466,13128871228,/g4t1,,fail
Status,467,13149143672,/g4t1,,success
Status,468,13169301437,/g4t1,,success
Status,469,13189304494,/g4t1,,success
Status,470,13194310421,/g3t1_3,,running
Status,471,13194552501,/g3t1_3,,success
Status,472,13196738500,/g3t1_1,,running
Status,473,13196826768,/g3t1_1,,success
Status,474,13209450389,/g4t1,,fail
Status,475,13221170291,/g3t1_2,,running
Status,476,13221191727,/g3t1_2,,success
Status,477,13229430956,/g4t1,,fail
Status,478,13249644998,/g4t1,,success
Status,479,13270344549,/g4t1,,success
Status,480,13290453627,/g4t1,,success
Status,481,13294414544,/g3t1_3,,running
Status,482,13294456909,/g3t1_3,,success
Status,483,13296772421,/g3t1_1,,running
Status,484,13296843079,/g3t1_1,,success
Status,485,13309999455,/g4t1,,fail
Status,486,13321416396,/g3t1_2,,running
Status,487,13321438675,/g3t1_2,,success
Status,488,13329933170,/g4t1,,success
Status,489,13350111037,/g4t1,,success
Status,490,13370205901,/g4t1,,success
Status,491,13390205095,/g4t1,,success
Status,492,13394528204,/g3t1_3,,running
Status,493,13394556528,/g3t1_3,,success
Status,494,13396980429,/g3t1_1,,running
Status,495,13397157595,/g3t1_1,,success
Status,496,13410363744,/g4t1,,fail
Status,497,13421407829,/g3t1_2,,running
Status,498,13421428891,/g3t1_2,,success
Status,499,13430989772,/g4t1,,fail
Status,500,13450747407,/g4t1,,success
Status,501,13471139686,/g4t1,,success
Status,502,13491374818,/g4t1,,success
Status,503,13495019025,/g3t1_3,,running
Status,504,13495306438,/g3t1_3,,success
Status,505,13497853908,/g3t1_1,,running
Status,506,13497914356,/g3t1_1,,success
Status,507,13511405757,/g4t1,,fail
Status,508,13522588902,/g3t1_2,,running
Status,509,13523052821,/g3t1_2,,success
Status,510,13531701350,/g4t1,,success
Status,511,13552115763,/g4t1,,success
Status,512,13571764508,/g4t1,,success
Status,513,13591416914,/g4t1,,success
Status,514,13595043917,/g3t1_3,,running
Status,515,13595302683,/g3t1_3,,success
Status,516,13597212224,/g3t1_1,,running
Status,517,13597385241,/g3t1_1,,success
Status,518,13611454634,/g4t1,,fail
Status,519,13621541887,/g3t1_2,,running
Status,520,13621785002,/g3t1_2,,success
Status,521,13631945453,/g4t1,,fail
Status,522,13652003316,/g4t1,,success
Status,523,13671707101,/g4t1,,success
Status,524,13692275186,/g4t1,,success
Status,525,13695270873,/g3t1_3,,running
Status,526,13695330379,/g3t1_3,,success
Status,527,13698384078,/g3t1_1,,running
Status,528,13698442863,/g3t1_1,,success
Status,529,13712355396,/g4t1,,fail
Status,530,13722260878,/g3t1_2,,running
Status,531,13722319524,/g3t1_2,,success
Status,532,13732251376,/g4t1,,success
Status,533,13752096228,/g4t1,,success
Status,534,13772815166,/g4t1,,success
Status,535,13792350288,/g4t1,,success
Status,536,13795177183,/g3t1_3,,running
Status,537,13795209870,/g3t1_3,,success
Status,538,13797993058,/g3t1_1,,running
Status,539,13798459927,/g3t1_1,,success
Status,540,13812575665,/g4t1,,fail
Status,541,13822149807,/g3t1_2,,running
Status,542,13822248084,/g3t1_2,,success
Status,543,13832558694,/g4t1,,fail
Status,544,13852619421,/g4t1,,success
Status,545,13873403105,/g4t1,,success
Status,546,13893165219,/g4t1,,success
Status,547,13895552138,/g3t1_3,,running
Status,548,13895909996,/g3t1_3,,success
Status,549,13898246862,/g3t1_1,,running
Status,550,13898340782,/g3t1_1,,success
Status,551,13912929796,/g4t1,,fail
Status,552,13922507220,/g3t1_2,,running
Status,553,13922867811,/g3t1_2,,success
Status,554,13932900539,/g4t1,,success
Status,555,13953670385,/g4t1,,success
Status,556,13973581280,/g4t1,,success
Status,557,13993912390,/g4t1,,success
Status,558,13995473331,/g3t1_3,,running
Status,559,13995644306,/g3t1_3,,success
Status,560,13998341817,/g3t1_1,,running
Status,561,13998448120,/g3t1_1,,success
Status,562,14014264145,/g4t1,,fail
Status,563,14022325716,/g3t1_2,,running
Status,564,14022873295,/g3t1_2,,success
Status,565,14033996213,/g4t1,,fail
Status,566,14053740673,/g4t1,,success
Status,567,14073719436,/g4t1,,success
Status,568,14093779078,/g4t1,,success
Status,569,14095186970,/g3t1_3,,running
Status,570,14095297220,/g3t1_3,,success
Status,571,14097679630,/g3t1_1,,running
Status,572,14097809714,/g3t1_1,,success
Status,573,14114366230,/g4t1,,fail
Status,574,14122128071,/g3t1_2,,running
Status,575,14122149016,/g3t1_2,,success
Status,576,14133936527,/g4t1,,success
Status,577,14154286250,/g4t1,,success
Status,578,14174921651,/g4t1,,success
Status,579,14194887534,/g4t1,,success
Status,580,14195685398,/g3t1_3,,running
Status,581,14196073337,/g3t1_3,,success
Status,582,14198159923,/g3t1_1,,running
Status,583,14198658070,/g3t1_1,,success
Status,584,14215190590,/g4t1,,fail
Status,585,14222518716,/g3t1_2,,running
Status,586,14222759900,/g3t1_2,,success
Status,587,14235131201,/g4t1,,fail
Status,588,14255284794,/g4t1,,success
Status,589,14275420361,/g4t1,,success
Status,590,14295045115,/g4t1,,success
Status,591,14295530741,/g3t1_3,,running
Status,592,14295666423,/g3t1_3,,success
Status,593,14297863337,/g3t1_1,,running
Status,594,14298082616,/g3t1_1,,success
Status,595,14315214818,/g4t1,,fail
Status,596,14322323446,/g3t1_2,,running
Status,597,14322350112,/g3t1_2,,success
Status,598,14335262987,/g4t1,,success
Status,599,14355281396,/g4t1,,success
Status,600,14375377828,/g4t1,,success
Status,601,14395436649,/g4t1,,success
Status,602,14395467123,/g3t1_3,,running
Status,603,14395655102,/g3t1_3,,success
Status,604,14397944053,/g3t1_1,,running
Status,605,14397963293,/g3t1_1,,success
Status,606,14415643928,/g4t1,,fail
Status,607,14422524354,/g3t1_2,,running
Status,608,14422683518,/g3t1_2,,success
Status,609,14436149218,/g4t1,,fail
Status,610,14456295332,/g4t1,,success
Status,611,14476475036,/g4t1,,success
Status,612,14496226820,/g3t1_3,,running
Status,613,14496764371,/g4t1,,success
Status,614,14496839357,/g3t1_3,,success
Status,615,14499611409,/g3t1_1,,running
Status,616,14499685323,/g3t1_1,,success
Status,617,14516517441,/g4t1,,fail
Status,618,14522831413,/g3t1_2,,running
Status,619,14523085644,/g3t1_2,,success
Status,620,14537224306,/g4t1,,success
Status,621,14556763862,/g4t1,,success
Status,622,14576554199,/g4t1,,success
Status,623,14596344199,/g3t1_3,,running
Status,624,14596389023,/g3t1_3,,success
Status,625,14596686666,/g4t1,,success
Status,626,14598660545,/g3t1_1,,running
Status,627,14598738702,/g3t1_1,,success
Status,628,14617381236,/g4t1,,fail
Status,629,14622795371,/g3t1_2,,running
Status,630,14622982926,/g3t1_2,,success
Status,631,14637543673,/g4t1,,fail
Status,632,14657090863,/g4t1,,success
Status,633,14677100964,/g4t1,,success
Status,634,14696159317,/g3t1_3,,running
Status,635,14696217819,/g3t1_3,,success
Status,636,14697292967,/g4t1,,fail
Status,637,14698709459,/g3t1_1,,running
Status,638,14698902736,/g3t1_1,,success
Status,639,14717972459,/g4t1,,fail
Status,640,14722858925,/g3t1_2,,running
Status,641,14723046417,/g3t1_2,,success
Status,642,14737536259,/g4t1,,fail
Status,643,14757686149,/g4t1,,success
Status,644,14778022025,/g4t1,,success
Status,645,14796310732,/g3t1_3,,running
Status,646,14796629206,/g3t1_3,,success
Status,647,14797884787,/g4t1,,fail
Status,648,14798812729,/g3t1_1,,running
Status,649,14798865091,/g3t1_1,,success
Status,650,14818617782,/g4t1,,fail
Status,651,14823064026,/g3t1_2,,running
Status,652,14823534673,/g3t1_2,,success
Status,653,14838405074,/g4t1,,fail
Status,654,14858538574,/g4t1,,success
Status,655,14878502770,/g4t1,,success
Status,656,14896336286,/g3t1_3,,running
Status,657,14896534864,/g3t1_3,,success
Status,658,14898269671,/g4t1,,fail
Status,659,14898411333,/g3t1_1,,running
Status,660,14898640830,/g3t1_1,,success
Status,661,14918324932,/g4t1,,fail
Status,662,14922871665,/g3t1_2,,running
Status,663,14923206519,/g3t1_2,,success
Status,664,14938412076,/g4t1,,fail
Status,665,14958758652,/g4t1,,success
Status,666,14979061081,/g4t1,,success
Status,667,14996996846,/g3t1_3,,running
Status,668,14997859105,/g3t1_3,,success
Status,669,14999146245,/g3t1_1,,running
Status,670,14999496203,/g4t1,,fail
Status,671,14999559251,/g3t1_1,,success
Status,672,15019448939,/g4t1,,fail
Status,673,15023408026,/g3t1_2,,running
Status,674,15023544696,/g3t1_2,,success
Status,675,15039425935,/g4t1,,fail
Status,676,15059618418,/g4t1,,success
Status,677,15079799683,/g4t1,,success
Status,678,15096687199,/g3t1_3,,running
Status,679,15096961704,/g3t1_3,,success
Status,680,15098976945,/g3t1_1,,running
Status,681,15099085168,/g3t1_1,,success
Status,682,15099450779,/g4t1,,fail
Status,683,15119741210,/g4t1,,success
Status,684,15123465816,/g3t1_2,,running
Status,685,15123936404,/g3t1_2,,success
Status,686,15139973109,/g4t1,,success
Status,687,15160055261,/g4t1,,success
Status,688,15180736000,/g4t1,,success
Status,689,15197161366,/g3t1_3,,running
Status,690,15197500987,/g3t1_3,,success
Status,691,15199747690,/g3t1_1,,running
Status,692,15200177720,/g3t1_1,,success
Status,693,15200506222,/g4t1,,success
Status,694,15220693228,/g4t1,,fail
Status,695,15223652811,/g3t1_2,,running
Status,696,15223941226,/g3t1_2,,success
Status,697,15240832277,/g4t1,,fail
Status,698,15261106353,/g4t1,,success
Status,699,15281274158,/g4t1,,success
Status,700,15297530742,/g3t1_3,,running
Status,701,15297831273,/g3t1_3,,success
Status,702,15299329283,/g3t1_1,,running
Status,703,15299750912,/g3t1_1,,success
Status,704,15300994782,/g4t1,,fail
Status,705,15321242295,/g4t1,,success
Status,706,15323847768,/g3t1_2,,running
Status,707,15324246338,/g3t1_2,,success
Status,708,15341716334,/g4t1,,success
Status,709,15361508848,/g4t1,,success
Status,710,15381894511,/g4t1,,success
Status,711,15397582203,/g3t1_3,,running
Status,712,15397864190,/g3t1_3,,success
Status,713,15399386459,/g3t1_1,,running
Status,714,15399617148,/g3t1_1,,success
Status,715,15401779439,/g4t1,,fail
Status,716,15421742288,/g4t1,,success
Status,717,15423880938,/g3t1_2,,running
Status,718,15424230714,/g3t1_2,,success
Status,719,15442031705,/g4t1,,fail
Status,720,15462314177,/g4t1,,success
Status,721,15482129608,/g4t1,,success
Status,722,15497722065,/g3t1_3,,running
Status,723,15498292734,/g3t1_3,,success
Status,724,15499534503,/g3t1_1,,running
Status,725,15499981094,/g3t1_1,,success
Status,726,15502459278,/g4t1,,fail
Status,727,15522425429,/g4t1,,success
Status,728,15524111852,/g3t1_2,,running
Status,729,15524647601,/g3t1_2,,success
Status,730,15542545091,/g4t1,,success
Status,731,15562631824,/g4t1,,success
Status,732,15582583393,/g4t1,,success
Status,733,15597781854,/g3t1_3,,running
Status,734,15598029952,/g3t1_3,,success
Status,735,15599643346,/g3t1_1,,running
Status,736,15600208560,/g3t1_1,,success
Status,737,15602806237,/g4t1,,fail
Status,738,15623060176,/g4t1,,success
Status,739,15624193010,/g3t1_2,,running
Status,740,15624603104,/g3t1_2,,success
Status,741,15643128705,/g4t1,,fail
Status,742,15663375439,/g4t1,,success
Status,743,15682863086,/g4t1,,success
Status,744,15697489989,/g3t1_3,,running
Status,745,15697673406,/g3t1_3,,success
Status,746,15699297118,/g3t1_1,,running
Status,747,15699452964,/g3t1_1,,success
Status,748,15702940717,/g4t1,,fail
Status,749,15723203167,/g4t1,,success
Status,750,15723781871,/g3t1_2,,running
Status,751,15724066354,/g3t1_2,,success
Status,752,15743193791,/g4t1,,success
Status,753,15763559570,/g4t1,,success
Status,754,15784534292,/g4t1,,success
Status,755,15798215298,/g3t1_3,,running
Status,756,15798288097,/g3t1_3,,success
Status,757,15799779600,/g3t1_1,,running
Status,758,15800078669,/g3t1_1,,success
Status,759,15803799730,/g4t1,,fail
Status,760,15824488580,/g4t1,,success
Status,761,15824562146,/g3t1_2,,running
Status,762,15824807792,/g3t1_2,,success
Status,763,15844515385,/g4t1,,fail
Status,764,15864744691,/g4t1,,success
Status,765,15884775241,/g4t1,,success
Status,766,15898058077,/g3t1_3,,running
Status,767,15898411341,/g3t1_3,,success
Status,768,15899958743,/g3t1_1,,running
Status,769,15900287924,/g3t1_1,,success
Status,770,15904570643,/g4t1,,fail
Status,771,15924396510,/g3t1_2,,running
Status,772,15924439011,/g3t1_2,,success
Status,773,15924647745,/g4t1,,success
Status,774,15944354228,/g4t1,,success
Status,775,15964472701,/g4t1,,success
Status,776,15984573471,/g4t1,,success
Status,777,15998056876,/g3t1_3,,running
Status,778,15998087216,/g3t1_3,,success
Status,779,16000047241,/g3t1_1,,running
Status,780,16000089930,/g3t1_1,,success
Status,781,16004645052,/g4t1,,fail
Status,782,16024181876,/g3t1_2,,running
Status,783,16024209755,/g3t1_2,,success
Status,784,16024605649,/g4t1,,fail
Status,785,16045214966,/g4t1,,success
Status,786,16065469808,/g4t1,,success
Status,787,16085256795,/g4t1,,success
Status,788,16098114466,/g3t1_3,,running
Status,789,16098166577,/g3t1_3,,success
Status,790,16099564271,/g3t1_1,,running
Status,791,16099771405,/g3t1_1,,success
Status,792,16105176736,/g4t1,,fail
Status,793,16124636191,/g3t1_2,,running
Status,794,16124790897,/g3t1_2,,success
Status,795,16125000885,/g4t1,,success
Status,796,16145361011,/g4t1,,success
Status,797,16165794392,/g4t1,,success
Status,798,16185609122,/g4t1,,success
Status,799,16197792970,/g3t1_3,,running
Status,800,16197815202,/g3t1_3,,success
Status,801,16199647712,/g3t1_1,,running
Status,802,16199881935,/g3t1_1,,success
Status,803,16205728764,/g4t1,,fail
Status,804,16224279539,/g3t1_2,,running
Status,805,16224336870,/g3t1_2,,success
Status,806,16225553120,/g4t1,,fail
Status,807,16245813000,/g4t1,,success
Status,808,16265884867,/g4t1,,success
Status,809,16286003429,/g4t1,,success
Status,810,16298292068,/g3t1_3,,running
Status,811,16298338986,/g3t1_3,,success
Status,812,16299710146,/g3t1_1,,running
Status,813,16299993368,/g3t1_1,,success
Status,814,16306569670,/g4t1,,fail
Status,815,16324354737,/g3t1_2,,running
Status,816,16324618978,/g3t1_2,,success
Status,817,16326177678,/g4t1,,success
Status,818,16346413014,/g4t1,,success
Status,819,16366932168,/g4t1,,success
Status,820,16387233076,/g4t1,,success
Status,821,16398525990,/g3t1_3,,running
Status,822,16398669727,/g3t1_3,,success
Status,823,16399812859,/g3t1_1,,running
Status,824,16399830789,/g3t1_1,,success
Status,825,16406698058,/g4t1,,fail
Status,826,16424550984,/g3t1_2,,running
Status,827,16424572912,/g3t1_2,,success
Status,828,16426655057,/g4t1,,fail
Status,829,16447484712,/g4t1,,success
Status,830,16467550725,/g4t1,,success
Status,831,16487344853,/g4t1,,success
Status,832,16497989349,/g3t1_3,,running
Status,833,16498159569,/g3t1_3,,success
Status,834,16499957951,/g3t1_1,,running
Status,835,16500035188,/g3t1_1,,success
Status,836,16507195560,/g4t1,,fail
Status,837,16524544921,/g3t1_2,,running
Status,838,16524758739,/g3t1_2,,success
Status,839,16527064340,/g4t1,,success
Status,840,16547785356,/g4t1,,success
Status,841,16567337642,/g4t1,,success
Status,842,16587551634,/g4t1,,success
Status,843,16598226364,/g3t1_3,,running
Status,844,16598269138,/g3t1_3,,success
Status,845,16600157450,/g3t1_1,,running
Status,846,16600180294,/g3t1_1,,success
Status,847,16607653574,/g4t1,,fail
Status,848,16624883014,/g3t1_2,,running
Status,849,16624965259,/g3t1_2,,success
Status,850,16627710907,/g4t1,,fail
Status,851,16647747848,/g4t1,,success
Status,852,16667939823,/g4t1,,success
Status,853,16689384911,/g4t1,,success
Status,854,16698938259,/g3t1_3,,running
Status,855,16699312685,/g3t1_3,,success
Status,856,16700372271,/g3t1_1,,running
Status,857,16701193257,/g3t1_1,,success
Status,858,16709106148,/g4t1,,fail
Status,859,16725124172,/g3t1_2,,running
Status,860,16725340400,/g3t1_2,,success
Status,861,16728851121,/g4t1,,success
Status,862,16749117681,/g4t1,,success
Status,863,16769343332,/g4t1,,success
Status,864,16789902873,/g4t1,,success
Status,865,16799006195,/g3t1_3,,running
Status,866,16799487385,/g3t1_3,,success
Status,867,16800412713,/g3t1_1,,running
Status,868,16800893868,/g3t1_1,,success
Status,869,16809560163,/g4t1,,fail
Status,870,16825340796,/g3t1_2,,running
Status,871,16825605720,/g3t1_2,,success
Status,872,16829330612,/g4t1,,fail
Status,873,16849528075,/g4t1,,success
Status,874,16869733385,/g4t1,,success
Status,875,16889773965,/g4t1,,success
Status,876,16899106668,/g3t1_3,,running
Status,877,16899587802,/g3t1_3,,success
Status,878,16900635956,/g3t1_1,,running
Status,879,16901393716,/g3t1_1,,success
Status,880,16910004742,/g4t1,,fail
Status,881,16925907326,/g3t1_2,,running
Status,882,16926279521,/g3t1_2,,success
Status,883,16930084539,/g4t1,,success
Status,884,16950016496,/g4t1,,success
Status,885,16970352622,/g4t1,,success
Status,886,16990384401,/g4t1,,success
Status,887,16999235774,/g3t1_3,,running
Status,888,16999501072,/g3t1_3,,success
Status,889,17000560147,/g3t1_1,,running
Status,890,17001122761,/g3t1_1,,success
Status,891,17010745911,/g4t1,,fail
Status,892,17025600069,/g3t1_2,,running
Status,893,17026203050,/g3t1_2,,success
Status,894,17030907180,/g4t1,,fail
Status,895,17050607340,/g4t1,,success
Status,896,17070833764,/g4t1,,success
Status,897,17090815932,/g4t1,,success
Status,898,17099169988,/g3t1_3,,running
Status,899,17099485119,/g3t1_3,,success
Status,900,17100675282,/g3t1_1,,running
Status,901,17101131048,/g3t1_1,,success
Status,902,17110811502,/g4t1,,fail
Status,903,17125588707,/g3t1_2,,running
Status,904,17125776684,/g3t1_2,,success
Status,905,17131314612,/g4t1,,success
Status,906,17151175803,/g4t1,,success
Status,907,17171486255,/g4t1,,success
Status,908,17191478662,/g4t1,,success
Status,909,17199780241,/g3t1_3,,running
Status,910,17200577494,/g3t1_3,,success
Status,911,17200889861,/g3t1_1,,running
Status,912,17201846612,/g3t1_1,,success
Status,913,17212021764,/g4t1,,fail
Status,914,17226324640,/g3t1_2,,running
Status,915,17226388400,/g3t1_2,,success
Status,916,17231993338,/g4t1,,fail
Status,917,17251915169,/g4t1,,success
Status,918,17272015511,/g4t1,,success
Status,919,17292528331,/g4t1,,success
Status,920,17299393625,/g3t1_3,,running
Status,921,17299658013,/g3t1_3,,success
Status,922,17300827555,/g3t1_1,,running
Status,923,17301107628,/g3t1_1,,success
Status,924,17312601193,/g4t1,,fail
Status,925,17326195145,/g3t1_2,,running
Status,926,17326448006,/g3t1_2,,success
Status,927,17332557484,/g4t1,,success
Status,928,17352476904,/g4t1,,success
Status,929,17372557539,/g4t1,,success
Status,930,17392669760,/g4t1,,success
Status,931,17399412523,/g3t1_3,,running
Status,932,17399741910,/g3t1_3,,success
Status,933,17400831685,/g3t1_1,,running
Status,934,17401529437,/g3t1_1,,success
Status,935,17412704308,/g4t1,,fail
Status,936,17425987361,/g3t1_2,,running
Status,937,17426460767,/g3t1_2,,success
Status,938,17433279556,/g4t1,,fail
Status,939,17452813192,/g4t1,,success
Status,940,17473057091,/g4t1,,success
Status,941,17493196822,/g4t1,,success
Status,942,17499550513,/g3t1_3,,running
Status,943,17499775127,/g3t1_3,,success
Status,944,17501047368,/g3t1_1,,running
Status,945,17501418955,/g3t1_1,,success
Status,946,17513541791,/g4t1,,fail
Status,947,17526354824,/g3t1_2,,running
Status,948,17526699517,/g3t1_2,,success
Status,949,17533864454,/g4t1,,success
Status,950,17553898564,/g4t1,,success
Status,951,17574011587,/g4t1,,success
Status,952,17594249930,/g4t1,,success
Status,953,17599994825,/g3t1_3,,running
Status,954,17600258881,/g3t1_3,,success
Status,955,17601317799,/g3t1_1,,running
Status,956,17602088359,/g3t1_1,,success
Status,957,17614342280,/g4t1,,fail
Status,958,17626491057,/g3t1_2,,running
Status,959,17626765289,/g3t1_2,,success
Status,960,17634287412,/g4t1,,fail
Status,961,17654558852,/g4t1,,success
Status,962,17674193048,/g4t1,,success
Status,963,17694181789,/g4t1,,success
Status,964,17699355941,/g3t1_3,,running
Status,965,17699533459,/g3t1_3,,success
Status,966,17701024437,/g3t1_1,,running
Status,967,17701176730,/g3t1_1,,success
Status,968,17714274973,/g4t1,,fail
Status,969,17726102272,/g3t1_2,,running
Status,970,17726269270,/g3t1_2,,success
Status,971,17734302068,/g4t1,,success
Status,972,17755108322,/g4t1,,success
Status,973,17774636145,/g4t1,,success
Status,974,17794606834,/g4t1,,success
Status,975,17799501238,/g3t1_3,,running
Status,976,17799647599,/g3t1_3,,success
Status,977,17801071381,/g3t1_1,,running
Status,978,17801306002,/g3t1_1,,success
Status,979,17815349816,/g4t1,,fail
Status,980,17826289383,/g3t1_2,,running
Status,981,17826331979,/g3t1_2,,success
Status,982,17835092413,/g4t1,,fail
Status,983,17855014415,/g4t1,,success
Status,984,17875221121,/g4t1,,success
Status,985,17895343386,/g4t1,,success
Status,986,17899457459,/g3t1_3,,running
Status,987,17899677573,/g3t1_3,,success
Status,988,17901122333,/g3t1_1,,running
Status,989,17901376782,/g3t1_1,,success
Status,990,17915960947,/g4t1,,fail
Status,991,17926837135,/g3t1_2,,running
Status,992,17927138485,/g3t1_2,,success
Status,993,17936075891,/g4t1,,success
Status,994,17956495073,/g4t1,,success
Status,995,17976666836,/g4t1,,success
Status,996,17995771659,/g4t1,,success
Status,997,17999574861,/g3t1_3,,running
Status,998,17999789432,/g3t1_3,,success
Status,999,18001126344,/g3t1_1,,running
Status,1000,18001246869,/g3t1_1,,success
Status,1001,18015868927,/g4t1,,fail
Status,1002,18026252472,/g3t1_2,,running
Status,1003,18026396767,/g3t1_2,,success
Status,1004,18036506918,/g4t1,,fail
Status,1005,18056188055,/g4t1,,success
Status,1006,18076305719,/g4t1,,success
Status,1007,18096340342,/g4t1,,success
Status,1008,18099682350,/g3t1_3,,running
Status,1009,18099880616,/g3t1_3,,success
Status,1010,18101336846,/g3t1_1,,running
Status,1011,18101405294,/g3t1_1,,success
Status,1012,18116463500,/g4t1,,fail
Status,1013,18126370056,/g3t1_2,,running
Status,1014,18126511907,/g3t1_2,,success
Status,1015,18136791228,/g4t1,,success
Status,1016,18157628923,/g4t1,,success
Status,1017,18177910188,/g4t1,,success
Status,1018,18197995901,/g4t1,,success
Status,1019,18200274988,/g3t1_3,,running
Status,1020,18200872340,/g3t1_3,,success
Status,1021,18202118355,/g3t1_1,,running
Status,1022,18202680337,/g3t1_1,,success
Status,1023,18217544522,/g4t1,,fail
Status,1024,18226773275,/g3t1_2,,running
Status,1025,18227261513,/g3t1_2,,success
Status,1026,18237712520,/g4t1,,fail
Status,1027,18257849805,/g4t1,,success
Status,1028,18277500439,/g4t1,,success
Status,1029,18298159365,/g4t1,,success
Status,1030,18299759274,/g3t1_3,,running
Status,1031,18299906800,/g3t1_3,,success
Status,1032,18301427670,/g3t1_1,,running
Status,1033,18301697610,/g3t1_1,,success
Status,1034,18317682275,/g4t1,,fail
Status,1035,18326494991,/g3t1_2,,running
Status,1036,18326607891,/g3t1_2,,success
Status,1037,18337807156,/g4t1,,success
Status,1038,18357881491,/g4t1,,success
Status,1039,18378152897,/g4t1,,success
Status,1040,18398090244,/g4t1,,success
Status,1041,18399940632,/g3t1_3,,running
Status,1042,18400146930,/g3t1_3,,success
Status,1043,18401506943,/g3t1_1,,running
Status,1044,18401753771,/g3t1_1,,success
Status,1045,18418637008,/g4t1,,fail
Status,1046,18427021184,/g3t1_2,,running
Status,1047,18427567023,/g3t1_2,,success
Status,1048,18438781249,/g4t1,,fail
Status,1049,18458864947,/g4t1,,success
Status,1050,18479379889,/g4t1,,success
Status,1051,18499016959,/g4t1,,success
Status,1052,18500388947,/g3t1_3,,running
Status,1053,18500759413,/g3t1_3,,success
Status,1054,18502152373,/g3t1_1,,running
Status,1055,18502575763,/g3t1_1,,success
Status,1056,18519140023,/g4t1,,fail
Status,1057,18527542363,/g3t1_2,,running
Status,1058,18528241850,/g3t1_2,,success
Status,1059,18539220378,/g4t1,,success
Status,1060,18559308164,/g4t1,,success
Status,1061,18580037737,/g4t1,,success
Status,1062,18599592633,/g4t1,,success
Status,1063,18600653082,/g3t1_3,,running
Status,1064,18600718072,/g3t1_3,,success
Status,1065,18601848223,/g3t1_1,,running
Status,1066,18602228673,/g3t1_1,,success
Status,1067,18619755502,/g4t1,,fail
Status,1068,18627175291,/g3t1_2,,running
Status,1069,18627544261,/g3t1_2,,success
Status,1070,18639899649,/g4t1,,fail
Status,1071,18659971910,/g4t1,,success
Status,1072,18680596420,/g4t1,,success
Status,1073,18700587222,/g4t1,,success
Status,1074,18700721024,/g3t1_3,,running
Status,1075,18701241415,/g3t1_3,,success
Status,1076,18702100953,/g3t1_1,,running
Status,1077,18702731617,/g3t1_1,,success
Status,1078,18720674271,/g4t1,,fail
Status,1079,18727513371,/g3t1_2,,running
Status,1080,18727719157,/g3t1_2,,success
Status,1081,18740861388,/g4t1,,success
Status,1082,18760829560,/g4t1,,success
Status,1083,18780315776,/g4t1,,success
Status,1084,18800893672,/g3t1_3,,running
Status,1085,18800988671,/g3t1_3,,success
Status,1086,18801032869,/g4t1,,success
Status,1087,18801953502,/g3t1_1,,running
Status,1088,18802154579,/g3t1_1,,success
Status,1089,18820509861,/g4t1,,fail
Status,1090,18827236633,/g3t1_2,,running
Status,1091,18827259281,/g3t1_2,,success
Status,1092,18841053432,/g4t1,,fail
Status,1093,18861479788,/g4t1,,success
Status,1094,18881096359,/g4t1,,success
Status,1095,18900973050,/g3t1_3,,running
Status,1096,18901189841,/g3t1_3,,success
Status,1097,18901376972,/g4t1,,success
Status,1098,18902042171,/g3t1_1,,running
Status,1099,18902282088,/g3t1_1,,success
Status,1100,18921553445,/g4t1,,fail
Status,1101,18927562559,/g3t1_2,,running
Status,1102,18928031059,/g3t1_2,,success
Status,1103,18941787328,/g4t1,,success
Status,1104,18961761176,/g4t1,,success
Status,1105,18981880688,/g4t1,,success
Status,1106,19001234153,/g3t1_3,,running
Status,1107,19001375019,/g3t1_3,,success
Status,1108,19001746296,/g4t1,,success
Status,1109,19002651099,/g3t1_1,,running
Status,1110,19002697886,/g3t1_1,,success
Status,1111,19021929093,/g4t1,,fail
Status,1112,19027774810,/g3t1_2,,running
Status,1113,19028101955,/g3t1_2,,success
Status,1114,19042193534,/g4t1,,fail
Status,1115,19062441538,/g4t1,,success
Status,1116,19082348102,/g4t1,,success
Status,1117,19101278055,/g3t1_3,,running
Status,1118,19101341722,/g3t1_3,,success
Status,1119,19102377034,/g4t1,,fail
Status,1120,19102429792,/g3t1_1,,running
Status,1121,19102699135,/g3t1_1,,success
Status,1122,19122458392,/g4t1,,fail
Status,1123,19127981396,/g3t1_2,,running
Status,1124,19128213131,/g3t1_2,,success
Status,1125,19142564605,/g4t1,,fail
Status,1126,19162814511,/g4t1,,success
Status,1127,19182775677,/g4t1,,success
Status,1128,19201363116,/g3t1_3,,running
Status,1129,19201761185,/g3t1_3,,success
Status,1130,19202547080,/g3t1_1,,running
Status,1131,19203053599,/g4t1,,fail
Status,1132,19203107687,/g3t1_1,,success
Status,1133,19223269408,/g4t1,,fail
Status,1134,19228178163,/g3t1_2,,running
Status,1135,19228505663,/g3t1_2,,success
Status,1136,19243423361,/g4t1,,fail
Status,1137,19263550172,/g4t1,,success
Status,1138,19283659114,/g4t1,,success
Status,1139,19301873545,/g3t1_3,,running
Status,1140,19303038494,/g3t1_3,,success
Status,1141,19303107875,/g3t1_1,,running
Status,1142,19303663524,/g4t1,,fail
Status,1143,19303771091,/g3t1_1,,success
Status,1144,19323326595,/g4t1,,fail
Status,1145,19327818573,/g3t1_2,,running
Status,1146,19328024774,/g3t1_2,,success
Status,1147,19343396599,/g4t1,,fail
Status,1148,19363450668,/g4t1,,success
Status,1149,19383885591,/g4t1,,success
Status,1150,19401408030,/g3t1_3,,running
Status,1151,19401718707,/g3t1_3,,success
Status,1152,19402863702,/g3t1_1,,running
Status,1153,19403210257,/g3t1_1,,success
Status,1154,19403757976,/g4t1,,fail
Status,1155,19424193391,/g4t1,,success
Status,1156,19427972532,/g3t1_2,,running
Status,1157,19428287317,/g3t1_2,,success
Status,1158,19444091640,/g4t1,,success
Status,1159,19464368987,/g4t1,,success
Status,1160,19484520809,/g4t1,,success
Status,1161,19501456307,/g3t1_3,,running
Status,1162,19501699773,/g3t1_3,,success
Status,1163,19503034049,/g3t1_1,,running
Status,1164,19503236252,/g3t1_1,,success
Status,1165,19504453677,/g4t1,,fail
Status,1166,19524674391,/g4t1,,success
Status,1167,19528216398,/g3t1_2,,running
Status,1168,19528467884,/g3t1_2,,success
Status,1169,19544809280,/g4t1,,fail
Status,1170,19564872461,/g4t1,,success
Status,1171,19585020581,/g4t1,,success
Status,1172,19601744152,/g3t1_3,,running
Status,1173,19602257439,/g3t1_3,,success
Status,1174,19603012891,/g3t1_1,,running
Status,1175,19603546712,/g3t1_1,,success
Status,1176,19604677320,/g4t1,,fail
Status,1177,19625299965,/g4t1,,success
Status,1178,19628189583,/g3t1_2,,running
Status,1179,19628734871,/g3t1_2,,success
Status,1180,19645348766,/g4t1,,success
Status,1181,19665415606,/g4t1,,success
Status,1182,19685618215,/g4t1,,success
Status,1183,19701997097,/g3t1_3,,running
Status,1184,19702046521,/g3t1_3,,success
Status,1185,19703516104,/g3t1_1,,running
Status,1186,19703575515,/g3t1_1,,success
Status,1187,19705343837,/g4t1,,fail
Status,1188,19725334265,/g4t1,,success
Status,1189,19728689029,/g3t1_2,,running
Status,1190,19728742046,/g3t1_2,,success
Status,1191,19745680331,/g4t1,,fail
Status,1192,19766098611,/g4t1,,success
Status,1193,19786290399,/g4t1,,success
Status,1194,19802011420,/g3t1_3,,running
Status,1195,19802063754,/g3t1_3,,success
Status,1196,19803668706,/g3t1_1,,running
Status,1197,19804208271,/g3t1_1,,success
Status,1198,19806536601,/g4t1,,fail
Status,1199,19826390923,/g4t1,,success
Status,1200,19828498725,/g3t1_2,,running
Status,1201,19829061037,/g3t1_2,,success
Status,1202,19846531869,/g4t1,,success
Status,1203,19866303797,/g4t1,,success
Status,1204,19886392303,/g4t1,,success
Status,1205,19901892507,/g3t1_3,,running
Status,1206,19902260060,/g3t1_3,,success
Status,1207,19903113765,/g3t1_1,,running
Status,1208,19903444962,/g3t1_1,,success
Status,1209,19906397196,/g4t1,,fail
Status,1210,19926966870,/g4t1,,success
Status,1211,19929004553,/g3t1_2,,running
Status,1212,19929541899,/g3t1_2,,success
Status,1213,19947289132,/g4t1,,fail
Status,1214,19967258112,/g4t1,,success
Status,1215,19987820005,/g4t1,,success
Status,1216,20002250963,/g3t1_3,,running
Status,1217,20002514076,/g3t1_3,,success
Status,1218,20003882174,/g3t1_1,,running
Status,1219,20004142895,/g3t1_1,,success
Status,1220,20007584424,/g4t1,,fail
Status,1221,20027787689,/g4t1,,success
Status,1222,20029101317,/g3t1_2,,running
Status,1223,20029767693,/g3t1_2,,success
Status,1224,20048010009,/g4t1,,success
Status,1225,20068067379,/g4t1,,success
Status,1226,20088161669,/g4t1,,success
Status,1227,20102446974,/g3t1_3,,running
Status,1228,20103027675,/g3t1_3,,success
Status,1229,20103644753,/g3t1_1,,running
Status,1230,20104309933,/g3t1_1,,success
Status,1231,20107964844,/g4t1,,fail
Status,1232,20128358459,/g4t1,,success
Status,1233,20129138377,/g3t1_2,,running
Status,1234,20129831667,/g3t1_2,,success
Status,1235,20148491263,/g4t1,,fail
Status,1236,20168817279,/g4t1,,success
Status,1237,20189053005,/g4t1,,success
Status,1238,20202626925,/g3t1_3,,running
Status,1239,20202976848,/g3t1_3,,success
Status,1240,20203814007,/g3t1_1,,running
Status,1241,20204542583,/g3t1_1,,success
Status,1242,20208987929,/g4t1,,fail
Status,1243,20229351793,/g4t1,,success
Status,1244,20229473513,/g3t1_2,,running
Status,1245,20231503102,/g3t1_2,,success
Status,1246,20249208742,/g4t1,,success
Status,1247,20269560654,/g4t1,,success
Status,1248,20289702198,/g4t1,,success
Status,1249,20302640177,/g3t1_3,,running
Status,1250,20303360197,/g3t1_3,,success
Status,1251,20303859406,/g3t1_1,,running
Status,1252,20304617807,/g3t1_1,,success
Status,1253,20309461643,/g4t1,,fail
Status,1254,20329676225,/g3t1_2,,running
Status,1255,20329735629,/g4t1,,success
Status,1256,20330081094,/g3t1_2,,success
Status,1257,20349987633,/g4t1,,fail
Status,1258,20370040600,/g4t1,,success
Status,1259,20389799272,/g4t1,,success
Status,1260,20402678736,/g3t1_3,,running
Status,1261,20403029746,/g3t1_3,,success
Status,1262,20403427332,/g3t1_1,,running
Status,1263,20403683284,/g3t1_1,,success
Status,1264,20409733020,/g4t1,,fail
Status,1265,20429303417,/g3t1_2,,running
Status,1266,20429464567,/g3t1_2,,success
Status,1267,20429716807,/g4t1,,success
Status,1268,20450102393,/g4t1,,success
Status,1269,20470669073,/g4t1,,success
Status,1270,20490807968,/g4t1,,success
Status,1271,20503014423,/g3t1_3,,running
Status,1272,20503075229,/g3t1_3,,success
Status,1273,20504114583,/g3t1_1,,running
Status,1274,20504697400,/g3t1_1,,success
Status,1275,20510818281,/g4t1,,fail
Status,1276,20529785535,/g3t1_2,,running
Status,1277,20529841297,/g3t1_2,,success
Status,1278,20530554535,/g4t1,,fail
Status,1279,20551170929,/g4t1,,success
Status,1280,20571350802,/g4t1,,success
Status,1281,20591387409,/g4t1,,success
Status,1282,20602828931,/g3t1_3,,running
Status,1283,20602879271,/g3t1_3,,success
Status,1284,20603851404,/g3t1_1,,running
Status,1285,20604125324,/g3t1_1,,success
Status,1286,20610709911,/g4t1,,fail
Status,1287,20629836966,/g3t1_2,,running
Status,1288,20630078009,/g3t1_2,,success
Status,1289,20630926459,/g4t1,,success
Status,1290,20651624099,/g4t1,,success
Status,1291,20670992341,/g4t1,,success
Status,1292,20690995404,/g4t1,,success
Status,1293,20703197003,/g3t1_3,,running
Status,1294,20703501758,/g3t1_3,,success
Status,1295,20704097472,/g3t1_1,,running
Status,1296,20704232409,/g3t1_1,,success
Status,1297,20711030372,/g4t1,,fail
Status,1298,20729949165,/g3t1_2,,running
Status,1299,20730008564,/g3t1_2,,success
Status,1300,20731602384,/g4t1,,fail
Status,1301,20751514500,/g4t1,,success
Status,1302,20771699754,/g4t1,,success
Status,1303,20791991799,/g4t1,,success
Status,1304,20803032314,/g3t1_3,,running
Status,1305,20803397059,/g3t1_3,,success
Status,1306,20804084934,/g3t1_1,,running
Status,1307,20804513374,/g3t1_1,,success
Status,1308,20812374476,/g4t1,,fail
Status,1309,20829937549,/g3t1_2,,running
Status,1310,20830216180,/g3t1_2,,success
Status,1311,20832011447,/g4t1,,success
Status,1312,20852336764,/g4t1,,success
Status,1313,20872713519,/g4t1,,success
Status,1314,20892537813,/g4t1,,success
Status,1315,20903590017,/g3t1_3,,running
Status,1316,20903651764,/g3t1_3,,success
Status,1317,20904402431,/g3t1_1,,running
Status,1318,20904614510,/g3t1_1,,success
Status,1319,20913181574,/g4t1,,fail
Status,1320,20929920489,/g3t1_2,,running
Status,1321,20929953867,/g3t1_2,,success
Status,1322,20933049567,/g4t1,,fail
Status,1323,20952346885,/g4t1,,success
Status,1324,20972490586,/g4t1,,success
Status,1325,20992624909,/g4t1,,success
Status,1326,21002979685,/g3t1_3,,running
Status,1327,21003147945,/g3t1_3,,success
Status,1328,21004030672,/g3t1_1,,running
Status,1329,21004133252,/g3t1_1,,success
Status,1330,21012626821,/g4t1,,fail
Status,1331,21030277228,/g3t1_2,,running
Status,1332,21030435599,/g3t1_2,,success
Status,1333,21032774779,/g4t1,,success
Status,1334,21053664380,/g4t1,,success
Status,1335,21074224272,/g4t1,,success
Status,1336,21093924606,/g4t1,,success
Status,1337,21103655885,/g3t1_3,,running
Status,1338,21104083444,/g3t1_3,,success
Status,1339,21104628241,/g3t1_1,,running
Status,1340,21105276112,/g3t1_1,,success
Status,1341,21113816271,/g4t1,,fail
Status,1342,21130792837,/g3t1_2,,running
Status,1343,21130847248,/g3t1_2,,success
Status,1344,21133982679,/g4t1,,fail
Status,1345,21154281730,/g4t1,,success
Status,1346,21174252343,/g4t1,,success
Status,1347,21194441315,/g4t1,,success
Status,1348,21203844684,/g3t1_3,,running
Status,1349,21204738150,/g3t1_3,,success
Status,1350,21204978691,/g3t1_1,,running
Status,1351,21205324471,/g3t1_1,,success
Status,1352,21214433079,/g4t1,,fail
Status,1353,21230558955,/g3t1_2,,running
Status,1354,21231112363,/g3t1_2,,success
Status,1355,21234360642,/g4t1,,success
Status,1356,21254678113,/g4t1,,success
Status,1357,21274761057,/g4t1,,success
Status,1358,21294994238,/g4t1,,success
Status,1359,21304108920,/g3t1_3,,running
Status,1360,21304360182,/g3t1_3,,success
Status,1361,21304626927,/g3t1_1,,running
Status,1362,21305150918,/g3t1_1,,success
Status,1363,21315089881,/g4t1,,fail
Status,1364,21331272229,/g3t1_2,,running
Status,1365,21331989210,/g3t1_2,,success
Status,1366,21335017122,/g4t1,,fail
Status,1367,21355394101,/g4t1,,success
Status,1368,21375385179,/g4t1,,success
Status,1369,21395819392,/g4t1,,success
Status,1370,21404023773,/g3t1_3,,running
Status,1371,21404551887,/g3t1_3,,success
Status,1372,21405124398,/g3t1_1,,running
Status,1373,21405477279,/g3t1_1,,success
Status,1374,21415692894,/g4t1,,fail
Status,1375,21430992006,/g3t1_2,,running
Status,1376,21431776777,/g3t1_2,,success
Status,1377,21435749920,/g4t1,,success
Status,1378,21455996257,/g4t1,,success
Status,1379,21476359503,/g4t1,,success
Status,1380,21496218273,/g4t1,,success
Status,1381,21504242260,/g3t1_3,,running
Status,1382,21504331257,/g3t1_3,,success
Status,1383,21504517973,/g3t1_1,,running
Status,1384,21505315394,/g3t1_1,,success
Status,1385,21515548822,/g4t1,,fail
Status,1386,21531003582,/g3t1_2,,running
Status,1387,21531045580,/g3t1_2,,success
Status,1388,21535588634,/g4t1,,fail
Status,1389,21555968627,/g4t1,,success
Status,1390,21575687417,/g4t1,,success
Status,1391,21595776067,/g4t1,,success
Status,1392,21604191203,/g3t1_3,,running
Status,1393,21604230089,/g3t1_3,,success
Status,1394,21604826695,/g3t1_1,,running
Status,1395,21605083452,/g3t1_1,,success
Status,1396,21615936534,/g4t1,,fail
Status,1397,21630899843,/g3t1_2,,running
Status,1398,21631272583,/g3t1_2,,success
Status,1399,21636500430,/g4t1,,success
Status,1400,21656613056,/g4t1,,success
Status,1401,21676817630,/g4t1,,success
Status,1402,21696889189,/g4t1,,success
Status,1403,21704105772,/g3t1_3,,running
Status,1404,21704487180,/g3t1_3,,success
Status,1405,21704944629,/g3t1_1,,running
Status,1406,21705277876,/g3t1_1,,success
Status,1407,21717647896,/g4t1,,fail
Status,1408,21731333683,/g3t1_2,,running
Status,1409,21731550790,/g3t1_2,,success
Status,1410,21737136337,/g4t1,,fail
Status,1411,21757256101,/g4t1,,success
Status,1412,21777503242,/g4t1,,success
Status,1413,21797694272,/g4t1,,success
Status,1414,21804658662,/g3t1_3,,running
Status,1415,21805629746,/g3t1_3,,success
Status,1416,21805715784,/g3t1_1,,running
Status,1417,21806621476,/g3t1_1,,success
Status,1418,21817745313,/g4t1,,fail
Status,1419,21832084508,/g3t1_2,,running
Status,1420,21832730451,/g3t1_2,,success
Status,1421,21837776304,/g4t1,,success
Status,1422,21858586886,/g4t1,,success
Status,1423,21878448181,/g4t1,,success
Status,1424,21898742575,/g4t1,,success
Status,1425,21904796342,/g3t1_3,,running
Status,1426,21905398929,/g3t1_3,,success
Status,1427,21905457113,/g3t1_1,,running
Status,1428,21905755753,/g3t1_1,,success
Status,1429,21918790088,/g4t1,,fail
Status,1430,21931142342,/g3t1_2,,running
Status,1431,21931167323,/g3t1_2,,success
Status,1432,21938240608,/g4t1,,fail
Status,1433,21958375022,/g4t1,,success
Status,1434,21978509731,/g4t1,,success
Status,1435,21998503626,/g4t1,,success
Status,1436,22004132381,/g3t1_3,,running
Status,1437,22004157595,/g3t1_3,,success
Status,1438,22004847344,/g3t1_1,,running
Status,1439,22005054638,/g3t1_1,,success
Status,1440,22018676613,/g4t1,,fail
Status,1441,22031141555,/g3t1_2,,running
Status,1442,22031319783,/g3t1_2,,success
Status,1443,22038760943,/g4t1,,success
Status,1444,22059219113,/g4t1,,success
Status,1445,22080003210,/g4t1,,success
Status,1446,22099820090,/g4t1,,success
Status,1447,22104875814,/g3t1_3,,running
Status,1448,22106081353,/g3t1_1,,running
Status,1449,22106196866,/g3t1_3,,success
Status,1450,22106419407,/g3t1_1,,success
Status,1451,22119960135,/g4t1,,fail
Status,1452,22132162980,/g3t1_2,,running
Status,1453,22132710451,/g3t1_2,,success
Status,1454,22139749743,/g4t1,,fail
Status,1455,22159500402,/g4t1,,success
Status,1456,22179664312,/g4t1,,success
Status,1457,22200360603,/g4t1,,success
Status,1458,22204554625,/g3t1_3,,running
Status,1459,22204776819,/g3t1_3,,success
Status,1460,22205385110,/g3t1_1,,running
Status,1461,22205578491,/g3t1_1,,success
Status,1462,22220256268,/g4t1,,fail
Status,1463,22231827891,/g3t1_2,,running
Status,1464,22232181503,/g3t1_2,,success
Status,1465,22240627271,/g4t1,,success
Status,1466,22260784690,/g4t1,,success
Status,1467,22280825795,/g4t1,,success
Status,1468,22301062254,/g4t1,,success
Status,1469,22305009835,/g3t1_3,,running
Status,1470,22305818290,/g3t1_3,,success
Status,1471,22305875897,/g3t1_1,,running
Status,1472,22306287064,/g3t1_1,,success
Status,1473,22321113343,/g4t1,,fail
Status,1474,22332237447,/g3t1_2,,running
Status,1475,22332582398,/g3t1_2,,success
Status,1476,22341142728,/g4t1,,fail
Status,1477,22361515684,/g4t1,,success
Status,1478,22381029704,/g4t1,,success
Status,1479,22401473977,/g4t1,,success
Status,1480,22406048202,/g3t1_3,,running
Status,1481,22406454519,/g3t1_3,,success
Status,1482,22406555430,/g3t1_1,,running
Status,1483,22406628973,/g3t1_1,,success
Status,1484,22421772263,/g4t1,,fail
Status,1485,22432253152,/g3t1_2,,running
Status,1486,22432602523,/g3t1_2,,success
Status,1487,22442130427,/g4t1,,success
Status,1488,22462042408,/g4t1,,success
Status,1489,22482189395,/g4t1,,success
Status,1490,22502524658,/g4t1,,success
Status,1491,22504963370,/g3t1_3,,running
Status,1492,22505239802,/g3t1_3,,success
Status,1493,22505696590,/g3t1_1,,running
Status,1494,22506220887,/g3t1_1,,success
Status,1495,22522289317,/g4t1,,fail
Status,1496,22532460645,/g3t1_2,,running
Status,1497,22532539168,/g3t1_2,,success
Status,1498,22542256155,/g4t1,,fail
Status,1499,22562605793,/g4t1,,success
Status,1500,22582581217,/g4t1,,success
Status,1501,22602756381,/g4t1,,success
Status,1502,22605267893,/g3t1_3,,running
Status,1503,22605591717,/g3t1_3,,success
Status,1504,22606243648,/g3t1_1,,running
Status,1505,22606580504,/g3t1_1,,success
Status,1506,22622677364,/g4t1,,fail
Status,1507,22632243432,/g3t1_2,,running
Status,1508,22632783975,/g3t1_2,,success
Status,1509,22643018176,/g4t1,,success
Status,1510,22663316331,/g4t1,,success
Status,1511,22683211090,/g4t1,,success
Status,1512,22702988959,/g4t1,,success
Status,1513,22705063801,/g3t1_3,,running
Status,1514,22705249423,/g3t1_3,,success
Status,1515,22705858947,/g3t1_1,,running
Status,1516,22706091932,/g3t1_1,,success
Status,1517,22723050693,/g4t1,,fail
Status,1518,22732162518,/g3t1_2,,running
Status,1519,22732470937,/g3t1_2,,success
Status,1520,22743220793,/g4t1,,fail
Status,1521,22763643102,/g4t1,,success
Status,1522,22783775479,/g4t1,,success
Status,1523,22803823983,/g4t1,,success
Status,1524,22805370406,/g3t1_3,,running
Status,1525,22805899213,/g3t1_3,,success
Status,1526,22806189557,/g3t1_1,,running
Status,1527,22806473653,/g3t1_1,,success
Status,1528,22823960887,/g4t1,,fail
Status,1529,22832379800,/g3t1_2,,running
Status,1530,22832997933,/g3t1_2,,success
Status,1531,22843997240,/g4t1,,success
Status,1532,22864051224,/g4t1,,success
Status,1533,22884278908,/g4t1,,success
Status,1534,22904411640,/g4t1,,success
Status,1535,22905510120,/g3t1_3,,running
Status,1536,22905868611,/g3t1_3,,success
Status,1537,22906226050,/g3t1_1,,running
Status,1538,22906582840,/g3t1_1,,success
Status,1539,22924659669,/g4t1,,fail
Status,1540,22932582850,/g3t1_2,,running
Status,1541,22933318317,/g3t1_2,,success
Status,1542,22944696308,/g4t1,,fail
Status,1543,22964786230,/g4t1,,success
Status,1544,22985082133,/g4t1,,success
Status,1545,23004497628,/g4t1,,success
Status,1546,23005075103,/g3t1_3,,running
Status,1547,23005330650,/g3t1_3,,success
Status,1548,23005784038,/g3t1_1,,running
