
Status,2,20706318617,/g4t1,,init
Status,3,25615224918,/g3t1_2,,init
Status,5,25622549218,/g3t1_2,,init
Status,6,25622571177,/g3t1_2,,running
Status,7,25623145070,/g3t1_2,,success
Status,8,25823365595,/g3t1_2,,running
Status,9,25824068948,/g3t1_2,,success
Status,10,26023527822,/g3t1_2,,running
Status,11,26023975764,/g3t1_2,,success
Status,12,26223624224,/g3t1_2,,running
Status,13,26224049599,/g3t1_2,,success
Status,14,26423691595,/g3t1_2,,running
Status,15,26424159443,/g3t1_2,,success
Status,16,26623926865,/g3t1_2,,running
Status,17,26624613217,/g3t1_2,,success
Status,18,26718000459,/g4t1,,success
Status,19,26824026692,/g3t1_2,,running
Status,20,26824708539,/g3t1_2,,success
Status,21,27024358008,/g3t1_2,,running
Status,22,27024716411,/g3t1_2,,success
Status,23,27224474261,/g3t1_2,,running
Status,24,27224840883,/g3t1_2,,success
Status,25,27424788805,/g3t1_2,,running
Status,26,27425026177,/g3t1_2,,success
Status,27,27624754607,/g3t1_2,,running
Status,28,27625240291,/g3t1_2,,success
Status,29,27718271944,/g4t1,,success
Status,30,27825055317,/g3t1_2,,running
Status,31,27825514485,/g3t1_2,,success
Status,32,28025110316,/g3t1_2,,running
Status,33,28025402017,/g3t1_2,,success
Status,34,28225347525,/g3t1_2,,running
Status,35,28225806131,/g3t1_2,,success
Status,36,28425421395,/g3t1_2,,running
Status,37,28425770660,/g3t1_2,,success
Status,38,28625382718,/g3t1_2,,running
Status,39,28625790232,/g3t1_2,,success
Status,40,28717596472,/g4t1,,success
Status,41,28825616740,/g3t1_2,,running
Status,42,28825953070,/g3t1_2,,success
Status,43,29025142945,/g3t1_2,,running
Status,44,29025258515,/g3t1_2,,success
Status,45,29225813397,/g3t1_2,,running
Status,46,29226218524,/g3t1_2,,success
Status,47,29425504666,/g3t1_2,,running
Status,48,29425914626,/g3t1_2,,success
Status,49,29625606523,/g3t1_2,,running
Status,50,29625652078,/g3t1_2,,success
Status,51,29717855491,/g4t1,,success
Status,52,29826129692,/g3t1_2,,running
Status,53,29827111661,/g3t1_2,,success
Status,54,30025622566,/g3t1_2,,running
Status,55,30025801403,/g3t1_2,,success
Status,56,30225769721,/g3t1_2,,running
Status,57,30225820177,/g3t1_2,,success
Status,58,30425773688,/g3t1_2,,running
Status,59,30425962991,/g3t1_2,,success
Status,60,30626044217,/g3t1_2,,running
Status,61,30626378621,/g3t1_2,,success
Status,62,30717802021,/g4t1,,success
Status,63,30826023853,/g3t1_2,,running
Status,64,30826044846,/g3t1_2,,success
Status,65,31026358036,/g3t1_2,,running
Status,66,31026397905,/g3t1_2,,success
Status,67,31226310407,/g3t1_2,,running
Status,68,31226512673,/g3t1_2,,success
Status,69,31427005226,/g3t1_2,,running
Status,70,31427323868,/g3t1_2,,success
Status,71,31626784691,/g3t1_2,,running
Status,72,31626946754,/g3t1_2,,success
Status,73,31717889514,/g4t1,,success
Status,74,31827189867,/g3t1_2,,running
Status,75,31827662691,/g3t1_2,,success
Status,76,32027293859,/g3t1_2,,running
Status,77,32027783001,/g3t1_2,,success
Status,78,32227815529,/g3t1_2,,running
Status,79,32228585856,/g3t1_2,,success
Status,80,32427577023,/g3t1_2,,running
Status,81,32427936799,/g3t1_2,,success
Status,82,32628064874,/g3t1_2,,running
Status,83,32628438780,/g3t1_2,,success
Status,84,32718833075,/g4t1,,success
Status,85,32827598087,/g3t1_2,,running
Status,86,32827957824,/g3t1_2,,success
Status,87,33028125229,/g3t1_2,,running
Status,88,33028199134,/g3t1_2,,success
Status,89,33228309421,/g3t1_2,,running
Status,90,33229305937,/g3t1_2,,success
Status,91,33428583788,/g3t1_2,,running
Status,92,33429037681,/g3t1_2,,success
Status,93,33628683260,/g3t1_2,,running
Status,94,33628752879,/g3t1_2,,success
Status,95,33718300437,/g4t1,,success
Status,96,33828632519,/g3t1_2,,running
Status,97,33829046199,/g3t1_2,,success
Status,98,34028865924,/g3t1_2,,running
Status,99,34028948844,/g3t1_2,,success
Status,100,34228868481,/g3t1_2,,running
Status,101,34229369147,/g3t1_2,,success
Status,102,34429235492,/g3t1_2,,running
Status,103,34429710619,/g3t1_2,,success
Status,104,34629221843,/g3t1_2,,running
Status,105,34629987313,/g3t1_2,,success
Status,106,34718423492,/g4t1,,success
Status,107,34829407933,/g3t1_2,,running
Status,108,34829476278,/g3t1_2,,success
Status,109,35028888565,/g3t1_2,,running
Status,110,35028995775,/g3t1_2,,success
Status,111,35229740024,/g3t1_2,,running
Status,112,35230174702,/g3t1_2,,success
Status,113,35429942179,/g3t1_2,,running
Status,114,35430542264,/g3t1_2,,success
Status,115,35630223034,/g3t1_2,,running
Status,116,35630792068,/g3t1_2,,success
Status,117,35718677803,/g4t1,,success
Status,118,35830379664,/g3t1_2,,running
Status,119,35830599388,/g3t1_2,,success
Status,120,36030894836,/g3t1_2,,running
Status,121,36031615699,/g3t1_2,,success
Status,122,36230173805,/g3t1_2,,running
Status,123,36230197111,/g3t1_2,,success
Status,124,36430995657,/g3t1_2,,running
Status,125,36431065786,/g3t1_2,,success
Status,126,36630336577,/g3t1_2,,running
Status,127,36630364205,/g3t1_2,,success
Status,128,36718938622,/g4t1,,success
Status,129,36830880272,/g3t1_2,,running
Status,130,36831337520,/g3t1_2,,success
Status,131,37031488336,/g3t1_2,,running
Status,132,37032083024,/g3t1_2,,success
Status,133,37230973351,/g3t1_2,,running
Status,134,37231102222,/g3t1_2,,success
Status,135,37431671071,/g3t1_2,,running
Status,136,37432475437,/g3t1_2,,success
Status,137,37631246279,/g3t1_2,,running
Status,138,37631387408,/g3t1_2,,success
Status,139,37719772735,/g4t1,,success
Status,140,37831262715,/g3t1_2,,running
Status,141,37831282985,/g3t1_2,,success
Status,142,38031431803,/g3t1_2,,running
Status,143,38031464045,/g3t1_2,,success
Status,144,38232229186,/g3t1_2,,running
Status,145,38232691292,/g3t1_2,,success
Status,146,38431636643,/g3t1_2,,running
Status,147,38431802071,/g3t1_2,,success
Status,148,38631824463,/g3t1_2,,running
Status,149,38632042007,/g3t1_2,,success
Status,150,38719235883,/g4t1,,success
Status,151,38831999906,/g3t1_2,,running
Status,152,38832493809,/g3t1_2,,success
Status,153,39032484587,/g3t1_2,,running
Status,154,39032890393,/g3t1_2,,success
Status,155,39232094144,/g3t1_2,,running
Status,156,39232239988,/g3t1_2,,success
Status,157,39433226779,/g3t1_2,,running
Status,158,39433290202,/g3t1_2,,success
Status,159,39633313592,/g3t1_2,,running
Status,160,39633451708,/g3t1_2,,success
Status,161,39719166551,/g4t1,,success
Status,162,39833489317,/g3t1_2,,running
Status,163,39834293563,/g3t1_2,,success
Status,164,40033463176,/g3t1_2,,running
Status,165,40034049561,/g3t1_2,,success
Status,166,40232884998,/g3t1_2,,running
Status,167,40233030496,/g3t1_2,,success
Status,168,40433507770,/g3t1_2,,running
Status,169,40434577831,/g3t1_2,,success
Status,170,40633627750,/g3t1_2,,running
Status,171,40634581380,/g3t1_2,,success
Status,172,40719686379,/g4t1,,success
Status,173,40833282716,/g3t1_2,,running
Status,174,40833485178,/g3t1_2,,success
Status,175,41033429660,/g3t1_2,,running
Status,176,41033459080,/g3t1_2,,success
Status,177,41233964382,/g3t1_2,,running
Status,178,41234520362,/g3t1_2,,success
Status,179,41434343086,/g3t1_2,,running
Status,180,41434425222,/g3t1_2,,success
Status,181,41634168159,/g3t1_2,,running
Status,182,41634696668,/g3t1_2,,success
Status,183,41719939667,/g4t1,,success
Status,184,41833696996,/g3t1_2,,running
Status,185,41833717418,/g3t1_2,,success
Status,186,42034385994,/g3t1_2,,running
Status,187,42035301199,/g3t1_2,,success
Status,188,42234994481,/g3t1_2,,running
Status,189,42235887248,/g3t1_2,,success
Status,190,42435113576,/g3t1_2,,running
Status,191,42435843092,/g3t1_2,,success
Status,192,42635169997,/g3t1_2,,running
Status,193,42635820071,/g3t1_2,,success
Status,194,42720017414,/g4t1,,success
Status,195,42835107486,/g3t1_2,,running
Status,196,42835729901,/g3t1_2,,success
Status,197,43035659093,/g3t1_2,,running
Status,198,43035950357,/g3t1_2,,success
Status,199,43235710555,/g3t1_2,,running
Status,200,43236318884,/g3t1_2,,success
Status,201,43435963487,/g3t1_2,,running
Status,202,43436536189,/g3t1_2,,success
Status,203,43635857539,/g3t1_2,,running
Status,204,43636141744,/g3t1_2,,success
Status,205,43720201964,/g4t1,,success
Status,206,43836070646,/g3t1_2,,running
Status,207,43836879013,/g3t1_2,,success
Status,208,44036315699,/g3t1_2,,running
Status,209,44036719169,/g3t1_2,,success
Status,210,44236575519,/g3t1_2,,running
Status,211,44237200738,/g3t1_2,,success
Status,212,44436868275,/g3t1_2,,running
Status,213,44437114779,/g3t1_2,,success
Status,214,44636777572,/g3t1_2,,running
Status,215,44637062838,/g3t1_2,,success
Status,216,44720341587,/g4t1,,success
Status,217,44837007071,/g3t1_2,,running
Status,218,44837454645,/g3t1_2,,success
Status,219,45037233220,/g3t1_2,,running
Status,220,45037702098,/g3t1_2,,success
Status,221,45237375310,/g3t1_2,,running
Status,222,45238050440,/g3t1_2,,success
Status,223,45437331115,/g3t1_2,,running
Status,224,45438129832,/g3t1_2,,success
Status,225,45637885261,/g3t1_2,,running
Status,226,45637954946,/g3t1_2,,success
Status,227,45720533526,/g4t1,,success
Status,228,45837916792,/g3t1_2,,running
Status,229,45838368919,/g3t1_2,,success
Status,230,46038331702,/g3t1_2,,running
Status,231,46038850311,/g3t1_2,,success
Status,232,46238537592,/g3t1_2,,running
Status,233,46238876642,/g3t1_2,,success
Status,234,46438297721,/g3t1_2,,running
Status,235,46438944420,/g3t1_2,,success
Status,236,46637870669,/g3t1_2,,running
Status,237,46637935803,/g3t1_2,,success
Status,238,46719783029,/g4t1,,success
Status,239,46838054085,/g3t1_2,,running
Status,240,46838071589,/g3t1_2,,success
Status,241,47038024801,/g3t1_2,,running
Status,242,47038041469,/g3t1_2,,success
Status,243,47238113044,/g3t1_2,,running
Status,244,47238208824,/g3t1_2,,success
Status,245,47438275202,/g3t1_2,,running
Status,246,47438292534,/g3t1_2,,success
Status,247,47638379172,/g3t1_2,,running
Status,248,47638397987,/g3t1_2,,success
Status,249,47719959913,/g4t1,,success
Status,250,47839258250,/g3t1_2,,running
Status,251,47839541805,/g3t1_2,,success
Status,252,48039487763,/g3t1_2,,running
Status,253,48039551840,/g3t1_2,,success
Status,254,48239403733,/g3t1_2,,running
Status,255,48239734002,/g3t1_2,,success
Status,256,48439595465,/g3t1_2,,running
Status,257,48439876739,/g3t1_2,,success
Status,258,48638975534,/g3t1_2,,running
Status,259,48639135659,/g3t1_2,,success
Status,260,48719937812,/g4t1,,success
Status,261,48839804169,/g3t1_2,,running
Status,262,48840195308,/g3t1_2,,success
Status,263,49040063785,/g3t1_2,,running
Status,264,49040137085,/g3t1_2,,success
Status,265,49239362201,/g3t1_2,,running
Status,266,49239386044,/g3t1_2,,success
Status,267,49440127020,/g3t1_2,,running
Status,268,49440696614,/g3t1_2,,success
Status,269,49640255912,/g3t1_2,,running
Status,270,49640904236,/g3t1_2,,success
Status,271,49720171733,/g4t1,,success
Status,272,49840018419,/g3t1_2,,running
Status,273,49840263640,/g3t1_2,,success
Status,274,50040122378,/g3t1_2,,running
Status,275,50040158272,/g3t1_2,,success
Status,276,50240685092,/g3t1_2,,running
Status,277,50241387307,/g3t1_2,,success
Status,278,50440495670,/g3t1_2,,running
Status,279,50440809815,/g3t1_2,,success
Status,280,50640920879,/g3t1_2,,running
Status,281,50641225202,/g3t1_2,,success
Status,282,50721056802,/g4t1,,success
Status,283,50841373129,/g3t1_2,,running
Status,284,50841829181,/g3t1_2,,success
Status,285,51041824338,/g3t1_2,,running
Status,286,51042246795,/g3t1_2,,success
Status,287,51241857129,/g3t1_2,,running
Status,288,51242142147,/g3t1_2,,success
Status,289,51442082358,/g3t1_2,,running
Status,290,51442555442,/g3t1_2,,success
Status,291,51642265025,/g3t1_2,,running
Status,292,51643020864,/g3t1_2,,success
Status,293,51721249804,/g4t1,,success
Status,294,51842537304,/g3t1_2,,running
Status,295,51842748377,/g3t1_2,,success
Status,296,52042766119,/g3t1_2,,running
Status,297,52043091137,/g3t1_2,,success
Status,298,52243015576,/g3t1_2,,running
Status,299,52243553957,/g3t1_2,,success
Status,300,52442973902,/g3t1_2,,running
Status,301,52443316187,/g3t1_2,,success
Status,302,52643447988,/g3t1_2,,running
Status,303,52644242121,/g3t1_2,,success
Status,304,52721370618,/g4t1,,success
Status,305,52843831393,/g3t1_2,,running
Status,306,52844395865,/g3t1_2,,success
Status,307,53043776111,/g3t1_2,,running
Status,308,53044283862,/g3t1_2,,success
Status,309,53243196381,/g3t1_2,,running
Status,310,53243498264,/g3t1_2,,success
Status,311,53443718164,/g3t1_2,,running
Status,312,53444388748,/g3t1_2,,success
Status,313,53644579985,/g3t1_2,,running
Status,314,53644671933,/g3t1_2,,success
Status,315,53721656235,/g4t1,,success
Status,316,53844289640,/g3t1_2,,running
Status,317,53844667997,/g3t1_2,,success
Status,318,54044540387,/g3t1_2,,running
Status,319,54045061745,/g3t1_2,,success
Status,320,54244929044,/g3t1_2,,running
Status,321,54245553364,/g3t1_2,,success
Status,322,54444867427,/g3t1_2,,running
Status,323,54445327329,/g3t1_2,,success
Status,324,54645159120,/g3t1_2,,running
Status,325,54646166486,/g3t1_2,,success
Status,326,54721736863,/g4t1,,success
Status,327,54845059034,/g3t1_2,,running
Status,328,54845856809,/g3t1_2,,success
Status,329,55045227909,/g3t1_2,,running
Status,330,55045530839,/g3t1_2,,success
Status,332,55245396320,/g3t1_2,,running
Status,333,55245624886,/g3t1_2,,success
Status,335,55445549438,/g3t1_2,,running
Status,336,55446001664,/g3t1_2,,success
Status,338,55646400509,/g3t1_2,,running
Status,339,55646759502,/g3t1_2,,success
Status,340,55722129449,/g4t1,,success
Status,342,55846387370,/g3t1_2,,running
Status,343,55846991749,/g3t1_2,,success
Status,345,56046421822,/g3t1_2,,running
Status,346,56047019211,/g3t1_2,,fail
Status,349,56246821743,/g3t1_2,,running
Status,350,56247309608,/g3t1_2,,success
Status,352,56446941378,/g3t1_2,,running
Status,353,56447575496,/g3t1_2,,success
Status,355,56647101664,/g3t1_2,,running
Status,356,56648087931,/g3t1_2,,success
Status,357,56722282755,/g4t1,,success
Status,359,56847350801,/g3t1_2,,running
Status,360,56847713850,/g3t1_2,,success
Status,362,57047601456,/g3t1_2,,running
Status,363,57048001992,/g3t1_2,,success
Status,365,57247593842,/g3t1_2,,running
Status,366,57248099384,/g3t1_2,,success
Status,368,57447845090,/g3t1_2,,running
Status,369,57448576697,/g3t1_2,,success
Status,371,57647801952,/g3t1_2,,running
Status,372,57648339702,/g3t1_2,,success
Status,373,57722616331,/g4t1,,success
Status,375,57847973003,/g3t1_2,,running
Status,376,57848511761,/g3t1_2,,success
Status,378,58048259071,/g3t1_2,,running
Status,379,58048693087,/g3t1_2,,success
Status,381,58248697473,/g3t1_2,,running
Status,382,58248923679,/g3t1_2,,success
Status,385,58448767229,/g3t1_2,,running
Status,386,58449158889,/g3t1_2,,success
Status,388,58649343034,/g3t1_2,,running
Status,389,58649424331,/g3t1_2,,success
Status,390,58722763294,/g4t1,,success
Status,392,58849337784,/g3t1_2,,running
Status,393,58849800434,/g3t1_2,,success
Status,395,59049594041,/g3t1_2,,running
Status,396,59050130579,/g3t1_2,,success
Status,398,59250172947,/g3t1_2,,running
Status,399,59250259930,/g3t1_2,,success
Status,401,59450061703,/g3t1_2,,running
Status,402,59450141647,/g3t1_2,,success
Status,404,59650180529,/g3t1_2,,running
Status,405,59651238157,/g3t1_2,,success
Status,406,59722929705,/g4t1,,success
Status,408,59850699186,/g3t1_2,,running
Status,409,59851295476,/g3t1_2,,success
Status,411,60050843941,/g3t1_2,,running
Status,412,60051705376,/g3t1_2,,success
Status,414,60251022723,/g3t1_2,,running
Status,415,60251627800,/g3t1_2,,success
Status,417,60450901808,/g3t1_2,,running
Status,418,60451721423,/g3t1_2,,success
Status,421,60651225560,/g3t1_2,,running
Status,422,60651801432,/g3t1_2,,success
Status,423,60722588043,/g4t1,,success
Status,425,60851348872,/g3t1_2,,running
Status,426,60852149562,/g3t1_2,,success
Status,428,61051687442,/g3t1_2,,running
Status,429,61052242733,/g3t1_2,,success
Status,431,61251756799,/g3t1_2,,running
Status,432,61252310992,/g3t1_2,,success
Status,434,61452196495,/g3t1_2,,running
Status,435,61452504681,/g3t1_2,,success
Status,437,61651670685,/g3t1_2,,running
Status,438,61651715648,/g3t1_2,,success
Status,439,61722258293,/g4t1,,success
Status,441,61851288217,/g3t1_2,,running
Status,442,61851431118,/g3t1_2,,success
Status,444,62052453968,/g3t1_2,,running
Status,445,62052937265,/g3t1_2,,success
Status,447,62252298944,/g3t1_2,,running
Status,448,62252875975,/g3t1_2,,success
Status,450,62452598126,/g3t1_2,,running
Status,451,62453163403,/g3t1_2,,success
Status,453,62652713972,/g3t1_2,,running
Status,454,62653367790,/g3t1_2,,success
Status,456,62723535357,/g4t1,,success
Status,458,62853285960,/g3t1_2,,running
Status,459,62853779248,/g3t1_2,,success
Status,461,63053443766,/g3t1_2,,running
Status,462,63053806311,/g3t1_2,,success
Status,464,63253286773,/g3t1_2,,running
Status,465,63254640096,/g3t1_2,,success
Status,467,63453573841,/g3t1_2,,running
Status,468,63453876204,/g3t1_2,,success
Status,470,63653645853,/g3t1_2,,running
Status,471,63654124487,/g3t1_2,,success
Status,472,63723409783,/g4t1,,success
Status,474,63854039341,/g3t1_2,,running
Status,475,63854340599,/g3t1_2,,success
Status,477,64054638868,/g3t1_2,,running
Status,478,64055178982,/g3t1_2,,success
Status,480,64254847751,/g3t1_2,,running
Status,481,64254924752,/g3t1_2,,success
Status,483,64454857091,/g3t1_2,,running
Status,484,64455201972,/g3t1_2,,success
Status,486,64654662954,/g3t1_2,,running
Status,487,64655368878,/g3t1_2,,success
Status,488,64723777845,/g4t1,,success
Status,490,64855084084,/g3t1_2,,running
Status,491,64855153472,/g3t1_2,,success
Status,494,65055119824,/g3t1_2,,running
Status,495,65055560415,/g3t1_2,,success
Status,497,65255417233,/g3t1_2,,running
Status,498,65255962889,/g3t1_2,,success
Status,500,65455694815,/g3t1_2,,running
Status,501,65456489372,/g3t1_2,,success
Status,503,65655963442,/g3t1_2,,running
Status,504,65657109292,/g3t1_2,,success
Status,505,65724006883,/g4t1,,success
Status,507,65856175572,/g3t1_2,,running
Status,508,65856256434,/g3t1_2,,fail
Status,510,66055787197,/g3t1_2,,running
Status,511,66056755590,/g3t1_2,,success
Status,513,66256404066,/g3t1_2,,running
Status,514,66257348178,/g3t1_2,,success
Status,516,66456472410,/g3t1_2,,running
Status,517,66456917389,/g3t1_2,,success
Status,519,66656682360,/g3t1_2,,running
Status,520,66657132291,/g3t1_2,,success
Status,521,66723966430,/g4t1,,success
Status,523,66856838827,/g3t1_2,,running
Status,524,66857287220,/g3t1_2,,success
Status,526,67056978364,/g3t1_2,,running
Status,527,67057688267,/g3t1_2,,success
Status,530,67257028865,/g3t1_2,,running
Status,531,67257520966,/g3t1_2,,success
Status,533,67457168290,/g3t1_2,,running
Status,534,67457681154,/g3t1_2,,success
Status,536,67657536772,/g3t1_2,,running
Status,537,67657610156,/g3t1_2,,fail
Status,538,67724196795,/g4t1,,success
Status,540,67857758207,/g3t1_2,,running
Status,541,67858374241,/g3t1_2,,success
Status,543,68058022351,/g3t1_2,,running
Status,544,68058194336,/g3t1_2,,success
Status,546,68258294410,/g3t1_2,,running
Status,547,68258952242,/g3t1_2,,success
Status,549,68458261004,/g3t1_2,,running
Status,550,68458340051,/g3t1_2,,success
Status,552,68658555053,/g3t1_2,,running
Status,553,68659095297,/g3t1_2,,success
Status,554,68724348485,/g4t1,,success
Status,556,68859094007,/g3t1_2,,running
Status,557,68859638758,/g3t1_2,,success
Status,559,69059236751,/g3t1_2,,running
Status,560,69059878410,/g3t1_2,,success
Status,562,69259422505,/g3t1_2,,running
Status,563,69259963431,/g3t1_2,,success
Status,566,69459479842,/g3t1_2,,running
Status,567,69459850527,/g3t1_2,,success
Status,569,69659664018,/g3t1_2,,running
Status,570,69659750287,/g3t1_2,,success
Status,571,69723656459,/g4t1,,success
Status,573,69860184812,/g3t1_2,,running
Status,574,69860466933,/g3t1_2,,success
Status,576,70059937816,/g3t1_2,,running
Status,577,70060644959,/g3t1_2,,success
Status,579,70259758588,/g3t1_2,,running
Status,580,70259803628,/g3t1_2,,success
Status,582,70460088027,/g3t1_2,,running
Status,583,70460194270,/g3t1_2,,fail
Status,585,70659434889,/g3t1_2,,running
Status,586,70659531803,/g3t1_2,,success
Status,587,70723814969,/g4t1,,success
Status,589,70860498274,/g3t1_2,,running
Status,590,70860568032,/g3t1_2,,success
Status,592,71060606336,/g3t1_2,,running
Status,593,71060671020,/g3t1_2,,fail
Status,595,71260621765,/g3t1_2,,running
Status,596,71261083683,/g3t1_2,,success
Status,598,71461295035,/g3t1_2,,running
Status,599,71461707685,/g3t1_2,,success
Status,602,71660512516,/g3t1_2,,running
Status,603,71660537058,/g3t1_2,,success
Status,604,71723955876,/g4t1,,success
Status,606,71861773418,/g3t1_2,,running
Status,607,71862089740,/g3t1_2,,success
Status,609,72061742351,/g3t1_2,,running
Status,610,72062268604,/g3t1_2,,success
Status,612,72261691845,/g3t1_2,,running
Status,613,72262154297,/g3t1_2,,success
Status,615,72461839655,/g3t1_2,,running
Status,616,72462096372,/g3t1_2,,success
Status,618,72661816347,/g3t1_2,,running
Status,619,72662231587,/g3t1_2,,success
Status,620,72724929036,/g4t1,,success
Status,622,72862065284,/g3t1_2,,running
Status,623,72862975514,/g3t1_2,,success
Status,625,73062690433,/g3t1_2,,running
Status,626,73063320475,/g3t1_2,,success
Status,628,73262274753,/g3t1_2,,running
Status,629,73262733313,/g3t1_2,,success
Status,631,73462864905,/g3t1_2,,running
Status,632,73463323449,/g3t1_2,,success
Status,634,73662767506,/g3t1_2,,running
Status,635,73663218237,/g3t1_2,,success
Status,637,73725165630,/g4t1,,success
Status,639,73863225911,/g3t1_2,,running
Status,640,73864053971,/g3t1_2,,success
Status,642,74063170382,/g3t1_2,,running
Status,643,74063709789,/g3t1_2,,success
Status,645,74263561481,/g3t1_2,,running
Status,646,74264139669,/g3t1_2,,success
Status,648,74463831185,/g3t1_2,,running
Status,649,74464328950,/g3t1_2,,success
Status,651,74663933343,/g3t1_2,,running
Status,652,74664681211,/g3t1_2,,success
Status,653,74725148095,/g4t1,,success
Status,655,74864091671,/g3t1_2,,running
Status,656,74864880482,/g3t1_2,,success
Status,658,75063801863,/g3t1_2,,running
Status,659,75064524696,/g3t1_2,,success
Status,661,75263977878,/g3t1_2,,running
Status,662,75264699116,/g3t1_2,,success
Status,664,75464338008,/g3t1_2,,running
Status,665,75465051897,/g3t1_2,,success
Status,667,75664265006,/g3t1_2,,running
Status,668,75665073789,/g3t1_2,,success
Status,669,75725437713,/g4t1,,success
Status,671,75864338609,/g3t1_2,,running
Status,672,75864806785,/g3t1_2,,success
Status,675,76064835035,/g3t1_2,,running
Status,676,76065364852,/g3t1_2,,success
Status,678,76264784358,/g3t1_2,,running
Status,679,76264861767,/g3t1_2,,success
Status,681,76465306997,/g3t1_2,,running
Status,682,76465923164,/g3t1_2,,success
Status,684,76665422076,/g3t1_2,,running
Status,685,76666195278,/g3t1_2,,success
Status,686,76725904177,/g4t1,,success
Status,688,76865646526,/g3t1_2,,running
Status,689,76866129088,/g3t1_2,,success
Status,691,77065086276,/g3t1_2,,running
Status,692,77065133956,/g3t1_2,,success
Status,694,77265576355,/g3t1_2,,running
Status,695,77265991503,/g3t1_2,,success
Status,697,77466043420,/g3t1_2,,running
Status,698,77466686425,/g3t1_2,,success
Status,700,77666142087,/g3t1_2,,running
Status,701,77666876978,/g3t1_2,,success
Status,702,77725758758,/g4t1,,success
Status,704,77866120625,/g3t1_2,,running
Status,705,77866973974,/g3t1_2,,success
Status,707,78066416078,/g3t1_2,,running
Status,708,78067482027,/g3t1_2,,success
Status,711,78266948548,/g3t1_2,,running
Status,712,78267039230,/g3t1_2,,success
Status,714,78466939813,/g3t1_2,,running
Status,715,78467776852,/g3t1_2,,success
Status,717,78667310485,/g3t1_2,,running
Status,718,78667396633,/g3t1_2,,fail
Status,719,78725863889,/g4t1,,success
Status,721,78867285853,/g3t1_2,,running
Status,722,78867355267,/g3t1_2,,fail
Status,724,79067523135,/g3t1_2,,running
Status,725,79068561031,/g3t1_2,,success
Status,727,79267656727,/g3t1_2,,running
Status,728,79268160819,/g3t1_2,,success
Status,730,79467791082,/g3t1_2,,running
Status,731,79468216869,/g3t1_2,,success
Status,733,79667935513,/g3t1_2,,running
Status,734,79668520716,/g3t1_2,,success
Status,735,79726001737,/g4t1,,success
Status,737,79868431439,/g3t1_2,,running
Status,738,79868515006,/g3t1_2,,success
Status,740,80068216995,/g3t1_2,,running
Status,741,80068762659,/g3t1_2,,success
Status,743,80268284114,/g3t1_2,,running
Status,744,80268987760,/g3t1_2,,success
Status,747,80468393432,/g3t1_2,,running
Status,748,80468890153,/g3t1_2,,success
Status,750,80668770505,/g3t1_2,,running
Status,751,80669235752,/g3t1_2,,success
Status,752,80726036266,/g4t1,,success
Status,754,80869302235,/g3t1_2,,running
Status,755,80869819787,/g3t1_2,,success
Status,757,81069007033,/g3t1_2,,running
Status,758,81069614895,/g3t1_2,,success
Status,760,81269491486,/g3t1_2,,running
Status,761,81270141178,/g3t1_2,,success
Status,763,81469407084,/g3t1_2,,running
Status,764,81469765316,/g3t1_2,,success
Status,766,81669602897,/g3t1_2,,running
Status,767,81669696484,/g3t1_2,,success
Status,768,81726402709,/g4t1,,success
Status,770,81869540703,/g3t1_2,,running
Status,771,81869992562,/g3t1_2,,success
Status,773,82070157701,/g3t1_2,,running
Status,774,82071109538,/g3t1_2,,success
Status,776,82270346664,/g3t1_2,,running
Status,777,82270915985,/g3t1_2,,success
Status,779,82470678258,/g3t1_2,,running
Status,780,82470777159,/g3t1_2,,success
Status,783,82670534224,/g3t1_2,,running
Status,784,82670995589,/g3t1_2,,success
Status,785,82726431951,/g4t1,,success
Status,787,82870731225,/g3t1_2,,running
Status,788,82871172485,/g3t1_2,,success
Status,790,83070709371,/g3t1_2,,running
Status,791,83071285756,/g3t1_2,,success
Status,793,83270911149,/g3t1_2,,running
Status,794,83271546034,/g3t1_2,,success
Status,796,83471438498,/g3t1_2,,running
Status,797,83471772327,/g3t1_2,,success
Status,799,83671660735,/g3t1_2,,running
Status,800,83672184840,/g3t1_2,,success
Status,801,83726518259,/g4t1,,success
Status,803,83871830579,/g3t1_2,,running
Status,804,83872558059,/g3t1_2,,success
Status,806,84071057195,/g3t1_2,,running
Status,807,84071227039,/g3t1_2,,success
Status,809,84272092010,/g3t1_2,,running
Status,810,84272162997,/g3t1_2,,success
Status,812,84472321589,/g3t1_2,,running
Status,813,84472809074,/g3t1_2,,success
Status,815,84672573201,/g3t1_2,,running
Status,816,84672964785,/g3t1_2,,success
Status,818,84726664476,/g4t1,,success
Status,820,84872646275,/g3t1_2,,running
Status,821,84872991449,/g3t1_2,,success
Status,823,85072989166,/g3t1_2,,running
Status,824,85073897683,/g3t1_2,,success
Status,826,85273251293,/g3t1_2,,running
Status,827,85273735116,/g3t1_2,,success
Status,829,85473289586,/g3t1_2,,running
Status,830,85473911574,/g3t1_2,,success
Status,832,85673172056,/g3t1_2,,running
Status,833,85673560586,/g3t1_2,,success
Status,834,85726974501,/g4t1,,success
Status,836,85873758801,/g3t1_2,,running
Status,837,85874038645,/g3t1_2,,success
Status,839,86073965227,/g3t1_2,,running
Status,840,86074693537,/g3t1_2,,success
Status,842,86274347158,/g3t1_2,,running
Status,843,86274424707,/g3t1_2,,success
Status,845,86474728149,/g3t1_2,,running
Status,846,86474809679,/g3t1_2,,success
Status,848,86674802222,/g3t1_2,,running
Status,849,86674874741,/g3t1_2,,success
Status,850,86726789730,/g4t1,,success
Status,852,86874701608,/g3t1_2,,running
Status,853,86874769938,/g3t1_2,,success
Status,856,87075051593,/g3t1_2,,running
Status,857,87075789633,/g3t1_2,,success
Status,859,87275155849,/g3t1_2,,running
Status,860,87275625723,/g3t1_2,,success
Status,862,87475248730,/g3t1_2,,running
Status,863,87475991420,/g3t1_2,,success
Status,865,87675763097,/g3t1_2,,running
Status,866,87676057786,/g3t1_2,,success
Status,867,87726850154,/g4t1,,success
Status,869,87875687854,/g3t1_2,,running
Status,870,87875990826,/g3t1_2,,success
Status,872,88075519345,/g3t1_2,,running
Status,873,88075930232,/g3t1_2,,success
Status,875,88276073210,/g3t1_2,,running
Status,876,88276314315,/g3t1_2,,success
Status,878,88476032196,/g3t1_2,,running
Status,879,88476496107,/g3t1_2,,success
Status,881,88676304175,/g3t1_2,,running
Status,882,88677376413,/g3t1_2,,success
Status,883,88727007082,/g4t1,,success
Status,885,88876636484,/g3t1_2,,running
Status,886,88877269886,/g3t1_2,,success
Status,888,89076602326,/g3t1_2,,running
Status,889,89076815685,/g3t1_2,,success
Status,892,89276958428,/g3t1_2,,running
Status,893,89277368165,/g3t1_2,,success
Status,895,89477033900,/g3t1_2,,running
Status,896,89477530180,/g3t1_2,,success
Status,898,89677504658,/g3t1_2,,running
Status,899,89677943889,/g3t1_2,,success
Status,900,89727147500,/g4t1,,success
Status,902,89877562590,/g3t1_2,,running
Status,903,89877949092,/g3t1_2,,success
Status,905,90077825021,/g3t1_2,,running
Status,906,90078351937,/g3t1_2,,success
Status,908,90278309017,/g3t1_2,,running
Status,909,90278822369,/g3t1_2,,success
Status,911,90478622139,/g3t1_2,,running
Status,912,90478702474,/g3t1_2,,fail
Status,914,90678381125,/g3t1_2,,running
Status,915,90678802590,/g3t1_2,,success
Status,916,90727364785,/g4t1,,success
Status,918,90878663767,/g3t1_2,,running
Status,919,90879339919,/g3t1_2,,success
Status,921,91079175829,/g3t1_2,,running
Status,922,91079696540,/g3t1_2,,success
Status,924,91279165455,/g3t1_2,,running
Status,925,91279613284,/g3t1_2,,success
Status,928,91479552137,/g3t1_2,,running
Status,929,91480042759,/g3t1_2,,success
Status,931,91679830324,/g3t1_2,,running
Status,932,91679915494,/g3t1_2,,success
Status,933,91727520670,/g4t1,,success
Status,935,91880023668,/g3t1_2,,running
Status,936,91880322393,/g3t1_2,,success
Status,938,92079726488,/g3t1_2,,running
Status,939,92080872073,/g3t1_2,,success
Status,941,92280631300,/g3t1_2,,running
Status,942,92280797757,/g3t1_2,,success
Status,944,92480453217,/g3t1_2,,running
Status,945,92481250054,/g3t1_2,,success
Status,947,92680427155,/g3t1_2,,running
Status,948,92681097410,/g3t1_2,,success
Status,949,92727622990,/g4t1,,success
Status,951,92880705733,/g3t1_2,,running
Status,952,92881169217,/g3t1_2,,success
Status,954,93080776478,/g3t1_2,,running
Status,955,93081332405,/g3t1_2,,success
Status,957,93280685155,/g3t1_2,,running
Status,958,93281405712,/g3t1_2,,success
Status,960,93481277898,/g3t1_2,,running
Status,961,93481810006,/g3t1_2,,success
Status,964,93681182984,/g3t1_2,,running
Status,965,93681675695,/g3t1_2,,success
Status,966,93727811618,/g4t1,,success
Status,968,93881543662,/g3t1_2,,running
Status,969,93882162666,/g3t1_2,,success
Status,971,94081644681,/g3t1_2,,running
Status,972,94081713619,/g3t1_2,,success
Status,974,94281673710,/g3t1_2,,running
Status,975,94281888986,/g3t1_2,,success
Status,977,94481974335,/g3t1_2,,running
Status,978,94482530959,/g3t1_2,,success
Status,980,94682700155,/g3t1_2,,running
Status,981,94682792648,/g3t1_2,,fail
Status,982,94727719100,/g4t1,,success
Status,984,94882891321,/g3t1_2,,running
Status,985,94883467329,/g3t1_2,,success
Status,987,95082875988,/g3t1_2,,running
Status,988,95083694131,/g3t1_2,,success
Status,990,95283000428,/g3t1_2,,running
Status,991,95283290433,/g3t1_2,,success
Status,993,95483165814,/g3t1_2,,running
Status,994,95483700973,/g3t1_2,,success
Status,996,95683220796,/g3t1_2,,running
Status,997,95683791280,/g3t1_2,,success
Status,999,95727905300,/g4t1,,success
Status,1001,95883895575,/g3t1_2,,running
Status,1002,95883978505,/g3t1_2,,fail
Status,1004,96083807884,/g3t1_2,,running
Status,1005,96084088137,/g3t1_2,,success
Status,1007,96283983777,/g3t1_2,,running
Status,1008,96284847968,/g3t1_2,,success
Status,1010,96484244145,/g3t1_2,,running
Status,1011,96484573816,/g3t1_2,,success
Status,1013,96684428086,/g3t1_2,,running
Status,1014,96684932898,/g3t1_2,,success
Status,1015,96728034322,/g4t1,,success
Status,1017,96884414395,/g3t1_2,,running
Status,1018,96884928504,/g3t1_2,,success
Status,1020,97084534327,/g3t1_2,,running
Status,1021,97084603779,/g3t1_2,,success
Status,1023,97284912723,/g3t1_2,,running
Status,1024,97285016465,/g3t1_2,,success
Status,1026,97484956776,/g3t1_2,,running
Status,1027,97485620668,/g3t1_2,,success
Status,1029,97685580052,/g3t1_2,,running
Status,1030,97685661202,/g3t1_2,,success
Status,1031,97728062727,/g4t1,,success
Status,1033,97885543523,/g3t1_2,,running
Status,1034,97885614261,/g3t1_2,,success
Status,1037,98085384236,/g3t1_2,,running
Status,1038,98085705607,/g3t1_2,,success
Status,1040,98285413249,/g3t1_2,,running
Status,1041,98285892132,/g3t1_2,,success
Status,1043,98486130280,/g3t1_2,,running
Status,1044,98486364653,/g3t1_2,,success
Status,1046,98686125635,/g3t1_2,,running
Status,1047,98686944218,/g3t1_2,,success
Status,1048,98728335000,/g4t1,,success
Status,1050,98886389566,/g3t1_2,,running
Status,1051,98886972113,/g3t1_2,,success
Status,1053,99086603535,/g3t1_2,,running
Status,1054,99087176505,/g3t1_2,,success
Status,1056,99286989325,/g3t1_2,,running
Status,1057,99287896356,/g3t1_2,,success
Status,1059,99486835423,/g3t1_2,,running
Status,1060,99487401163,/g3t1_2,,success
Status,1062,99687085304,/g3t1_2,,running
Status,1063,99687531924,/g3t1_2,,success
Status,1064,99728334726,/g4t1,,success
Status,1066,99887669898,/g3t1_2,,running
Status,1067,99888571675,/g3t1_2,,success
Status,1069,100087713173,/g3t1_2,,running
Status,1070,100088254490,/g3t1_2,,success
Status,1073,100287818137,/g3t1_2,,running
Status,1074,100288218931,/g3t1_2,,success
Status,1076,100487818199,/g3t1_2,,running
Status,1077,100488167670,/g3t1_2,,success
Status,1079,100687833996,/g3t1_2,,running
Status,1080,100688315218,/g3t1_2,,success
Status,1081,100728492466,/g4t1,,success
Status,1083,100888340818,/g3t1_2,,running
Status,1084,100889220438,/g3t1_2,,success
Status,1086,101088275976,/g3t1_2,,running
Status,1087,101088711559,/g3t1_2,,success
Status,1089,101288211026,/g3t1_2,,running
Status,1090,101289011437,/g3t1_2,,success
Status,1092,101488454454,/g3t1_2,,running
Status,1093,101488833971,/g3t1_2,,success
Status,1095,101688922683,/g3t1_2,,running
Status,1096,101689426026,/g3t1_2,,success
Status,1097,101728747682,/g4t1,,success
Status,1099,101889259376,/g3t1_2,,running
Status,1100,101889836367,/g3t1_2,,success
Status,1102,102089147060,/g3t1_2,,running
Status,1103,102089656535,/g3t1_2,,success
Status,1105,102289509671,/g3t1_2,,running
Status,1106,102289987949,/g3t1_2,,success
Status,1109,102489554894,/g3t1_2,,running
Status,1110,102490302039,/g3t1_2,,success
Status,1112,102689914691,/g3t1_2,,running
Status,1113,102690697265,/g3t1_2,,success
Status,1114,102728810640,/g4t1,,success
Status,1116,102889950589,/g3t1_2,,running
Status,1117,102890564585,/g3t1_2,,success
Status,1119,103090026604,/g3t1_2,,running
Status,1120,103090607334,/g3t1_2,,success
Status,1122,103290205849,/g3t1_2,,running
Status,1123,103290822083,/g3t1_2,,success
Status,1125,103490795892,/g3t1_2,,running
Status,1126,103491630856,/g3t1_2,,success
Status,1128,103691009564,/g3t1_2,,running
Status,1129,103691485282,/g3t1_2,,success
Status,1130,103728875329,/g4t1,,success
Status,1132,103891035084,/g3t1_2,,running
Status,1133,103891421216,/g3t1_2,,success
Status,1135,104091147717,/g3t1_2,,running
Status,1136,104091214867,/g3t1_2,,success
Status,1138,104291241148,/g3t1_2,,running
Status,1139,104291976569,/g3t1_2,,success
Status,1141,104491193525,/g3t1_2,,running
Status,1142,104491744948,/g3t1_2,,success
Status,1145,104691526957,/g3t1_2,,running
Status,1146,104692447689,/g3t1_2,,success
Status,1147,104729062198,/g4t1,,success
Status,1149,104891726621,/g3t1_2,,running
Status,1150,104892300648,/g3t1_2,,success
Status,1152,105092097219,/g3t1_2,,running
Status,1153,105092560537,/g3t1_2,,success
Status,1155,105291954143,/g3t1_2,,running
Status,1156,105292734651,/g3t1_2,,success
Status,1158,105492238259,/g3t1_2,,running
Status,1159,105492706616,/g3t1_2,,success
Status,1161,105692171135,/g3t1_2,,running
Status,1162,105693024140,/g3t1_2,,success
Status,1163,105729179141,/g4t1,,success
Status,1165,105892745656,/g3t1_2,,running
Status,1166,105893291492,/g3t1_2,,success
Status,1168,106092630431,/g3t1_2,,running
Status,1169,106093455841,/g3t1_2,,success
Status,1171,106293015198,/g3t1_2,,running
Status,1172,106293086175,/g3t1_2,,success
Status,1174,106493023403,/g3t1_2,,running
Status,1175,106493115269,/g3t1_2,,success
Status,1177,106692944755,/g3t1_2,,running
Status,1178,106693617529,/g3t1_2,,success
Status,1180,106729458914,/g4t1,,success
Status,1182,106893565096,/g3t1_2,,running
Status,1183,106893645499,/g3t1_2,,success
Status,1185,107093467194,/g3t1_2,,running
Status,1186,107094002018,/g3t1_2,,success
Status,1188,107293692524,/g3t1_2,,running
Status,1189,107294377516,/g3t1_2,,success
Status,1191,107494176782,/g3t1_2,,running
Status,1192,107495132631,/g3t1_2,,success
Status,1194,107694170457,/g3t1_2,,running
Status,1195,107694240135,/g3t1_2,,success
Status,1196,107729484307,/g4t1,,success
Status,1198,107894323818,/g3t1_2,,running
Status,1199,107895251120,/g3t1_2,,success
Status,1201,108094614608,/g3t1_2,,running
Status,1202,108094976806,/g3t1_2,,success
Status,1204,108295033255,/g3t1_2,,running
Status,1205,108295565871,/g3t1_2,,success
Status,1207,108495144369,/g3t1_2,,running
Status,1208,108495723991,/g3t1_2,,success
Status,1210,108695381120,/g3t1_2,,running
Status,1211,108695993996,/g3t1_2,,success
Status,1212,108729680772,/g4t1,,success
Status,1214,108895686516,/g3t1_2,,running
Status,1215,108896599717,/g3t1_2,,success
Status,1218,109096077904,/g3t1_2,,running
Status,1219,109096598436,/g3t1_2,,success
Status,1221,109296000956,/g3t1_2,,running
Status,1222,109296308593,/g3t1_2,,success
Status,1224,109496034199,/g3t1_2,,running
Status,1225,109496254806,/g3t1_2,,success
Status,1227,109696495163,/g3t1_2,,running
Status,1228,109697043611,/g3t1_2,,success
Status,1229,109729733165,/g4t1,,success
Status,1231,109896309284,/g3t1_2,,running
Status,1232,109896669952,/g3t1_2,,success
Status,1234,110096589262,/g3t1_2,,running
Status,1235,110096999499,/g3t1_2,,success
Status,1237,110296743086,/g3t1_2,,running
Status,1238,110297039169,/g3t1_2,,success
Status,1240,110497224142,/g3t1_2,,running
Status,1241,110497765296,/g3t1_2,,success
Status,1243,110697118674,/g3t1_2,,running
Status,1244,110697455983,/g3t1_2,,success
Status,1245,110729864554,/g4t1,,success
Status,1247,110897628002,/g3t1_2,,running
Status,1248,110897918544,/g3t1_2,,success
Status,1250,111097608458,/g3t1_2,,running
Status,1251,111098194819,/g3t1_2,,success
Status,1254,111298008597,/g3t1_2,,running
Status,1255,111298087473,/g3t1_2,,fail
Status,1257,111498432788,/g3t1_2,,running
Status,1258,111498596998,/g3t1_2,,success
Status,1260,111698706612,/g3t1_2,,running
Status,1261,111699310433,/g3t1_2,,success
Status,1262,111729961736,/g4t1,,success
Status,1264,111898567497,/g3t1_2,,running
Status,1265,111899236889,/g3t1_2,,success
Status,1267,112099036051,/g3t1_2,,running
Status,1268,112099642642,/g3t1_2,,success
Status,1270,112299306955,/g3t1_2,,running
Status,1271,112299779094,/g3t1_2,,success
Status,1273,112499644580,/g3t1_2,,running
Status,1274,112499894754,/g3t1_2,,success
Status,1276,112699612853,/g3t1_2,,running
Status,1277,112699970541,/g3t1_2,,success
Status,1278,112730108956,/g4t1,,success
Status,1280,112899691759,/g3t1_2,,running
Status,1281,112900170452,/g3t1_2,,success
Status,1283,113099948713,/g3t1_2,,running
Status,1284,113100520451,/g3t1_2,,success
Status,1286,113300342991,/g3t1_2,,running
Status,1287,113300437610,/g3t1_2,,success
Status,1290,113500311010,/g3t1_2,,running
Status,1291,113500588345,/g3t1_2,,success
Status,1293,113700240999,/g3t1_2,,running
Status,1294,113700639384,/g3t1_2,,success
Status,1295,113730349391,/g4t1,,success
Status,1297,113900621718,/g3t1_2,,running
Status,1298,113901021566,/g3t1_2,,success
Status,1300,114101047112,/g3t1_2,,running
Status,1301,114101117994,/g3t1_2,,success
Status,1303,114301014445,/g3t1_2,,running
Status,1304,114301847913,/g3t1_2,,success
Status,1306,114501313189,/g3t1_2,,running
Status,1307,114501381762,/g3t1_2,,success
Status,1309,114701543050,/g3t1_2,,running
Status,1310,114702040493,/g3t1_2,,success
Status,1311,114730764561,/g4t1,,success
Status,1313,114902025466,/g3t1_2,,running
Status,1314,114902128694,/g3t1_2,,success
Status,1316,115101781008,/g3t1_2,,running
Status,1317,115102117826,/g3t1_2,,success
Status,1319,115302279235,/g3t1_2,,running
Status,1320,115302738266,/g3t1_2,,success
Status,1322,115502127045,/g3t1_2,,running
Status,1323,115502206312,/g3t1_2,,success
Status,1326,115702699938,/g3t1_2,,running
Status,1327,115703312163,/g3t1_2,,success
Status,1328,115730736190,/g4t1,,success
Status,1330,115902844576,/g3t1_2,,running
Status,1331,115903588323,/g3t1_2,,success
Status,1333,116102656903,/g3t1_2,,running
Status,1334,116102994727,/g3t1_2,,success
Status,1336,116303241084,/g3t1_2,,running
Status,1337,116303515651,/g3t1_2,,success
Status,1339,116503190703,/g3t1_2,,running
Status,1340,116503658608,/g3t1_2,,success
Status,1342,116703553085,/g3t1_2,,running
Status,1343,116703892407,/g3t1_2,,success
Status,1344,116730900359,/g4t1,,success
Status,1346,116903441102,/g3t1_2,,running
Status,1347,116903839690,/g3t1_2,,success
Status,1349,117104012319,/g3t1_2,,running
Status,1350,117104550398,/g3t1_2,,success
Status,1352,117303935729,/g3t1_2,,running
Status,1353,117304325423,/g3t1_2,,success
Status,1355,117503915177,/g3t1_2,,running
Status,1356,117504388119,/g3t1_2,,success
Status,1358,117704422852,/g3t1_2,,running
Status,1359,117704490950,/g3t1_2,,success
Status,1361,117731041670,/g4t1,,success
Status,1363,117904528427,/g3t1_2,,running
Status,1364,117905087920,/g3t1_2,,success
Status,1366,118104765450,/g3t1_2,,running
Status,1367,118105446177,/g3t1_2,,success
Status,1369,118305157535,/g3t1_2,,running
Status,1370,118305486618,/g3t1_2,,success
Status,1372,118505111115,/g3t1_2,,running
Status,1373,118505337760,/g3t1_2,,success
Status,1375,118705180992,/g3t1_2,,running
Status,1376,118705764738,/g3t1_2,,success
Status,1377,118731119988,/g4t1,,success
Status,1379,118905597333,/g3t1_2,,running
Status,1380,118906060816,/g3t1_2,,success
Status,1382,119105944938,/g3t1_2,,running
Status,1383,119106049117,/g3t1_2,,success
Status,1385,119306039170,/g3t1_2,,running
Status,1386,119306279133,/g3t1_2,,success
Status,1388,119506245843,/g3t1_2,,running
Status,1389,119506327406,/g3t1_2,,success
Status,1391,119706353495,/g3t1_2,,running
Status,1392,119706944963,/g3t1_2,,success
Status,1393,119731657591,/g4t1,,success
Status,1395,119906951163,/g3t1_2,,running
Status,1396,119907036665,/g3t1_2,,success
Status,1399,120106901642,/g3t1_2,,running
Status,1400,120107465357,/g3t1_2,,success
Status,1402,120309292773,/g3t1_2,,running
Status,1403,120310840980,/g3t1_2,,success
Status,1405,120509147358,/g3t1_2,,running
Status,1406,120509869997,/g3t1_2,,success
Status,1408,120709387758,/g3t1_2,,running
Status,1409,120710108749,/g3t1_2,,success
Status,1410,120731546099,/g4t1,,success
Status,1412,120909524761,/g3t1_2,,running
Status,1413,120909673100,/g3t1_2,,success
Status,1415,121109567430,/g3t1_2,,running
Status,1416,121110304902,/g3t1_2,,success
Status,1418,121310130144,/g3t1_2,,running
Status,1419,121310210925,/g3t1_2,,success
Status,1421,121510135036,/g3t1_2,,running
Status,1422,121510964504,/g3t1_2,,success
Status,1424,121710587407,/g3t1_2,,running
Status,1425,121711432574,/g3t1_2,,success
Status,1426,121732059850,/g4t1,,success
Status,1428,121910737132,/g3t1_2,,running
Status,1429,121911332187,/g3t1_2,,success
Status,1431,122111154679,/g3t1_2,,running
Status,1432,122111401405,/g3t1_2,,success
Status,1435,122311312637,/g3t1_2,,running
Status,1436,122311757877,/g3t1_2,,success
Status,1438,122511356714,/g3t1_2,,running
Status,1439,122511658993,/g3t1_2,,success
Status,1441,122711634173,/g3t1_2,,running
Status,1442,122712084718,/g3t1_2,,success
Status,1443,122732047600,/g4t1,,success
Status,1445,122911860609,/g3t1_2,,running
Status,1446,122911939878,/g3t1_2,,fail
Status,1448,123111953493,/g3t1_2,,running
Status,1449,123112629508,/g3t1_2,,success
Status,1451,123312095302,/g3t1_2,,running
Status,1452,123312749152,/g3t1_2,,success
Status,1454,123512114572,/g3t1_2,,running
Status,1455,123512532840,/g3t1_2,,success
Status,1457,123712118930,/g3t1_2,,running
Status,1458,123712539602,/g3t1_2,,success
Status,1459,123732047460,/g4t1,,success
Status,1461,123912381676,/g3t1_2,,running
Status,1462,123912779990,/g3t1_2,,success
Status,1464,124112666123,/g3t1_2,,running
Status,1465,124113507477,/g3t1_2,,success
Status,1467,124312663294,/g3t1_2,,running
Status,1468,124313304261,/g3t1_2,,success
Status,1471,124512733423,/g3t1_2,,running
Status,1472,124513348195,/g3t1_2,,success
Status,1474,124713358329,/g3t1_2,,running
Status,1475,124713749923,/g3t1_2,,success
Status,1476,124732195224,/g4t1,,success
Status,1478,124913449340,/g3t1_2,,running
Status,1479,124913926794,/g3t1_2,,success
Status,1481,125113334094,/g3t1_2,,running
Status,1482,125113889460,/g3t1_2,,success
Status,1484,125313806823,/g3t1_2,,running
Status,1485,125314348220,/g3t1_2,,success
Status,1487,125513895834,/g3t1_2,,running
Status,1488,125514743881,/g3t1_2,,success
Status,1490,125714081337,/g3t1_2,,running
Status,1491,125714794135,/g3t1_2,,success
Status,1492,125732710082,/g4t1,,success
Status,1494,125914238727,/g3t1_2,,running
Status,1495,125914794415,/g3t1_2,,success
Status,1497,126113985634,/g3t1_2,,running
Status,1498,126114172134,/g3t1_2,,success
Status,1500,126314961699,/g3t1_2,,running
Status,1501,126315061222,/g3t1_2,,success
Status,1503,126514660633,/g3t1_2,,running
Status,1504,126514923104,/g3t1_2,,success
Status,1507,126715086403,/g3t1_2,,running
Status,1508,126715543063,/g3t1_2,,success
Status,1509,126732498735,/g4t1,,success
Status,1511,126915180760,/g3t1_2,,running
Status,1512,126915250833,/g3t1_2,,success
Status,1514,127115464562,/g3t1_2,,running
Status,1515,127115905269,/g3t1_2,,success
Status,1517,127315505264,/g3t1_2,,running
Status,1518,127315908128,/g3t1_2,,fail
Status,1520,127515752327,/g3t1_2,,running
Status,1521,127516167446,/g3t1_2,,success
Status,1523,127716380964,/g3t1_2,,running
Status,1524,127716462982,/g3t1_2,,success
Status,1525,127732898215,/g4t1,,success
Status,1527,127916300883,/g3t1_2,,running
Status,1528,127916711479,/g3t1_2,,success
Status,1530,128116163540,/g3t1_2,,running
Status,1531,128116467575,/g3t1_2,,success
Status,1533,128316474042,/g3t1_2,,running
Status,1534,128316752227,/g3t1_2,,success
Status,1536,128516743423,/g3t1_2,,running
Status,1537,128517125967,/g3t1_2,,success
Status,1539,128716876356,/g3t1_2,,running
Status,1540,128717315529,/g3t1_2,,success
Status,1542,128733238915,/g4t1,,success
Status,1544,128917025212,/g3t1_2,,running
Status,1545,128917641213,/g3t1_2,,success
Status,1547,129117330368,/g3t1_2,,running
Status,1548,129117805620,/g3t1_2,,success
Status,1550,129316738327,/g3t1_2,,running
Status,1551,129316986901,/g3t1_2,,success
Status,1553,129516498867,/g3t1_2,,running
Status,1554,129517700525,/g3t1_2,,success
Status,1556,129716735186,/g3t1_2,,running
Status,1557,129716758635,/g3t1_2,,success
Status,1558,129732542422,/g4t1,,success
Status,1560,129917783926,/g3t1_2,,running
Status,1561,129918661815,/g3t1_2,,success
Status,1563,130117942870,/g3t1_2,,running
Status,1564,130118194946,/g3t1_2,,success
Status,1566,130317978206,/g3t1_2,,running
Status,1567,130318307575,/g3t1_2,,success
Status,1569,130518610179,/g3t1_2,,running
Status,1570,130518693674,/g3t1_2,,success
Status,1572,130717525304,/g3t1_2,,running
Status,1573,130717803528,/g3t1_2,,success
Status,1574,130733489561,/g4t1,,success
Status,1576,130918716956,/g3t1_2,,running
Status,1577,130919749390,/g3t1_2,,success
Status,1580,131118594068,/g3t1_2,,running
Status,1581,131119328293,/g3t1_2,,success
Status,1583,131318827970,/g3t1_2,,running
Status,1584,131319244734,/g3t1_2,,success
Status,1586,131519177236,/g3t1_2,,running
Status,1587,131519729625,/g3t1_2,,success
Status,1589,131719075464,/g3t1_2,,running
Status,1590,131719500042,/g3t1_2,,success
Status,1591,131733404217,/g4t1,,success
Status,1593,131919235191,/g3t1_2,,running
Status,1594,131919622765,/g3t1_2,,success
Status,1596,132119329697,/g3t1_2,,running
Status,1597,132119654720,/g3t1_2,,success
Status,1599,132319477267,/g3t1_2,,running
Status,1600,132320176789,/g3t1_2,,success
Status,1602,132519520365,/g3t1_2,,running
Status,1603,132520253224,/g3t1_2,,success
Status,1605,132719646745,/g3t1_2,,running
Status,1606,132720171017,/g3t1_2,,success
Status,1607,132733818417,/g4t1,,success
Status,1609,132919888329,/g3t1_2,,running
Status,1610,132920810725,/g3t1_2,,success
Status,1612,133119935030,/g3t1_2,,running
Status,1613,133120416990,/g3t1_2,,success
Status,1616,133320403176,/g3t1_2,,running
Status,1617,133320903152,/g3t1_2,,success
Status,1619,133520705074,/g3t1_2,,running
Status,1620,133521253001,/g3t1_2,,success
Status,1622,133720172545,/g3t1_2,,running
Status,1623,133720958345,/g3t1_2,,success
Status,1624,133733828376,/g4t1,,success
Status,1626,133920686553,/g3t1_2,,running
Status,1627,133921062302,/g3t1_2,,success
Status,1629,134121520192,/g3t1_2,,running
Status,1630,134121634345,/g3t1_2,,success
Status,1632,134320943439,/g3t1_2,,running
Status,1633,134321305361,/g3t1_2,,success
Status,1635,134521174507,/g3t1_2,,running
Status,1636,134521900308,/g3t1_2,,success
Status,1638,134721511557,/g3t1_2,,running
Status,1639,134722067160,/g3t1_2,,success
Status,1640,134733927794,/g4t1,,success
Status,1642,134921913703,/g3t1_2,,running
Status,1643,134922433597,/g3t1_2,,success
Status,1645,135122278019,/g3t1_2,,running
Status,1646,135122546861,/g3t1_2,,success
Status,1648,135321563174,/g3t1_2,,running
Status,1649,135321701564,/g3t1_2,,success
Status,1652,135522826268,/g3t1_2,,running
Status,1653,135523366775,/g3t1_2,,success
Status,1655,135722676529,/g3t1_2,,running
Status,1656,135723181029,/g3t1_2,,success
Status,1657,135734206668,/g4t1,,success
Status,1659,135922778020,/g3t1_2,,running
Status,1660,135922890538,/g3t1_2,,success
Status,1662,136122695915,/g3t1_2,,running
Status,1663,136123042607,/g3t1_2,,success
Status,1665,136323634439,/g3t1_2,,running
Status,1666,136323719097,/g3t1_2,,success
Status,1668,136523445699,/g3t1_2,,running
Status,1669,136523941549,/g3t1_2,,success
Status,1671,136723550279,/g3t1_2,,running
Status,1672,136724089631,/g3t1_2,,success
Status,1673,136734373651,/g4t1,,success
Status,1675,136924306324,/g3t1_2,,running
Status,1676,136924411465,/g3t1_2,,success
Status,1678,137124120376,/g3t1_2,,running
Status,1679,137124200078,/g3t1_2,,success
Status,1681,137323362709,/g3t1_2,,running
Status,1682,137323641307,/g3t1_2,,success
Status,1684,137524219435,/g3t1_2,,running
Status,1685,137524684155,/g3t1_2,,success
Status,1688,137724133025,/g3t1_2,,running
Status,1689,137724596098,/g3t1_2,,success
Status,1690,137734606225,/g4t1,,success
Status,1692,137924485822,/g3t1_2,,running
Status,1693,137925249036,/g3t1_2,,success
Status,1695,138124476139,/g3t1_2,,running
Status,1696,138125207712,/g3t1_2,,success
Status,1698,138324611603,/g3t1_2,,running
Status,1699,138325010528,/g3t1_2,,success
Status,1701,138524797004,/g3t1_2,,running
Status,1702,138525084483,/g3t1_2,,success
Status,1704,138725188065,/g3t1_2,,running
Status,1705,138725287295,/g3t1_2,,fail
Status,1706,138734868071,/g4t1,,success
Status,1708,138924254525,/g3t1_2,,running
Status,1709,138924275616,/g3t1_2,,success
Status,1711,139125145054,/g3t1_2,,running
Status,1712,139125766261,/g3t1_2,,success
Status,1714,139325530431,/g3t1_2,,running
Status,1715,139326353130,/g3t1_2,,success
Status,1717,139525596872,/g3t1_2,,running
Status,1718,139526192770,/g3t1_2,,success
Status,1720,139725691377,/g3t1_2,,running
Status,1721,139726048039,/g3t1_2,,success
Status,1723,139734735221,/g4t1,,success
Status,1725,139926018877,/g3t1_2,,running
Status,1726,139926720563,/g3t1_2,,success
Status,1728,140126406530,/g3t1_2,,running
Status,1729,140127107262,/g3t1_2,,success
Status,1731,140326982579,/g3t1_2,,running
Status,1732,140327343030,/g3t1_2,,success
Status,1734,140527037935,/g3t1_2,,running
Status,1735,140527796244,/g3t1_2,,success
Status,1737,140727201436,/g3t1_2,,running
Status,1738,140727758927,/g3t1_2,,success
Status,1739,140735220887,/g4t1,,success
Status,1741,140927425244,/g3t1_2,,running
Status,1742,140927501429,/g3t1_2,,success
Status,1744,141127626525,/g3t1_2,,running
Status,1745,141128434895,/g3t1_2,,success
Status,1747,141327683296,/g3t1_2,,running
Status,1748,141328136896,/g3t1_2,,success
Status,1750,141527719247,/g3t1_2,,running
Status,1751,141528109872,/g3t1_2,,success
Status,1753,141727946253,/g3t1_2,,running
Status,1754,141728244527,/g3t1_2,,success
Status,1755,141735144925,/g4t1,,success
Status,1757,141927916608,/g3t1_2,,running
Status,1758,141928398492,/g3t1_2,,success
Status,1761,142128148173,/g3t1_2,,running
Status,1762,142128615377,/g3t1_2,,success
Status,1764,142328907617,/g3t1_2,,running
Status,1765,142329203247,/g3t1_2,,success
Status,1767,142528834804,/g3t1_2,,running
Status,1768,142528980014,/g3t1_2,,success
Status,1770,142728635980,/g3t1_2,,running
Status,1771,142729146433,/g3t1_2,,success
Status,1772,142735056619,/g4t1,,success
Status,1774,142928862513,/g3t1_2,,running
Status,1775,142929241132,/g3t1_2,,success
Status,1777,143129608270,/g3t1_2,,running
Status,1778,143129677034,/g3t1_2,,success
Status,1780,143329155392,/g3t1_2,,running
Status,1781,143329627240,/g3t1_2,,success
Status,1783,143529320034,/g3t1_2,,running
Status,1784,143530026447,/g3t1_2,,success
Status,1786,143729646079,/g3t1_2,,running
Status,1787,143730377499,/g3t1_2,,success
Status,1788,143735266185,/g4t1,,success
Status,1790,143929695026,/g3t1_2,,running
Status,1791,143930242387,/g3t1_2,,success
Status,1793,144130042705,/g3t1_2,,running
Status,1794,144130619160,/g3t1_2,,success
Status,1797,144330192836,/g3t1_2,,running
Status,1798,144330841236,/g3t1_2,,success
Status,1800,144530701976,/g3t1_2,,running
Status,1801,144531394123,/g3t1_2,,success
Status,1803,144730511356,/g3t1_2,,running
Status,1804,144730976751,/g3t1_2,,success
Status,1805,144735453908,/g4t1,,success
Status,1807,144930862474,/g3t1_2,,running
Status,1808,144931340680,/g3t1_2,,success
Status,1810,145131072193,/g3t1_2,,running
Status,1811,145131142586,/g3t1_2,,success
Status,1813,145331253024,/g3t1_2,,running
Status,1814,145331653196,/g3t1_2,,success
Status,1816,145531640418,/g3t1_2,,running
Status,1817,145532483268,/g3t1_2,,success
Status,1819,145731342886,/g3t1_2,,running
Status,1820,145731592095,/g3t1_2,,success
Status,1821,145735422613,/g4t1,,success
Status,1823,145931474845,/g3t1_2,,running
Status,1824,145931873031,/g3t1_2,,success
Status,1826,146132163437,/g3t1_2,,running
Status,1827,146132446257,/g3t1_2,,success
Status,1829,146332165982,/g3t1_2,,running
Status,1830,146332937968,/g3t1_2,,success
Status,1833,146532435378,/g3t1_2,,running
Status,1834,146533163664,/g3t1_2,,success
Status,1836,146732615625,/g3t1_2,,running
Status,1837,146733604196,/g3t1_2,,success
Status,1838,146735748786,/g4t1,,success
Status,1840,146932651069,/g3t1_2,,running
Status,1841,146933057700,/g3t1_2,,success
Status,1843,147132824173,/g3t1_2,,running
Status,1844,147133265346,/g3t1_2,,success
Status,1846,147333341095,/g3t1_2,,running
Status,1847,147333883695,/g3t1_2,,success
Status,1849,147533357554,/g3t1_2,,running
Status,1850,147533983166,/g3t1_2,,success
Status,1852,147733585797,/g3t1_2,,running
Status,1853,147733920590,/g3t1_2,,success
Status,1854,147735676772,/g4t1,,success
Status,1856,147934004847,/g3t1_2,,running
Status,1857,147934074779,/g3t1_2,,success
Status,1859,148133887961,/g3t1_2,,running
Status,1860,148134618614,/g3t1_2,,success
Status,1862,148333224006,/g3t1_2,,running
Status,1863,148333326299,/g3t1_2,,success
Status,1865,148534291510,/g3t1_2,,running
Status,1866,148534353305,/g3t1_2,,success
Status,1869,148734369255,/g3t1_2,,running
Status,1870,148735015675,/g3t1_2,,success
Status,1871,148735892237,/g4t1,,success
Status,1873,148934309113,/g3t1_2,,running
Status,1874,148934997859,/g3t1_2,,success
Status,1876,149134830967,/g3t1_2,,running
Status,1877,149135794266,/g3t1_2,,success
Status,1879,149335011756,/g3t1_2,,running
Status,1880,149335299015,/g3t1_2,,success
Status,1882,149534646551,/g3t1_2,,running
Status,1883,149534683103,/g3t1_2,,success
Status,1885,149735445779,/g3t1_2,,running
Status,1886,149735842411,/g3t1_2,,success
Status,1887,149736149219,/g4t1,,success
Status,1889,149935913530,/g3t1_2,,running
Status,1890,149936487475,/g3t1_2,,success
Status,1892,150136219527,/g3t1_2,,running
Status,1893,150136386657,/g3t1_2,,success
Status,1895,150335136194,/g3t1_2,,running
Status,1896,150335153143,/g3t1_2,,success
Status,1898,150535818875,/g3t1_2,,running
Status,1899,150536208435,/g3t1_2,,success
Status,1901,150736209590,/g3t1_2,,running
Status,1902,150736320022,/g4t1,,success
Status,1903,150736419787,/g3t1_2,,success
Status,1906,150936352869,/g3t1_2,,running
Status,1907,150936831714,/g3t1_2,,fail
Status,1909,151136339129,/g3t1_2,,running
Status,1910,151136694582,/g3t1_2,,success
Status,1912,151336699560,/g3t1_2,,running
Status,1913,151336892836,/g3t1_2,,success
Status,1915,151536767208,/g3t1_2,,running
Status,1916,151537280576,/g3t1_2,,success
Status,1918,151736580354,/g4t1,,success
Status,1919,151737384945,/g3t1_2,,running
Status,1920,151737941132,/g3t1_2,,success
Status,1922,151937814079,/g3t1_2,,running
Status,1923,151937894672,/g3t1_2,,success
Status,1925,152137705157,/g3t1_2,,running
Status,1926,152138051998,/g3t1_2,,success
Status,1928,152337863964,/g3t1_2,,running
Status,1929,152338392386,/g3t1_2,,success
Status,1931,152537954436,/g3t1_2,,running
Status,1932,152538766964,/g3t1_2,,success
Status,1934,152736859623,/g4t1,,success
Status,1935,152738204302,/g3t1_2,,running
Status,1936,152738759582,/g3t1_2,,success
Status,1938,152938052634,/g3t1_2,,running
Status,1939,152938790415,/g3t1_2,,success
Status,1942,153138416143,/g3t1_2,,running
Status,1943,153139123715,/g3t1_2,,success
Status,1945,153338683409,/g3t1_2,,running
Status,1946,153339229795,/g3t1_2,,success
Status,1948,153539006611,/g3t1_2,,running
Status,1949,153539557907,/g3t1_2,,success
Status,1951,153737137472,/g4t1,,success
Status,1952,153738965296,/g3t1_2,,running
Status,1953,153739446942,/g3t1_2,,success
Status,1955,153939613605,/g3t1_2,,running
Status,1956,153940139720,/g3t1_2,,success
Status,1958,154139507027,/g3t1_2,,running
Status,1959,154140159746,/g3t1_2,,success
Status,1961,154339802812,/g3t1_2,,running
Status,1962,154340584936,/g3t1_2,,success
Status,1964,154539891517,/g3t1_2,,running
Status,1965,154540178537,/g3t1_2,,success
Status,1967,154736827894,/g4t1,,success
Status,1968,154739587270,/g3t1_2,,running
Status,1969,154740230622,/g3t1_2,,success
Status,1971,154940257027,/g3t1_2,,running
Status,1972,154940338837,/g3t1_2,,fail
Status,1974,155140373423,/g3t1_2,,running
Status,1975,155141120881,/g3t1_2,,success
Status,1978,155341096424,/g3t1_2,,running
Status,1979,155341230757,/g3t1_2,,success
Status,1981,155540582590,/g3t1_2,,running
Status,1982,155540921670,/g3t1_2,,success
Status,1984,155737160588,/g4t1,,success
Status,1985,155740668830,/g3t1_2,,running
Status,1986,155741008460,/g3t1_2,,success
Status,1988,155941118199,/g3t1_2,,running
Status,1989,155941575195,/g3t1_2,,success
Status,1991,156141139311,/g3t1_2,,running
Status,1992,156141791638,/g3t1_2,,success
Status,1994,156341500906,/g3t1_2,,running
Status,1995,156342182862,/g3t1_2,,success
Status,1997,156541866596,/g3t1_2,,running
Status,1998,156542847958,/g3t1_2,,success
Status,2000,156737643772,/g4t1,,success
Status,2001,156741824749,/g3t1_2,,running
Status,2002,156741898594,/g3t1_2,,fail
Status,2004,156941903520,/g3t1_2,,running
Status,2005,156942331884,/g3t1_2,,success
Status,2007,157142549376,/g3t1_2,,running
Status,2008,157143006719,/g3t1_2,,success
Status,2010,157342988052,/g3t1_2,,running
Status,2011,157343073210,/g3t1_2,,success
Status,2014,157542693001,/g3t1_2,,running
Status,2015,157543340369,/g3t1_2,,success
Status,2017,157738068252,/g4t1,,success
Status,2018,157742954064,/g3t1_2,,running
Status,2019,157743447121,/g3t1_2,,success
Status,2021,157943363249,/g3t1_2,,running
Status,2022,157944083336,/g3t1_2,,success
Status,2024,158143175872,/g3t1_2,,running
Status,2025,158143524332,/g3t1_2,,success
Status,2027,158342790221,/g3t1_2,,running
Status,2028,158343085268,/g3t1_2,,success
Status,2030,158543773206,/g3t1_2,,running
Status,2031,158544558622,/g3t1_2,,success
Status,2033,158737950387,/g4t1,,success
Status,2034,158743655212,/g3t1_2,,running
Status,2035,158744222182,/g3t1_2,,success
Status,2037,158943940020,/g3t1_2,,running
Status,2038,158944607275,/g3t1_2,,success
Status,2040,159144513668,/g3t1_2,,running
Status,2041,159144593005,/g3t1_2,,success
Status,2043,159343401353,/g3t1_2,,running
Status,2044,159343427827,/g3t1_2,,success
Status,2046,159544054814,/g3t1_2,,running
Status,2047,159544453536,/g3t1_2,,success
