
Status,2,3510052419,/g4t1,,init
Status,4,8726120110,/g3t1_1,,init
Status,5,8733327930,/g3t1_1,,init
Status,6,8733347086,/g3t1_1,,running
Status,7,8733777599,/g3t1_1,,success
Status,8,8828582638,/g3t1_2,,init
Status,10,8836566694,/g3t1_2,,init
Status,11,8836579970,/g3t1_2,,running
Status,12,8837014774,/g3t1_2,,success
Status,13,8856791302,/g3t1_2,,running
Status,14,8856878630,/g3t1_2,,success
Status,15,8876918730,/g3t1_2,,running
Status,16,8876983484,/g3t1_2,,success
Status,17,8896975015,/g3t1_2,,running
Status,18,8897012410,/g3t1_2,,success
Status,19,8917047970,/g3t1_2,,running
Status,20,8917106095,/g3t1_2,,success
Status,21,8937356219,/g3t1_2,,running
Status,22,8937407275,/g3t1_2,,success
Status,23,8957287868,/g3t1_2,,running
Status,24,8957365063,/g3t1_2,,success
Status,25,8977286762,/g3t1_2,,running
Status,26,8977299643,/g3t1_2,,success
Status,27,8997451362,/g3t1_2,,running
Status,28,8997468397,/g3t1_2,,success
Status,29,9017542452,/g3t1_2,,running
Status,30,9017655791,/g3t1_2,,success
Status,31,9028841771,/g3t1_3,,init
Status,33,9035847681,/g3t1_3,,init
Status,34,9035863506,/g3t1_3,,running
Status,35,9036455128,/g3t1_3,,success
Status,36,9037486452,/g3t1_2,,running
Status,37,9037629492,/g3t1_2,,success
Status,38,9057756937,/g3t1_2,,running
Status,39,9057771498,/g3t1_2,,success
Status,40,9077844478,/g3t1_2,,running
Status,41,9077877023,/g3t1_2,,success
Status,42,9098055129,/g3t1_2,,running
Status,43,9098091071,/g3t1_2,,success
Status,44,9118003825,/g3t1_2,,running
Status,45,9118018101,/g3t1_2,,success
Status,47,9129564690,/g3t1_4,,init
Status,48,9138008333,/g3t1_2,,running
Status,49,9138024359,/g3t1_2,,success
Status,50,9138418645,/g3t1_4,,init
Status,51,9138436696,/g3t1_4,,running
Status,52,9139857020,/g3t1_4,,success
Status,53,9158221732,/g3t1_2,,running
Status,54,9158240537,/g3t1_2,,success
Status,55,9178436453,/g3t1_2,,running
Status,56,9178457770,/g3t1_2,,success
Status,57,9198441265,/g3t1_2,,running
Status,58,9198824824,/g3t1_2,,success
Status,59,9219022598,/g3t1_2,,running
Status,60,9219400859,/g3t1_2,,success
Status,61,9234069633,/g3t1_1,,running
Status,62,9234634402,/g3t1_1,,success
Status,63,9239287081,/g4t1,,success
Status,64,9239367507,/g3t1_2,,running
Status,65,9239722916,/g3t1_4,,running
Status,66,9239796075,/g3t1_2,,success
Status,67,9246775565,/g3t1_4,,success
Status,68,9259435138,/g3t1_2,,running
Status,69,9259487649,/g3t1_2,,success
Status,70,9279506655,/g3t1_2,,running
Status,71,9280176092,/g3t1_2,,success
Status,72,9299776252,/g3t1_2,,running
Status,73,9300063306,/g3t1_2,,success
Status,74,9319679482,/g3t1_2,,running
Status,75,9320331577,/g3t1_2,,success
Status,76,9339148362,/g4t1,,success
Status,77,9339758158,/g3t1_4,,running
Status,78,9341084437,/g3t1_2,,running
Status,79,9341583808,/g3t1_2,,success
Status,80,9351621118,/g3t1_4,,success
Status,81,9361279761,/g3t1_2,,running
Status,82,9361699011,/g3t1_2,,success
Status,83,9381608528,/g3t1_2,,running
Status,84,9382045610,/g3t1_2,,success
Status,85,9402103788,/g3t1_2,,running
Status,86,9402168730,/g3t1_2,,success
Status,87,9422140921,/g3t1_2,,running
Status,88,9422794314,/g3t1_2,,success
Status,89,9439342134,/g4t1,,success
Status,90,9440429604,/g3t1_4,,running
Status,91,9442129891,/g3t1_2,,running
Status,92,9443977879,/g3t1_2,,success
Status,93,9447860742,/g3t1_4,,success
Status,94,9461960625,/g3t1_2,,running
Status,95,9462407269,/g3t1_2,,success
Status,96,9482396868,/g3t1_2,,running
Status,97,9482791043,/g3t1_2,,success
Status,98,9502459968,/g3t1_2,,running
Status,99,9502764839,/g3t1_2,,success
Status,100,9522990057,/g3t1_2,,running
Status,101,9523200790,/g3t1_2,,success
Status,102,9539627354,/g4t1,,success
Status,103,9540017306,/g3t1_4,,running
Status,104,9542599044,/g3t1_2,,running
Status,105,9543352387,/g3t1_2,,success
Status,106,9548901343,/g3t1_4,,success
Status,107,9562673880,/g3t1_2,,running
Status,108,9563011031,/g3t1_2,,success
Status,109,9582537612,/g3t1_2,,running
Status,110,9582765968,/g3t1_2,,success
Status,111,9602763062,/g3t1_2,,running
Status,112,9603007370,/g3t1_2,,success
Status,113,9622885063,/g3t1_2,,running
Status,114,9623340189,/g3t1_2,,success
Status,115,9639503335,/g4t1,,success
Status,116,9639866879,/g3t1_4,,running
Status,117,9643035350,/g3t1_2,,running
Status,118,9643461777,/g3t1_2,,success
Status,119,9646571177,/g3t1_4,,success
Status,120,9663002243,/g3t1_2,,running
Status,121,9663260306,/g3t1_2,,success
Status,122,9683123914,/g3t1_2,,running
Status,123,9683166865,/g3t1_2,,success
Status,124,9703373872,/g3t1_2,,running
Status,125,9703845617,/g3t1_2,,success
Status,126,9723534839,/g3t1_2,,running
Status,127,9724163864,/g3t1_2,,success
Status,128,9734161718,/g3t1_1,,running
Status,129,9734671843,/g3t1_1,,success
Status,130,9739758386,/g4t1,,success
Status,131,9739827792,/g3t1_4,,running
Status,132,9743789269,/g3t1_2,,running
Status,133,9743916837,/g3t1_2,,success
Status,134,9747487451,/g3t1_4,,success
Status,135,9763916551,/g3t1_2,,running
Status,136,9764259761,/g3t1_2,,success
Status,137,9784088948,/g3t1_2,,running
Status,138,9784161018,/g3t1_2,,success
Status,139,9804050663,/g3t1_2,,running
Status,140,9804497891,/g3t1_2,,success
Status,141,9824282671,/g3t1_2,,running
Status,142,9824607321,/g3t1_2,,success
Status,143,9840006225,/g4t1,,success
Status,144,9840099523,/g3t1_4,,running
Status,145,9844315364,/g3t1_2,,running
Status,146,9844571419,/g3t1_2,,success
Status,147,9847962667,/g3t1_4,,success
Status,148,9864549122,/g3t1_2,,running
Status,149,9864918995,/g3t1_2,,success
Status,150,9884652438,/g3t1_2,,running
Status,151,9886102591,/g3t1_2,,success
Status,152,9904593716,/g3t1_2,,running
Status,153,9904953234,/g3t1_2,,success
Status,154,9924764489,/g3t1_2,,running
Status,155,9925125538,/g3t1_2,,success
Status,156,9940099292,/g4t1,,success
Status,157,9940175468,/g3t1_4,,running
Status,158,9944690608,/g3t1_2,,running
Status,159,9945357180,/g3t1_2,,success
Status,160,9947752349,/g3t1_4,,success
Status,161,9964947762,/g3t1_2,,running
Status,162,9965894079,/g3t1_2,,success
Status,163,9985123434,/g3t1_2,,running
Status,164,9985646591,/g3t1_2,,success
Status,165,10005211545,/g3t1_2,,running
Status,166,10005757395,/g3t1_2,,success
Status,167,10025649688,/g3t1_2,,running
Status,168,10025710997,/g3t1_2,,success
Status,169,10036478549,/g3t1_3,,running
Status,170,10037030164,/g3t1_3,,success
Status,171,10040073539,/g4t1,,success
Status,172,10040139357,/g3t1_4,,running
Status,173,10045358458,/g3t1_2,,running
Status,174,10045889555,/g3t1_2,,success
Status,175,10048079330,/g3t1_4,,success
Status,176,10065713682,/g3t1_2,,running
Status,177,10066346956,/g3t1_2,,success
Status,178,10085841684,/g3t1_2,,running
Status,179,10086408510,/g3t1_2,,success
Status,180,10105883091,/g3t1_2,,running
Status,181,10106407245,/g3t1_2,,success
Status,182,10125912948,/g3t1_2,,running
Status,183,10126125425,/g3t1_2,,success
Status,184,10139943176,/g4t1,,success
Status,185,10140386652,/g3t1_4,,running
Status,186,10147489745,/g3t1_2,,running
Status,187,10147562680,/g3t1_2,,success
Status,188,10148603743,/g3t1_4,,success
Status,189,10166408282,/g3t1_2,,running
Status,190,10166687856,/g3t1_2,,success
Status,191,10186467474,/g3t1_2,,running
Status,192,10186762346,/g3t1_2,,success
Status,193,10206423833,/g3t1_2,,running
Status,194,10206863468,/g3t1_2,,success
Status,195,10226548776,/g3t1_2,,running
Status,196,10226845356,/g3t1_2,,success
Status,197,10234293952,/g3t1_1,,running
Status,198,10234618418,/g3t1_1,,success
Status,199,10239989252,/g4t1,,success
Status,200,10240538147,/g3t1_4,,running
Status,201,10246574903,/g3t1_2,,running
Status,202,10247167135,/g3t1_2,,success
Status,203,10249947372,/g3t1_4,,success
Status,204,10266969343,/g3t1_2,,running
Status,205,10267382662,/g3t1_2,,success
Status,206,10286806446,/g3t1_2,,running
Status,207,10287475856,/g3t1_2,,success
Status,208,10307004593,/g3t1_2,,running
Status,209,10307908534,/g3t1_2,,success
Status,210,10327243751,/g3t1_2,,running
Status,211,10327479649,/g3t1_2,,success
Status,212,10340161702,/g4t1,,success
Status,213,10340670979,/g3t1_4,,running
Status,214,10347602320,/g3t1_2,,running
Status,215,10347660654,/g3t1_2,,success
Status,216,10354145717,/g3t1_4,,success
Status,217,10367454994,/g3t1_2,,running
Status,218,10367516716,/g3t1_2,,success
Status,219,10387598516,/g3t1_2,,running
Status,220,10387663033,/g3t1_2,,success
Status,221,10407510709,/g3t1_2,,running
Status,222,10408354788,/g3t1_2,,success
Status,223,10427691210,/g3t1_2,,running
Status,224,10428355440,/g3t1_2,,success
Status,225,10440313409,/g4t1,,success
Status,226,10440646682,/g3t1_4,,running
Status,227,10447796726,/g3t1_2,,running
Status,228,10448031487,/g3t1_2,,success
Status,229,10448445648,/g3t1_4,,success
Status,230,10468273657,/g3t1_2,,running
Status,231,10468335709,/g3t1_2,,success
Status,232,10488061236,/g3t1_2,,running
Status,233,10488872863,/g3t1_2,,success
Status,234,10508183032,/g3t1_2,,running
Status,235,10508481356,/g3t1_2,,success
Status,236,10528793370,/g3t1_2,,running
Status,237,10529304257,/g3t1_2,,success
Status,238,10540328183,/g4t1,,success
Status,239,10541079748,/g3t1_4,,running
Status,240,10548394351,/g3t1_4,,success
Status,241,10548467812,/g3t1_2,,running
Status,242,10549094355,/g3t1_2,,success
Status,243,10568649461,/g3t1_2,,running
Status,244,10569006771,/g3t1_2,,success
Status,245,10588897819,/g3t1_2,,running
Status,246,10589271842,/g3t1_2,,success
Status,247,10608942547,/g3t1_2,,running
Status,248,10609378442,/g3t1_2,,success
Status,249,10628984722,/g3t1_2,,running
Status,250,10629653920,/g3t1_2,,success
Status,251,10640631567,/g4t1,,success
Status,252,10640987169,/g3t1_4,,running
Status,253,10648860147,/g3t1_4,,success
Status,254,10648933118,/g3t1_2,,running
Status,255,10649862395,/g3t1_2,,success
Status,256,10669318455,/g3t1_2,,running
Status,257,10669572920,/g3t1_2,,success
Status,258,10689668443,/g3t1_2,,running
Status,259,10690106304,/g3t1_2,,success
Status,260,10709899209,/g3t1_2,,running
Status,261,10710447689,/g3t1_2,,success
Status,262,10729928778,/g3t1_2,,running
Status,263,10730221509,/g3t1_2,,success
Status,264,10734281252,/g3t1_1,,running
Status,265,10734637410,/g3t1_1,,success
Status,266,10740809118,/g4t1,,success
Status,267,10741234133,/g3t1_4,,running
Status,268,10748527824,/g3t1_4,,success
Status,269,10749889744,/g3t1_2,,running
Status,270,10750482622,/g3t1_2,,success
Status,271,10770006976,/g3t1_2,,running
Status,272,10770580384,/g3t1_2,,success
Status,273,10790524167,/g3t1_2,,running
Status,274,10790913002,/g3t1_2,,success
Status,275,10810302660,/g3t1_2,,running
Status,276,10810578781,/g3t1_2,,success
Status,277,10830451227,/g3t1_2,,running
Status,278,10830933621,/g3t1_2,,success
Status,279,10840953699,/g4t1,,success
Status,280,10841256916,/g3t1_4,,running
Status,281,10848715766,/g3t1_4,,success
Status,282,10850369798,/g3t1_2,,running
Status,283,10851042645,/g3t1_2,,success
Status,284,10870696110,/g3t1_2,,running
Status,285,10871125150,/g3t1_2,,success
Status,286,10891177843,/g3t1_2,,running
Status,287,10891412465,/g3t1_2,,success
Status,288,10911042081,/g3t1_2,,running
Status,289,10911761386,/g3t1_2,,success
Status,290,10931147497,/g3t1_2,,running
Status,291,10931733049,/g3t1_2,,success
Status,292,10941041146,/g4t1,,success
Status,293,10941530948,/g3t1_4,,running
Status,294,10948666210,/g3t1_4,,success
Status,295,10951165663,/g3t1_2,,running
Status,296,10951929965,/g3t1_2,,success
Status,297,10971367305,/g3t1_2,,running
Status,298,10971829508,/g3t1_2,,success
Status,299,10991643334,/g3t1_2,,running
Status,300,10991975512,/g3t1_2,,success
Status,301,11011731040,/g3t1_2,,running
Status,302,11011880697,/g3t1_2,,success
Status,303,11031889104,/g3t1_2,,running
Status,304,11032247258,/g3t1_2,,success
Status,305,11036724973,/g3t1_3,,running
Status,306,11037353386,/g3t1_3,,success
Status,307,11040978867,/g4t1,,success
Status,308,11041365008,/g3t1_4,,running
Status,309,11049116176,/g3t1_4,,success
Status,310,11051762549,/g3t1_2,,running
Status,311,11052346660,/g3t1_2,,success
Status,312,11072156583,/g3t1_2,,running
Status,313,11072389520,/g3t1_2,,success
Status,314,11092149116,/g3t1_2,,running
Status,315,11092448344,/g3t1_2,,success
Status,316,11112309857,/g3t1_2,,running
Status,317,11112653367,/g3t1_2,,success
Status,318,11132432888,/g3t1_2,,running
Status,319,11132492231,/g3t1_2,,success
Status,320,11141325932,/g4t1,,success
Status,321,11141883868,/g3t1_4,,running
Status,322,11149219730,/g3t1_4,,success
Status,323,11152629775,/g3t1_2,,running
Status,324,11152892204,/g3t1_2,,success
Status,325,11172730921,/g3t1_2,,running
Status,326,11173126543,/g3t1_2,,success
Status,327,11192819985,/g3t1_2,,running
Status,328,11193132066,/g3t1_2,,success
Status,329,11212968714,/g3t1_2,,running
Status,330,11213724500,/g3t1_2,,success
Status,331,11232979394,/g3t1_2,,running
Status,332,11233292681,/g3t1_2,,success
Status,333,11234381934,/g3t1_1,,running
Status,334,11234756064,/g3t1_1,,success
Status,335,11241323496,/g4t1,,success
Status,336,11241817529,/g3t1_4,,running
Status,337,11249618529,/g3t1_4,,success
Status,338,11253199807,/g3t1_2,,running
Status,339,11253263088,/g3t1_2,,success
Status,340,11273402607,/g3t1_2,,running
Status,341,11273847590,/g3t1_2,,success
Status,342,11293294176,/g3t1_2,,running
Status,343,11293646922,/g3t1_2,,success
Status,344,11313766673,/g3t1_2,,running
Status,345,11314388808,/g3t1_2,,success
Status,346,11333728654,/g3t1_2,,running
Status,347,11334006709,/g3t1_2,,success
Status,348,11341649317,/g4t1,,success
Status,349,11341721210,/g3t1_4,,running
Status,350,11349476497,/g3t1_4,,success
Status,351,11353781667,/g3t1_2,,running
Status,352,11353993916,/g3t1_2,,success
Status,353,11373995772,/g3t1_2,,running
Status,354,11374486106,/g3t1_2,,success
Status,355,11394026221,/g3t1_2,,running
Status,356,11394428265,/g3t1_2,,success
Status,357,11414191702,/g3t1_2,,running
Status,358,11414675470,/g3t1_2,,success
Status,359,11434091055,/g3t1_2,,running
Status,360,11434576104,/g3t1_2,,success
Status,361,11442045743,/g4t1,,success
Status,362,11442121885,/g3t1_4,,running
Status,363,11450737483,/g3t1_4,,success
Status,364,11454122761,/g3t1_2,,running
Status,365,11454507016,/g3t1_2,,success
Status,366,11474273860,/g3t1_2,,running
Status,367,11474531435,/g3t1_2,,success
Status,368,11494628197,/g3t1_2,,running
Status,369,11494688760,/g3t1_2,,success
Status,370,11514737366,/g3t1_2,,running
Status,371,11515207218,/g3t1_2,,success
Status,372,11534955872,/g3t1_2,,running
Status,373,11535618379,/g3t1_2,,success
Status,374,11541835551,/g4t1,,success
Status,375,11542157903,/g3t1_4,,running
Status,376,11552688489,/g3t1_4,,success
Status,377,11554592321,/g3t1_2,,running
Status,378,11555169809,/g3t1_2,,success
Status,379,11574872519,/g3t1_2,,running
Status,380,11575285092,/g3t1_2,,success
Status,381,11595137961,/g3t1_2,,running
Status,382,11595193587,/g3t1_2,,success
Status,383,11615086362,/g3t1_2,,running
Status,384,11615885201,/g3t1_2,,success
Status,385,11635312043,/g3t1_2,,running
Status,386,11636225751,/g3t1_2,,success
Status,387,11642092774,/g4t1,,success
Status,388,11642171358,/g3t1_4,,running
Status,389,11650303502,/g3t1_4,,success
Status,390,11655253441,/g3t1_2,,running
Status,391,11655702440,/g3t1_2,,success
Status,392,11675510140,/g3t1_2,,running
Status,393,11676185366,/g3t1_2,,success
Status,394,11695674107,/g3t1_2,,running
Status,395,11696024502,/g3t1_2,,success
Status,396,11715743886,/g3t1_2,,running
Status,397,11716230086,/g3t1_2,,success
Status,398,11734829760,/g3t1_1,,running
Status,399,11735275902,/g3t1_1,,success
Status,400,11736110758,/g3t1_2,,running
Status,401,11736229500,/g3t1_2,,success
Status,402,11742064763,/g4t1,,success
Status,403,11742125030,/g3t1_4,,running
Status,404,11749772552,/g3t1_4,,success
Status,405,11756068365,/g3t1_2,,running
Status,406,11756511328,/g3t1_2,,success
Status,407,11776492627,/g3t1_2,,running
Status,408,11776573481,/g3t1_2,,success
Status,409,11796697397,/g3t1_2,,running
Status,410,11797112445,/g3t1_2,,success
Status,411,11816541676,/g3t1_2,,running
Status,412,11816797653,/g3t1_2,,success
Status,413,11836886347,/g3t1_2,,running
Status,414,11836961186,/g3t1_2,,success
Status,415,11842257825,/g4t1,,success
Status,416,11842334483,/g3t1_4,,running
Status,417,11850053956,/g3t1_4,,success
Status,418,11856865580,/g3t1_2,,running
Status,419,11856924889,/g3t1_2,,success
Status,420,11877137058,/g3t1_2,,running
Status,421,11877727475,/g3t1_2,,success
Status,422,11897027179,/g3t1_2,,running
Status,423,11897428638,/g3t1_2,,success
Status,424,11917459306,/g3t1_2,,running
Status,425,11917908438,/g3t1_2,,success
Status,426,11937548105,/g3t1_2,,running
Status,427,11938349178,/g3t1_2,,success
Status,428,11942376897,/g4t1,,success
Status,429,11942454407,/g3t1_4,,running
Status,430,11950249074,/g3t1_4,,success
Status,431,11957359776,/g3t1_2,,running
Status,432,11957790197,/g3t1_2,,success
Status,433,11977606852,/g3t1_2,,running
Status,434,11978045121,/g3t1_2,,success
Status,435,11997877178,/g3t1_2,,running
Status,436,11998245461,/g3t1_2,,success
Status,437,12018065021,/g3t1_2,,running
Status,438,12018134113,/g3t1_2,,success
Status,439,12036902659,/g3t1_3,,running
Status,440,12037827609,/g3t1_3,,success
Status,441,12037906903,/g3t1_2,,running
Status,442,12038854192,/g3t1_2,,success
Status,443,12042245368,/g4t1,,success
Status,444,12042689282,/g3t1_4,,running
Status,445,12050365895,/g3t1_4,,success
Status,446,12058673240,/g3t1_2,,running
Status,447,12058787462,/g3t1_2,,success
Status,448,12078160400,/g3t1_2,,running
Status,449,12078440415,/g3t1_2,,success
Status,450,12098320001,/g3t1_2,,running
Status,451,12098730375,/g3t1_2,,success
Status,452,12118405596,/g3t1_2,,running
Status,453,12119218931,/g3t1_2,,success
Status,454,12138420249,/g3t1_2,,running
Status,455,12138861847,/g3t1_2,,success
Status,456,12142633475,/g4t1,,success
Status,457,12142711887,/g3t1_4,,running
Status,458,12150506760,/g3t1_4,,success
Status,459,12158806805,/g3t1_2,,running
Status,460,12158866666,/g3t1_2,,success
Status,461,12178674211,/g3t1_2,,running
Status,462,12179059709,/g3t1_2,,success
Status,463,12198993868,/g3t1_2,,running
Status,464,12199431578,/g3t1_2,,success
Status,465,12218962740,/g3t1_2,,running
Status,466,12219386093,/g3t1_2,,success
Status,467,12234941340,/g3t1_1,,running
Status,468,12235273447,/g3t1_1,,success
Status,469,12238993168,/g3t1_2,,running
Status,470,12239736807,/g3t1_2,,success
Status,471,12242714785,/g4t1,,success
Status,472,12242788085,/g3t1_4,,running
Status,473,12249864364,/g3t1_4,,success
Status,474,12259355081,/g3t1_2,,running
Status,475,12259659510,/g3t1_2,,success
Status,476,12279426784,/g3t1_2,,running
Status,477,12279620862,/g3t1_2,,success
Status,478,12299509316,/g3t1_2,,running
Status,479,12299759361,/g3t1_2,,success
Status,480,12319920345,/g3t1_2,,running
Status,481,12319985278,/g3t1_2,,success
Status,482,12339856697,/g3t1_2,,running
Status,483,12340027629,/g3t1_2,,success
Status,484,12342589800,/g4t1,,success
Status,485,12342899173,/g3t1_4,,running
Status,486,12351400379,/g3t1_4,,success
Status,487,12359834754,/g3t1_2,,running
Status,488,12360226132,/g3t1_2,,success
Status,489,12380102131,/g3t1_2,,running
Status,490,12380862387,/g3t1_2,,success
Status,491,12400332119,/g3t1_2,,running
Status,492,12400787342,/g3t1_2,,success
Status,493,12420381037,/g3t1_2,,running
Status,494,12420771678,/g3t1_2,,success
Status,495,12440456529,/g3t1_2,,running
Status,496,12440858474,/g3t1_2,,success
Status,497,12442778930,/g4t1,,success
Status,498,12444533448,/g3t1_4,,running
Status,499,12450118468,/g3t1_4,,success
Status,500,12460807690,/g3t1_2,,running
Status,501,12461112522,/g3t1_2,,success
Status,502,12480923455,/g3t1_2,,running
Status,503,12481081503,/g3t1_2,,success
Status,504,12501057701,/g3t1_2,,running
Status,505,12501632736,/g3t1_2,,success
Status,506,12521303018,/g3t1_2,,running
Status,507,12521365532,/g3t1_2,,success
Status,508,12541206183,/g3t1_2,,running
Status,509,12541667015,/g3t1_2,,success
Status,510,12542991097,/g4t1,,success
Status,511,12543058648,/g3t1_4,,running
Status,512,12551118761,/g3t1_4,,success
Status,513,12561362920,/g3t1_2,,running
Status,514,12562149872,/g3t1_2,,success
Status,515,12581667442,/g3t1_2,,running
Status,516,12582001216,/g3t1_2,,success
Status,517,12601632691,/g3t1_2,,running
Status,518,12601932983,/g3t1_2,,success
Status,519,12622317478,/g3t1_2,,running
Status,520,12622374936,/g3t1_2,,success
Status,521,12642210305,/g3t1_2,,running
Status,522,12643028170,/g4t1,,success
Status,523,12643441723,/g3t1_2,,success
Status,524,12643585620,/g3t1_4,,running
Status,525,12654093025,/g3t1_4,,success
Status,526,12662229998,/g3t1_2,,running
Status,527,12662289291,/g3t1_2,,success
Status,528,12682407187,/g3t1_2,,running
Status,529,12682467288,/g3t1_2,,success
Status,530,12702495708,/g3t1_2,,running
Status,531,12702728976,/g3t1_2,,success
Status,532,12722664394,/g3t1_2,,running
Status,533,12723278862,/g3t1_2,,success
Status,534,12734869932,/g3t1_1,,running
Status,535,12735268427,/g3t1_1,,success
Status,536,12742655868,/g3t1_2,,running
Status,537,12743318344,/g3t1_2,,success
Status,538,12743407635,/g4t1,,success
Status,539,12743494105,/g3t1_4,,running
Status,540,12751265631,/g3t1_4,,success
Status,541,12762932398,/g3t1_2,,running
Status,542,12763834800,/g3t1_2,,success
Status,543,12782735503,/g3t1_2,,running
Status,544,12782938513,/g3t1_2,,success
Status,545,12803136990,/g3t1_2,,running
Status,546,12803544393,/g3t1_2,,success
Status,547,12823348627,/g3t1_2,,running
Status,548,12823407044,/g3t1_2,,success
Status,549,12843744059,/g4t1,,success
Status,550,12843839508,/g3t1_2,,running
Status,551,12844494339,/g3t1_4,,running
Status,552,12844576013,/g3t1_2,,success
Status,553,12851193887,/g3t1_4,,success
Status,554,12863470001,/g3t1_2,,running
Status,555,12863829200,/g3t1_2,,success
Status,556,12883783821,/g3t1_2,,running
Status,557,12884392148,/g3t1_2,,success
Status,558,12903650628,/g3t1_2,,running
Status,559,12904154874,/g3t1_2,,success
Status,560,12924045635,/g3t1_2,,running
Status,561,12924454053,/g3t1_2,,success
Status,562,12943675995,/g4t1,,success
Status,563,12943767736,/g3t1_4,,running
Status,564,12943824411,/g3t1_2,,running
Status,565,12944993733,/g3t1_2,,success
Status,566,12951343137,/g3t1_4,,success
Status,567,12964096590,/g3t1_2,,running
Status,568,12964574319,/g3t1_2,,success
Status,569,12984500200,/g3t1_2,,running
Status,570,12984725020,/g3t1_2,,success
Status,571,13004388007,/g3t1_2,,running
Status,572,13004844432,/g3t1_2,,success
Status,573,13024357134,/g3t1_2,,running
Status,574,13024851228,/g3t1_2,,success
Status,575,13037108252,/g3t1_3,,running
Status,576,13037352933,/g3t1_3,,success
Status,577,13043598345,/g4t1,,success
Status,578,13043678274,/g3t1_4,,running
Status,579,13044398535,/g3t1_2,,running
Status,580,13045250042,/g3t1_2,,success
Status,581,13051701928,/g3t1_4,,success
Status,582,13064484122,/g3t1_2,,running
Status,583,13065244680,/g3t1_2,,success
Status,584,13084809806,/g3t1_2,,running
Status,585,13085619677,/g3t1_2,,success
Status,586,13104913320,/g3t1_2,,running
Status,587,13105912703,/g3t1_2,,success
Status,588,13124988501,/g3t1_2,,running
Status,589,13125790825,/g3t1_2,,success
Status,590,13143735023,/g4t1,,success
Status,591,13143818812,/g3t1_4,,running
Status,592,13145004339,/g3t1_2,,running
Status,593,13145423824,/g3t1_2,,success
Status,594,13151754040,/g3t1_4,,success
Status,595,13165375143,/g3t1_2,,running
Status,596,13165660759,/g3t1_2,,success
Status,597,13185489643,/g3t1_2,,running
Status,598,13185927892,/g3t1_2,,success
Status,599,13205558029,/g3t1_2,,running
Status,600,13206043202,/g3t1_2,,success
Status,601,13225808133,/g3t1_2,,running
Status,602,13226288076,/g3t1_2,,success
Status,603,13234926708,/g3t1_1,,running
Status,604,13235366542,/g3t1_1,,success
Status,605,13243871515,/g4t1,,success
Status,606,13243952557,/g3t1_4,,running
Status,607,13245663350,/g3t1_2,,running
Status,608,13246120738,/g3t1_2,,success
Status,609,13251825807,/g3t1_4,,success
Status,610,13265884567,/g3t1_2,,running
Status,611,13266438407,/g3t1_2,,success
Status,612,13286030313,/g3t1_2,,running
Status,613,13286407021,/g3t1_2,,success
Status,614,13306251489,/g3t1_2,,running
Status,615,13306533153,/g3t1_2,,success
Status,616,13326355501,/g3t1_2,,running
Status,617,13326413901,/g3t1_2,,success
Status,618,13344313679,/g4t1,,success
Status,619,13344374893,/g3t1_4,,running
Status,620,13346208350,/g3t1_2,,running
Status,621,13346586801,/g3t1_2,,success
Status,622,13352134337,/g3t1_4,,success
Status,623,13366574034,/g3t1_2,,running
Status,624,13366956541,/g3t1_2,,success
Status,625,13386641075,/g3t1_2,,running
Status,626,13387202042,/g3t1_2,,success
Status,627,13406579922,/g3t1_2,,running
Status,628,13407097077,/g3t1_2,,success
Status,629,13426738748,/g3t1_2,,running
Status,630,13427182152,/g3t1_2,,success
Status,631,13444076501,/g4t1,,success
Status,632,13444136339,/g3t1_4,,running
Status,633,13446908777,/g3t1_2,,running
Status,634,13447188851,/g3t1_2,,success
Status,635,13451164817,/g3t1_4,,success
Status,636,13466674156,/g3t1_2,,running
Status,637,13466714379,/g3t1_2,,success
Status,638,13486692497,/g3t1_2,,running
Status,639,13486818946,/g3t1_2,,success
Status,640,13507245056,/g3t1_2,,running
Status,641,13507552721,/g3t1_2,,success
Status,642,13527415160,/g3t1_2,,running
Status,643,13527857306,/g3t1_2,,success
Status,644,13544308780,/g4t1,,success
Status,645,13544385923,/g3t1_4,,running
Status,646,13547395718,/g3t1_2,,running
Status,647,13547767462,/g3t1_2,,success
Status,648,13552731743,/g3t1_4,,success
Status,649,13567942145,/g3t1_2,,running
Status,650,13568407541,/g3t1_2,,success
Status,651,13587832021,/g3t1_2,,running
Status,652,13588184826,/g3t1_2,,success
Status,653,13607998001,/g3t1_2,,running
Status,654,13608465314,/g3t1_2,,success
Status,655,13628311339,/g3t1_2,,running
Status,656,13628604102,/g3t1_2,,success
Status,657,13644352590,/g4t1,,success
Status,658,13644428943,/g3t1_4,,running
Status,659,13648159116,/g3t1_2,,running
Status,660,13649023855,/g3t1_2,,success
Status,661,13652549832,/g3t1_4,,success
Status,662,13668505171,/g3t1_2,,running
Status,663,13668568108,/g3t1_2,,success
Status,664,13688710533,/g3t1_2,,running
Status,665,13688911872,/g3t1_2,,success
Status,666,13708880187,/g3t1_2,,running
Status,667,13709174818,/g3t1_2,,success
Status,668,13728986964,/g3t1_2,,running
Status,669,13729050146,/g3t1_2,,success
Status,670,13735098143,/g3t1_1,,running
Status,671,13735814805,/g3t1_1,,success
Status,672,13744517893,/g4t1,,success
Status,673,13744659023,/g3t1_4,,running
Status,674,13748805404,/g3t1_2,,running
Status,675,13749241910,/g3t1_2,,success
Status,676,13759904134,/g3t1_4,,success
Status,677,13768934267,/g3t1_2,,running
Status,678,13769364805,/g3t1_2,,success
Status,679,13789399960,/g3t1_2,,running
Status,680,13790355165,/g3t1_2,,success
Status,681,13809430745,/g3t1_2,,running
Status,682,13809730778,/g3t1_2,,success
Status,683,13829737547,/g3t1_2,,running
Status,684,13830012848,/g3t1_2,,success
Status,685,13844718078,/g4t1,,success
Status,686,13844807975,/g3t1_4,,running
Status,687,13849579614,/g3t1_2,,running
Status,688,13850050417,/g3t1_2,,success
Status,689,13852770150,/g3t1_4,,success
Status,690,13869844511,/g3t1_2,,running
Status,691,13870159500,/g3t1_2,,success
Status,692,13890119983,/g3t1_2,,running
Status,693,13890388035,/g3t1_2,,success
Status,694,13909907052,/g3t1_2,,running
Status,695,13910259931,/g3t1_2,,success
Status,696,13930248693,/g3t1_2,,running
Status,697,13930880134,/g3t1_2,,success
Status,698,13944709399,/g4t1,,success
Status,699,13944829084,/g3t1_4,,running
Status,700,13950224328,/g3t1_2,,running
Status,701,13950807233,/g3t1_2,,success
Status,702,13952976980,/g3t1_4,,success
Status,703,13970433051,/g3t1_2,,running
Status,704,13971084481,/g3t1_2,,success
Status,705,13990466642,/g3t1_2,,running
Status,706,13991012971,/g3t1_2,,success
Status,707,14010462282,/g3t1_2,,running
Status,708,14010900966,/g3t1_2,,success
Status,709,14030854153,/g3t1_2,,running
Status,710,14030915665,/g3t1_2,,success
Status,711,14036981981,/g3t1_3,,running
Status,712,14037353214,/g3t1_3,,success
Status,713,14044899213,/g4t1,,success
Status,714,14044965009,/g3t1_4,,running
Status,715,14051121890,/g3t1_2,,running
Status,716,14051184148,/g3t1_2,,success
Status,717,14053306562,/g3t1_4,,success
Status,718,14071020969,/g3t1_2,,running
Status,719,14071667289,/g3t1_2,,success
Status,720,14091320521,/g3t1_2,,running
Status,721,14091878518,/g3t1_2,,success
Status,722,14111214038,/g3t1_2,,running
Status,723,14111581628,/g3t1_2,,success
Status,724,14131466352,/g3t1_2,,running
Status,725,14132008656,/g3t1_2,,success
Status,726,14145023520,/g4t1,,success
Status,727,14145093297,/g3t1_4,,running
Status,728,14151362987,/g3t1_2,,running
Status,729,14151893344,/g3t1_2,,success
Status,730,14152928136,/g3t1_4,,success
Status,731,14171605621,/g3t1_2,,running
Status,732,14172121275,/g3t1_2,,success
Status,733,14191982302,/g3t1_2,,running
Status,734,14192329357,/g3t1_2,,success
Status,735,14211798970,/g3t1_2,,running
Status,736,14212184575,/g3t1_2,,success
Status,737,14232425833,/g3t1_2,,running
Status,738,14232643205,/g3t1_2,,success
Status,739,14235218850,/g3t1_1,,running
Status,740,14235961580,/g3t1_1,,success
Status,741,14245073939,/g4t1,,success
Status,742,14245239168,/g3t1_4,,running
Status,743,14251938767,/g3t1_2,,running
Status,744,14252712212,/g3t1_2,,success
Status,745,14252777917,/g3t1_4,,success
Status,746,14272382660,/g3t1_2,,running
Status,747,14272440137,/g3t1_2,,success
Status,748,14292545681,/g3t1_2,,running
Status,749,14292604966,/g3t1_2,,success
Status,750,14312446094,/g3t1_2,,running
Status,751,14312903840,/g3t1_2,,success
Status,752,14332488788,/g3t1_2,,running
Status,753,14332756390,/g3t1_2,,success
Status,754,14345230387,/g4t1,,success
Status,755,14345299091,/g3t1_4,,running
Status,756,14352684863,/g3t1_2,,running
Status,757,14352808689,/g3t1_4,,success
Status,758,14353318769,/g3t1_2,,success
Status,759,14372922029,/g3t1_2,,running
Status,760,14373105573,/g3t1_2,,success
Status,761,14393024368,/g3t1_2,,running
Status,762,14393620468,/g3t1_2,,success
Status,763,14413349782,/g3t1_2,,running
Status,764,14413770505,/g3t1_2,,success
Status,765,14433226674,/g3t1_2,,running
Status,766,14433875023,/g3t1_2,,success
Status,767,14445307128,/g4t1,,success
Status,768,14445388539,/g3t1_4,,running
Status,769,14452509174,/g3t1_4,,success
Status,770,14453219921,/g3t1_2,,running
Status,771,14454360437,/g3t1_2,,success
Status,772,14473622581,/g3t1_2,,running
Status,773,14473801541,/g3t1_2,,success
Status,774,14493660176,/g3t1_2,,running
Status,775,14494040350,/g3t1_2,,success
Status,776,14513767272,/g3t1_2,,running
Status,777,14514418377,/g3t1_2,,success
Status,778,14533863101,/g3t1_2,,running
Status,779,14534287445,/g3t1_2,,success
Status,780,14545470291,/g4t1,,success
Status,781,14545549458,/g3t1_4,,running
Status,782,14553598151,/g3t1_4,,success
Status,783,14553678049,/g3t1_2,,running
Status,784,14554717958,/g3t1_2,,success
Status,785,14574066792,/g3t1_2,,running
Status,786,14574400536,/g3t1_2,,success
Status,787,14594417347,/g3t1_2,,running
Status,788,14594944238,/g3t1_2,,success
Status,789,14614783821,/g3t1_2,,running
Status,790,14615030058,/g3t1_2,,success
Status,791,14634517533,/g3t1_2,,running
Status,792,14635887244,/g3t1_2,,success
Status,793,14645610280,/g4t1,,success
Status,794,14645667549,/g3t1_4,,running
Status,795,14653053207,/g3t1_4,,success
Status,796,14654414493,/g3t1_2,,running
Status,797,14654868241,/g3t1_2,,success
Status,798,14674851961,/g3t1_2,,running
Status,799,14675353089,/g3t1_2,,success
Status,800,14694942531,/g3t1_2,,running
Status,801,14695024937,/g3t1_2,,success
Status,802,14715187556,/g3t1_2,,running
Status,803,14715551022,/g3t1_2,,success
Status,804,14735616875,/g3t1_2,,running
Status,805,14736231309,/g3t1_1,,running
Status,806,14736484711,/g3t1_2,,success
Status,807,14736949653,/g3t1_1,,success
Status,808,14745627926,/g4t1,,success
Status,809,14745702927,/g3t1_4,,running
Status,810,14755100046,/g3t1_2,,running
Status,811,14755772826,/g3t1_2,,success
Status,812,14758641533,/g3t1_4,,success
Status,813,14775530785,/g3t1_2,,running
Status,814,14775749020,/g3t1_2,,success
Status,815,14795544717,/g3t1_2,,running
Status,816,14795829246,/g3t1_2,,success
Status,817,14815759964,/g3t1_2,,running
Status,818,14815814048,/g3t1_2,,success
Status,819,14835820442,/g3t1_2,,running
Status,820,14836212713,/g3t1_2,,success
Status,821,14845897209,/g4t1,,success
Status,822,14846006948,/g3t1_4,,running
Status,823,14855791009,/g3t1_2,,running
Status,824,14856058860,/g3t1_2,,success
Status,825,14876067860,/g3t1_2,,running
Status,826,14876268263,/g3t1_2,,success
Status,827,14896182181,/g3t1_2,,running
Status,828,14896504187,/g3t1_2,,success
Status,829,14916195726,/g3t1_2,,running
Status,830,14916926594,/g3t1_2,,success
Status,831,14922115117,/g3t1_4,,success
Status,832,14936394781,/g3t1_2,,running
Status,833,14936946026,/g3t1_2,,success
Status,834,14946405654,/g3t1_4,,running
Status,835,14946473194,/g4t1,,success
Status,836,14953507592,/g3t1_4,,success
Status,837,14956414483,/g3t1_2,,running
Status,838,14956815929,/g3t1_2,,success
Status,839,14976781707,/g3t1_2,,running
Status,840,14976841948,/g3t1_2,,success
Status,841,14996619317,/g3t1_2,,running
Status,842,14996947476,/g3t1_2,,success
Status,843,15017277962,/g3t1_2,,running
Status,844,15017358355,/g3t1_2,,success
Status,845,15037237275,/g3t1_2,,running
Status,846,15037296714,/g3t1_3,,running
Status,847,15037454838,/g3t1_2,,success
Status,848,15038000583,/g3t1_3,,success
Status,849,15046383301,/g4t1,,success
Status,850,15046461904,/g3t1_4,,running
Status,851,15053751046,/g3t1_4,,success
Status,852,15057228193,/g3t1_2,,running
Status,853,15057287703,/g3t1_2,,success
Status,854,15077301473,/g3t1_2,,running
Status,855,15077567626,/g3t1_2,,success
Status,856,15097619166,/g3t1_2,,running
Status,857,15097679471,/g3t1_2,,success
Status,858,15117669544,/g3t1_2,,running
Status,859,15118024032,/g3t1_2,,success
Status,860,15137500742,/g3t1_2,,running
Status,861,15138415697,/g3t1_2,,success
Status,862,15146316619,/g3t1_4,,running
Status,863,15146379574,/g4t1,,success
Status,864,15153826586,/g3t1_4,,success
Status,865,15157617021,/g3t1_2,,running
Status,866,15157930099,/g3t1_2,,success
Status,867,15177943005,/g3t1_2,,running
Status,868,15178515086,/g3t1_2,,success
Status,869,15198160586,/g3t1_2,,running
Status,870,15198395322,/g3t1_2,,success
Status,871,15218099989,/g3t1_2,,running
Status,872,15218422879,/g3t1_2,,success
Status,873,15235904521,/g3t1_1,,running
Status,874,15235972753,/g3t1_1,,success
Status,875,15238118631,/g3t1_2,,running
Status,876,15238560797,/g3t1_2,,success
Status,877,15246393741,/g3t1_4,,running
Status,878,15246621839,/g4t1,,success
Status,879,15258255323,/g3t1_2,,running
Status,880,15258739159,/g3t1_2,,success
Status,881,15260017003,/g3t1_4,,success
Status,882,15278390782,/g3t1_2,,running
Status,883,15278966664,/g3t1_2,,success
Status,884,15298499210,/g3t1_2,,running
Status,885,15299093031,/g3t1_2,,success
Status,886,15318728347,/g3t1_2,,running
Status,887,15319221291,/g3t1_2,,success
Status,888,15338935166,/g3t1_2,,running
Status,889,15339191616,/g3t1_2,,success
Status,890,15346337429,/g3t1_4,,running
Status,891,15346402294,/g4t1,,success
Status,892,15353618099,/g3t1_4,,success
Status,893,15358954986,/g3t1_2,,running
Status,894,15359918867,/g3t1_2,,success
Status,895,15378993846,/g3t1_2,,running
Status,896,15379193996,/g3t1_2,,success
Status,897,15399129462,/g3t1_2,,running
Status,898,15399381434,/g3t1_2,,success
Status,899,15419463713,/g3t1_2,,running
Status,900,15419549956,/g3t1_2,,success
Status,901,15439515738,/g3t1_2,,running
Status,902,15439578746,/g3t1_2,,success
Status,903,15446310866,/g3t1_4,,running
Status,904,15446366701,/g4t1,,success
Status,905,15458984266,/g3t1_4,,success
Status,906,15459225759,/g3t1_2,,running
Status,907,15459763126,/g3t1_2,,success
Status,908,15480068785,/g3t1_2,,running
Status,909,15480128732,/g3t1_2,,success
Status,910,15499973123,/g3t1_2,,running
Status,911,15500312425,/g3t1_2,,success
Status,912,15520063595,/g3t1_2,,running
Status,913,15520619895,/g3t1_2,,success
Status,914,15540108779,/g3t1_2,,running
Status,915,15540451359,/g3t1_2,,success
Status,916,15546575946,/g3t1_4,,running
Status,917,15546648615,/g4t1,,success
Status,918,15557246594,/g3t1_4,,success
Status,919,15560163879,/g3t1_2,,running
Status,920,15561107858,/g3t1_2,,success
Status,921,15580516965,/g3t1_2,,running
Status,922,15580821714,/g3t1_2,,success
Status,923,15600595097,/g3t1_2,,running
Status,924,15601381520,/g3t1_2,,success
Status,925,15620705570,/g3t1_2,,running
Status,926,15621209911,/g3t1_2,,success
Status,927,15640770843,/g3t1_2,,running
Status,928,15641079366,/g3t1_2,,success
Status,929,15646832007,/g4t1,,success
Status,930,15646887014,/g3t1_4,,running
Status,931,15655505035,/g3t1_4,,success
Status,932,15660940202,/g3t1_2,,running
Status,933,15661912300,/g3t1_2,,success
Status,934,15681212636,/g3t1_2,,running
Status,935,15681760764,/g3t1_2,,success
Status,936,15701247598,/g3t1_2,,running
Status,937,15701864145,/g3t1_2,,success
Status,938,15721547708,/g3t1_2,,running
Status,939,15721608051,/g3t1_2,,success
Status,940,15735702727,/g3t1_1,,running
Status,941,15735984131,/g3t1_1,,success
Status,942,15741356461,/g3t1_2,,running
Status,943,15741650033,/g3t1_2,,success
Status,944,15746689640,/g3t1_4,,running
Status,945,15746749410,/g4t1,,success
Status,946,15754574234,/g3t1_4,,success
Status,947,15761424827,/g3t1_2,,running
Status,948,15761794008,/g3t1_2,,success
Status,949,15781911786,/g3t1_2,,running
Status,950,15782488582,/g3t1_2,,success
Status,951,15801903493,/g3t1_2,,running
Status,952,15802423968,/g3t1_2,,success
Status,953,15821790226,/g3t1_2,,running
Status,954,15822483237,/g3t1_2,,success
Status,955,15841970071,/g3t1_2,,running
Status,956,15842444575,/g3t1_2,,success
Status,957,15846820500,/g3t1_4,,running
Status,958,15846876941,/g4t1,,success
Status,959,15854475018,/g3t1_4,,success
Status,960,15862155936,/g3t1_2,,running
Status,961,15862224704,/g3t1_2,,success
Status,962,15882176027,/g3t1_2,,running
Status,963,15882758419,/g3t1_2,,success
Status,964,15902539450,/g3t1_2,,running
Status,965,15902616951,/g3t1_2,,success
Status,966,15922511035,/g3t1_2,,running
Status,967,15923197792,/g3t1_2,,success
Status,968,15942594641,/g3t1_2,,running
Status,969,15943193160,/g3t1_2,,success
Status,970,15946910086,/g3t1_4,,running
Status,971,15946979572,/g4t1,,success
Status,972,15954003743,/g3t1_4,,success
Status,973,15962714258,/g3t1_2,,running
Status,974,15963030270,/g3t1_2,,success
Status,975,15982858850,/g3t1_2,,running
Status,976,15983310611,/g3t1_2,,success
Status,977,16002977558,/g3t1_2,,running
Status,978,16003427649,/g3t1_2,,success
Status,979,16023014155,/g3t1_2,,running
Status,980,16023402236,/g3t1_2,,success
Status,981,16037408110,/g3t1_3,,running
Status,982,16037920684,/g3t1_3,,success
Status,983,16043184137,/g3t1_2,,running
Status,984,16043492395,/g3t1_2,,success
Status,985,16046983293,/g3t1_4,,running
Status,986,16047043599,/g4t1,,success
Status,987,16054807947,/g3t1_4,,success
Status,988,16063465756,/g3t1_2,,running
Status,989,16063702566,/g3t1_2,,success
Status,990,16083446917,/g3t1_2,,running
Status,991,16084268405,/g3t1_2,,success
Status,992,16103561514,/g3t1_2,,running
Status,993,16104128307,/g3t1_2,,success
Status,994,16123744416,/g3t1_2,,running
Status,995,16124072208,/g3t1_2,,success
Status,996,16143969113,/g3t1_2,,running
Status,997,16144536292,/g3t1_2,,success
Status,998,16147061877,/g3t1_4,,running
Status,999,16147260794,/g4t1,,success
Status,1000,16154548431,/g3t1_4,,success
Status,1001,16164067626,/g3t1_2,,running
Status,1002,16164412740,/g3t1_2,,success
Status,1003,16184099013,/g3t1_2,,running
Status,1004,16185033776,/g3t1_2,,success
Status,1005,16204267044,/g3t1_2,,running
Status,1006,16204744023,/g3t1_2,,success
Status,1007,16224565714,/g3t1_2,,running
Status,1008,16225236931,/g3t1_2,,success
Status,1009,16235823423,/g3t1_1,,running
Status,1010,16236497974,/g3t1_1,,success
Status,1011,16244706901,/g3t1_2,,running
Status,1012,16244900288,/g3t1_2,,success
Status,1013,16247358412,/g3t1_4,,running
Status,1014,16247427700,/g4t1,,success
Status,1015,16255921706,/g3t1_4,,success
Status,1016,16264654338,/g3t1_2,,running
Status,1017,16265051131,/g3t1_2,,success
Status,1018,16285075979,/g3t1_2,,running
Status,1019,16285445259,/g3t1_2,,success
Status,1020,16304978939,/g3t1_2,,running
Status,1021,16305553632,/g3t1_2,,success
Status,1022,16325589577,/g3t1_2,,running
Status,1023,16325919899,/g3t1_2,,success
Status,1024,16345728972,/g3t1_2,,running
Status,1025,16345811237,/g3t1_2,,success
Status,1026,16347269164,/g3t1_4,,running
Status,1027,16347539014,/g4t1,,success
Status,1028,16355618009,/g3t1_4,,success
Status,1029,16365862769,/g3t1_2,,running
Status,1030,16366452184,/g3t1_2,,success
Status,1031,16385802933,/g3t1_2,,running
Status,1032,16386182304,/g3t1_2,,success
Status,1033,16406069600,/g3t1_2,,running
Status,1034,16406615484,/g3t1_2,,success
Status,1035,16426143727,/g3t1_2,,running
Status,1036,16426471201,/g3t1_2,,success
Status,1037,16446213647,/g3t1_2,,running
Status,1038,16446504250,/g3t1_2,,success
Status,1039,16447319786,/g3t1_4,,running
Status,1040,16447831045,/g4t1,,success
Status,1041,16455633172,/g3t1_4,,success
Status,1042,16466389461,/g3t1_2,,running
Status,1043,16467084585,/g3t1_2,,success
Status,1044,16486787472,/g3t1_2,,running
Status,1045,16486862426,/g3t1_2,,success
Status,1046,16506687919,/g3t1_2,,running
Status,1047,16506915677,/g3t1_2,,success
Status,1048,16526780334,/g3t1_2,,running
Status,1049,16527164344,/g3t1_2,,success
Status,1050,16546824140,/g3t1_2,,running
Status,1051,16547362273,/g3t1_2,,success
Status,1052,16547725373,/g3t1_4,,running
Status,1053,16547780894,/g4t1,,success
Status,1054,16555940778,/g3t1_4,,success
Status,1055,16566879802,/g3t1_2,,running
Status,1056,16567687360,/g3t1_2,,success
Status,1057,16587154618,/g3t1_2,,running
Status,1058,16587489313,/g3t1_2,,success
Status,1059,16607117346,/g3t1_2,,running
Status,1060,16607555210,/g3t1_2,,success
Status,1061,16627078190,/g3t1_2,,running
Status,1062,16627545308,/g3t1_2,,success
Status,1063,16646864189,/g3t1_2,,running
Status,1064,16647163581,/g3t1_2,,success
Status,1065,16647234300,/g4t1,,success
Status,1066,16647273906,/g3t1_4,,running
Status,1067,16649968318,/g3t1_4,,success
Status,1068,16666952819,/g3t1_2,,running
Status,1069,16667298090,/g3t1_2,,success
Status,1070,16687836873,/g3t1_2,,running
Status,1071,16688132424,/g3t1_2,,success
Status,1072,16707899453,/g3t1_2,,running
Status,1073,16707955940,/g3t1_2,,success
Status,1074,16728167077,/g3t1_2,,running
Status,1075,16728440323,/g3t1_2,,success
Status,1076,16735937673,/g3t1_1,,running
Status,1077,16736545011,/g3t1_1,,success
Status,1078,16748074125,/g3t1_4,,running
Status,1079,16748263883,/g3t1_2,,running
Status,1080,16748317403,/g4t1,,success
Status,1081,16748904997,/g3t1_2,,success
Status,1082,16756027077,/g3t1_4,,success
Status,1083,16768028429,/g3t1_2,,running
Status,1084,16768516964,/g3t1_2,,success
Status,1085,16788393734,/g3t1_2,,running
Status,1086,16788583702,/g3t1_2,,success
Status,1087,16808485085,/g3t1_2,,running
Status,1088,16808800051,/g3t1_2,,success
Status,1089,16828704889,/g3t1_2,,running
Status,1090,16829248985,/g3t1_2,,success
Status,1091,16848123428,/g3t1_4,,running
Status,1092,16848229362,/g4t1,,success
Status,1093,16848852188,/g3t1_2,,running
Status,1094,16849247388,/g3t1_2,,success
Status,1095,16856584708,/g3t1_4,,success
Status,1096,16868826576,/g3t1_2,,running
Status,1097,16869112118,/g3t1_2,,success
Status,1098,16888938522,/g3t1_2,,running
Status,1099,16889671831,/g3t1_2,,success
Status,1100,16909088966,/g3t1_2,,running
Status,1101,16909493735,/g3t1_2,,success
Status,1102,16929211209,/g3t1_2,,running
Status,1103,16929891975,/g3t1_2,,success
Status,1104,16948382966,/g3t1_4,,running
Status,1105,16948463334,/g4t1,,success
Status,1106,16949553349,/g3t1_2,,running
Status,1107,16949608079,/g3t1_2,,success
Status,1108,16955887836,/g3t1_4,,success
Status,1109,16969431640,/g3t1_2,,running
Status,1110,16969943781,/g3t1_2,,success
Status,1111,16989616914,/g3t1_2,,running
Status,1112,16989958342,/g3t1_2,,success
Status,1113,17009860450,/g3t1_2,,running
Status,1114,17010196056,/g3t1_2,,success
Status,1115,17029771128,/g3t1_2,,running
Status,1116,17030125601,/g3t1_2,,success
Status,1117,17037526747,/g3t1_3,,running
Status,1118,17038469395,/g3t1_3,,success
Status,1119,17048187563,/g3t1_4,,running
Status,1120,17048253949,/g4t1,,success
Status,1121,17049612213,/g3t1_2,,running
Status,1122,17050362840,/g3t1_2,,success
Status,1123,17056083803,/g3t1_4,,success
Status,1124,17070128409,/g3t1_2,,running
Status,1125,17070509090,/g3t1_2,,success
Status,1126,17090194070,/g3t1_2,,running
Status,1127,17090528833,/g3t1_2,,success
Status,1128,17110229375,/g3t1_2,,running
Status,1129,17110651275,/g3t1_2,,success
Status,1130,17130313310,/g3t1_2,,running
Status,1131,17130703912,/g3t1_2,,success
Status,1132,17148334355,/g3t1_4,,running
Status,1133,17148395505,/g4t1,,success
Status,1134,17150289027,/g3t1_2,,running
Status,1135,17150662622,/g3t1_2,,success
Status,1136,17155940738,/g3t1_4,,success
Status,1137,17170601143,/g3t1_2,,running
Status,1138,17171408395,/g3t1_2,,success
Status,1139,17190770370,/g3t1_2,,running
Status,1140,17191099447,/g3t1_2,,success
Status,1141,17210811431,/g3t1_2,,running
Status,1142,17211475943,/g3t1_2,,success
Status,1143,17231084058,/g3t1_2,,running
Status,1144,17231419676,/g3t1_2,,success
Status,1145,17235992863,/g3t1_1,,running
Status,1146,17236573401,/g3t1_1,,success
Status,1147,17248434432,/g3t1_4,,running
Status,1148,17248511567,/g4t1,,success
Status,1149,17251115456,/g3t1_2,,running
Status,1150,17251352363,/g3t1_2,,success
Status,1151,17257108700,/g3t1_4,,success
Status,1152,17271401623,/g3t1_2,,running
Status,1153,17271462851,/g3t1_2,,success
Status,1154,17291725432,/g3t1_2,,running
Status,1155,17291786122,/g3t1_2,,success
Status,1156,17311609388,/g3t1_2,,running
Status,1157,17312450258,/g3t1_2,,success
Status,1158,17332036689,/g3t1_2,,running
Status,1159,17332096757,/g3t1_2,,success
Status,1160,17348590978,/g3t1_4,,running
Status,1161,17348649175,/g4t1,,success
Status,1162,17351839036,/g3t1_2,,running
Status,1163,17352069483,/g3t1_2,,success
Status,1164,17356108441,/g3t1_4,,success
Status,1165,17372039712,/g3t1_2,,running
Status,1166,17372650470,/g3t1_2,,success
Status,1167,17392308942,/g3t1_2,,running
Status,1168,17392506023,/g3t1_2,,success
Status,1169,17412317004,/g3t1_2,,running
Status,1170,17412736291,/g3t1_2,,success
Status,1171,17432187292,/g3t1_2,,running
Status,1172,17432862552,/g3t1_2,,success
Status,1173,17448764337,/g3t1_4,,running
Status,1174,17448827396,/g4t1,,success
Status,1175,17452269517,/g3t1_2,,running
Status,1176,17452850223,/g3t1_2,,success
Status,1177,17456698484,/g3t1_4,,success
Status,1178,17472630835,/g3t1_2,,running
Status,1179,17472868083,/g3t1_2,,success
Status,1180,17492663048,/g3t1_2,,running
Status,1181,17492958828,/g3t1_2,,success
Status,1182,17512865905,/g3t1_2,,running
Status,1183,17513088811,/g3t1_2,,success
Status,1184,17532913441,/g3t1_2,,running
Status,1185,17533234009,/g3t1_2,,success
Status,1186,17548965901,/g3t1_4,,running
Status,1187,17549045552,/g4t1,,success
Status,1188,17552920067,/g3t1_2,,running
Status,1189,17553485142,/g3t1_2,,success
Status,1190,17556483752,/g3t1_4,,success
Status,1191,17573215545,/g3t1_2,,running
Status,1192,17573553952,/g3t1_2,,success
Status,1193,17593366777,/g3t1_2,,running
Status,1194,17593703273,/g3t1_2,,success
Status,1195,17613832532,/g3t1_2,,running
Status,1196,17614344893,/g3t1_2,,success
Status,1197,17633588730,/g3t1_2,,running
Status,1198,17634133551,/g3t1_2,,success
Status,1199,17648931188,/g3t1_4,,running
Status,1200,17648993294,/g4t1,,success
Status,1201,17653732040,/g3t1_2,,running
Status,1202,17654086585,/g3t1_2,,success
Status,1203,17657928676,/g3t1_4,,success
Status,1204,17673737679,/g3t1_2,,running
Status,1205,17674163236,/g3t1_2,,success
Status,1206,17693902018,/g3t1_2,,running
Status,1207,17694340354,/g3t1_2,,success
Status,1208,17714259704,/g3t1_2,,running
Status,1209,17714720411,/g3t1_2,,success
Status,1210,17734221336,/g3t1_2,,running
Status,1211,17734488121,/g3t1_2,,success
Status,1212,17736109377,/g3t1_1,,running
Status,1213,17736605163,/g3t1_1,,success
Status,1214,17749104962,/g3t1_4,,running
Status,1215,17749300805,/g4t1,,success
Status,1216,17754084796,/g3t1_2,,running
Status,1217,17754486749,/g3t1_2,,success
Status,1218,17756263036,/g3t1_4,,success
Status,1219,17774273257,/g3t1_2,,running
Status,1220,17774787451,/g3t1_2,,success
Status,1221,17794481100,/g3t1_2,,running
Status,1222,17794847747,/g3t1_2,,success
Status,1223,17814506771,/g3t1_2,,running
Status,1224,17814981735,/g3t1_2,,success
Status,1225,17834672786,/g3t1_2,,running
Status,1226,17834733670,/g3t1_2,,success
Status,1227,17849369730,/g3t1_4,,running
Status,1228,17849431695,/g4t1,,success
Status,1229,17854604765,/g3t1_2,,running
Status,1230,17854938090,/g3t1_2,,success
Status,1231,17857009304,/g3t1_4,,success
Status,1232,17874785538,/g3t1_2,,running
Status,1233,17875145660,/g3t1_2,,success
Status,1234,17895082800,/g3t1_2,,running
Status,1235,17895377013,/g3t1_2,,success
Status,1236,17915080529,/g3t1_2,,running
Status,1237,17915438478,/g3t1_2,,success
Status,1238,17935431274,/g3t1_2,,running
Status,1239,17935493336,/g3t1_2,,success
Status,1240,17949403575,/g3t1_4,,running
Status,1241,17949464268,/g4t1,,success
Status,1242,17955354365,/g3t1_2,,running
Status,1243,17955611705,/g3t1_2,,success
Status,1244,17957718783,/g3t1_4,,success
Status,1245,17975423694,/g3t1_2,,running
Status,1246,17975760184,/g3t1_2,,success
Status,1247,17995582373,/g3t1_2,,running
Status,1248,17996308754,/g3t1_2,,success
Status,1249,18015865918,/g3t1_2,,running
Status,1250,18016353887,/g3t1_2,,success
Status,1251,18035852679,/g3t1_2,,running
Status,1252,18036120479,/g3t1_2,,success
Status,1253,18037404882,/g3t1_3,,running
Status,1254,18038006275,/g3t1_3,,success
Status,1255,18049575529,/g3t1_4,,running
Status,1256,18049659825,/g4t1,,success
Status,1257,18055947641,/g3t1_2,,running
Status,1258,18056146589,/g3t1_2,,success
Status,1259,18063517177,/g3t1_4,,success
Status,1260,18076072538,/g3t1_2,,running
Status,1261,18076418516,/g3t1_2,,success
Status,1262,18096154084,/g3t1_2,,running
Status,1263,18096870302,/g3t1_2,,success
Status,1264,18116302310,/g3t1_2,,running
Status,1265,18116935303,/g3t1_2,,success
Status,1266,18136923676,/g3t1_2,,running
Status,1267,18136984587,/g3t1_2,,success
Status,1268,18149678585,/g3t1_4,,running
Status,1269,18149743070,/g4t1,,success
Status,1270,18156607607,/g3t1_2,,running
Status,1271,18157047631,/g3t1_2,,success
Status,1272,18157406693,/g3t1_4,,success
Status,1273,18176926118,/g3t1_2,,running
Status,1274,18176989764,/g3t1_2,,success
Status,1275,18196979077,/g3t1_2,,running
Status,1276,18197398264,/g3t1_2,,success
Status,1277,18217018705,/g3t1_2,,running
Status,1278,18217595180,/g3t1_2,,success
Status,1279,18236512239,/g3t1_1,,running
Status,1280,18237667195,/g3t1_2,,running
Status,1281,18237710130,/g3t1_2,,success
Status,1282,18237765731,/g3t1_1,,success
Status,1283,18249800744,/g3t1_4,,running
Status,1284,18249882334,/g4t1,,success
Status,1285,18257373958,/g3t1_2,,running
Status,1286,18258080382,/g3t1_4,,success
Status,1287,18258157046,/g3t1_2,,success
Status,1288,18277380948,/g3t1_2,,running
Status,1289,18277820560,/g3t1_2,,success
Status,1290,18297719269,/g3t1_2,,running
Status,1291,18298011244,/g3t1_2,,success
Status,1292,18317694737,/g3t1_2,,running
Status,1293,18317998852,/g3t1_2,,success
Status,1294,18337646144,/g3t1_2,,running
Status,1295,18338053606,/g3t1_2,,success
Status,1296,18349710694,/g3t1_4,,running
Status,1297,18349854288,/g4t1,,success
Status,1298,18358005741,/g3t1_2,,running
Status,1299,18358065927,/g3t1_4,,success
Status,1300,18358773471,/g3t1_2,,success
Status,1301,18378078993,/g3t1_2,,running
Status,1302,18378915930,/g3t1_2,,success
Status,1303,18398097524,/g3t1_2,,running
Status,1304,18398588065,/g3t1_2,,success
Status,1305,18418136905,/g3t1_2,,running
Status,1306,18418676947,/g3t1_2,,success
Status,1307,18438341672,/g3t1_2,,running
Status,1308,18438826332,/g3t1_2,,success
Status,1309,18450158987,/g3t1_4,,running
Status,1310,18450217493,/g4t1,,success
Status,1311,18458420488,/g3t1_2,,running
Status,1312,18458478051,/g3t1_4,,success
Status,1313,18458725871,/g3t1_2,,success
Status,1314,18478498322,/g3t1_2,,running
Status,1315,18478879749,/g3t1_2,,success
Status,1316,18498516424,/g3t1_2,,running
Status,1317,18499018490,/g3t1_2,,success
Status,1318,18519186941,/g3t1_2,,running
Status,1319,18519252010,/g3t1_2,,success
Status,1320,18538974147,/g3t1_2,,running
Status,1321,18539204357,/g3t1_2,,success
Status,1323,18550213325,/g4t1,,success
Status,1324,18550288931,/g3t1_4,,running
Status,1326,18558879968,/g3t1_2,,running
Status,1327,18559147467,/g3t1_2,,success
Status,1328,18561623347,/g3t1_4,,success
Status,1329,18578662561,/g3t1_2,,running
Status,1330,18578826840,/g3t1_2,,success
Status,1331,18598622736,/g3t1_2,,running
Status,1332,18598822944,/g3t1_2,,success
Status,1333,18618788114,/g3t1_2,,running
Status,1334,18618814431,/g3t1_2,,success
Status,1335,18638837366,/g3t1_2,,running
Status,1336,18638864746,/g3t1_2,,success
Status,1337,18649489698,/g4t1,,success
Status,1338,18649806605,/g3t1_4,,running
Status,1339,18652490336,/g3t1_4,,success
Status,1340,18659030790,/g3t1_2,,running
Status,1341,18659051185,/g3t1_2,,success
Status,1342,18679140461,/g3t1_2,,running
Status,1343,18679240783,/g3t1_2,,success
Status,1344,18699313685,/g3t1_2,,running
Status,1345,18699334061,/g3t1_2,,success
Status,1346,18719278766,/g3t1_2,,running
Status,1347,18719302460,/g3t1_2,,success
Status,1348,18736185672,/g3t1_1,,running
Status,1349,18736333730,/g3t1_1,,fail
Status,1350,18739554463,/g3t1_2,,running
Status,1351,18739716541,/g3t1_2,,success
Status,1354,18749713891,/g4t1,,success
Status,1355,18749891776,/g3t1_4,,running
Status,1356,18752999979,/g3t1_4,,success
Status,1357,18759545361,/g3t1_2,,running
Status,1358,18759574681,/g3t1_2,,success
Status,1359,18779880605,/g3t1_2,,running
Status,1360,18779914289,/g3t1_2,,success
Status,1361,18800156070,/g3t1_2,,running
Status,1362,18800201227,/g3t1_2,,success
Status,1363,18820001726,/g3t1_2,,running
Status,1364,18820151171,/g3t1_2,,success
Status,1365,18840419766,/g3t1_2,,running
Status,1366,18840455304,/g3t1_2,,success
Status,1367,18849886374,/g4t1,,success
Status,1368,18850085621,/g3t1_4,,running
Status,1369,18854180537,/g3t1_4,,success
Status,1370,18860138163,/g3t1_2,,running
Status,1371,18860485332,/g3t1_2,,success
Status,1372,18880391787,/g3t1_2,,running
Status,1373,18880606375,/g3t1_2,,success
Status,1374,18900956603,/g3t1_2,,running
Status,1375,18901335507,/g3t1_2,,success
Status,1376,18921055752,/g3t1_2,,running
Status,1377,18921543148,/g3t1_2,,success
Status,1378,18941123604,/g3t1_2,,running
Status,1379,18941463367,/g3t1_2,,success
Status,1382,18950554527,/g4t1,,success
Status,1383,18950727558,/g3t1_4,,running
Status,1384,18958759233,/g3t1_4,,success
Status,1385,18961259486,/g3t1_2,,running
Status,1386,18961516307,/g3t1_2,,success
Status,1387,18981520081,/g3t1_2,,running
Status,1388,18981987359,/g3t1_2,,success
Status,1389,19001961012,/g3t1_2,,running
Status,1390,19002504704,/g3t1_2,,success
Status,1391,19022091905,/g3t1_2,,running
Status,1392,19022284820,/g3t1_2,,success
Status,1393,19038009304,/g3t1_3,,running
Status,1394,19038682752,/g3t1_3,,success
Status,1395,19041839932,/g3t1_2,,running
Status,1396,19042434254,/g3t1_2,,success
Status,1397,19050607371,/g4t1,,success
Status,1398,19050677486,/g3t1_4,,running
Status,1399,19058203127,/g3t1_4,,success
Status,1400,19062140897,/g3t1_2,,running
Status,1401,19062200384,/g3t1_2,,success
Status,1402,19082294853,/g3t1_2,,running
Status,1403,19082729925,/g3t1_2,,success
Status,1404,19102280059,/g3t1_2,,running
Status,1405,19102679847,/g3t1_2,,success
Status,1406,19122321542,/g3t1_2,,running
Status,1407,19122715763,/g3t1_2,,success
Status,1408,19142371668,/g3t1_2,,running
Status,1409,19142625520,/g3t1_2,,success
Status,1412,19150658521,/g4t1,,success
Status,1413,19151124433,/g3t1_4,,running
Status,1414,19160252868,/g3t1_4,,success
Status,1415,19162291900,/g3t1_2,,running
Status,1416,19162902888,/g3t1_2,,success
Status,1417,19182301470,/g3t1_2,,running
Status,1418,19182593315,/g3t1_2,,success
Status,1419,19202532938,/g3t1_2,,running
Status,1420,19202585038,/g3t1_2,,success
Status,1421,19222717600,/g3t1_2,,running
Status,1422,19223075339,/g3t1_2,,success
Status,1423,19236899286,/g3t1_1,,running
Status,1424,19237082757,/g3t1_1,,fail
Status,1425,19242943788,/g3t1_2,,running
Status,1426,19243515940,/g3t1_2,,success
Status,1427,19250878348,/g4t1,,success
Status,1428,19250936272,/g3t1_4,,running
Status,1429,19258400389,/g3t1_4,,success
Status,1430,19263124330,/g3t1_2,,running
Status,1431,19263182226,/g3t1_2,,success
Status,1432,19283203409,/g3t1_2,,running
Status,1433,19283881105,/g3t1_2,,success
Status,1434,19303466008,/g3t1_2,,running
Status,1435,19303704492,/g3t1_2,,success
Status,1436,19323525395,/g3t1_2,,running
Status,1437,19323821626,/g3t1_2,,success
Status,1438,19343805532,/g3t1_2,,running
Status,1439,19343964770,/g3t1_2,,success
Status,1442,19351780162,/g4t1,,success
Status,1443,19351840700,/g3t1_4,,running
Status,1444,19363919527,/g3t1_2,,running
Status,1445,19364213813,/g3t1_2,,success
Status,1446,19364794073,/g3t1_4,,success
Status,1447,19383411311,/g3t1_2,,running
Status,1448,19383791827,/g3t1_2,,success
Status,1449,19404060601,/g3t1_2,,running
Status,1450,19404685386,/g3t1_2,,success
Status,1451,19424037216,/g3t1_2,,running
Status,1452,19424291200,/g3t1_2,,success
Status,1453,19444234255,/g3t1_2,,running
Status,1454,19444521735,/g3t1_2,,success
Status,1455,19451189225,/g4t1,,success
Status,1456,19451290590,/g3t1_4,,running
Status,1457,19460110984,/g3t1_4,,success
Status,1458,19464435518,/g3t1_2,,running
Status,1459,19464490883,/g3t1_2,,success
Status,1460,19484601728,/g3t1_2,,running
Status,1461,19484661875,/g3t1_2,,success
Status,1462,19504818028,/g3t1_2,,running
Status,1463,19505060022,/g3t1_2,,success
Status,1464,19524966376,/g3t1_2,,running
Status,1465,19525337240,/g3t1_2,,success
Status,1466,19544918029,/g3t1_2,,running
Status,1467,19545354962,/g3t1_2,,success
Status,1470,19551159296,/g4t1,,success
Status,1471,19551224609,/g3t1_4,,running
Status,1472,19559418228,/g3t1_4,,success
Status,1473,19565086660,/g3t1_2,,running
Status,1474,19565207455,/g3t1_2,,success
Status,1475,19585309380,/g3t1_2,,running
Status,1476,19585415395,/g3t1_2,,success
Status,1477,19605781669,/g3t1_2,,running
Status,1478,19606407067,/g3t1_2,,success
Status,1479,19625511677,/g3t1_2,,running
Status,1480,19625782580,/g3t1_2,,success
Status,1481,19645562174,/g3t1_2,,running
Status,1482,19645813030,/g3t1_2,,success
Status,1483,19651286471,/g4t1,,success
Status,1484,19651358479,/g3t1_4,,running
Status,1485,19659869406,/g3t1_4,,success
Status,1486,19665698009,/g3t1_2,,running
Status,1487,19666351317,/g3t1_2,,success
Status,1488,19686035295,/g3t1_2,,running
Status,1489,19686203171,/g3t1_2,,success
Status,1490,19706076357,/g3t1_2,,running
Status,1491,19706534427,/g3t1_2,,success
Status,1492,19726193409,/g3t1_2,,running
Status,1493,19726534808,/g3t1_2,,success
Status,1494,19737268191,/g3t1_1,,running
Status,1495,19737331908,/g3t1_1,,fail
Status,1496,19746377068,/g3t1_2,,running
Status,1497,19746808275,/g3t1_2,,success
Status,1500,19751251974,/g4t1,,success
Status,1501,19751331546,/g3t1_4,,running
Status,1502,19760003967,/g3t1_4,,success
Status,1503,19766207811,/g3t1_2,,running
Status,1504,19766947780,/g3t1_2,,success
Status,1505,19786050247,/g3t1_2,,running
Status,1506,19786297365,/g3t1_2,,success
Status,1507,19807200561,/g3t1_2,,running
Status,1508,19807486187,/g3t1_2,,success
Status,1509,19826663358,/g3t1_2,,running
Status,1510,19826937565,/g3t1_2,,success
Status,1511,19846790707,/g3t1_2,,running
Status,1512,19847147561,/g3t1_2,,success
Status,1513,19851413414,/g4t1,,success
Status,1514,19851522030,/g3t1_4,,running
Status,1515,19859546238,/g3t1_4,,success
Status,1516,19867041774,/g3t1_2,,running
Status,1517,19867481825,/g3t1_2,,success
Status,1518,19887083395,/g3t1_2,,running
Status,1519,19887661918,/g3t1_2,,success
