
Status,2,20341968278,/g4t1,,init
Status,4,25552826005,/g3t1_1,,init
Status,5,25559471788,/g3t1_1,,init
Status,6,25559488958,/g3t1_1,,running
Status,7,25560748185,/g3t1_1,,success
Status,9,25756912288,/g3t1_2,,init
Status,10,25763083219,/g3t1_2,,init
Status,11,25763096166,/g3t1_2,,running
Status,12,25764192788,/g3t1_2,,success
Status,13,25960250724,/g3t1_3,,init
Status,15,25960420922,/g3t1_4,,init
Status,17,25963154908,/g3t1_2,,running
Status,18,25963288933,/g3t1_2,,success
Status,19,25967181247,/g3t1_3,,init
Status,20,25967194015,/g3t1_3,,running
Status,21,25968841246,/g3t1_3,,success
Status,22,25969677471,/g3t1_4,,init
Status,23,25969694070,/g3t1_4,,running
Status,24,25971414618,/g3t1_4,,success
Status,25,26163971194,/g3t1_2,,running
Status,26,26164346157,/g3t1_2,,success
Status,27,26351785796,/g4t1,,success
Status,28,26363668964,/g3t1_2,,running
Status,29,26363893157,/g3t1_2,,success
Status,30,26564162930,/g3t1_2,,running
Status,31,26564643266,/g3t1_2,,success
Status,32,26764730957,/g3t1_2,,running
Status,33,26765411086,/g3t1_2,,success
Status,34,26964875998,/g3t1_2,,running
Status,35,26965430406,/g3t1_2,,success
Status,36,27165027200,/g3t1_2,,running
Status,37,27165538408,/g3t1_2,,success
Status,38,27351997844,/g4t1,,success
Status,39,27365000617,/g3t1_2,,running
Status,40,27365475757,/g3t1_2,,success
Status,41,27565026935,/g3t1_2,,running
Status,42,27565381983,/g3t1_2,,success
Status,43,27765008790,/g3t1_2,,running
Status,44,27765486300,/g3t1_2,,success
Status,45,27965401189,/g3t1_2,,running
Status,46,27965764608,/g3t1_2,,success
Status,47,28165418520,/g3t1_2,,running
Status,48,28166072030,/g3t1_2,,success
Status,49,28352286247,/g4t1,,success
Status,50,28365640514,/g3t1_2,,running
Status,51,28366182985,/g3t1_2,,success
Status,52,28566056428,/g3t1_2,,running
Status,53,28566618207,/g3t1_2,,success
Status,54,28766258059,/g3t1_2,,running
Status,55,28766599842,/g3t1_2,,success
Status,56,28966687174,/g3t1_2,,running
Status,57,28967094387,/g3t1_2,,success
Status,58,29166748932,/g3t1_2,,running
Status,59,29167296686,/g3t1_2,,success
Status,60,29352457290,/g4t1,,success
Status,61,29366622392,/g3t1_2,,running
Status,62,29367118743,/g3t1_2,,success
Status,63,29566393524,/g3t1_2,,running
Status,64,29566640494,/g3t1_2,,success
Status,65,29767041550,/g3t1_2,,running
Status,66,29767594813,/g3t1_2,,success
Status,67,29967348693,/g3t1_2,,running
Status,68,29968357063,/g3t1_2,,success
Status,69,30167418055,/g3t1_2,,running
Status,70,30167764331,/g3t1_2,,success
Status,71,30352624065,/g4t1,,success
Status,72,30367437615,/g3t1_2,,running
Status,73,30368053459,/g3t1_2,,success
Status,74,30560568602,/g3t1_1,,running
Status,75,30561247114,/g3t1_1,,success
Status,76,30567416688,/g3t1_2,,running
Status,77,30568329924,/g3t1_2,,success
Status,78,30767996928,/g3t1_2,,running
Status,79,30768317700,/g3t1_2,,success
Status,81,30968020507,/g3t1_2,,running
Status,82,30968526049,/g3t1_2,,success
Status,83,31168374526,/g3t1_2,,running
Status,84,31169057581,/g3t1_2,,success
Status,85,31352833847,/g4t1,,success
Status,86,31368149154,/g3t1_2,,running
Status,87,31368532651,/g3t1_2,,success
Status,88,31568156033,/g3t1_2,,running
Status,89,31568600500,/g3t1_2,,success
Status,90,31768429956,/g3t1_2,,running
Status,91,31768728707,/g3t1_2,,success
Status,92,31968874582,/g3t1_2,,running
Status,93,31969665003,/g3t1_2,,success
Status,94,32168613301,/g3t1_2,,running
Status,95,32168993292,/g3t1_2,,success
Status,96,32352961522,/g4t1,,success
Status,97,32368782955,/g3t1_2,,running
Status,98,32369226297,/g3t1_2,,success
Status,99,32569132188,/g3t1_2,,running
Status,100,32569423939,/g3t1_2,,success
Status,101,32769005989,/g3t1_2,,running
Status,102,32769552331,/g3t1_2,,success
Status,103,32969901616,/g3t1_2,,running
Status,104,32970096352,/g3t1_2,,success
Status,105,33170089568,/g3t1_2,,running
Status,106,33170566005,/g3t1_2,,success
Status,107,33353286023,/g4t1,,success
Status,108,33369888351,/g3t1_2,,running
Status,109,33369942229,/g3t1_2,,success
Status,110,33570173033,/g3t1_2,,running
Status,111,33570234656,/g3t1_2,,success
Status,112,33770497654,/g3t1_2,,running
Status,113,33770854058,/g3t1_2,,success
Status,114,33970272901,/g3t1_2,,running
Status,115,33970911465,/g3t1_2,,success
Status,116,34170797749,/g3t1_2,,running
Status,117,34171275051,/g3t1_2,,success
Status,118,34353165067,/g4t1,,success
Status,119,34370533135,/g3t1_2,,running
Status,120,34371103615,/g3t1_2,,success
Status,121,34570754010,/g3t1_2,,running
Status,122,34571201818,/g3t1_2,,success
Status,123,34771029354,/g3t1_2,,running
Status,124,34771087972,/g3t1_2,,success
Status,125,34971079204,/g3t1_2,,running
Status,126,34971437220,/g3t1_2,,success
Status,127,35171208841,/g3t1_2,,running
Status,128,35171863877,/g3t1_2,,success
Status,129,35353660924,/g4t1,,success
Status,130,35371524106,/g3t1_2,,running
Status,131,35372220274,/g3t1_2,,success
Status,132,35560949745,/g3t1_1,,running
Status,133,35561032769,/g3t1_1,,success
Status,134,35571470551,/g3t1_2,,running
Status,135,35571990687,/g3t1_2,,success
Status,136,35771985193,/g3t1_2,,running
Status,137,35772542946,/g3t1_2,,success
Status,139,35968260068,/g3t1_3,,running
Status,140,35969163668,/g3t1_3,,success
Status,141,35970735696,/g3t1_4,,running
Status,142,35971440784,/g3t1_2,,running
Status,143,35971823652,/g3t1_2,,success
Status,144,35978759616,/g3t1_4,,success
Status,145,36171728911,/g3t1_2,,running
Status,146,36172111122,/g3t1_2,,success
Status,147,36353908264,/g4t1,,success
Status,148,36371948210,/g3t1_2,,running
Status,149,36372335268,/g3t1_2,,success
Status,150,36572073599,/g3t1_2,,running
Status,151,36572400237,/g3t1_2,,success
Status,152,36772129050,/g3t1_2,,running
Status,153,36772942361,/g3t1_2,,success
Status,154,36972652269,/g3t1_2,,running
Status,155,36973174422,/g3t1_2,,success
Status,156,37172480355,/g3t1_2,,running
Status,157,37173156171,/g3t1_2,,success
Status,158,37354470962,/g4t1,,success
Status,159,37372552566,/g3t1_2,,running
Status,160,37373040753,/g3t1_2,,success
Status,161,37572765980,/g3t1_2,,running
Status,162,37573387971,/g3t1_2,,success
Status,163,37773141352,/g3t1_2,,running
Status,164,37773607012,/g3t1_2,,success
Status,165,37973624877,/g3t1_2,,running
Status,166,37974086205,/g3t1_2,,success
Status,167,38173365659,/g3t1_2,,running
Status,168,38174261311,/g3t1_2,,success
Status,169,38354091491,/g4t1,,success
Status,170,38373437122,/g3t1_2,,running
Status,171,38373788559,/g3t1_2,,success
Status,172,38573642402,/g3t1_2,,running
Status,173,38574131977,/g3t1_2,,success
Status,174,38773891572,/g3t1_2,,running
Status,175,38774264825,/g3t1_2,,success
Status,176,38974196022,/g3t1_2,,running
Status,177,38974673037,/g3t1_2,,success
Status,178,39174374405,/g3t1_2,,running
Status,179,39174783707,/g3t1_2,,success
Status,180,39354605885,/g4t1,,success
Status,181,39374242219,/g3t1_2,,running
Status,182,39374541440,/g3t1_2,,success
Status,183,39574695389,/g3t1_2,,running
Status,184,39575075130,/g3t1_2,,success
Status,185,39774966554,/g3t1_2,,running
Status,186,39775730152,/g3t1_2,,success
Status,187,39974795945,/g3t1_2,,running
Status,188,39975507271,/g3t1_2,,success
Status,189,40175229004,/g3t1_2,,running
Status,190,40175534567,/g3t1_2,,success
Status,191,40354726883,/g4t1,,success
Status,192,40375184952,/g3t1_2,,running
Status,193,40375824017,/g3t1_2,,success
Status,194,40560713093,/g3t1_1,,running
Status,195,40561105937,/g3t1_1,,success
Status,196,40575385048,/g3t1_2,,running
Status,197,40575919845,/g3t1_2,,success
Status,198,40775471380,/g3t1_2,,running
Status,199,40776051632,/g3t1_2,,success
Status,202,40975527459,/g3t1_2,,running
Status,203,40975901826,/g3t1_2,,success
Status,204,41175880933,/g3t1_2,,running
Status,205,41176229142,/g3t1_2,,success
Status,206,41354655901,/g4t1,,success
Status,207,41376290449,/g3t1_2,,running
Status,208,41376370644,/g3t1_2,,success
Status,209,41576165969,/g3t1_2,,running
Status,210,41576789409,/g3t1_2,,success
Status,211,41776316704,/g3t1_2,,running
Status,212,41776380458,/g3t1_2,,success
Status,213,41976669753,/g3t1_2,,running
Status,214,41977502576,/g3t1_2,,success
Status,215,42176464640,/g3t1_2,,running
Status,216,42177128785,/g3t1_2,,success
Status,217,42354941342,/g4t1,,success
Status,218,42376834148,/g3t1_2,,running
Status,219,42376978662,/g3t1_2,,success
Status,220,42576618274,/g3t1_2,,running
Status,221,42577022237,/g3t1_2,,success
Status,222,42777322213,/g3t1_2,,running
Status,223,42777733243,/g3t1_2,,success
Status,224,42977042007,/g3t1_2,,running
Status,225,42977760618,/g3t1_2,,success
Status,226,43177074525,/g3t1_2,,running
Status,227,43177469051,/g3t1_2,,success
Status,228,43354922176,/g4t1,,success
Status,229,43377632942,/g3t1_2,,running
Status,230,43377688260,/g3t1_2,,success
Status,231,43577338669,/g3t1_2,,running
Status,232,43577822684,/g3t1_2,,success
Status,233,43777597928,/g3t1_2,,running
Status,234,43778320607,/g3t1_2,,success
Status,235,43977929870,/g3t1_2,,running
Status,236,43978589348,/g3t1_2,,success
Status,237,44178184034,/g3t1_2,,running
Status,238,44178590721,/g3t1_2,,success
Status,239,44355284659,/g4t1,,success
Status,240,44378173511,/g3t1_2,,running
Status,241,44378646904,/g3t1_2,,success
Status,242,44577486283,/g3t1_2,,running
Status,243,44577587536,/g3t1_2,,success
Status,244,44778083885,/g3t1_2,,running
Status,245,44778591560,/g3t1_2,,success
Status,246,44979091251,/g3t1_2,,running
Status,247,44979171207,/g3t1_2,,success
Status,248,45178985524,/g3t1_2,,running
Status,249,45179336734,/g3t1_2,,success
Status,250,45355294773,/g4t1,,success
Status,251,45379439818,/g3t1_2,,running
Status,252,45379498096,/g3t1_2,,success
Status,253,45560761066,/g3t1_1,,running
Status,254,45561422064,/g3t1_1,,success
Status,255,45579158887,/g3t1_2,,running
Status,256,45579545106,/g3t1_2,,success
Status,257,45778636145,/g3t1_2,,running
Status,258,45778847490,/g3t1_2,,success
Status,259,45967926246,/g3t1_3,,running
Status,260,45968104567,/g3t1_3,,success
Status,261,45970250564,/g3t1_4,,running
Status,262,45974889995,/g3t1_4,,success
Status,263,45979139663,/g3t1_2,,running
Status,264,45979787153,/g3t1_2,,success
Status,266,46179038172,/g3t1_2,,running
Status,267,46179308933,/g3t1_2,,success
Status,268,46354825281,/g4t1,,success
Status,269,46379228384,/g3t1_2,,running
Status,270,46379401561,/g3t1_2,,success
Status,271,46579487521,/g3t1_2,,running
Status,272,46580113036,/g3t1_2,,success
Status,273,46780059184,/g3t1_2,,running
Status,274,46780747899,/g3t1_2,,success
Status,275,46980021315,/g3t1_2,,running
Status,276,46980512772,/g3t1_2,,success
Status,277,47179517983,/g3t1_2,,running
Status,278,47179667687,/g3t1_2,,success
Status,279,47354511024,/g4t1,,success
Status,280,47379626366,/g3t1_2,,running
Status,281,47379651461,/g3t1_2,,success
Status,282,47580266871,/g3t1_2,,running
Status,283,47580890046,/g3t1_2,,success
Status,284,47779823694,/g3t1_2,,running
Status,285,47779844501,/g3t1_2,,success
Status,286,47980119078,/g3t1_2,,running
Status,287,47980270438,/g3t1_2,,success
Status,288,48180155433,/g3t1_2,,running
Status,289,48180386228,/g3t1_2,,success
Status,290,48354819684,/g4t1,,success
Status,291,48380407621,/g3t1_2,,running
Status,292,48380812596,/g3t1_2,,success
Status,293,48580915473,/g3t1_2,,running
Status,294,48582165098,/g3t1_2,,success
Status,295,48780974994,/g3t1_2,,running
Status,296,48781410988,/g3t1_2,,success
Status,297,48981576359,/g3t1_2,,running
Status,298,48982247358,/g3t1_2,,success
Status,299,49181413163,/g3t1_2,,running
Status,300,49181878589,/g3t1_2,,success
Status,301,49355549355,/g4t1,,success
Status,302,49381730067,/g3t1_2,,running
Status,303,49382245465,/g3t1_2,,success
Status,304,49581735874,/g3t1_2,,running
Status,305,49582194904,/g3t1_2,,success
Status,306,49781909003,/g3t1_2,,running
Status,307,49782390603,/g3t1_2,,success
Status,308,49981894631,/g3t1_2,,running
Status,309,49982471605,/g3t1_2,,success
Status,310,50181551555,/g3t1_2,,running
Status,311,50181568730,/g3t1_2,,success
Status,312,50355789521,/g4t1,,success
Status,313,50382156957,/g3t1_2,,running
Status,314,50382789424,/g3t1_2,,success
Status,315,50561062898,/g3t1_1,,running
Status,316,50561598763,/g3t1_1,,success
Status,317,50582364500,/g3t1_2,,running
Status,318,50582745262,/g3t1_2,,success
Status,319,50782408223,/g3t1_2,,running
Status,320,50782868929,/g3t1_2,,success
Status,321,50982497973,/g3t1_2,,running
Status,322,50982945714,/g3t1_2,,success
Status,324,51182854564,/g3t1_2,,running
Status,325,51184374410,/g3t1_2,,success
Status,326,51355980161,/g4t1,,success
Status,327,51383023949,/g3t1_2,,running
Status,328,51383479584,/g3t1_2,,success
Status,329,51583071320,/g3t1_2,,running
Status,330,51583363657,/g3t1_2,,success
Status,331,51783520327,/g3t1_2,,running
Status,332,51783592275,/g3t1_2,,success
Status,333,51983544936,/g3t1_2,,running
Status,334,51983945621,/g3t1_2,,success
Status,335,52183504797,/g3t1_2,,running
Status,336,52183911782,/g3t1_2,,success
Status,337,52356130387,/g4t1,,success
Status,338,52383381045,/g3t1_2,,running
Status,339,52384190163,/g3t1_2,,success
Status,340,52582956201,/g3t1_2,,running
Status,341,52582983010,/g3t1_2,,success
Status,342,52783916497,/g3t1_2,,running
Status,343,52784340489,/g3t1_2,,success
Status,344,52984267053,/g3t1_2,,running
Status,345,52984337881,/g3t1_2,,success
Status,346,53184185982,/g3t1_2,,running
Status,347,53184929818,/g3t1_2,,success
Status,348,53356588550,/g4t1,,success
Status,349,53384070407,/g3t1_2,,running
Status,350,53384384617,/g3t1_2,,success
Status,351,53584200147,/g3t1_2,,running
Status,352,53584762337,/g3t1_2,,success
Status,353,53784632287,/g3t1_2,,running
Status,354,53784967159,/g3t1_2,,success
Status,355,53984373867,/g3t1_2,,running
Status,356,53984988695,/g3t1_2,,success
Status,357,54184191577,/g3t1_2,,running
Status,358,54184226307,/g3t1_2,,success
Status,359,54356467933,/g4t1,,success
Status,360,54384866167,/g3t1_2,,running
Status,361,54384946952,/g3t1_2,,success
Status,362,54584727836,/g3t1_2,,running
Status,363,54585328178,/g3t1_2,,success
Status,364,54784464192,/g3t1_2,,running
Status,365,54784774202,/g3t1_2,,success
Status,366,54984377035,/g3t1_2,,running
Status,367,54984498312,/g3t1_2,,success
Status,368,55185210603,/g3t1_2,,running
Status,369,55185930645,/g3t1_2,,success
Status,370,55356578277,/g4t1,,success
Status,371,55385306376,/g3t1_2,,running
Status,372,55385928661,/g3t1_2,,success
Status,373,55561446186,/g3t1_1,,running
Status,374,55561823943,/g3t1_1,,success
Status,375,55585326443,/g3t1_2,,running
Status,376,55586014522,/g3t1_2,,success
Status,377,55786028206,/g3t1_2,,running
Status,378,55786121745,/g3t1_2,,success
Status,379,55968431258,/g3t1_3,,running
Status,380,55968754529,/g3t1_3,,success
Status,381,55970895305,/g3t1_4,,running
Status,382,55979134082,/g3t1_4,,success
Status,383,55985634876,/g3t1_2,,running
Status,384,55986569738,/g3t1_2,,success
Status,388,56185896843,/g3t1_2,,running
Status,389,56186704856,/g3t1_2,,success
Status,390,56356752079,/g4t1,,success
Status,391,56385914669,/g3t1_2,,running
Status,392,56386285038,/g3t1_2,,success
Status,393,56586362703,/g3t1_2,,running
Status,394,56586756651,/g3t1_2,,success
Status,395,56786809547,/g3t1_2,,running
Status,396,56786898870,/g3t1_2,,success
Status,397,56986986676,/g3t1_2,,running
Status,398,56987446075,/g3t1_2,,success
Status,399,57187186556,/g3t1_2,,running
Status,400,57187549299,/g3t1_2,,success
Status,401,57357050469,/g4t1,,success
Status,402,57387103227,/g3t1_2,,running
Status,403,57387422733,/g3t1_2,,success
Status,404,57587262668,/g3t1_2,,running
Status,405,57587655405,/g3t1_2,,success
Status,406,57787461545,/g3t1_2,,running
Status,407,57788182461,/g3t1_2,,success
Status,408,57987324992,/g3t1_2,,running
Status,409,57988079687,/g3t1_2,,success
Status,410,58188037955,/g3t1_2,,running
Status,411,58188800375,/g3t1_2,,success
Status,412,58357396469,/g4t1,,success
Status,413,58387942693,/g3t1_2,,running
Status,414,58388841184,/g3t1_2,,success
Status,415,58587750569,/g3t1_2,,running
Status,416,58588549854,/g3t1_2,,success
Status,417,58788135503,/g3t1_2,,running
Status,418,58788944107,/g3t1_2,,success
Status,419,58988391330,/g3t1_2,,running
Status,420,58988934584,/g3t1_2,,success
Status,421,59188661285,/g3t1_2,,running
Status,422,59189233292,/g3t1_2,,success
Status,423,59357409372,/g4t1,,success
Status,424,59388481020,/g3t1_2,,running
Status,425,59389194544,/g3t1_2,,success
Status,426,59588159496,/g3t1_2,,running
Status,427,59588355227,/g3t1_2,,success
Status,428,59788793200,/g3t1_2,,running
Status,429,59789867024,/g3t1_2,,success
Status,430,59988938261,/g3t1_2,,running
Status,431,59989557250,/g3t1_2,,success
Status,432,60188431413,/g3t1_2,,running
Status,433,60188581012,/g3t1_2,,success
Status,434,60357130269,/g4t1,,success
Status,435,60389334363,/g3t1_2,,running
Status,436,60389542916,/g3t1_2,,success
Status,437,60561332443,/g3t1_1,,running
Status,438,60561835596,/g3t1_1,,success
Status,439,60588639458,/g3t1_2,,running
Status,440,60588868409,/g3t1_2,,success
Status,441,60788962413,/g3t1_2,,running
Status,442,60789412899,/g3t1_2,,success
Status,443,60989132556,/g3t1_2,,running
Status,444,60989244912,/g3t1_2,,success
Status,445,61189902057,/g3t1_2,,running
Status,446,61190542854,/g3t1_2,,success
Status,448,61357599654,/g4t1,,success
Status,449,61389915338,/g3t1_2,,running
Status,450,61390597865,/g3t1_2,,success
Status,451,61590167906,/g3t1_2,,running
Status,452,61590233772,/g3t1_2,,success
Status,453,61790433941,/g3t1_2,,running
Status,454,61790635841,/g3t1_2,,success
Status,455,61990677732,/g3t1_2,,running
Status,456,61991477699,/g3t1_2,,success
Status,457,62189888522,/g3t1_2,,running
Status,458,62189909174,/g3t1_2,,success
Status,459,62356960708,/g4t1,,success
Status,460,62389919967,/g3t1_2,,running
Status,461,62390020662,/g3t1_2,,success
Status,462,62590786487,/g3t1_2,,running
Status,463,62591595824,/g3t1_2,,success
Status,464,62790596966,/g3t1_2,,running
Status,465,62790621582,/g3t1_2,,success
Status,466,62991021663,/g3t1_2,,running
Status,467,62991353308,/g3t1_2,,success
Status,468,63190884250,/g3t1_2,,running
Status,469,63191113096,/g3t1_2,,success
Status,470,63357029829,/g4t1,,success
Status,471,63390774392,/g3t1_2,,running
Status,472,63391172117,/g3t1_2,,success
Status,473,63591429827,/g3t1_2,,running
Status,474,63591786872,/g3t1_2,,success
Status,475,63791645461,/g3t1_2,,running
Status,476,63792073414,/g3t1_2,,success
Status,477,63991863648,/g3t1_2,,running
Status,478,63992515622,/g3t1_2,,success
Status,479,64191858519,/g3t1_2,,running
Status,480,64192243867,/g3t1_2,,success
Status,481,64357770945,/g4t1,,success
Status,482,64391954733,/g3t1_2,,running
Status,483,64392380296,/g3t1_2,,success
Status,484,64591346131,/g3t1_2,,running
Status,485,64591547210,/g3t1_2,,success
Status,486,64792161298,/g3t1_2,,running
Status,487,64793075713,/g3t1_2,,success
Status,488,64991699709,/g3t1_2,,running
Status,489,64991848326,/g3t1_2,,success
Status,490,65192527890,/g3t1_2,,running
Status,491,65192607101,/g3t1_2,,success
Status,492,65358097713,/g4t1,,success
Status,493,65392885274,/g3t1_2,,running
Status,494,65393171865,/g3t1_2,,success
Status,495,65561423551,/g3t1_1,,running
Status,496,65561810745,/g3t1_1,,success
Status,497,65592657860,/g3t1_2,,running
Status,498,65592739862,/g3t1_2,,success
Status,499,65792952442,/g3t1_2,,running
Status,500,65793948938,/g3t1_2,,success
Status,501,65968551480,/g3t1_3,,running
Status,502,65969362952,/g3t1_3,,success
Status,503,65970907256,/g3t1_4,,running
Status,504,65978242505,/g3t1_4,,success
Status,505,65993075299,/g3t1_2,,running
Status,506,65993773052,/g3t1_2,,success
Status,507,66193378791,/g3t1_2,,running
Status,508,66193618450,/g3t1_2,,success
Status,510,66358228289,/g4t1,,success
Status,511,66392655131,/g3t1_2,,running
Status,512,66392795500,/g3t1_2,,success
Status,513,66592653940,/g3t1_2,,running
Status,514,66592772716,/g3t1_2,,success
Status,515,66794223434,/g3t1_2,,running
Status,516,66794636639,/g3t1_2,,success
Status,517,66994042315,/g3t1_2,,running
Status,518,66995348566,/g3t1_2,,success
Status,519,67193892667,/g3t1_2,,running
Status,520,67194508921,/g3t1_2,,success
Status,521,67357393960,/g4t1,,success
Status,522,67393380705,/g3t1_2,,running
Status,523,67393397571,/g3t1_2,,success
Status,524,67594063965,/g3t1_2,,running
Status,525,67594402633,/g3t1_2,,success
Status,526,67793697522,/g3t1_2,,running
Status,527,67793845056,/g3t1_2,,success
Status,528,67994849475,/g3t1_2,,running
Status,529,67995530121,/g3t1_2,,success
Status,530,68194866114,/g3t1_2,,running
Status,531,68195298932,/g3t1_2,,success
Status,532,68358759096,/g4t1,,success
Status,533,68394906967,/g3t1_2,,running
Status,534,68395611848,/g3t1_2,,success
Status,535,68595207235,/g3t1_2,,running
Status,536,68595270619,/g3t1_2,,success
Status,537,68795238135,/g3t1_2,,running
Status,538,68795639517,/g3t1_2,,success
Status,539,68995128279,/g3t1_2,,running
Status,540,68995807508,/g3t1_2,,success
Status,541,69195779783,/g3t1_2,,running
Status,542,69196360118,/g3t1_2,,success
Status,543,69358788168,/g4t1,,success
Status,544,69395692921,/g3t1_2,,running
Status,545,69396079499,/g3t1_2,,success
Status,546,69595765072,/g3t1_2,,running
Status,547,69595841124,/g3t1_2,,success
Status,548,69796433515,/g3t1_2,,running
Status,549,69796503378,/g3t1_2,,success
Status,550,69995783859,/g3t1_2,,running
Status,551,69996456486,/g3t1_2,,success
Status,552,70195942108,/g3t1_2,,running
Status,553,70196369148,/g3t1_2,,success
Status,554,70358786961,/g4t1,,success
Status,555,70396032081,/g3t1_2,,running
Status,556,70396864308,/g3t1_2,,success
Status,557,70561101468,/g3t1_1,,running
Status,558,70561423923,/g3t1_1,,success
Status,559,70595645358,/g3t1_2,,running
Status,560,70595784506,/g3t1_2,,success
Status,561,70796716789,/g3t1_2,,running
Status,562,70796782226,/g3t1_2,,success
Status,563,70996410271,/g3t1_2,,running
Status,564,70996815481,/g3t1_2,,success
Status,565,71196668928,/g3t1_2,,running
Status,566,71197305413,/g3t1_2,,success
Status,567,71359316316,/g4t1,,success
Status,570,71396662495,/g3t1_2,,running
Status,571,71397121295,/g3t1_2,,success
Status,572,71596793602,/g3t1_2,,running
Status,573,71597382867,/g3t1_2,,success
Status,574,71797183178,/g3t1_2,,running
Status,575,71797870258,/g3t1_2,,success
Status,576,71997187875,/g3t1_2,,running
Status,577,71998052818,/g3t1_2,,success
Status,578,72196756662,/g3t1_2,,running
Status,579,72196879740,/g3t1_2,,success
Status,580,72358675690,/g4t1,,success
Status,581,72397556212,/g3t1_2,,running
Status,582,72397953103,/g3t1_2,,success
Status,583,72597618426,/g3t1_2,,running
Status,584,72598102903,/g3t1_2,,success
Status,585,72797798435,/g3t1_2,,running
Status,586,72798527312,/g3t1_2,,success
Status,587,72997884059,/g3t1_2,,running
Status,588,72998765002,/g3t1_2,,success
Status,589,73197195879,/g3t1_2,,running
Status,590,73197305800,/g3t1_2,,success
Status,591,73358534980,/g4t1,,success
Status,592,73397295457,/g3t1_2,,running
Status,593,73397637533,/g3t1_2,,success
Status,594,73598166375,/g3t1_2,,running
Status,595,73598502385,/g3t1_2,,success
Status,596,73797554005,/g3t1_2,,running
Status,597,73797700217,/g3t1_2,,success
Status,598,73998000600,/g3t1_2,,running
Status,599,73998348889,/g3t1_2,,success
Status,600,74197878828,/g3t1_2,,running
Status,601,74198259934,/g3t1_2,,success
Status,602,74359394564,/g4t1,,success
Status,603,74398785130,/g3t1_2,,running
Status,604,74399065716,/g3t1_2,,success
Status,605,74598588785,/g3t1_2,,running
Status,606,74599307600,/g3t1_2,,success
Status,607,74798744278,/g3t1_2,,running
Status,608,74799054575,/g3t1_2,,success
Status,609,74998143315,/g3t1_2,,running
Status,610,74998294819,/g3t1_2,,success
Status,611,75198310159,/g3t1_2,,running
Status,612,75198439812,/g3t1_2,,success
Status,613,75359513889,/g4t1,,success
Status,614,75398374539,/g3t1_2,,running
Status,615,75398569379,/g3t1_2,,success
Status,616,75561155645,/g3t1_1,,running
Status,617,75561176214,/g3t1_1,,success
Status,618,75598441108,/g3t1_2,,running
Status,619,75598546235,/g3t1_2,,success
Status,620,75798540618,/g3t1_2,,running
Status,621,75798557756,/g3t1_2,,success
Status,622,75968011578,/g3t1_3,,running
Status,623,75968100598,/g3t1_3,,success
Status,624,75970378278,/g3t1_4,,running
Status,625,75972467824,/g3t1_4,,success
Status,626,75998634511,/g3t1_2,,running
Status,627,75998652225,/g3t1_2,,success
Status,628,76199048723,/g3t1_2,,running
Status,629,76199327311,/g3t1_2,,success
Status,630,76359676453,/g4t1,,success
