
Status,2,3335830080,/g4t1,,init
Status,4,8648227075,/g3t1_1,,init
Status,6,8648464834,/g3t1_2,,init
Status,7,8658556697,/g3t1_1,,init
Status,8,8658572295,/g3t1_1,,running
Status,9,8659377890,/g3t1_1,,success
Status,10,8659595521,/g3t1_2,,init
Status,11,8659652615,/g3t1_2,,running
Status,12,8660115769,/g3t1_2,,success
Status,13,8758735541,/g3t1_1,,running
Status,14,8758828808,/g3t1_1,,success
Status,15,8759762550,/g3t1_2,,running
Status,16,8759902974,/g3t1_2,,success
Status,17,8858899404,/g3t1_1,,running
Status,18,8859112250,/g3t1_1,,success
Status,19,8859762123,/g3t1_2,,running
Status,20,8859817163,/g3t1_2,,success
Status,22,8948752619,/g3t1_3,,init
Status,23,8957268502,/g3t1_3,,init
Status,24,8957283594,/g3t1_3,,running
Status,25,8957791302,/g3t1_3,,success
Status,26,8959411838,/g3t1_1,,running
Status,27,8960069175,/g3t1_1,,success
Status,28,8960217566,/g3t1_2,,running
Status,29,8960724100,/g3t1_2,,success
Status,30,8965969884,/g4t1,,success
Status,31,8985875323,/g4t1,,success
Status,32,9058207947,/g3t1_3,,running
Status,33,9058738403,/g3t1_3,,success
Status,34,9059640639,/g3t1_1,,running
Status,35,9060097461,/g3t1_1,,success
Status,36,9060446170,/g3t1_2,,running
Status,37,9060815553,/g3t1_2,,success
Status,38,9066693357,/g4t1,,success
Status,39,9086922684,/g4t1,,success
Status,40,9107060473,/g4t1,,success
Status,41,9127119246,/g4t1,,success
Status,42,9158198500,/g3t1_3,,running
Status,43,9158697934,/g3t1_3,,success
Status,44,9159568130,/g3t1_1,,running
Status,45,9160306366,/g3t1_1,,success
Status,46,9160483265,/g3t1_2,,running
Status,47,9160906957,/g3t1_2,,success
Status,48,9167534106,/g4t1,,success
Status,49,9187436968,/g4t1,,success
Status,50,9207767481,/g4t1,,success
Status,51,9227808140,/g4t1,,success
Status,52,9247942061,/g4t1,,success
Status,53,9258399734,/g3t1_3,,running
Status,54,9258917536,/g3t1_3,,success
Status,55,9259860380,/g3t1_1,,running
Status,56,9260726712,/g3t1_1,,success
Status,57,9260789213,/g3t1_2,,running
Status,58,9261295868,/g3t1_2,,success
Status,59,9268233707,/g4t1,,success
Status,60,9288111908,/g4t1,,success
Status,61,9308304398,/g4t1,,success
Status,62,9328434134,/g4t1,,success
Status,63,9348591950,/g4t1,,success
Status,64,9358601105,/g3t1_3,,running
Status,65,9358848940,/g3t1_3,,success
Status,66,9359916180,/g3t1_1,,running
Status,67,9360689915,/g3t1_1,,success
Status,68,9360741952,/g3t1_2,,running
Status,69,9361305930,/g3t1_2,,success
Status,70,9369034718,/g4t1,,fail
Status,71,9389001102,/g4t1,,success
Status,72,9409055904,/g4t1,,success
Status,73,9429102499,/g4t1,,success
Status,74,9448580464,/g4t1,,success
Status,75,9457954494,/g3t1_3,,running
Status,76,9458065605,/g3t1_3,,success
Status,77,9459541213,/g3t1_1,,running
Status,78,9459628983,/g3t1_1,,success
Status,79,9460362352,/g3t1_2,,running
Status,80,9460569628,/g3t1_2,,success
Status,81,9468716783,/g4t1,,fail
Status,82,9488785657,/g4t1,,success
Status,83,9508856748,/g4t1,,success
Status,84,9529269015,/g4t1,,success
Status,85,9549896463,/g4t1,,success
Status,86,9558692170,/g3t1_3,,running
Status,87,9559052066,/g3t1_3,,success
Status,88,9559984135,/g3t1_1,,running
Status,89,9560391395,/g3t1_1,,success
Status,90,9561186477,/g3t1_2,,running
Status,91,9561220060,/g3t1_2,,success
Status,92,9570039764,/g4t1,,fail
Status,93,9590024397,/g4t1,,success
Status,94,9610269200,/g4t1,,success
Status,95,9630410843,/g4t1,,success
Status,96,9650574145,/g4t1,,success
Status,97,9658781298,/g3t1_3,,running
Status,98,9659233304,/g3t1_3,,success
Status,99,9660028214,/g3t1_1,,running
Status,100,9660258358,/g3t1_1,,success
Status,101,9660955610,/g3t1_2,,running
Status,102,9661507585,/g3t1_2,,success
Status,103,9670369602,/g4t1,,fail
Status,104,9690602267,/g4t1,,success
Status,105,9710905423,/g4t1,,success
Status,106,9730959550,/g4t1,,success
Status,107,9751210646,/g4t1,,success
Status,108,9758758924,/g3t1_3,,running
Status,109,9759207791,/g3t1_3,,success
Status,110,9760280450,/g3t1_1,,running
Status,111,9760628456,/g3t1_1,,success
Status,112,9761481604,/g3t1_2,,running
Status,113,9761812349,/g3t1_2,,success
Status,114,9771049996,/g4t1,,fail
Status,115,9791361894,/g4t1,,success
Status,116,9811442997,/g4t1,,success
Status,117,9831594681,/g4t1,,success
Status,118,9851695332,/g4t1,,success
Status,119,9859088102,/g3t1_3,,running
Status,120,9859332224,/g3t1_3,,success
Status,121,9860570125,/g3t1_1,,running
Status,122,9861811027,/g3t1_1,,success
Status,123,9862071496,/g3t1_2,,running
Status,124,9862157794,/g3t1_2,,success
Status,125,9871948023,/g4t1,,fail
Status,126,9891955233,/g4t1,,success
Status,127,9912061964,/g4t1,,success
Status,128,9932007586,/g4t1,,success
Status,129,9952387925,/g4t1,,success
Status,130,9959007370,/g3t1_3,,running
Status,131,9959558982,/g3t1_3,,success
Status,132,9960748655,/g3t1_1,,running
Status,133,9961957833,/g3t1_1,,success
Status,134,9962026371,/g3t1_2,,running
Status,135,9962105152,/g3t1_2,,success
Status,136,9972492926,/g4t1,,fail
Status,137,9992626392,/g4t1,,success
Status,138,10012699008,/g4t1,,success
Status,139,10032935165,/g4t1,,success
Status,140,10053180348,/g4t1,,success
Status,141,10059104777,/g3t1_3,,running
Status,142,10059657088,/g3t1_3,,success
Status,143,10060524645,/g3t1_1,,running
Status,144,10061648410,/g3t1_1,,success
Status,145,10061713418,/g3t1_2,,running
Status,146,10062370792,/g3t1_2,,success
Status,147,10073196452,/g4t1,,fail
Status,148,10093303296,/g4t1,,success
Status,149,10113376833,/g4t1,,success
Status,150,10133740608,/g4t1,,success
Status,151,10153634917,/g4t1,,success
Status,152,10159622806,/g3t1_3,,running
Status,153,10159677258,/g3t1_3,,success
Status,154,10160750450,/g3t1_1,,running
Status,155,10161079739,/g3t1_1,,success
Status,156,10162207254,/g3t1_2,,running
Status,157,10162259777,/g3t1_2,,success
Status,158,10174019141,/g4t1,,fail
Status,159,10193932395,/g4t1,,success
Status,160,10214080411,/g4t1,,success
Status,161,10234179635,/g4t1,,success
Status,162,10254733859,/g4t1,,success
Status,163,10259481621,/g3t1_3,,running
Status,164,10259729371,/g3t1_3,,success
Status,165,10261053929,/g3t1_1,,running
Status,166,10261154406,/g3t1_1,,success
Status,167,10262073210,/g3t1_2,,running
Status,168,10262487058,/g3t1_2,,success
Status,169,10274604621,/g4t1,,fail
Status,170,10294683661,/g4t1,,success
Status,171,10314828571,/g4t1,,success
Status,172,10334975960,/g4t1,,success
Status,173,10354983825,/g4t1,,success
Status,174,10359550344,/g3t1_3,,running
Status,175,10360240414,/g3t1_3,,success
Status,176,10360851622,/g3t1_1,,running
Status,177,10361980895,/g3t1_1,,success
Status,178,10362046695,/g3t1_2,,running
Status,179,10362390857,/g3t1_2,,success
Status,180,10375185191,/g4t1,,fail
Status,181,10395225436,/g4t1,,success
Status,182,10415613081,/g4t1,,success
Status,183,10435500283,/g4t1,,success
Status,184,10455731013,/g4t1,,success
Status,185,10459741011,/g3t1_3,,running
Status,186,10460290498,/g3t1_3,,success
Status,187,10461171609,/g3t1_1,,running
Status,188,10463274261,/g3t1_1,,success
Status,189,10463425088,/g3t1_2,,running
Status,190,10463455338,/g3t1_2,,success
Status,191,10475749212,/g4t1,,fail
Status,192,10495903566,/g4t1,,success
Status,193,10516057249,/g4t1,,success
Status,194,10536365998,/g4t1,,success
Status,195,10556325447,/g4t1,,success
Status,196,10559771570,/g3t1_3,,running
Status,197,10560390971,/g3t1_3,,success
Status,198,10561700499,/g3t1_1,,running
Status,199,10561777053,/g3t1_1,,success
Status,200,10562049594,/g3t1_2,,running
Status,201,10562592312,/g3t1_2,,success
Status,202,10576479148,/g4t1,,fail
Status,203,10596599189,/g4t1,,success
Status,204,10616466035,/g4t1,,success
Status,205,10636906307,/g4t1,,success
Status,206,10656974068,/g4t1,,success
Status,207,10659894241,/g3t1_3,,running
Status,208,10660279442,/g3t1_3,,success
Status,209,10661199467,/g3t1_1,,running
Status,210,10662342682,/g3t1_1,,success
Status,211,10662416041,/g3t1_2,,running
Status,212,10662838388,/g3t1_2,,success
Status,213,10677014358,/g4t1,,fail
Status,214,10697192666,/g4t1,,success
Status,215,10717295086,/g4t1,,success
Status,216,10737384724,/g4t1,,success
Status,217,10757465560,/g4t1,,success
Status,218,10760358719,/g3t1_3,,running
Status,219,10760682404,/g3t1_3,,success
Status,220,10761479103,/g3t1_1,,running
Status,221,10762175999,/g3t1_1,,success
Status,222,10762422223,/g3t1_2,,running
Status,223,10762667906,/g3t1_2,,success
Status,224,10777406145,/g4t1,,fail
Status,225,10797683296,/g4t1,,success
Status,226,10817776492,/g4t1,,success
Status,227,10837109909,/g4t1,,success
Status,228,10857339022,/g4t1,,success
Status,229,10859701117,/g3t1_3,,running
Status,230,10859720402,/g3t1_3,,success
Status,231,10860903417,/g3t1_1,,running
Status,232,10861141423,/g3t1_1,,success
Status,233,10861950179,/g3t1_2,,running
Status,234,10861971153,/g3t1_2,,success
Status,235,10878145737,/g4t1,,fail
Status,236,10898239536,/g4t1,,success
Status,237,10918516826,/g4t1,,success
Status,238,10938446723,/g4t1,,success
Status,239,10958672541,/g4t1,,success
Status,240,10960208735,/g3t1_3,,running
Status,241,10960800288,/g3t1_3,,success
Status,242,10962313056,/g3t1_1,,running
Status,243,10962907801,/g3t1_1,,success
Status,244,10962964534,/g3t1_2,,running
Status,245,10963044553,/g3t1_2,,success
Status,246,10978714225,/g4t1,,fail
Status,247,10998872912,/g4t1,,success
Status,248,11018937029,/g4t1,,success
Status,249,11038827240,/g4t1,,success
Status,250,11059086382,/g4t1,,success
Status,251,11060751465,/g3t1_3,,running
Status,252,11060823833,/g3t1_3,,success
Status,253,11061689650,/g3t1_1,,running
Status,254,11062420274,/g3t1_1,,success
Status,255,11062479419,/g3t1_2,,running
Status,256,11063137371,/g3t1_2,,success
Status,257,11079063190,/g4t1,,fail
Status,258,11099454938,/g4t1,,success
Status,259,11119767365,/g4t1,,success
Status,260,11139697755,/g4t1,,success
Status,261,11159862745,/g4t1,,success
Status,262,11160343176,/g3t1_3,,running
Status,263,11161017258,/g3t1_3,,success
Status,264,11161756375,/g3t1_1,,running
Status,265,11162476190,/g3t1_1,,success
Status,266,11162543690,/g3t1_2,,running
Status,267,11163024926,/g3t1_2,,success
Status,268,11179978324,/g4t1,,fail
Status,269,11200039742,/g4t1,,success
Status,270,11220376331,/g4t1,,success
Status,271,11240505803,/g4t1,,success
Status,272,11260618754,/g4t1,,success
Status,273,11260692649,/g3t1_3,,running
Status,274,11261145110,/g3t1_3,,success
Status,275,11262622713,/g3t1_1,,running
Status,276,11262694316,/g3t1_1,,success
Status,277,11262914100,/g3t1_2,,running
Status,278,11263338487,/g3t1_2,,success
Status,279,11280672143,/g4t1,,fail
Status,280,11300858579,/g4t1,,success
Status,281,11321006464,/g4t1,,success
Status,282,11341092778,/g4t1,,success
Status,283,11360928968,/g3t1_3,,running
Status,284,11361029096,/g4t1,,success
Status,285,11361051150,/g3t1_3,,success
Status,286,11362097307,/g3t1_1,,running
Status,287,11362722564,/g3t1_1,,success
Status,288,11362779091,/g3t1_2,,running
Status,289,11363269337,/g3t1_2,,success
Status,290,11381360657,/g4t1,,fail
Status,291,11401494752,/g4t1,,success
Status,292,11421496346,/g4t1,,success
Status,293,11441696924,/g4t1,,success
Status,294,11460939185,/g3t1_3,,running
Status,295,11462060876,/g4t1,,success
Status,296,11462611281,/g3t1_3,,success
Status,297,11462731219,/g3t1_1,,running
Status,298,11463211822,/g3t1_1,,success
Status,299,11463257889,/g3t1_2,,running
Status,300,11463700892,/g3t1_2,,success
Status,301,11481889393,/g4t1,,fail
Status,302,11502075449,/g4t1,,success
Status,303,11522082103,/g4t1,,success
Status,304,11542248863,/g4t1,,success
Status,305,11560988309,/g3t1_3,,running
Status,306,11562011270,/g3t1_3,,success
Status,307,11562560981,/g3t1_1,,running
Status,308,11563180469,/g4t1,,success
Status,309,11563243989,/g3t1_1,,success
Status,310,11563563569,/g3t1_2,,running
Status,311,11563794670,/g3t1_2,,success
Status,312,11582440513,/g4t1,,fail
Status,313,11602831048,/g4t1,,success
Status,314,11623021055,/g4t1,,success
Status,315,11643312409,/g4t1,,success
Status,316,11661397442,/g3t1_3,,running
Status,317,11662216653,/g3t1_3,,success
Status,318,11662564242,/g3t1_1,,running
Status,319,11662987945,/g3t1_1,,success
Status,320,11663992822,/g3t1_2,,running
Status,321,11664071558,/g4t1,,fail
Status,322,11664182826,/g3t1_2,,success
Status,323,11683510673,/g4t1,,fail
Status,324,11703689036,/g4t1,,success
Status,325,11723839990,/g4t1,,success
Status,326,11743903027,/g4t1,,success
Status,327,11761266437,/g3t1_3,,running
Status,328,11761905800,/g3t1_3,,success
Status,329,11762520848,/g3t1_1,,running
Status,330,11763392072,/g3t1_1,,success
Status,331,11763464675,/g3t1_2,,running
Status,332,11764059947,/g4t1,,success
Status,333,11764121956,/g3t1_2,,success
Status,334,11784073950,/g4t1,,fail
Status,335,11804393991,/g4t1,,success
Status,336,11824374875,/g4t1,,success
Status,337,11844529348,/g4t1,,success
Status,338,11861584839,/g3t1_3,,running
Status,339,11862286791,/g3t1_3,,success
Status,340,11862353713,/g3t1_1,,running
Status,341,11862797504,/g3t1_1,,success
Status,342,11863666724,/g3t1_2,,running
Status,343,11864185695,/g3t1_2,,success
Status,344,11864269651,/g4t1,,fail
Status,345,11884713313,/g4t1,,success
Status,346,11904914061,/g4t1,,success
Status,347,11925155638,/g4t1,,success
Status,348,11945124214,/g4t1,,success
Status,349,11961825200,/g3t1_3,,running
Status,350,11962388662,/g3t1_3,,success
Status,351,11962454127,/g3t1_1,,running
Status,352,11963874385,/g3t1_1,,success
Status,353,11963944844,/g3t1_2,,running
Status,354,11964386421,/g3t1_2,,success
Status,355,11964991237,/g4t1,,fail
Status,356,11985362751,/g4t1,,success
Status,357,12005123635,/g4t1,,success
Status,358,12025046658,/g4t1,,success
Status,359,12045677440,/g4t1,,success
Status,360,12061796618,/g3t1_3,,running
Status,361,12062309803,/g3t1_3,,success
Status,362,12062791045,/g3t1_1,,running
Status,363,12063749732,/g3t1_1,,success
Status,364,12063821774,/g3t1_2,,running
Status,365,12064404917,/g3t1_2,,success
Status,366,12065602043,/g4t1,,fail
Status,367,12086023213,/g4t1,,success
Status,368,12106324598,/g4t1,,success
Status,369,12126370358,/g4t1,,success
Status,370,12146357666,/g4t1,,success
Status,371,12162133801,/g3t1_3,,running
Status,372,12162842263,/g3t1_3,,success
Status,373,12162906756,/g3t1_1,,running
Status,374,12163508669,/g3t1_1,,success
Status,375,12163812745,/g3t1_2,,running
Status,376,12164725081,/g3t1_2,,success
Status,377,12166377083,/g4t1,,fail
Status,378,12186739085,/g4t1,,success
Status,379,12206752057,/g4t1,,success
Status,380,12227035653,/g4t1,,success
Status,381,12247154492,/g4t1,,success
Status,382,12262143797,/g3t1_3,,running
Status,383,12262510373,/g3t1_3,,success
Status,384,12263113475,/g3t1_1,,running
Status,385,12263244683,/g3t1_1,,success
Status,386,12263854811,/g3t1_2,,running
Status,387,12264276281,/g3t1_2,,success
Status,388,12266665711,/g4t1,,fail
Status,389,12287363955,/g4t1,,success
Status,390,12307363182,/g4t1,,success
Status,391,12327569844,/g4t1,,success
Status,392,12347665547,/g4t1,,success
Status,393,12362113870,/g3t1_3,,running
Status,394,12362992325,/g3t1_3,,success
Status,395,12363062454,/g3t1_1,,running
Status,396,12363679412,/g3t1_1,,success
Status,397,12364296005,/g3t1_2,,running
Status,398,12364711004,/g3t1_2,,success
Status,399,12367688041,/g4t1,,fail
Status,400,12388017178,/g4t1,,success
Status,401,12408062983,/g4t1,,success
Status,402,12428269648,/g4t1,,success
Status,403,12448680187,/g4t1,,success
Status,404,12462317099,/g3t1_3,,running
Status,405,12462621266,/g3t1_3,,success
Status,406,12462937048,/g3t1_1,,running
Status,407,12464302227,/g3t1_1,,success
Status,408,12464346514,/g3t1_2,,running
Status,409,12464439750,/g3t1_2,,success
Status,410,12468297532,/g4t1,,fail
Status,411,12488779733,/g4t1,,success
Status,412,12508955642,/g4t1,,success
Status,413,12529001591,/g4t1,,success
Status,414,12549223446,/g4t1,,success
Status,415,12562782216,/g3t1_3,,running
Status,416,12563109669,/g3t1_3,,success
Status,417,12563267465,/g3t1_1,,running
Status,418,12564249642,/g3t1_1,,success
Status,419,12564322767,/g3t1_2,,running
Status,420,12564777495,/g3t1_2,,success
Status,421,12569021767,/g4t1,,fail
Status,422,12589276953,/g4t1,,success
Status,423,12609368893,/g4t1,,success
Status,424,12629670599,/g4t1,,success
Status,425,12649720283,/g4t1,,success
Status,426,12662788929,/g3t1_3,,running
Status,427,12663406136,/g3t1_3,,success
Status,428,12663480836,/g3t1_1,,running
Status,429,12663782832,/g3t1_1,,success
Status,430,12664858275,/g3t1_2,,running
Status,431,12664909092,/g3t1_2,,success
Status,432,12669757630,/g4t1,,fail
Status,433,12690179766,/g4t1,,success
Status,434,12710350380,/g4t1,,success
Status,435,12730343761,/g4t1,,success
Status,436,12750565991,/g4t1,,success
Status,437,12762775026,/g3t1_3,,running
Status,438,12763134259,/g3t1_3,,success
Status,439,12763198338,/g3t1_1,,running
Status,440,12764116036,/g3t1_1,,success
Status,441,12764391845,/g3t1_2,,running
Status,442,12764722387,/g3t1_2,,success
Status,443,12770428384,/g4t1,,fail
Status,444,12790601583,/g4t1,,success
Status,445,12810425458,/g4t1,,success
Status,446,12831114312,/g4t1,,success
Status,447,12850916216,/g4t1,,success
Status,448,12863758558,/g3t1_3,,running
Status,449,12863830029,/g3t1_3,,success
Status,450,12863870059,/g3t1_1,,running
Status,451,12865554473,/g3t1_1,,success
Status,452,12865615418,/g3t1_2,,running
Status,453,12865637283,/g3t1_2,,success
Status,454,12870800522,/g4t1,,fail
Status,455,12891211153,/g4t1,,success
Status,456,12911390382,/g4t1,,success
Status,457,12931514391,/g4t1,,success
Status,458,12951669717,/g4t1,,success
Status,459,12963039717,/g3t1_3,,running
Status,460,12963836584,/g3t1_1,,running
Status,461,12963949898,/g3t1_3,,success
Status,462,12964141277,/g3t1_1,,success
Status,463,12964673774,/g3t1_2,,running
Status,464,12964969619,/g3t1_2,,success
Status,465,12972048865,/g4t1,,fail
Status,466,12991480791,/g4t1,,success
Status,467,13011484191,/g4t1,,success
Status,468,13031599132,/g4t1,,success
Status,469,13052065763,/g4t1,,success
Status,470,13063482977,/g3t1_3,,running
Status,471,13063597987,/g3t1_3,,success
Status,472,13063667658,/g3t1_1,,running
Status,473,13064341069,/g3t1_1,,success
Status,474,13064740213,/g3t1_2,,running
Status,475,13065198043,/g3t1_2,,success
Status,476,13072296265,/g4t1,,fail
Status,477,13092394525,/g4t1,,success
Status,478,13112615989,/g4t1,,success
Status,479,13132910115,/g4t1,,success
Status,480,13152802627,/g4t1,,success
Status,481,13163433496,/g3t1_3,,running
Status,482,13163697378,/g3t1_3,,success
Status,483,13163780061,/g3t1_1,,running
Status,484,13164863251,/g3t1_1,,success
Status,485,13165165256,/g3t1_2,,running
Status,486,13165246572,/g3t1_2,,success
Status,487,13172808892,/g4t1,,fail
Status,488,13192938874,/g4t1,,success
Status,489,13213144126,/g4t1,,success
Status,490,13233699828,/g4t1,,success
Status,491,13253529132,/g4t1,,success
Status,492,13263414432,/g3t1_3,,running
Status,493,13264013409,/g3t1_3,,success
Status,494,13264318957,/g3t1_1,,running
Status,495,13264380191,/g3t1_1,,success
Status,496,13265561540,/g3t1_2,,running
Status,497,13265667416,/g3t1_2,,success
Status,498,13273688427,/g4t1,,fail
Status,499,13293693291,/g4t1,,success
Status,500,13314030910,/g4t1,,success
Status,501,13334153010,/g4t1,,success
Status,502,13354239930,/g4t1,,success
Status,503,13363560323,/g3t1_3,,running
Status,504,13364155926,/g3t1_3,,success
Status,505,13364244556,/g3t1_1,,running
Status,506,13365030207,/g3t1_1,,success
Status,507,13365103346,/g3t1_2,,running
Status,508,13366075141,/g3t1_2,,success
Status,509,13374336172,/g4t1,,fail
Status,510,13394568308,/g4t1,,success
Status,511,13414491205,/g4t1,,success
Status,512,13434793576,/g4t1,,success
Status,513,13454860757,/g4t1,,success
Status,514,13463828170,/g3t1_3,,running
Status,515,13464369024,/g3t1_3,,success
Status,516,13464588395,/g3t1_1,,running
Status,517,13465239161,/g3t1_1,,success
Status,518,13465303131,/g3t1_2,,running
Status,519,13465962671,/g3t1_2,,success
Status,520,13474828666,/g4t1,,fail
Status,521,13495171924,/g4t1,,success
Status,522,13515239934,/g4t1,,success
Status,523,13535438008,/g4t1,,success
Status,524,13555408394,/g4t1,,success
Status,525,13563669102,/g3t1_3,,running
Status,526,13564104320,/g3t1_3,,success
Status,527,13564396834,/g3t1_1,,running
Status,528,13565266648,/g3t1_1,,success
Status,529,13565358583,/g3t1_2,,running
Status,530,13566121772,/g3t1_2,,success
Status,531,13575615631,/g4t1,,fail
Status,532,13595759259,/g4t1,,success
Status,533,13615895847,/g4t1,,success
Status,534,13636196236,/g4t1,,success
Status,535,13656267867,/g4t1,,success
Status,536,13663992783,/g3t1_3,,running
Status,537,13665223286,/g3t1_3,,success
Status,538,13665308129,/g3t1_1,,running
Status,539,13665775094,/g3t1_1,,success
Status,540,13665843173,/g3t1_2,,running
Status,541,13666291626,/g3t1_2,,success
Status,542,13676117300,/g4t1,,fail
Status,543,13696372768,/g4t1,,success
Status,544,13716472931,/g4t1,,success
Status,545,13736743741,/g4t1,,success
Status,546,13756759847,/g4t1,,success
Status,547,13763813363,/g3t1_3,,running
Status,548,13764851062,/g3t1_3,,success
Status,549,13764975584,/g3t1_1,,running
Status,550,13765222410,/g3t1_1,,success
Status,551,13765277546,/g3t1_2,,running
Status,552,13765788620,/g3t1_2,,success
Status,553,13776866470,/g4t1,,fail
Status,554,13797243406,/g4t1,,success
Status,555,13817274141,/g4t1,,success
Status,556,13837358750,/g4t1,,success
Status,557,13857778437,/g4t1,,success
Status,558,13864164267,/g3t1_3,,running
Status,559,13864674158,/g3t1_1,,running
Status,560,13864749650,/g3t1_3,,success
Status,561,13865391360,/g3t1_1,,success
Status,562,13865586960,/g3t1_2,,running
Status,563,13866434048,/g3t1_2,,success
Status,564,13877742947,/g4t1,,fail
Status,565,13897585224,/g4t1,,success
Status,566,13917986474,/g4t1,,success
Status,567,13937952218,/g4t1,,success
Status,568,13958051487,/g4t1,,success
Status,569,13964211181,/g3t1_3,,running
Status,570,13964751426,/g3t1_3,,success
Status,571,13965045363,/g3t1_1,,running
Status,572,13966035363,/g3t1_1,,success
Status,573,13966090458,/g3t1_2,,running
Status,574,13966131352,/g3t1_2,,success
Status,575,13978300593,/g4t1,,fail
Status,576,13998524331,/g4t1,,success
Status,577,14018684186,/g4t1,,success
Status,578,14038767439,/g4t1,,success
Status,579,14058960341,/g4t1,,success
Status,580,14064459050,/g3t1_3,,running
Status,581,14065066923,/g3t1_3,,success
Status,582,14065297206,/g3t1_1,,running
Status,583,14066265357,/g3t1_2,,running
Status,584,14066352086,/g3t1_1,,success
Status,585,14066742491,/g3t1_2,,success
Status,586,14078916664,/g4t1,,fail
Status,587,14099056511,/g4t1,,success
Status,588,14119196779,/g4t1,,success
Status,589,14139291508,/g4t1,,success
Status,590,14159411275,/g4t1,,success
Status,591,14164607792,/g3t1_3,,running
Status,592,14165222099,/g3t1_3,,success
Status,593,14165413938,/g3t1_1,,running
Status,594,14166184008,/g3t1_1,,success
Status,595,14166319507,/g3t1_2,,running
Status,596,14166465007,/g3t1_2,,success
Status,597,14179575640,/g4t1,,fail
Status,598,14199687381,/g4t1,,success
Status,599,14219978521,/g4t1,,success
Status,600,14240265704,/g4t1,,success
Status,601,14260043344,/g4t1,,success
Status,602,14264392628,/g3t1_3,,running
Status,603,14265186653,/g3t1_3,,success
Status,604,14265246047,/g3t1_1,,running
Status,605,14265788972,/g3t1_1,,success
Status,606,14265841013,/g3t1_2,,running
Status,607,14266519600,/g3t1_2,,success
Status,608,14280359235,/g4t1,,fail
Status,609,14300284788,/g4t1,,success
Status,610,14320409100,/g4t1,,success
Status,611,14340741610,/g4t1,,success
Status,612,14360568145,/g4t1,,success
Status,613,14364762853,/g3t1_3,,running
Status,614,14365089488,/g3t1_3,,success
Status,615,14365179521,/g3t1_1,,running
Status,616,14366112500,/g3t1_2,,running
Status,617,14366195512,/g3t1_1,,success
Status,618,14366465548,/g3t1_2,,success
Status,619,14380787596,/g4t1,,fail
Status,620,14400815192,/g4t1,,success
Status,621,14421007281,/g4t1,,success
Status,622,14441115264,/g4t1,,success
Status,623,14461174976,/g4t1,,success
Status,624,14464680820,/g3t1_3,,running
Status,625,14465533466,/g3t1_3,,success
Status,626,14465602138,/g3t1_1,,running
Status,627,14466299629,/g3t1_2,,running
Status,628,14466359259,/g3t1_1,,success
Status,629,14466682895,/g3t1_2,,success
Status,630,14481372223,/g4t1,,fail
Status,631,14501382355,/g4t1,,success
Status,632,14521660673,/g4t1,,success
Status,633,14541650138,/g4t1,,success
Status,634,14561839800,/g4t1,,success
Status,635,14564966411,/g3t1_3,,running
Status,636,14565608183,/g3t1_3,,success
Status,637,14565679451,/g3t1_1,,running
Status,638,14566551136,/g3t1_1,,success
Status,639,14566628950,/g3t1_2,,running
Status,640,14566890506,/g3t1_2,,success
Status,641,14582123269,/g4t1,,fail
Status,642,14602236718,/g4t1,,success
Status,643,14622547748,/g4t1,,success
Status,644,14642536012,/g4t1,,success
Status,645,14662712559,/g4t1,,success
Status,646,14665210442,/g3t1_3,,running
Status,647,14666090750,/g3t1_3,,success
Status,648,14666160780,/g3t1_1,,running
Status,649,14666435381,/g3t1_1,,success
Status,650,14666544644,/g3t1_2,,running
Status,651,14667223569,/g3t1_2,,success
Status,652,14682545261,/g4t1,,fail
Status,653,14702883193,/g4t1,,success
Status,654,14722841016,/g4t1,,success
Status,655,14743072746,/g4t1,,success
Status,656,14763458334,/g4t1,,success
Status,657,14765180477,/g3t1_3,,running
Status,658,14766022738,/g3t1_1,,running
Status,659,14766204802,/g3t1_1,,success
Status,660,14767048322,/g3t1_2,,running
Status,661,14767128238,/g3t1_3,,success
Status,662,14767639336,/g3t1_2,,success
Status,663,14783403312,/g4t1,,fail
Status,664,14803583702,/g4t1,,success
Status,665,14823602336,/g4t1,,success
Status,666,14843764448,/g4t1,,success
Status,667,14863846924,/g4t1,,success
Status,668,14865554257,/g3t1_3,,running
Status,669,14866369335,/g3t1_1,,running
Status,670,14866432283,/g3t1_3,,success
Status,671,14866521474,/g3t1_1,,success
Status,672,14866555621,/g3t1_2,,running
Status,673,14866952453,/g3t1_2,,success
Status,674,14883803256,/g4t1,,fail
Status,675,14904095033,/g4t1,,success
Status,676,14924251377,/g4t1,,success
Status,677,14944330815,/g4t1,,success
Status,678,14965080837,/g4t1,,success
Status,679,14966061492,/g3t1_3,,running
Status,680,14966398988,/g3t1_1,,running
Status,681,14966475673,/g3t1_3,,success
Status,682,14967119893,/g3t1_2,,running
Status,683,14967210884,/g3t1_1,,success
Status,684,14967546858,/g3t1_2,,success
Status,685,14984694914,/g4t1,,fail
Status,686,15004977674,/g4t1,,success
Status,687,15025007670,/g4t1,,success
Status,688,15045032290,/g4t1,,success
Status,689,15065416771,/g4t1,,success
Status,690,15065676864,/g3t1_3,,running
Status,691,15066307518,/g3t1_3,,success
Status,692,15066413096,/g3t1_1,,running
Status,693,15067492631,/g3t1_2,,running
Status,694,15067664056,/g3t1_1,,success
Status,695,15068704259,/g3t1_2,,success
Status,696,15085183185,/g4t1,,fail
Status,697,15105370880,/g4t1,,success
Status,698,15125575903,/g4t1,,success
Status,699,15145669387,/g4t1,,success
Status,700,15165972969,/g3t1_3,,running
Status,701,15166103491,/g4t1,,success
Status,702,15166461313,/g3t1_1,,running
Status,703,15166662285,/g3t1_3,,success
Status,704,15167260468,/g3t1_1,,success
Status,705,15167338724,/g3t1_2,,running
Status,706,15168279087,/g3t1_2,,success
Status,707,15185853351,/g4t1,,fail
Status,708,15206101778,/g4t1,,success
Status,709,15226343068,/g4t1,,success
Status,710,15246615699,/g4t1,,success
Status,711,15266498204,/g3t1_3,,running
Status,712,15266662117,/g3t1_1,,running
Status,713,15266712731,/g4t1,,success
Status,714,15266903453,/g3t1_3,,success
Status,715,15267411186,/g3t1_1,,success
Status,716,15267518098,/g3t1_2,,running
Status,717,15267876370,/g3t1_2,,success
Status,718,15286657373,/g4t1,,fail
Status,719,15306750180,/g4t1,,success
Status,720,15326894160,/g4t1,,success
Status,721,15347018404,/g4t1,,success
Status,722,15365968461,/g3t1_3,,running
Status,723,15366514723,/g3t1_3,,success
Status,724,15366687122,/g3t1_1,,running
Status,725,15366852304,/g4t1,,success
Status,726,15367211615,/g3t1_2,,running
Status,727,15367537556,/g3t1_1,,success
Status,728,15368021696,/g3t1_2,,success
Status,729,15387223787,/g4t1,,fail
Status,730,15407436165,/g4t1,,success
Status,731,15427638682,/g4t1,,success
Status,732,15447668834,/g4t1,,success
Status,733,15466666964,/g3t1_3,,running
Status,734,15466789382,/g3t1_3,,success
Status,735,15466828104,/g3t1_1,,running
Status,736,15467207700,/g3t1_1,,success
Status,737,15467324245,/g3t1_2,,running
Status,738,15467761745,/g4t1,,fail
Status,739,15468111041,/g3t1_2,,success
Status,740,15487897609,/g4t1,,fail
Status,741,15507770858,/g4t1,,success
Status,742,15528067172,/g4t1,,success
Status,743,15548239386,/g4t1,,success
Status,744,15566636382,/g3t1_3,,running
Status,745,15566713138,/g3t1_1,,running
Status,746,15566968173,/g3t1_3,,success
Status,747,15567650343,/g3t1_1,,success
Status,748,15567770713,/g3t1_2,,running
Status,749,15568252134,/g3t1_2,,success
Status,750,15568297329,/g4t1,,success
Status,751,15588528115,/g4t1,,fail
Status,752,15608673286,/g4t1,,success
Status,753,15628961065,/g4t1,,success
Status,754,15649060646,/g4t1,,success
Status,755,15666633885,/g3t1_3,,running
Status,756,15666715130,/g3t1_1,,running
Status,757,15666785800,/g3t1_3,,success
Status,758,15667412665,/g3t1_1,,success
Status,759,15667485867,/g3t1_2,,running
Status,760,15668132088,/g3t1_2,,success
Status,761,15668870094,/g4t1,,fail
Status,762,15689376690,/g4t1,,success
Status,763,15709576963,/g4t1,,success
Status,764,15729628936,/g4t1,,success
Status,765,15749951441,/g4t1,,success
Status,766,15767053633,/g3t1_3,,running
Status,767,15767133368,/g3t1_1,,running
Status,768,15767171260,/g3t1_3,,success
Status,769,15768011369,/g3t1_1,,success
Status,770,15768149102,/g3t1_2,,running
Status,771,15768580413,/g3t1_2,,success
Status,772,15769711531,/g4t1,,fail
Status,773,15789931393,/g4t1,,success
Status,774,15810154446,/g4t1,,success
Status,775,15830076054,/g4t1,,success
Status,776,15850240866,/g4t1,,success
Status,777,15866978711,/g3t1_3,,running
Status,778,15867053126,/g3t1_1,,running
Status,779,15867146334,/g3t1_3,,success
Status,780,15867424835,/g3t1_1,,success
Status,781,15867916775,/g3t1_2,,running
Status,782,15868453094,/g3t1_2,,success
Status,783,15869847901,/g4t1,,fail
Status,784,15890393735,/g4t1,,success
Status,785,15910509351,/g4t1,,success
Status,786,15930619780,/g4t1,,success
Status,787,15950696496,/g4t1,,success
Status,788,15967148478,/g3t1_3,,running
Status,789,15967211118,/g3t1_3,,success
Status,790,15967368121,/g3t1_1,,running
Status,791,15968054481,/g3t1_1,,success
Status,792,15968115379,/g3t1_2,,running
Status,793,15968675969,/g3t1_2,,success
Status,794,15970562399,/g4t1,,fail
Status,795,15990947138,/g4t1,,success
Status,796,16010879594,/g4t1,,success
Status,797,16031048094,/g4t1,,success
Status,798,16051354877,/g4t1,,success
Status,799,16067751143,/g3t1_3,,running
Status,800,16068229080,/g3t1_1,,running
Status,801,16068262968,/g3t1_3,,success
Status,802,16068557111,/g3t1_2,,running
Status,803,16068738392,/g3t1_1,,success
Status,804,16068785294,/g3t1_2,,success
Status,805,16070983326,/g4t1,,fail
Status,806,16091549528,/g4t1,,success
Status,807,16111608788,/g4t1,,success
Status,808,16131867829,/g4t1,,success
Status,809,16151896646,/g4t1,,success
Status,810,16167254063,/g3t1_3,,running
Status,811,16167386079,/g3t1_1,,running
Status,812,16167411363,/g3t1_3,,success
Status,813,16167841717,/g3t1_1,,success
Status,814,16167924404,/g3t1_2,,running
Status,815,16168667716,/g3t1_2,,success
Status,816,16171820594,/g4t1,,fail
Status,817,16192035534,/g4t1,,success
Status,818,16212245279,/g4t1,,success
Status,819,16232511587,/g4t1,,success
Status,820,16252415874,/g4t1,,success
Status,821,16267402022,/g3t1_3,,running
Status,822,16267517526,/g3t1_1,,running
Status,823,16267769246,/g3t1_3,,success
Status,824,16268823469,/g3t1_1,,success
Status,825,16268877836,/g3t1_2,,running
Status,826,16268930744,/g3t1_2,,success
Status,827,16272278973,/g4t1,,fail
Status,828,16292638916,/g4t1,,success
Status,829,16312878288,/g4t1,,success
Status,830,16333289842,/g4t1,,success
Status,831,16353115087,/g4t1,,success
Status,832,16367742314,/g3t1_3,,running
Status,833,16367855219,/g3t1_1,,running
Status,834,16367995503,/g3t1_3,,success
Status,835,16368974750,/g3t1_2,,running
Status,836,16369113524,/g3t1_1,,success
Status,837,16369324591,/g3t1_2,,success
Status,838,16372971537,/g4t1,,fail
Status,839,16393292101,/g4t1,,success
Status,840,16413649128,/g4t1,,success
Status,841,16433416425,/g4t1,,success
Status,842,16453800680,/g4t1,,success
Status,843,16467532640,/g3t1_3,,running
Status,844,16467620401,/g3t1_1,,running
Status,845,16468812303,/g3t1_3,,success
Status,846,16468886179,/g3t1_1,,success
Status,847,16469013638,/g3t1_2,,running
Status,848,16469517040,/g3t1_2,,success
Status,849,16473676959,/g4t1,,fail
Status,850,16494104836,/g4t1,,success
Status,851,16514044900,/g4t1,,success
Status,852,16534507830,/g4t1,,success
Status,853,16554745359,/g4t1,,success
Status,854,16567674130,/g3t1_3,,running
Status,855,16567946908,/g3t1_1,,running
Status,856,16568299015,/g3t1_1,,success
Status,857,16568682309,/g3t1_3,,success
Status,858,16568736824,/g3t1_2,,running
Status,859,16569354031,/g3t1_2,,success
Status,860,16574589815,/g4t1,,fail
Status,861,16594907310,/g4t1,,success
Status,862,16615026005,/g4t1,,success
Status,863,16635233122,/g4t1,,success
Status,864,16655266978,/g4t1,,success
Status,865,16668127160,/g3t1_3,,running
Status,866,16669484527,/g3t1_1,,running
Status,867,16669546387,/g3t1_3,,success
Status,868,16669567046,/g3t1_2,,running
Status,869,16669584762,/g3t1_1,,success
Status,870,16669636651,/g3t1_2,,success
Status,871,16675139705,/g4t1,,fail
Status,872,16695679155,/g4t1,,success
Status,873,16715716595,/g4t1,,success
Status,874,16736067706,/g4t1,,success
Status,875,16755865439,/g4t1,,success
Status,876,16767907011,/g3t1_3,,running
Status,877,16768033505,/g3t1_1,,running
Status,878,16768182447,/g3t1_3,,success
Status,879,16768774688,/g3t1_1,,success
Status,880,16768844176,/g3t1_2,,running
Status,881,16769349788,/g3t1_2,,success
Status,882,16775986820,/g4t1,,fail
Status,883,16796207679,/g4t1,,success
Status,884,16816361821,/g4t1,,success
Status,885,16836352916,/g4t1,,success
Status,886,16856706940,/g4t1,,success
Status,887,16868162286,/g3t1_3,,running
Status,888,16868227143,/g3t1_1,,running
Status,889,16868269125,/g3t1_3,,success
Status,890,16868605467,/g3t1_1,,success
Status,891,16869273633,/g3t1_2,,running
Status,892,16869347023,/g3t1_2,,success
Status,893,16876476358,/g4t1,,fail
Status,894,16896852548,/g4t1,,success
Status,895,16917103957,/g4t1,,success
Status,896,16937017279,/g4t1,,success
Status,897,16957134916,/g4t1,,success
Status,898,16968014875,/g3t1_3,,running
Status,899,16969626290,/g3t1_1,,running
Status,900,16969687415,/g3t1_1,,success
Status,901,16969768142,/g3t1_3,,success
Status,902,16969801122,/g3t1_2,,running
Status,903,16969825899,/g3t1_2,,success
Status,904,16977304087,/g4t1,,fail
Status,905,16997323913,/g4t1,,success
Status,906,17017182215,/g4t1,,success
Status,907,17037664493,/g4t1,,success
Status,908,17057723307,/g4t1,,success
Status,909,17068142228,/g3t1_3,,running
Status,910,17068389121,/g3t1_1,,running
Status,911,17069160527,/g3t1_3,,success
Status,912,17069393688,/g3t1_1,,success
Status,913,17069509693,/g3t1_2,,running
Status,914,17069778746,/g3t1_2,,success
Status,915,17077651222,/g4t1,,fail
Status,916,17098017441,/g4t1,,success
Status,917,17118232642,/g4t1,,success
Status,918,17138356791,/g4t1,,success
Status,919,17158445352,/g4t1,,success
Status,920,17168510393,/g3t1_3,,running
Status,921,17168726140,/g3t1_1,,running
Status,922,17168774897,/g3t1_3,,success
Status,923,17169177033,/g3t1_1,,success
Status,924,17169234225,/g3t1_2,,running
Status,925,17169925134,/g3t1_2,,success
Status,926,17178376233,/g4t1,,fail
Status,927,17198580489,/g4t1,,success
Status,928,17218897512,/g4t1,,success
Status,929,17238660974,/g4t1,,success
Status,930,17258834295,/g4t1,,success
Status,931,17268455176,/g3t1_3,,running
Status,932,17268820530,/g3t1_1,,running
Status,933,17268974071,/g3t1_3,,success
Status,934,17269057786,/g3t1_1,,success
Status,935,17269564222,/g3t1_2,,running
Status,936,17269829433,/g3t1_2,,success
Status,937,17278941108,/g4t1,,fail
Status,938,17299053733,/g4t1,,success
Status,939,17319583659,/g4t1,,success
Status,940,17339343939,/g4t1,,success
Status,941,17359381173,/g4t1,,success
Status,942,17369331124,/g3t1_3,,running
Status,943,17369385307,/g3t1_1,,running
Status,944,17369537490,/g3t1_1,,success
Status,945,17369572148,/g3t1_3,,success
Status,946,17369594723,/g3t1_2,,running
Status,947,17369885176,/g3t1_2,,success
Status,948,17379457525,/g4t1,,fail
Status,949,17399714834,/g4t1,,success
Status,950,17419896910,/g4t1,,success
Status,951,17439988687,/g4t1,,success
Status,952,17460050635,/g4t1,,success
Status,953,17469351070,/g3t1_3,,running
Status,954,17469403939,/g3t1_1,,running
Status,955,17469477587,/g3t1_3,,success
Status,956,17469509243,/g3t1_1,,success
Status,957,17469568677,/g3t1_2,,running
Status,958,17469812128,/g3t1_2,,success
Status,959,17479914516,/g4t1,,fail
Status,960,17500182137,/g4t1,,success
Status,961,17520397586,/g4t1,,success
Status,962,17540378292,/g4t1,,success
Status,963,17560437847,/g4t1,,success
Status,964,17569381784,/g3t1_3,,running
Status,965,17569743306,/g3t1_1,,running
Status,966,17569798147,/g3t1_3,,success
Status,967,17569964294,/g3t1_2,,running
Status,968,17570457063,/g3t1_1,,success
Status,969,17570510922,/g3t1_2,,success
Status,970,17580802568,/g4t1,,fail
Status,971,17601021319,/g4t1,,success
Status,972,17621178422,/g4t1,,success
Status,973,17641293612,/g4t1,,success
Status,974,17661358301,/g4t1,,success
Status,975,17669256860,/g3t1_3,,running
Status,976,17669324260,/g3t1_1,,running
Status,977,17669377443,/g3t1_3,,success
Status,978,17669747795,/g3t1_1,,success
Status,979,17669794081,/g3t1_2,,running
Status,980,17670576347,/g3t1_2,,success
Status,981,17681266683,/g4t1,,fail
Status,982,17701708281,/g4t1,,success
Status,983,17721802347,/g4t1,,success
Status,984,17742110260,/g4t1,,success
Status,985,17762197820,/g4t1,,success
Status,986,17769026295,/g3t1_3,,running
Status,987,17769106241,/g3t1_1,,running
Status,988,17769868288,/g3t1_3,,success
Status,989,17770278295,/g3t1_2,,running
Status,990,17770322412,/g3t1_1,,success
Status,991,17770808982,/g3t1_2,,success
Status,992,17782120936,/g4t1,,fail
Status,993,17802380995,/g4t1,,success
Status,994,17822505462,/g4t1,,success
Status,995,17842585475,/g4t1,,success
Status,996,17862575653,/g4t1,,success
Status,997,17869566529,/g3t1_3,,running
Status,998,17869875341,/g3t1_1,,running
Status,999,17869923266,/g3t1_3,,success
Status,1000,17870194074,/g3t1_2,,running
Status,1001,17870641816,/g3t1_1,,success
Status,1002,17870742098,/g3t1_2,,success
Status,1003,17882656573,/g4t1,,fail
Status,1004,17903172851,/g4t1,,success
Status,1005,17923151034,/g4t1,,success
Status,1006,17943206716,/g4t1,,success
Status,1007,17963389186,/g4t1,,success
Status,1008,17969662195,/g3t1_3,,running
Status,1009,17969734129,/g3t1_1,,running
Status,1010,17970366199,/g3t1_3,,success
Status,1011,17970653956,/g3t1_2,,running
Status,1012,17971214568,/g3t1_1,,success
Status,1013,17971281026,/g3t1_2,,success
Status,1014,17983324143,/g4t1,,fail
Status,1015,18003547034,/g4t1,,success
Status,1016,18023707954,/g4t1,,success
Status,1017,18043753581,/g4t1,,success
Status,1018,18063996429,/g4t1,,success
Status,1019,18070136241,/g3t1_3,,running
Status,1020,18070228087,/g3t1_1,,running
Status,1021,18070662441,/g3t1_2,,running
Status,1022,18070721408,/g3t1_1,,success
Status,1023,18070804779,/g3t1_3,,success
Status,1024,18071471594,/g3t1_2,,success
Status,1025,18084370602,/g4t1,,fail
Status,1026,18104235131,/g4t1,,success
Status,1027,18124421128,/g4t1,,success
Status,1028,18144539198,/g4t1,,success
Status,1029,18164822407,/g4t1,,success
Status,1030,18169831961,/g3t1_3,,running
Status,1031,18169914538,/g3t1_1,,running
Status,1032,18170110499,/g3t1_3,,success
Status,1033,18170783625,/g3t1_1,,success
Status,1034,18170892833,/g3t1_2,,running
Status,1035,18171428168,/g3t1_2,,success
Status,1036,18184840585,/g4t1,,fail
Status,1037,18204991920,/g4t1,,success
Status,1038,18225089302,/g4t1,,success
Status,1039,18245268258,/g4t1,,success
Status,1040,18265284058,/g4t1,,success
Status,1041,18269781150,/g3t1_3,,running
Status,1042,18270161468,/g3t1_3,,success
Status,1043,18270939520,/g3t1_1,,running
Status,1044,18270994898,/g3t1_1,,success
Status,1045,18271072545,/g3t1_2,,running
Status,1046,18271876742,/g3t1_2,,success
Status,1047,18285668355,/g4t1,,fail
Status,1048,18305708897,/g4t1,,success
Status,1049,18325826344,/g4t1,,success
Status,1050,18346109721,/g4t1,,success
Status,1051,18365995061,/g4t1,,success
Status,1052,18369642131,/g3t1_3,,running
Status,1053,18370073124,/g3t1_1,,running
Status,1054,18370725840,/g3t1_3,,success
Status,1055,18371947009,/g3t1_1,,success
Status,1056,18372007788,/g3t1_2,,running
Status,1057,18372091674,/g3t1_2,,success
Status,1058,18386295398,/g4t1,,fail
Status,1059,18406314901,/g4t1,,success
Status,1060,18426538371,/g4t1,,success
Status,1061,18446879902,/g4t1,,success
Status,1062,18466774758,/g4t1,,success
Status,1063,18469994970,/g3t1_3,,running
Status,1064,18470299116,/g3t1_1,,running
Status,1065,18470362186,/g3t1_3,,success
Status,1066,18471330240,/g3t1_1,,success
Status,1067,18471409313,/g3t1_2,,running
Status,1068,18471687980,/g3t1_2,,success
Status,1069,18486839719,/g4t1,,fail
Status,1070,18507022902,/g4t1,,success
Status,1071,18527126877,/g4t1,,success
Status,1072,18547301923,/g4t1,,success
Status,1073,18567321554,/g4t1,,success
Status,1074,18570249732,/g3t1_3,,running
Status,1075,18570905106,/g3t1_1,,running
Status,1076,18571102215,/g3t1_3,,success
Status,1077,18571201135,/g3t1_1,,success
Status,1078,18571233404,/g3t1_2,,running
Status,1079,18571674330,/g3t1_2,,success
Status,1080,18587402457,/g4t1,,fail
Status,1081,18607544556,/g4t1,,success
Status,1082,18627786940,/g4t1,,success
Status,1083,18647934592,/g4t1,,success
Status,1084,18667962323,/g4t1,,success
Status,1085,18670227694,/g3t1_3,,running
Status,1086,18670520990,/g3t1_1,,running
Status,1087,18670800001,/g3t1_3,,success
Status,1088,18670850478,/g3t1_1,,success
Status,1089,18671250839,/g3t1_2,,running
Status,1090,18671861592,/g3t1_2,,success
Status,1091,18687941515,/g4t1,,fail
Status,1092,18708121340,/g4t1,,success
Status,1093,18728140501,/g4t1,,success
Status,1094,18748476923,/g4t1,,success
Status,1095,18768568364,/g4t1,,success
Status,1096,18770229466,/g3t1_3,,running
Status,1097,18771166852,/g3t1_3,,success
Status,1098,18771243983,/g3t1_1,,running
Status,1099,18772238765,/g3t1_1,,success
Status,1100,18772308270,/g3t1_2,,running
Status,1101,18772353162,/g3t1_2,,success
Status,1102,18788654141,/g4t1,,fail
Status,1103,18808840422,/g4t1,,success
Status,1104,18828157122,/g4t1,,success
Status,1105,18848177767,/g4t1,,success
Status,1106,18868691096,/g4t1,,success
Status,1107,18869783221,/g3t1_3,,running
Status,1108,18870109742,/g3t1_1,,running
Status,1109,18870347059,/g3t1_3,,success
Status,1110,18870724538,/g3t1_1,,success
Status,1111,18871073083,/g3t1_2,,running
Status,1112,18871476263,/g3t1_2,,success
Status,1113,18889035849,/g4t1,,fail
Status,1114,18908899634,/g4t1,,success
Status,1115,18929034449,/g4t1,,success
Status,1116,18949107455,/g4t1,,success
Status,1117,18969074248,/g4t1,,success
Status,1118,18970355433,/g3t1_3,,running
Status,1119,18970397155,/g3t1_1,,running
Status,1120,18970589780,/g3t1_3,,success
Status,1121,18970624198,/g3t1_1,,success
Status,1122,18971281282,/g3t1_2,,running
Status,1123,18971436943,/g3t1_2,,success
Status,1124,18989370599,/g4t1,,fail
Status,1125,19009485656,/g4t1,,success
Status,1126,19029596324,/g4t1,,success
Status,1127,19049642973,/g4t1,,success
Status,1128,19070113550,/g4t1,,success
Status,1129,19070185666,/g3t1_3,,running
Status,1130,19070762078,/g3t1_1,,running
Status,1131,19070823495,/g3t1_1,,success
Status,1132,19070843587,/g3t1_3,,success
Status,1133,19071321039,/g3t1_2,,running
Status,1134,19071807752,/g3t1_2,,success
Status,1135,19090019057,/g4t1,,fail
Status,1136,19110121888,/g4t1,,success
Status,1137,19130481346,/g4t1,,success
Status,1138,19150696959,/g4t1,,success
Status,1139,19170756979,/g3t1_3,,running
Status,1140,19170912845,/g3t1_1,,running
Status,1141,19170953039,/g3t1_3,,success
Status,1142,19171021725,/g4t1,,success
Status,1143,19171271546,/g3t1_1,,success
Status,1144,19171531725,/g3t1_2,,running
Status,1145,19172100970,/g3t1_2,,success
Status,1146,19190828239,/g4t1,,fail
Status,1147,19210988691,/g4t1,,success
Status,1148,19230982676,/g4t1,,success
Status,1149,19251181377,/g4t1,,success
Status,1150,19270816208,/g3t1_3,,running
Status,1151,19270933382,/g3t1_1,,running
Status,1152,19271384474,/g3t1_3,,success
Status,1153,19271453023,/g3t1_1,,success
Status,1154,19271725550,/g3t1_2,,running
Status,1155,19272106706,/g4t1,,success
Status,1156,19272417517,/g3t1_2,,success
Status,1157,19291638551,/g4t1,,fail
Status,1158,19311633045,/g4t1,,success
Status,1159,19332050082,/g4t1,,success
Status,1160,19352048709,/g4t1,,success
Status,1161,19371040537,/g3t1_3,,running
Status,1162,19371935626,/g3t1_1,,running
Status,1163,19372315782,/g3t1_3,,success
Status,1164,19372389951,/g3t1_1,,success
Status,1165,19372423417,/g3t1_2,,running
Status,1166,19372669205,/g4t1,,success
Status,1167,19372727550,/g3t1_2,,success
Status,1168,19392351842,/g4t1,,fail
Status,1169,19412411052,/g4t1,,success
Status,1170,19432701065,/g4t1,,success
Status,1171,19452298616,/g4t1,,success
Status,1172,19470509477,/g3t1_3,,running
Status,1173,19471099395,/g3t1_1,,running
Status,1174,19471139393,/g3t1_3,,success
Status,1175,19471353461,/g3t1_1,,success
Status,1176,19472076134,/g3t1_2,,running
Status,1177,19472108978,/g3t1_2,,success
Status,1178,19472149688,/g4t1,,success
Status,1179,19492827412,/g4t1,,fail
Status,1180,19513023337,/g4t1,,success
Status,1181,19533173961,/g4t1,,success
Status,1182,19553542889,/g4t1,,success
Status,1183,19571205934,/g3t1_3,,running
Status,1184,19571269080,/g3t1_1,,running
Status,1185,19571470067,/g3t1_3,,success
Status,1186,19571542722,/g3t1_1,,success
Status,1187,19572255852,/g3t1_2,,running
Status,1188,19572886565,/g3t1_2,,success
Status,1189,19573175960,/g4t1,,fail
Status,1190,19593858219,/g4t1,,success
Status,1191,19614182776,/g4t1,,success
Status,1192,19633970987,/g4t1,,success
Status,1193,19654099342,/g4t1,,success
Status,1194,19672069183,/g3t1_3,,running
Status,1195,19672160460,/g3t1_1,,running
Status,1196,19672196536,/g3t1_3,,success
Status,1197,19672629969,/g3t1_1,,success
Status,1198,19672702906,/g3t1_2,,running
Status,1199,19674115832,/g3t1_2,,success
Status,1200,19674607425,/g4t1,,fail
Status,1201,19694640761,/g4t1,,success
Status,1202,19714486442,/g4t1,,success
Status,1203,19734664095,/g4t1,,success
Status,1204,19754879459,/g4t1,,success
Status,1205,19771294069,/g3t1_3,,running
Status,1206,19771385943,/g3t1_1,,running
Status,1207,19771762030,/g3t1_3,,success
Status,1208,19771827629,/g3t1_1,,success
Status,1209,19772525091,/g3t1_2,,running
Status,1210,19772860274,/g3t1_2,,success
Status,1211,19774555163,/g4t1,,fail
Status,1212,19795007349,/g4t1,,success
Status,1213,19815214329,/g4t1,,success
Status,1214,19835270798,/g4t1,,success
Status,1215,19855380716,/g4t1,,success
Status,1216,19871574525,/g3t1_3,,running
Status,1217,19871830169,/g3t1_1,,running
Status,1218,19872155749,/g3t1_3,,success
Status,1219,19872210581,/g3t1_1,,success
Status,1220,19872328404,/g3t1_2,,running
Status,1221,19872970641,/g3t1_2,,success
Status,1222,19875094192,/g4t1,,fail
Status,1223,19895570768,/g4t1,,success
Status,1224,19915795351,/g4t1,,success
Status,1225,19935867288,/g4t1,,success
Status,1226,19956073921,/g4t1,,success
Status,1227,19971721189,/g3t1_3,,running
Status,1228,19971811635,/g3t1_1,,running
Status,1229,19972484056,/g3t1_3,,success
Status,1230,19973164824,/g3t1_1,,success
Status,1231,19973318521,/g3t1_2,,running
Status,1232,19973355907,/g3t1_2,,success
Status,1233,19976278024,/g4t1,,fail
Status,1234,19996189282,/g4t1,,success
Status,1235,20016063137,/g4t1,,success
Status,1236,20036445249,/g4t1,,success
Status,1237,20056621011,/g4t1,,success
Status,1238,20072075695,/g3t1_3,,running
Status,1239,20072350607,/g3t1_1,,running
Status,1240,20072400215,/g3t1_3,,success
Status,1241,20072839727,/g3t1_1,,success
Status,1242,20072882772,/g3t1_2,,running
Status,1243,20073397755,/g3t1_2,,success
Status,1244,20076252971,/g4t1,,fail
Status,1245,20096725906,/g4t1,,success
Status,1246,20116964609,/g4t1,,success
Status,1247,20137197066,/g4t1,,success
Status,1248,20157226414,/g4t1,,success
Status,1249,20172068349,/g3t1_3,,running
Status,1250,20172232651,/g3t1_1,,running
Status,1251,20172602583,/g3t1_3,,success
Status,1252,20173186559,/g3t1_2,,running
Status,1253,20173246303,/g3t1_1,,success
Status,1254,20173759446,/g3t1_2,,success
Status,1255,20176861002,/g4t1,,fail
Status,1256,20197553094,/g4t1,,success
Status,1257,20217606304,/g4t1,,success
Status,1258,20237764891,/g4t1,,success
Status,1259,20257837677,/g4t1,,success
Status,1260,20272090908,/g3t1_3,,running
Status,1261,20272447332,/g3t1_1,,running
Status,1262,20272525149,/g3t1_3,,success
Status,1263,20273236248,/g3t1_1,,success
Status,1264,20273300856,/g3t1_2,,running
Status,1265,20273794682,/g3t1_2,,success
Status,1266,20277613262,/g4t1,,fail
Status,1267,20298134465,/g4t1,,success
Status,1268,20318582785,/g4t1,,success
Status,1269,20338573907,/g4t1,,success
Status,1270,20358608241,/g4t1,,success
Status,1271,20372457172,/g3t1_3,,running
Status,1272,20372542786,/g3t1_1,,running
Status,1273,20372571731,/g3t1_3,,success
Status,1274,20372738943,/g3t1_1,,success
Status,1275,20373054667,/g3t1_2,,running
Status,1276,20373906604,/g3t1_2,,success
Status,1277,20378530294,/g4t1,,fail
Status,1278,20398845537,/g4t1,,success
Status,1279,20418949562,/g4t1,,success
Status,1280,20438991899,/g4t1,,success
Status,1281,20459142736,/g4t1,,success
Status,1282,20472851167,/g3t1_3,,running
Status,1283,20472918551,/g3t1_1,,running
Status,1284,20472947921,/g3t1_3,,success
Status,1285,20472979164,/g3t1_1,,success
Status,1286,20473063748,/g3t1_2,,running
Status,1287,20474059432,/g3t1_2,,success
Status,1288,20479080487,/g4t1,,fail
Status,1289,20499416872,/g4t1,,success
Status,1290,20519412914,/g4t1,,success
Status,1291,20539669117,/g4t1,,success
Status,1292,20559793725,/g4t1,,success
Status,1293,20572817560,/g3t1_3,,running
Status,1294,20572958523,/g3t1_1,,running
Status,1295,20572993455,/g3t1_3,,success
Status,1296,20574167929,/g3t1_2,,running
Status,1297,20574219464,/g3t1_2,,success
Status,1298,20574304218,/g3t1_1,,success
Status,1299,20579838442,/g4t1,,fail
Status,1300,20600517200,/g4t1,,success
Status,1301,20620115997,/g4t1,,success
Status,1302,20640330185,/g4t1,,success
Status,1303,20660456690,/g4t1,,success
Status,1304,20672553969,/g3t1_3,,running
Status,1305,20672949997,/g3t1_1,,running
Status,1306,20673876103,/g3t1_3,,success
Status,1307,20674011717,/g3t1_1,,success
Status,1308,20674645295,/g3t1_2,,running
Status,1309,20674974065,/g3t1_2,,success
Status,1310,20680150504,/g4t1,,fail
Status,1311,20700754886,/g4t1,,success
Status,1312,20720889814,/g4t1,,success
Status,1313,20740986934,/g4t1,,success
Status,1314,20761166214,/g4t1,,success
Status,1315,20772782816,/g3t1_3,,running
Status,1316,20772848917,/g3t1_1,,running
Status,1317,20772890191,/g3t1_3,,success
Status,1318,20773156531,/g3t1_1,,success
Status,1319,20773743255,/g3t1_2,,running
Status,1320,20774382865,/g3t1_2,,success
Status,1321,20781040411,/g4t1,,fail
Status,1322,20801466053,/g4t1,,success
Status,1323,20821712048,/g4t1,,success
Status,1324,20841709411,/g4t1,,success
Status,1325,20861913973,/g4t1,,success
Status,1326,20873191934,/g3t1_3,,running
Status,1327,20873297946,/g3t1_1,,running
Status,1328,20873340121,/g3t1_1,,success
Status,1329,20873373146,/g3t1_3,,success
Status,1330,20873754395,/g3t1_2,,running
Status,1331,20874455989,/g3t1_2,,success
Status,1332,20882109404,/g4t1,,fail
Status,1333,20902078967,/g4t1,,success
Status,1334,20922430163,/g4t1,,success
Status,1335,20942229459,/g4t1,,success
Status,1336,20962674990,/g4t1,,success
Status,1337,20973166169,/g3t1_3,,running
Status,1338,20974028514,/g3t1_1,,running
Status,1339,20974219064,/g3t1_3,,success
Status,1340,20974743794,/g3t1_2,,running
Status,1341,20974950078,/g3t1_1,,success
Status,1342,20975044203,/g3t1_2,,success
Status,1343,20982686293,/g4t1,,fail
Status,1344,21002996379,/g4t1,,success
Status,1345,21022931619,/g4t1,,success
Status,1346,21042985204,/g4t1,,success
Status,1347,21063213590,/g4t1,,success
Status,1348,21073183446,/g3t1_3,,running
Status,1349,21073380409,/g3t1_1,,running
Status,1350,21073711545,/g3t1_1,,success
Status,1351,21074047407,/g3t1_3,,success
Status,1352,21074091657,/g3t1_2,,running
Status,1353,21074755856,/g3t1_2,,success
Status,1354,21083456705,/g4t1,,fail
Status,1355,21103320008,/g4t1,,success
Status,1356,21123485078,/g4t1,,success
Status,1357,21143845934,/g4t1,,success
Status,1358,21163937641,/g4t1,,success
Status,1359,21173342744,/g3t1_3,,running
Status,1360,21174346738,/g3t1_1,,running
Status,1361,21174409389,/g3t1_3,,success
Status,1362,21174445888,/g3t1_1,,success
Status,1363,21174576200,/g3t1_2,,running
Status,1364,21175062874,/g3t1_2,,success
Status,1365,21184080509,/g4t1,,fail
Status,1366,21204175917,/g4t1,,success
Status,1367,21224366808,/g4t1,,success
Status,1368,21244496743,/g4t1,,success
Status,1369,21264608163,/g4t1,,success
Status,1370,21273912135,/g3t1_3,,running
Status,1371,21274035243,/g3t1_1,,running
Status,1372,21274467319,/g3t1_1,,success
Status,1373,21274522292,/g3t1_3,,success
Status,1374,21274553872,/g3t1_2,,running
Status,1375,21274901000,/g3t1_2,,success
Status,1376,21284986675,/g4t1,,fail
Status,1377,21305634454,/g4t1,,success
Status,1378,21325228590,/g4t1,,success
Status,1379,21345481984,/g4t1,,success
Status,1380,21365361225,/g4t1,,success
Status,1381,21373533072,/g3t1_1,,running
Status,1382,21373647974,/g3t1_3,,running
Status,1383,21374397254,/g3t1_1,,success
Status,1384,21374565546,/g3t1_3,,success
Status,1385,21374810857,/g3t1_2,,running
Status,1386,21374999074,/g3t1_2,,success
Status,1387,21385624851,/g4t1,,fail
Status,1388,21405652168,/g4t1,,success
Status,1389,21425953501,/g4t1,,success
Status,1390,21446230662,/g4t1,,success
Status,1391,21466138576,/g4t1,,success
Status,1392,21473480461,/g3t1_1,,running
Status,1393,21473557636,/g3t1_3,,running
Status,1394,21473962818,/g3t1_3,,success
Status,1395,21474276264,/g3t1_1,,success
Status,1396,21474371413,/g3t1_2,,running
Status,1397,21474956100,/g3t1_2,,success
Status,1398,21486467014,/g4t1,,fail
Status,1399,21506646340,/g4t1,,success
Status,1400,21526747973,/g4t1,,success
Status,1401,21546766498,/g4t1,,success
Status,1402,21566835312,/g4t1,,success
Status,1403,21574543315,/g3t1_3,,running
Status,1404,21574619993,/g3t1_1,,running
Status,1405,21574648831,/g3t1_1,,success
Status,1406,21574821626,/g3t1_3,,success
Status,1407,21574873705,/g3t1_2,,running
Status,1408,21575147585,/g3t1_2,,success
Status,1409,21587032333,/g4t1,,fail
Status,1410,21607149899,/g4t1,,success
Status,1411,21627195861,/g4t1,,success
Status,1412,21647480704,/g4t1,,success
Status,1413,21667327117,/g4t1,,success
Status,1414,21674208335,/g3t1_1,,running
Status,1415,21674271882,/g3t1_3,,running
Status,1416,21675374852,/g3t1_2,,running
Status,1417,21675503820,/g3t1_3,,success
Status,1418,21675855247,/g3t1_1,,success
Status,1419,21675949703,/g3t1_2,,success
Status,1420,21687570992,/g4t1,,fail
Status,1421,21707826562,/g4t1,,success
Status,1422,21727837184,/g4t1,,success
Status,1423,21748208816,/g4t1,,success
Status,1424,21768238781,/g4t1,,success
Status,1425,21773972865,/g3t1_1,,running
Status,1426,21774145724,/g3t1_3,,running
Status,1427,21774662518,/g3t1_1,,success
Status,1428,21774700804,/g3t1_3,,success
Status,1429,21774803922,/g3t1_2,,running
Status,1430,21775412720,/g3t1_2,,success
Status,1431,21788180294,/g4t1,,fail
Status,1432,21808354762,/g4t1,,success
Status,1433,21828803390,/g4t1,,success
Status,1434,21848735800,/g4t1,,success
Status,1435,21868957870,/g4t1,,success
Status,1436,21874205969,/g3t1_1,,running
Status,1437,21874389920,/g3t1_3,,running
Status,1438,21875068877,/g3t1_1,,success
Status,1439,21875125680,/g3t1_3,,success
Status,1440,21875371451,/g3t1_2,,running
Status,1441,21875674263,/g3t1_2,,success
Status,1442,21888761307,/g4t1,,fail
Status,1443,21909031379,/g4t1,,success
Status,1444,21929202336,/g4t1,,success
Status,1445,21949599234,/g4t1,,success
Status,1446,21969625566,/g4t1,,success
Status,1447,21974348400,/g3t1_1,,running
Status,1448,21974448596,/g3t1_3,,running
Status,1449,21975329560,/g3t1_3,,success
Status,1450,21975388399,/g3t1_2,,running
Status,1451,21975422654,/g3t1_1,,success
Status,1452,21975787736,/g3t1_2,,success
Status,1453,21989880698,/g4t1,,fail
Status,1454,22010141029,/g4t1,,success
Status,1455,22030718101,/g4t1,,success
Status,1456,22050329957,/g4t1,,success
Status,1457,22070609788,/g4t1,,success
Status,1458,22074365611,/g3t1_1,,running
Status,1459,22074439411,/g3t1_3,,running
Status,1460,22075174793,/g3t1_1,,success
Status,1461,22075237788,/g3t1_3,,success
Status,1462,22075269739,/g3t1_2,,running
Status,1463,22076347171,/g3t1_2,,success
Status,1464,22090549108,/g4t1,,fail
Status,1465,22110820665,/g4t1,,success
Status,1466,22130992976,/g4t1,,success
Status,1467,22151026203,/g4t1,,success
Status,1468,22171143365,/g4t1,,success
Status,1469,22174477134,/g3t1_1,,running
Status,1470,22174658350,/g3t1_3,,running
Status,1471,22175709731,/g3t1_1,,success
Status,1472,22175777948,/g3t1_2,,running
Status,1473,22175869115,/g3t1_3,,success
Status,1474,22175901647,/g3t1_2,,success
Status,1475,22191129071,/g4t1,,fail
Status,1476,22211400688,/g4t1,,success
Status,1477,22231499278,/g4t1,,success
Status,1478,22251505036,/g4t1,,success
Status,1479,22271825280,/g4t1,,success
Status,1480,22274825020,/g3t1_1,,running
Status,1481,22274895287,/g3t1_3,,running
Status,1482,22275226523,/g3t1_1,,success
Status,1483,22275279791,/g3t1_3,,success
Status,1484,22275327369,/g3t1_2,,running
Status,1485,22276061133,/g3t1_2,,success
Status,1486,22291811263,/g4t1,,fail
Status,1487,22311879701,/g4t1,,success
Status,1488,22332091705,/g4t1,,success
Status,1489,22352216158,/g4t1,,success
Status,1490,22372454247,/g4t1,,success
Status,1491,22374637182,/g3t1_1,,running
Status,1492,22374741839,/g3t1_3,,running
Status,1493,22375527607,/g3t1_1,,success
Status,1494,22375593103,/g3t1_3,,success
Status,1495,22375625187,/g3t1_2,,running
Status,1496,22375980770,/g3t1_2,,success
Status,1497,22392379253,/g4t1,,fail
Status,1498,22412459264,/g4t1,,success
Status,1499,22432597091,/g4t1,,success
Status,1500,22452629124,/g4t1,,success
Status,1501,22472980719,/g4t1,,success
Status,1502,22474741192,/g3t1_1,,running
Status,1503,22474834121,/g3t1_3,,running
Status,1504,22475574217,/g3t1_1,,success
Status,1505,22475666590,/g3t1_3,,success
Status,1506,22475703214,/g3t1_2,,running
Status,1507,22476340470,/g3t1_2,,success
Status,1508,22493011736,/g4t1,,fail
Status,1509,22513212100,/g4t1,,success
Status,1510,22533382967,/g4t1,,success
Status,1511,22553564875,/g4t1,,success
Status,1512,22573621774,/g4t1,,success
Status,1513,22575272122,/g3t1_1,,running
Status,1514,22575401089,/g3t1_3,,running
Status,1515,22575926466,/g3t1_1,,success
Status,1516,22576083145,/g3t1_2,,running
Status,1517,22576158099,/g3t1_3,,success
Status,1518,22576745156,/g3t1_2,,success
Status,1519,22593737641,/g4t1,,fail
Status,1520,22613696791,/g4t1,,success
Status,1521,22633970271,/g4t1,,success
Status,1522,22654171672,/g4t1,,success
Status,1523,22674070695,/g4t1,,success
Status,1524,22675629750,/g3t1_1,,running
Status,1525,22675715315,/g3t1_3,,running
Status,1526,22675747911,/g3t1_3,,success
Status,1527,22675835739,/g3t1_1,,success
Status,1528,22676504348,/g3t1_2,,running
Status,1529,22676546512,/g3t1_2,,success
Status,1530,22694276724,/g4t1,,fail
Status,1531,22714500395,/g4t1,,success
Status,1532,22734619457,/g4t1,,success
Status,1533,22755023407,/g4t1,,success
Status,1534,22775720217,/g4t1,,success
Status,1535,22775784836,/g3t1_1,,running
Status,1536,22775817159,/g3t1_3,,running
Status,1537,22775939362,/g3t1_3,,success
Status,1538,22775984530,/g3t1_1,,success
Status,1539,22776849524,/g3t1_2,,running
Status,1540,22776943207,/g3t1_2,,success
Status,1541,22794981902,/g4t1,,fail
