
Status,1,3350589906,/g4t1,,init
Status,3,8645320020,/g3t1_1,,init
Status,5,8662057447,/g3t1_1,,init
Status,6,8662087050,/g3t1_1,,init
Status,7,8663475445,/g3t1_1,,init
Status,8,8746438907,/g3t1_2,,init
Status,10,8762423348,/g3t1_1,,init
Status,11,8762451405,/g3t1_1,,init
Status,12,8763091698,/g3t1_2,,init
Status,13,8763116291,/g3t1_2,,init
Status,14,8764156382,/g3t1_2,,init
Status,15,8862215645,/g3t1_1,,init
Status,16,8862475547,/g3t1_1,,init
Status,17,8863185398,/g3t1_2,,init
Status,18,8863468075,/g3t1_2,,init
Status,20,8955163625,/g3t1_3,,init
Status,21,8962278872,/g3t1_1,,running
Status,22,8962587702,/g3t1_1,,success
Status,23,8963233623,/g3t1_2,,running
Status,24,8963551048,/g3t1_2,,success
Status,25,8971495494,/g3t1_3,,init
Status,26,8971532688,/g3t1_3,,running
Status,27,8972939169,/g3t1_3,,success
Status,28,8975950932,/g4t1,,success
Status,29,9062368440,/g3t1_1,,running
Status,30,9062521102,/g3t1_1,,success
Status,31,9063443136,/g3t1_2,,running
Status,32,9063587992,/g3t1_2,,success
Status,33,9071688737,/g3t1_3,,running
Status,34,9071902646,/g3t1_3,,success
Status,35,9076319942,/g4t1,,success
Status,36,9096513474,/g4t1,,success
Status,37,9116494686,/g4t1,,success
Status,38,9162463871,/g3t1_1,,running
Status,39,9162794333,/g3t1_1,,success
Status,40,9163374326,/g3t1_2,,running
Status,41,9163786465,/g3t1_2,,success
Status,42,9171718717,/g3t1_3,,running
Status,43,9171972971,/g3t1_3,,success
Status,44,9176981546,/g4t1,,success
Status,45,9197010360,/g4t1,,success
Status,46,9217062567,/g4t1,,success
Status,47,9237395330,/g4t1,,success
Status,48,9257268312,/g4t1,,success
Status,49,9262556973,/g3t1_1,,running
Status,50,9262671399,/g3t1_1,,success
Status,51,9263466972,/g3t1_2,,running
Status,52,9263707505,/g3t1_2,,success
Status,53,9272057078,/g3t1_3,,running
Status,54,9272193087,/g3t1_3,,success
Status,55,9277377519,/g4t1,,success
Status,56,9297495898,/g4t1,,success
Status,57,9317585669,/g4t1,,success
Status,58,9337602022,/g4t1,,success
Status,59,9357659295,/g4t1,,success
Status,60,9362677844,/g3t1_1,,running
Status,61,9362840774,/g3t1_1,,success
Status,62,9363537581,/g3t1_2,,running
Status,63,9363792222,/g3t1_2,,success
Status,64,9371931890,/g3t1_3,,running
Status,65,9372061377,/g3t1_3,,success
Status,66,9377845577,/g4t1,,fail
Status,67,9397829694,/g4t1,,success
Status,68,9417996741,/g4t1,,success
Status,69,9438068417,/g4t1,,success
Status,70,9458162209,/g4t1,,success
Status,71,9462712126,/g3t1_1,,running
Status,72,9462863137,/g3t1_1,,success
Status,73,9463626333,/g3t1_2,,running
Status,74,9463774913,/g3t1_2,,success
Status,75,9472076818,/g3t1_3,,running
Status,76,9472192618,/g3t1_3,,success
Status,77,9478379979,/g4t1,,fail
Status,78,9498417379,/g4t1,,success
Status,79,9518508026,/g4t1,,success
Status,80,9538570801,/g4t1,,success
Status,81,9558609305,/g4t1,,success
Status,82,9562804859,/g3t1_1,,running
Status,83,9562950844,/g3t1_1,,success
Status,84,9563735706,/g3t1_2,,running
Status,85,9563939807,/g3t1_2,,success
Status,86,9572137465,/g3t1_3,,running
Status,87,9572275693,/g3t1_3,,success
Status,88,9578704641,/g4t1,,fail
Status,89,9598814421,/g4t1,,success
Status,90,9618905060,/g4t1,,success
Status,91,9639034262,/g4t1,,success
Status,92,9659049154,/g4t1,,success
Status,93,9663109428,/g3t1_1,,running
Status,94,9663136591,/g3t1_1,,success
Status,95,9663785618,/g3t1_2,,running
Status,96,9663991638,/g3t1_2,,success
Status,97,9672310944,/g3t1_3,,running
Status,98,9672425228,/g3t1_3,,success
Status,99,9679113683,/g4t1,,fail
Status,100,9699271086,/g4t1,,success
Status,101,9719323497,/g4t1,,success
Status,102,9739534736,/g4t1,,success
Status,103,9759538615,/g4t1,,success
Status,104,9763087944,/g3t1_1,,running
Status,105,9763276485,/g3t1_1,,success
Status,106,9763905094,/g3t1_2,,running
Status,107,9763989141,/g3t1_2,,success
Status,108,9772403299,/g3t1_3,,running
Status,109,9772576165,/g3t1_3,,success
Status,110,9779548899,/g4t1,,fail
Status,111,9799788499,/g4t1,,success
Status,112,9819934477,/g4t1,,success
Status,113,9839993236,/g4t1,,success
Status,114,9860150811,/g4t1,,success
Status,115,9863131106,/g3t1_1,,running
Status,116,9863332325,/g3t1_1,,success
Status,117,9863963964,/g3t1_2,,running
Status,118,9864217509,/g3t1_2,,success
Status,119,9872423286,/g3t1_3,,running
Status,120,9872690998,/g3t1_3,,success
Status,121,9879984275,/g4t1,,fail
Status,122,9900251084,/g4t1,,success
Status,123,9920355992,/g4t1,,success
Status,124,9940483247,/g4t1,,success
Status,125,9960551972,/g4t1,,success
Status,126,9963201365,/g3t1_1,,running
Status,127,9963488444,/g3t1_1,,success
Status,128,9963977061,/g3t1_2,,running
Status,129,9964273162,/g3t1_2,,success
Status,130,9972492556,/g3t1_3,,running
Status,131,9972615628,/g3t1_3,,success
Status,132,9980462687,/g4t1,,fail
Status,133,10000662171,/g4t1,,success
Status,134,10020911388,/g4t1,,success
Status,135,10040947143,/g4t1,,success
Status,136,10060995774,/g4t1,,success
Status,137,10063248562,/g3t1_1,,running
Status,138,10063445657,/g3t1_1,,success
Status,139,10064107455,/g3t1_2,,running
Status,140,10064227554,/g3t1_2,,success
Status,141,10072723485,/g3t1_3,,running
Status,142,10072855908,/g3t1_3,,success
Status,143,10081043788,/g4t1,,fail
Status,144,10101136796,/g4t1,,success
Status,145,10121321433,/g4t1,,success
Status,146,10141330190,/g4t1,,success
Status,147,10161421917,/g4t1,,success
Status,148,10163338328,/g3t1_1,,running
Status,149,10163458307,/g3t1_1,,success
Status,150,10164197108,/g3t1_2,,running
Status,151,10164402354,/g3t1_2,,success
Status,152,10172851586,/g3t1_3,,running
Status,153,10172952154,/g3t1_3,,success
Status,154,10181446530,/g4t1,,fail
Status,155,10201581831,/g4t1,,success
Status,156,10221740177,/g4t1,,success
Status,157,10241913093,/g4t1,,success
Status,158,10262002500,/g4t1,,success
Status,159,10263382004,/g3t1_1,,running
Status,160,10263539301,/g3t1_1,,success
Status,161,10264162199,/g3t1_2,,running
Status,162,10264464375,/g3t1_2,,success
Status,163,10272857271,/g3t1_3,,running
Status,164,10273014886,/g3t1_3,,success
Status,165,10282063968,/g4t1,,fail
Status,166,10302237247,/g4t1,,success
Status,167,10322283117,/g4t1,,success
Status,168,10342250448,/g4t1,,success
Status,169,10362301928,/g4t1,,success
Status,170,10363431290,/g3t1_1,,running
Status,171,10363685501,/g3t1_1,,success
Status,172,10364302631,/g3t1_2,,running
Status,173,10364419556,/g3t1_2,,success
Status,174,10372948311,/g3t1_3,,running
Status,175,10373095115,/g3t1_3,,success
Status,176,10382370308,/g4t1,,fail
Status,177,10402514314,/g4t1,,success
Status,178,10422680385,/g4t1,,success
Status,179,10442647802,/g4t1,,success
Status,180,10462761058,/g4t1,,success
Status,181,10463521368,/g3t1_1,,running
Status,182,10463814803,/g3t1_1,,success
Status,183,10464336907,/g3t1_2,,running
Status,184,10464573181,/g3t1_2,,success
Status,185,10472906050,/g3t1_3,,running
Status,186,10473022248,/g3t1_3,,success
Status,187,10482816923,/g4t1,,fail
Status,188,10502940395,/g4t1,,success
Status,189,10523082288,/g4t1,,success
Status,190,10543146914,/g4t1,,success
Status,191,10563258227,/g4t1,,success
Status,192,10563624478,/g3t1_1,,running
Status,193,10563883176,/g3t1_1,,success
Status,194,10564383040,/g3t1_2,,running
Status,195,10564532155,/g3t1_2,,success
Status,196,10573024244,/g3t1_3,,running
Status,197,10573088939,/g3t1_3,,success
Status,198,10583395113,/g4t1,,fail
Status,199,10603370899,/g4t1,,success
Status,200,10623514256,/g4t1,,success
Status,201,10643488312,/g4t1,,success
Status,202,10663696687,/g4t1,,success
Status,203,10663726158,/g3t1_1,,running
Status,204,10663917696,/g3t1_1,,success
Status,205,10664451203,/g3t1_2,,running
Status,206,10664589728,/g3t1_2,,success
Status,207,10673154084,/g3t1_3,,running
Status,208,10673190753,/g3t1_3,,success
Status,209,10683837642,/g4t1,,fail
Status,210,10703999086,/g4t1,,success
Status,211,10724035270,/g4t1,,success
Status,212,10744143674,/g4t1,,success
Status,213,10763822634,/g3t1_1,,running
Status,214,10763993149,/g3t1_1,,success
Status,215,10764098219,/g4t1,,success
Status,216,10764461089,/g3t1_2,,running
Status,217,10764618155,/g3t1_2,,success
Status,218,10773256881,/g3t1_3,,running
Status,219,10773287534,/g3t1_3,,success
Status,220,10784226283,/g4t1,,fail
Status,221,10804408473,/g4t1,,success
Status,222,10824457806,/g4t1,,success
Status,223,10844563173,/g4t1,,success
Status,224,10863932831,/g3t1_1,,running
Status,225,10864033813,/g3t1_1,,success
Status,226,10864563294,/g4t1,,fail
Status,227,10864585212,/g3t1_2,,running
Status,228,10864726012,/g3t1_2,,success
Status,229,10873365797,/g3t1_3,,running
Status,230,10873389768,/g3t1_3,,success
Status,231,10884762336,/g4t1,,fail
Status,232,10905075213,/g4t1,,success
Status,233,10924982266,/g4t1,,success
Status,234,10945072100,/g4t1,,success
Status,235,10963993666,/g3t1_1,,running
Status,236,10964024196,/g3t1_1,,success
Status,237,10964745117,/g3t1_2,,running
Status,238,10964862848,/g3t1_2,,success
Status,239,10964874201,/g4t1,,fail
Status,240,10973346551,/g3t1_3,,running
Status,241,10973437030,/g3t1_3,,success
Status,242,10985136715,/g4t1,,fail
Status,243,11005277224,/g4t1,,success
Status,244,11025257416,/g4t1,,success
Status,245,11045393604,/g4t1,,success
Status,246,11064025735,/g3t1_1,,running
Status,247,11064230080,/g3t1_1,,success
Status,248,11064697842,/g3t1_2,,running
Status,249,11064810038,/g3t1_2,,success
Status,250,11065184411,/g4t1,,fail
Status,251,11073366615,/g3t1_3,,running
Status,252,11073432317,/g3t1_3,,success
Status,253,11085562744,/g4t1,,fail
Status,254,11105539293,/g4t1,,success
Status,255,11125672952,/g4t1,,success
Status,256,11145797174,/g4t1,,success
Status,257,11164100009,/g3t1_1,,running
Status,258,11164127027,/g3t1_1,,success
Status,259,11164812473,/g3t1_2,,running
Status,260,11164906067,/g3t1_2,,success
Status,261,11165597931,/g4t1,,fail
Status,262,11173602695,/g3t1_3,,running
Status,263,11173688814,/g3t1_3,,success
Status,264,11185965896,/g4t1,,success
Status,265,11206089041,/g4t1,,success
Status,266,11226135082,/g4t1,,success
Status,267,11246204118,/g4t1,,success
Status,268,11264128357,/g3t1_1,,running
Status,269,11264305514,/g3t1_1,,success
Status,270,11264793755,/g3t1_2,,running
Status,271,11264911457,/g3t1_2,,success
Status,272,11266071691,/g4t1,,fail
Status,273,11273595665,/g3t1_3,,running
Status,274,11273846797,/g3t1_3,,success
Status,275,11286299018,/g4t1,,fail
Status,276,11306501306,/g4t1,,success
Status,277,11326557927,/g4t1,,success
Status,278,11346695569,/g4t1,,success
Status,279,11364198506,/g3t1_1,,running
Status,280,11364335024,/g3t1_1,,success
Status,281,11364889706,/g3t1_2,,running
Status,282,11365055602,/g3t1_2,,success
Status,283,11366563895,/g4t1,,fail
Status,284,11373779984,/g3t1_3,,running
Status,285,11373802938,/g3t1_3,,success
Status,286,11386810203,/g4t1,,success
Status,287,11406865498,/g4t1,,success
Status,288,11427012375,/g4t1,,success
Status,289,11447129571,/g4t1,,success
Status,290,11464238260,/g3t1_1,,running
Status,291,11464453036,/g3t1_1,,success
Status,292,11464950817,/g3t1_2,,running
Status,293,11465042022,/g3t1_2,,success
Status,294,11466900108,/g4t1,,fail
Status,295,11473802255,/g3t1_3,,running
Status,296,11473942411,/g3t1_3,,success
Status,297,11487276296,/g4t1,,fail
Status,298,11507352655,/g4t1,,success
Status,299,11527455090,/g4t1,,success
Status,300,11547547153,/g4t1,,success
Status,301,11564319745,/g3t1_1,,running
Status,302,11564457164,/g3t1_1,,success
Status,303,11565000706,/g3t1_2,,running
Status,304,11565140763,/g3t1_2,,success
Status,305,11567372290,/g4t1,,fail
Status,306,11573815535,/g3t1_3,,running
Status,307,11573918678,/g3t1_3,,success
Status,308,11587732089,/g4t1,,success
Status,309,11607759884,/g4t1,,success
Status,310,11627874313,/g4t1,,success
Status,311,11647976920,/g4t1,,success
Status,312,11664449644,/g3t1_1,,running
Status,313,11664469555,/g3t1_1,,success
Status,314,11665079916,/g3t1_2,,running
Status,315,11665139276,/g3t1_2,,success
Status,316,11667797786,/g4t1,,fail
Status,317,11674020352,/g3t1_3,,running
Status,318,11674043407,/g3t1_3,,success
Status,319,11688187679,/g4t1,,fail
Status,320,11708207003,/g4t1,,success
Status,321,11728294695,/g4t1,,success
Status,322,11748407042,/g4t1,,success
Status,323,11764463172,/g3t1_1,,running
Status,324,11764593071,/g3t1_1,,success
Status,325,11765135574,/g3t1_2,,running
Status,326,11765292354,/g3t1_2,,success
Status,327,11768532651,/g4t1,,fail
Status,328,11774159061,/g3t1_3,,running
Status,329,11774181579,/g3t1_3,,success
Status,330,11788586787,/g4t1,,success
Status,331,11808563107,/g4t1,,success
Status,332,11828802523,/g4t1,,success
Status,333,11848921673,/g4t1,,success
Status,334,11864585451,/g3t1_1,,running
Status,335,11864610044,/g3t1_1,,success
Status,336,11865228825,/g3t1_2,,running
Status,337,11865332236,/g3t1_2,,success
Status,338,11868850059,/g4t1,,fail
Status,339,11874099634,/g3t1_3,,running
Status,340,11874197864,/g3t1_3,,success
Status,341,11888949264,/g4t1,,fail
Status,342,11909139426,/g4t1,,success
Status,343,11929261456,/g4t1,,success
Status,344,11949297757,/g4t1,,success
Status,345,11964665772,/g3t1_1,,running
Status,346,11964687128,/g3t1_1,,success
Status,347,11965283963,/g3t1_2,,running
Status,348,11965397506,/g3t1_2,,success
Status,349,11969457193,/g4t1,,fail
Status,350,11974149157,/g3t1_3,,running
Status,351,11974303068,/g3t1_3,,success
Status,352,11989562899,/g4t1,,success
Status,353,12009658715,/g4t1,,success
Status,354,12029679880,/g4t1,,success
Status,355,12049832740,/g4t1,,success
Status,356,12064813615,/g3t1_1,,running
Status,357,12064835959,/g3t1_1,,success
Status,358,12065296355,/g3t1_2,,running
Status,359,12065418077,/g3t1_2,,success
Status,360,12069815512,/g4t1,,fail
Status,361,12074123186,/g3t1_3,,running
Status,362,12074278798,/g3t1_3,,success
Status,363,12090053964,/g4t1,,fail
Status,364,12110092606,/g4t1,,success
Status,365,12130186337,/g4t1,,success
Status,366,12150214194,/g4t1,,success
Status,367,12164880179,/g3t1_1,,running
Status,368,12164902487,/g3t1_1,,success
Status,369,12165396421,/g3t1_2,,running
Status,370,12165516797,/g3t1_2,,success
Status,371,12170262905,/g4t1,,fail
Status,372,12174224843,/g3t1_3,,running
Status,373,12174355874,/g3t1_3,,success
Status,374,12190411271,/g4t1,,success
Status,375,12210510793,/g4t1,,success
Status,376,12230607364,/g4t1,,success
Status,377,12250593998,/g4t1,,success
Status,378,12264869236,/g3t1_1,,running
Status,379,12264966297,/g3t1_1,,success
Status,380,12265452370,/g3t1_2,,running
Status,381,12265527444,/g3t1_2,,success
Status,382,12270832840,/g4t1,,fail
Status,383,12274448200,/g3t1_3,,running
Status,384,12274474468,/g3t1_3,,success
Status,385,12290809314,/g4t1,,fail
Status,386,12310928212,/g4t1,,success
Status,387,12331040712,/g4t1,,success
Status,388,12351086596,/g4t1,,success
Status,389,12365083873,/g3t1_1,,running
Status,390,12365107754,/g3t1_1,,success
Status,391,12365561374,/g3t1_2,,running
Status,392,12365876424,/g3t1_2,,success
Status,393,12371306727,/g4t1,,fail
Status,394,12374355703,/g3t1_3,,running
Status,395,12374409576,/g3t1_3,,success
Status,396,12391241413,/g4t1,,success
Status,397,12411353537,/g4t1,,success
Status,398,12431449596,/g4t1,,success
Status,399,12451523173,/g4t1,,success
Status,400,12465071472,/g3t1_1,,running
Status,401,12465163475,/g3t1_1,,success
Status,402,12465602469,/g3t1_2,,running
Status,403,12465861896,/g3t1_2,,success
Status,404,12471721801,/g4t1,,fail
Status,405,12474467396,/g3t1_3,,running
Status,406,12474566377,/g3t1_3,,success
Status,407,12491855105,/g4t1,,fail
Status,408,12511916465,/g4t1,,success
Status,409,12532015874,/g4t1,,success
Status,410,12552060286,/g4t1,,success
Status,411,12565246028,/g3t1_1,,running
Status,412,12565338718,/g3t1_1,,success
Status,413,12565834209,/g3t1_2,,running
Status,414,12565897503,/g3t1_2,,success
Status,415,12572031769,/g4t1,,fail
Status,416,12574489473,/g3t1_3,,running
Status,417,12574532642,/g3t1_3,,success
Status,418,12592245939,/g4t1,,success
Status,419,12612337295,/g4t1,,success
Status,420,12632429152,/g4t1,,success
Status,421,12652620428,/g4t1,,success
Status,422,12665376669,/g3t1_1,,running
Status,423,12665396372,/g3t1_1,,success
Status,424,12665794565,/g3t1_2,,running
Status,425,12665942960,/g3t1_2,,success
Status,426,12672560078,/g4t1,,fail
Status,427,12674550466,/g3t1_3,,running
Status,428,12674806157,/g3t1_3,,success
Status,429,12692638247,/g4t1,,fail
Status,430,12712732153,/g4t1,,success
Status,431,12732830273,/g4t1,,success
Status,432,12753032508,/g4t1,,success
Status,433,12765492233,/g3t1_1,,running
Status,434,12765513946,/g3t1_1,,success
Status,435,12765887531,/g3t1_2,,running
Status,436,12766031754,/g3t1_2,,success
Status,437,12772968758,/g4t1,,fail
Status,438,12774643151,/g3t1_3,,running
Status,439,12774875505,/g3t1_3,,success
Status,440,12793128730,/g4t1,,success
Status,441,12813257057,/g4t1,,success
Status,442,12833392461,/g4t1,,success
Status,443,12853588052,/g4t1,,success
Status,444,12865476563,/g3t1_1,,running
Status,445,12865502276,/g3t1_1,,success
Status,446,12865913699,/g3t1_2,,running
Status,447,12866052218,/g3t1_2,,success
Status,448,12873542619,/g4t1,,fail
Status,449,12874718455,/g3t1_3,,running
Status,450,12874833774,/g3t1_3,,success
Status,451,12893558935,/g4t1,,fail
Status,452,12913703360,/g4t1,,success
Status,453,12933831117,/g4t1,,success
Status,454,12953932695,/g4t1,,success
Status,455,12965533681,/g3t1_1,,running
Status,456,12965553939,/g3t1_1,,success
Status,457,12965927414,/g3t1_2,,running
Status,458,12966057074,/g3t1_2,,success
Status,459,12974080499,/g4t1,,fail
Status,460,12974760249,/g3t1_3,,running
Status,461,12974918355,/g3t1_3,,success
Status,462,12994224319,/g4t1,,success
Status,463,13014347070,/g4t1,,success
Status,464,13034339351,/g4t1,,success
Status,465,13054447828,/g4t1,,success
Status,466,13065703434,/g3t1_1,,running
Status,467,13065897269,/g3t1_1,,success
Status,468,13066117780,/g3t1_2,,running
Status,469,13066153635,/g3t1_2,,success
Status,470,13074529558,/g4t1,,fail
Status,471,13074811492,/g3t1_3,,running
Status,472,13075028892,/g3t1_3,,success
Status,473,13094576855,/g4t1,,fail
Status,474,13114626402,/g4t1,,success
Status,475,13134740427,/g4t1,,success
Status,476,13154935245,/g4t1,,success
Status,477,13165734131,/g3t1_1,,running
Status,478,13165883947,/g3t1_1,,success
Status,479,13166068802,/g3t1_2,,running
Status,480,13166286463,/g3t1_2,,success
Status,481,13174931769,/g4t1,,fail
Status,482,13174960558,/g3t1_3,,running
Status,483,13175074264,/g3t1_3,,success
Status,484,13195031672,/g4t1,,success
Status,485,13215107915,/g4t1,,success
Status,486,13235162278,/g4t1,,success
Status,487,13255390379,/g4t1,,success
Status,488,13265808545,/g3t1_1,,running
Status,489,13265900410,/g3t1_1,,success
Status,490,13266251110,/g3t1_2,,running
Status,491,13266340715,/g3t1_2,,success
Status,492,13275290722,/g3t1_3,,running
Status,493,13275314167,/g3t1_3,,success
Status,494,13275333271,/g4t1,,fail
Status,495,13295479898,/g4t1,,fail
Status,496,13315583831,/g4t1,,success
Status,497,13335767048,/g4t1,,success
Status,498,13355768577,/g4t1,,success
Status,499,13366036913,/g3t1_1,,running
Status,500,13366057812,/g3t1_1,,success
Status,501,13366298374,/g3t1_2,,running
Status,502,13366470425,/g3t1_2,,success
Status,503,13375202429,/g3t1_3,,running
Status,504,13375224158,/g3t1_3,,success
Status,505,13375642246,/g4t1,,fail
Status,506,13395889730,/g4t1,,success
Status,507,13416011022,/g4t1,,success
Status,508,13436114391,/g4t1,,success
Status,509,13456196768,/g4t1,,success
Status,510,13466049476,/g3t1_1,,running
Status,511,13466074286,/g3t1_1,,success
Status,512,13466335237,/g3t1_2,,running
Status,513,13466429439,/g3t1_2,,success
Status,514,13475311510,/g3t1_3,,running
Status,515,13475333228,/g3t1_3,,success
Status,516,13476197952,/g4t1,,fail
Status,517,13496348231,/g4t1,,success
Status,518,13516386352,/g4t1,,success
Status,519,13536536641,/g4t1,,success
Status,520,13556564820,/g4t1,,success
Status,521,13566121728,/g3t1_1,,running
Status,522,13566200523,/g3t1_1,,success
Status,523,13566375689,/g3t1_2,,running
Status,524,13566455580,/g3t1_2,,success
Status,525,13575432625,/g3t1_3,,running
Status,526,13575454307,/g3t1_3,,success
Status,527,13576595651,/g4t1,,fail
Status,528,13596821437,/g4t1,,success
Status,529,13616872660,/g4t1,,success
Status,530,13637016637,/g4t1,,success
Status,531,13657137250,/g4t1,,success
Status,532,13666219608,/g3t1_1,,running
Status,533,13666344449,/g3t1_1,,success
Status,534,13666454915,/g3t1_2,,running
Status,535,13666514901,/g3t1_2,,success
Status,536,13675458022,/g3t1_3,,running
Status,537,13675557779,/g3t1_3,,success
Status,538,13677121350,/g4t1,,fail
Status,539,13697338583,/g4t1,,success
Status,540,13717376305,/g4t1,,success
Status,541,13737488638,/g4t1,,success
Status,542,13757592883,/g4t1,,success
Status,543,13766336545,/g3t1_1,,running
Status,544,13766363470,/g3t1_1,,success
Status,545,13766593276,/g3t1_2,,running
Status,546,13766649296,/g3t1_2,,success
Status,547,13775665421,/g3t1_3,,running
Status,548,13775684692,/g3t1_3,,success
Status,549,13777610876,/g4t1,,fail
Status,550,13797751537,/g4t1,,success
Status,551,13817744807,/g4t1,,success
Status,552,13837935155,/g4t1,,success
Status,553,13858062529,/g4t1,,success
Status,554,13866348918,/g3t1_1,,running
Status,555,13866396485,/g3t1_1,,success
Status,556,13866612775,/g3t1_2,,running
Status,557,13866810333,/g3t1_2,,success
Status,558,13875770405,/g3t1_3,,running
Status,559,13875796627,/g3t1_3,,success
Status,560,13878047643,/g4t1,,fail
Status,561,13898205888,/g4t1,,success
Status,562,13918289386,/g4t1,,success
Status,563,13938364266,/g4t1,,success
Status,564,13958401347,/g4t1,,success
Status,565,13966509900,/g3t1_1,,running
Status,566,13966538900,/g3t1_1,,success
Status,567,13966717157,/g3t1_2,,running
Status,568,13966851225,/g3t1_2,,success
Status,569,13975715209,/g3t1_3,,running
Status,570,13975868694,/g3t1_3,,success
Status,571,13978303473,/g4t1,,fail
Status,572,13998607629,/g4t1,,success
Status,573,14018632695,/g4t1,,success
Status,574,14038716928,/g4t1,,success
Status,575,14058822824,/g4t1,,success
Status,576,14066550155,/g3t1_1,,running
Status,577,14066577228,/g3t1_1,,success
Status,578,14066696486,/g3t1_2,,running
Status,579,14066847401,/g3t1_2,,success
Status,580,14075899418,/g3t1_3,,running
Status,581,14075920667,/g3t1_3,,success
Status,582,14078830995,/g4t1,,fail
Status,583,14099011759,/g4t1,,success
Status,584,14119179662,/g4t1,,success
Status,585,14139264907,/g4t1,,success
Status,586,14159301623,/g4t1,,success
Status,587,14166615262,/g3t1_1,,running
Status,588,14166637911,/g3t1_1,,success
Status,589,14166804573,/g3t1_2,,running
Status,590,14166903662,/g3t1_2,,success
Status,591,14175955251,/g3t1_3,,running
Status,592,14175977988,/g3t1_3,,success
Status,593,14179316684,/g4t1,,fail
Status,594,14199370355,/g4t1,,success
Status,595,14219597832,/g4t1,,success
Status,596,14239624854,/g4t1,,success
Status,597,14259746004,/g4t1,,success
Status,598,14266734725,/g3t1_1,,running
Status,599,14266756108,/g3t1_1,,success
Status,600,14266791028,/g3t1_2,,running
Status,601,14266992387,/g3t1_2,,success
Status,602,14276068217,/g3t1_3,,running
Status,603,14276246085,/g3t1_3,,success
Status,604,14279712613,/g4t1,,fail
Status,605,14299851883,/g4t1,,success
Status,606,14320078035,/g4t1,,success
Status,607,14340074357,/g4t1,,success
Status,608,14360174302,/g4t1,,success
Status,609,14366858785,/g3t1_1,,running
Status,610,14366890053,/g3t1_1,,success
Status,611,14367160636,/g3t1_2,,running
Status,612,14367183133,/g3t1_2,,success
Status,613,14376181575,/g3t1_3,,running
Status,614,14376203517,/g3t1_3,,success
Status,615,14380285516,/g4t1,,fail
Status,616,14400459919,/g4t1,,success
Status,617,14420565202,/g4t1,,success
Status,618,14440638706,/g4t1,,success
Status,619,14460777681,/g4t1,,success
Status,620,14466866152,/g3t1_1,,running
Status,621,14466899566,/g3t1_1,,success
Status,622,14466972814,/g3t1_2,,running
Status,623,14467159683,/g3t1_2,,success
Status,624,14476292284,/g3t1_3,,running
Status,625,14476317050,/g3t1_3,,success
Status,626,14480718429,/g4t1,,fail
Status,627,14500860276,/g4t1,,success
Status,628,14521013407,/g4t1,,success
Status,629,14541019572,/g4t1,,success
Status,630,14561166940,/g4t1,,success
Status,631,14567146115,/g3t1_1,,running
Status,632,14567189514,/g3t1_2,,running
Status,633,14567202309,/g3t1_1,,success
Status,634,14567209310,/g3t1_2,,success
Status,635,14576421936,/g3t1_3,,running
Status,636,14576443274,/g3t1_3,,success
Status,637,14581257372,/g4t1,,fail
Status,638,14601283118,/g4t1,,success
Status,639,14621547443,/g4t1,,success
Status,640,14641605128,/g4t1,,success
Status,641,14661590189,/g4t1,,success
Status,642,14667028927,/g3t1_1,,running
Status,643,14667059323,/g3t1_1,,success
Status,644,14667173605,/g3t1_2,,running
Status,645,14667333366,/g3t1_2,,success
Status,646,14676397740,/g3t1_3,,running
Status,647,14676422028,/g3t1_3,,success
Status,648,14681834320,/g4t1,,fail
Status,649,14701839897,/g4t1,,success
Status,650,14722006859,/g4t1,,success
Status,651,14742095314,/g4t1,,success
Status,652,14762137034,/g4t1,,success
Status,653,14767221183,/g3t1_1,,running
Status,654,14767263594,/g3t1_1,,success
Status,655,14767275607,/g3t1_2,,running
Status,656,14767418680,/g3t1_2,,success
Status,657,14776584461,/g3t1_3,,running
Status,658,14776606830,/g3t1_3,,success
Status,659,14782173196,/g4t1,,fail
Status,660,14802326121,/g4t1,,success
Status,661,14822377578,/g4t1,,success
Status,662,14842447363,/g4t1,,success
Status,663,14862485612,/g4t1,,success
Status,664,14867259378,/g3t1_1,,running
Status,665,14867328060,/g3t1_1,,success
Status,666,14867428083,/g3t1_2,,running
Status,667,14867566413,/g3t1_2,,success
Status,668,14876512285,/g3t1_3,,running
Status,669,14876626432,/g3t1_3,,success
Status,670,14882562551,/g4t1,,fail
Status,671,14902744801,/g4t1,,success
Status,672,14922806435,/g4t1,,success
Status,673,14942954747,/g4t1,,success
Status,674,14963040210,/g4t1,,success
Status,675,14967229036,/g3t1_1,,running
Status,676,14967354924,/g3t1_2,,running
Status,677,14967371976,/g3t1_1,,success
Status,678,14967532759,/g3t1_2,,success
Status,679,14976698228,/g3t1_3,,running
Status,680,14976717702,/g3t1_3,,success
Status,681,14983064437,/g4t1,,fail
Status,682,15003390396,/g4t1,,success
Status,683,15023360373,/g4t1,,success
Status,684,15043474786,/g4t1,,success
Status,685,15063401521,/g4t1,,success
Status,686,15067290611,/g3t1_1,,running
Status,687,15067436904,/g3t1_2,,running
Status,688,15067466950,/g3t1_1,,success
Status,689,15067736757,/g3t1_2,,success
Status,690,15076747900,/g3t1_3,,running
Status,691,15076768169,/g3t1_3,,success
Status,692,15083472072,/g4t1,,fail
Status,693,15103808472,/g4t1,,success
Status,694,15123769603,/g4t1,,success
Status,695,15143906735,/g4t1,,success
Status,696,15164039087,/g4t1,,success
Status,697,15167538994,/g3t1_1,,running
Status,698,15167566129,/g3t1_2,,running
Status,699,15167593180,/g3t1_1,,success
Status,700,15167648109,/g3t1_2,,success
Status,701,15176909637,/g3t1_3,,running
Status,702,15176983899,/g3t1_3,,success
Status,703,15184021057,/g4t1,,fail
Status,704,15204173209,/g4t1,,success
Status,705,15224258438,/g4t1,,success
Status,706,15244333723,/g4t1,,success
Status,707,15264407374,/g4t1,,success
Status,708,15267465142,/g3t1_1,,running
Status,709,15267643242,/g3t1_2,,running
Status,710,15267697200,/g3t1_1,,success
Status,711,15267725173,/g3t1_2,,success
Status,712,15276950692,/g3t1_3,,running
Status,713,15276978444,/g3t1_3,,success
Status,714,15284505306,/g4t1,,fail
Status,715,15304593090,/g4t1,,success
Status,716,15324723854,/g4t1,,success
Status,717,15344772830,/g4t1,,success
Status,718,15364848465,/g4t1,,success
Status,719,15367717954,/g3t1_2,,running
Status,720,15367736561,/g3t1_1,,running
Status,721,15367749538,/g3t1_1,,success
Status,722,15367796487,/g3t1_2,,success
Status,723,15377001278,/g3t1_3,,running
Status,724,15377028267,/g3t1_3,,success
Status,725,15384909377,/g4t1,,fail
Status,726,15405065590,/g4t1,,success
Status,727,15425066414,/g4t1,,success
Status,728,15445165753,/g4t1,,success
Status,729,15465282531,/g4t1,,success
Status,730,15467749187,/g3t1_2,,running
Status,731,15467776371,/g3t1_1,,running
Status,732,15467877503,/g3t1_2,,success
Status,733,15467891134,/g3t1_1,,success
Status,734,15477071452,/g3t1_3,,running
Status,735,15477237896,/g3t1_3,,success
Status,736,15485383052,/g4t1,,fail
Status,737,15505474854,/g4t1,,success
Status,738,15525585853,/g4t1,,success
Status,739,15545656060,/g4t1,,success
Status,740,15565666816,/g4t1,,success
Status,741,15567693169,/g3t1_1,,running
Status,742,15567781480,/g3t1_2,,running
Status,743,15567886896,/g3t1_1,,success
Status,744,15567935285,/g3t1_2,,success
Status,745,15577193811,/g3t1_3,,running
Status,746,15577219949,/g3t1_3,,success
Status,747,15585937861,/g4t1,,fail
Status,748,15606011874,/g4t1,,success
Status,749,15626126181,/g4t1,,success
Status,750,15646242916,/g4t1,,success
Status,751,15666262413,/g4t1,,success
Status,752,15667787824,/g3t1_2,,running
Status,753,15667888752,/g3t1_1,,running
Status,754,15667926115,/g3t1_1,,success
Status,755,15667952149,/g3t1_2,,success
Status,756,15677360692,/g3t1_3,,running
Status,757,15677438652,/g3t1_3,,success
Status,758,15686350877,/g4t1,,fail
Status,759,15706341790,/g4t1,,success
Status,760,15726386220,/g4t1,,success
Status,761,15746489837,/g4t1,,success
Status,762,15766475848,/g4t1,,success
Status,763,15767881039,/g3t1_1,,running
Status,764,15768003258,/g3t1_2,,running
Status,765,15768179099,/g3t1_1,,success
Status,766,15768204042,/g3t1_2,,success
Status,767,15777333343,/g3t1_3,,running
Status,768,15777445967,/g3t1_3,,success
Status,769,15786824798,/g4t1,,fail
Status,770,15806825113,/g4t1,,success
Status,771,15826798585,/g4t1,,success
Status,772,15846968554,/g4t1,,success
Status,773,15866988117,/g4t1,,success
Status,774,15868030312,/g3t1_1,,running
Status,775,15868105358,/g3t1_1,,success
Status,776,15868119466,/g3t1_2,,running
Status,777,15868180418,/g3t1_2,,success
Status,778,15877428846,/g3t1_3,,running
Status,779,15877536049,/g3t1_3,,success
Status,780,15887082214,/g4t1,,fail
Status,781,15907210143,/g4t1,,success
Status,782,15927316175,/g4t1,,success
Status,783,15947372615,/g4t1,,success
Status,784,15967379353,/g4t1,,success
Status,785,15967987830,/g3t1_1,,running
Status,786,15968123164,/g3t1_2,,running
Status,787,15968148585,/g3t1_1,,success
Status,788,15968251469,/g3t1_2,,success
Status,789,15977506297,/g3t1_3,,running
Status,790,15977535087,/g3t1_3,,success
Status,791,15987570861,/g4t1,,fail
Status,792,16007651184,/g4t1,,success
Status,793,16027758040,/g4t1,,success
Status,794,16047846135,/g4t1,,success
Status,795,16067774899,/g4t1,,success
Status,796,16067992487,/g3t1_1,,running
Status,797,16068191905,/g3t1_1,,success
Status,798,16068211280,/g3t1_2,,running
Status,799,16068393461,/g3t1_2,,success
Status,800,16077654100,/g3t1_3,,running
Status,801,16077679224,/g3t1_3,,success
Status,802,16088046642,/g4t1,,fail
Status,803,16108150795,/g4t1,,success
Status,804,16128262230,/g4t1,,success
Status,805,16148378252,/g4t1,,success
Status,806,16168287756,/g3t1_1,,running
Status,807,16168312197,/g3t1_2,,running
Status,808,16168322707,/g4t1,,success
Status,809,16168425512,/g3t1_2,,success
Status,810,16168446284,/g3t1_1,,success
Status,811,16177720531,/g3t1_3,,running
Status,812,16177889523,/g3t1_3,,success
Status,813,16188546145,/g4t1,,fail
Status,814,16208599968,/g4t1,,success
Status,815,16228670642,/g4t1,,success
Status,816,16248789643,/g4t1,,success
Status,817,16268336520,/g3t1_1,,running
Status,818,16268366537,/g3t1_2,,running
Status,819,16268484949,/g3t1_2,,success
Status,820,16268505144,/g3t1_1,,success
Status,821,16268696772,/g4t1,,success
Status,822,16277850690,/g3t1_3,,running
Status,823,16277873910,/g3t1_3,,success
Status,824,16288980019,/g4t1,,fail
Status,825,16309118464,/g4t1,,success
Status,826,16329192926,/g4t1,,success
Status,827,16349351423,/g4t1,,success
Status,828,16368587865,/g3t1_1,,running
Status,829,16368612225,/g3t1_2,,running
Status,830,16368699531,/g3t1_2,,success
Status,831,16368718384,/g3t1_1,,success
Status,832,16369136755,/g4t1,,fail
Status,833,16378080561,/g3t1_3,,running
Status,834,16378101876,/g3t1_3,,success
Status,835,16389332499,/g4t1,,success
Status,836,16409512941,/g4t1,,success
Status,837,16429558022,/g4t1,,success
Status,838,16449710210,/g4t1,,success
Status,839,16468636857,/g3t1_1,,running
Status,840,16468660007,/g3t1_2,,running
Status,841,16468667433,/g3t1_1,,success
Status,842,16468673079,/g3t1_2,,success
Status,843,16469732403,/g4t1,,fail
Status,844,16477991144,/g3t1_3,,running
Status,845,16478126464,/g3t1_3,,success
Status,846,16489852482,/g4t1,,fail
Status,847,16510010545,/g4t1,,success
Status,848,16530169215,/g4t1,,success
Status,849,16550200243,/g4t1,,success
Status,850,16568573852,/g3t1_1,,running
Status,851,16568605411,/g3t1_2,,running
Status,852,16568629866,/g3t1_1,,success
Status,853,16568829005,/g3t1_2,,success
Status,854,16570234578,/g4t1,,fail
Status,855,16578098935,/g3t1_3,,running
Status,856,16578120061,/g3t1_3,,success
Status,857,16590276740,/g4t1,,success
Status,858,16610437745,/g4t1,,success
Status,859,16630479699,/g4t1,,success
Status,860,16650502657,/g4t1,,success
Status,861,16668700157,/g3t1_1,,running
Status,862,16668731930,/g3t1_2,,running
Status,863,16668756445,/g3t1_2,,success
Status,864,16668775475,/g3t1_1,,success
Status,865,16670513214,/g4t1,,fail
Status,866,16678125170,/g3t1_3,,running
Status,867,16678243209,/g3t1_3,,success
Status,868,16690718282,/g4t1,,fail
Status,869,16710794178,/g4t1,,success
Status,870,16730879559,/g4t1,,success
Status,871,16751046349,/g4t1,,success
Status,872,16768786257,/g3t1_1,,running
Status,873,16768827861,/g3t1_2,,running
Status,874,16768841729,/g3t1_2,,success
Status,875,16768856686,/g3t1_1,,success
Status,876,16770966548,/g4t1,,fail
Status,877,16778215680,/g3t1_3,,running
Status,878,16778240924,/g3t1_3,,success
Status,879,16791128865,/g4t1,,success
Status,880,16811261726,/g4t1,,success
Status,881,16831319295,/g4t1,,success
Status,882,16851469634,/g4t1,,success
Status,883,16869078914,/g3t1_2,,running
Status,884,16869107119,/g3t1_1,,running
Status,885,16869114757,/g3t1_1,,success
Status,886,16869121970,/g3t1_2,,success
Status,887,16871541896,/g4t1,,fail
Status,888,16878188621,/g3t1_3,,running
Status,889,16878230727,/g3t1_3,,success
Status,890,16891592422,/g4t1,,fail
Status,891,16911686025,/g4t1,,success
Status,892,16931802140,/g4t1,,success
Status,893,16951887853,/g4t1,,success
Status,894,16969071631,/g3t1_2,,running
Status,895,16969098954,/g3t1_1,,running
Status,896,16969130158,/g3t1_1,,success
Status,897,16969237488,/g3t1_2,,success
Status,898,16972037460,/g4t1,,fail
Status,899,16978422914,/g3t1_3,,running
Status,900,16978525307,/g3t1_3,,success
Status,901,16992162609,/g4t1,,success
Status,902,17012243250,/g4t1,,success
Status,903,17032312452,/g4t1,,success
Status,904,17052589206,/g4t1,,success
Status,905,17069122914,/g3t1_2,,running
Status,906,17069161173,/g3t1_1,,running
Status,907,17069408246,/g3t1_2,,success
Status,908,17069430476,/g3t1_1,,success
Status,909,17072531403,/g4t1,,fail
Status,910,17078497033,/g3t1_3,,running
Status,911,17078596775,/g3t1_3,,success
Status,912,17092687105,/g4t1,,fail
Status,913,17112815907,/g4t1,,success
Status,914,17132877482,/g4t1,,success
Status,915,17153150947,/g4t1,,success
Status,916,17169126788,/g3t1_2,,running
Status,917,17169152597,/g3t1_1,,running
Status,918,17169178678,/g3t1_2,,success
Status,919,17169200212,/g3t1_1,,success
Status,920,17173015030,/g4t1,,fail
Status,921,17178590517,/g3t1_3,,running
Status,922,17178611739,/g3t1_3,,success
Status,923,17193141217,/g4t1,,success
Status,924,17213331405,/g4t1,,success
Status,925,17233296000,/g4t1,,success
Status,926,17253596438,/g4t1,,success
Status,927,17269192514,/g3t1_2,,running
Status,928,17269213673,/g3t1_1,,running
Status,929,17269222330,/g3t1_2,,success
Status,930,17269337720,/g3t1_1,,success
Status,931,17273395658,/g4t1,,fail
Status,932,17278580722,/g3t1_3,,running
Status,933,17278815528,/g3t1_3,,success
Status,934,17293646343,/g4t1,,fail
Status,935,17313682720,/g4t1,,success
Status,936,17333778158,/g4t1,,success
Status,937,17353876809,/g4t1,,success
Status,938,17369478639,/g3t1_1,,running
Status,939,17369499260,/g3t1_2,,running
Status,940,17369508684,/g3t1_2,,success
Status,941,17369533764,/g3t1_1,,success
Status,942,17373922289,/g4t1,,fail
Status,943,17378646863,/g3t1_3,,running
Status,944,17378827788,/g3t1_3,,success
Status,945,17394034361,/g4t1,,success
Status,946,17414108409,/g4t1,,success
Status,947,17434142574,/g4t1,,success
Status,948,17454299296,/g4t1,,success
Status,949,17469512453,/g3t1_2,,running
Status,950,17469533137,/g3t1_1,,running
Status,951,17469556411,/g3t1_2,,success
Status,952,17469562750,/g3t1_1,,success
Status,953,17474289345,/g4t1,,fail
Status,954,17478762429,/g3t1_3,,running
Status,955,17478915026,/g3t1_3,,success
Status,956,17494421034,/g4t1,,fail
Status,957,17514495895,/g4t1,,success
Status,958,17534616010,/g4t1,,success
Status,959,17554706428,/g4t1,,success
Status,960,17569734338,/g3t1_2,,running
Status,961,17569766008,/g3t1_1,,running
Status,962,17569852688,/g3t1_1,,success
Status,963,17569871334,/g3t1_2,,success
Status,964,17574649391,/g4t1,,fail
Status,965,17578963648,/g3t1_3,,running
Status,966,17578984078,/g3t1_3,,success
Status,967,17594848151,/g4t1,,success
Status,968,17614878029,/g4t1,,success
Status,969,17635060665,/g4t1,,success
Status,970,17655109404,/g4t1,,success
Status,971,17669613958,/g3t1_2,,running
Status,972,17669659181,/g3t1_1,,running
Status,973,17669759963,/g3t1_1,,success
Status,974,17669776995,/g3t1_2,,success
Status,975,17675086959,/g4t1,,fail
Status,976,17679107732,/g3t1_3,,running
Status,977,17679213657,/g3t1_3,,success
Status,978,17695224504,/g4t1,,fail
Status,979,17715316308,/g4t1,,success
Status,980,17735396729,/g4t1,,success
Status,981,17755529269,/g4t1,,success
Status,982,17769664211,/g3t1_2,,running
Status,983,17769703558,/g3t1_1,,running
Status,984,17769712531,/g3t1_2,,success
Status,985,17769814168,/g3t1_1,,success
Status,986,17775609367,/g4t1,,fail
Status,987,17779073109,/g3t1_3,,running
Status,988,17779194648,/g3t1_3,,success
Status,989,17795722705,/g4t1,,success
Status,990,17815805673,/g4t1,,success
Status,991,17836038633,/g4t1,,success
Status,992,17856074749,/g4t1,,success
Status,993,17870027312,/g3t1_1,,running
Status,994,17870062669,/g3t1_2,,running
Status,995,17870090589,/g3t1_2,,success
Status,996,17870182972,/g3t1_1,,success
Status,997,17876037604,/g4t1,,fail
Status,998,17879227570,/g3t1_3,,running
Status,999,17879247693,/g3t1_3,,success
Status,1000,17896187109,/g4t1,,fail
Status,1001,17916219667,/g4t1,,success
Status,1002,17936478903,/g4t1,,success
Status,1003,17956525585,/g4t1,,success
Status,1004,17970133065,/g3t1_1,,running
Status,1005,17970155989,/g3t1_2,,running
Status,1006,17970269453,/g3t1_2,,success
Status,1007,17970281365,/g3t1_1,,success
Status,1008,17976560611,/g4t1,,fail
Status,1009,17979198007,/g3t1_3,,running
Status,1010,17979295606,/g3t1_3,,success
Status,1011,17996628684,/g4t1,,success
Status,1012,18016630823,/g4t1,,success
Status,1013,18037000011,/g4t1,,success
Status,1014,18056979638,/g4t1,,success
Status,1015,18070182345,/g3t1_1,,running
Status,1016,18070218865,/g3t1_2,,running
Status,1017,18070317468,/g3t1_2,,success
Status,1018,18070425065,/g3t1_1,,success
Status,1019,18077056017,/g4t1,,fail
Status,1020,18079268413,/g3t1_3,,running
Status,1021,18079578636,/g3t1_3,,success
Status,1022,18097103337,/g4t1,,fail
Status,1023,18117244380,/g4t1,,success
Status,1024,18137322851,/g4t1,,success
Status,1025,18157342104,/g4t1,,success
Status,1026,18170070885,/g3t1_1,,running
Status,1027,18170096504,/g3t1_2,,running
Status,1028,18170221214,/g3t1_2,,success
Status,1029,18170242417,/g3t1_1,,success
Status,1030,18177538192,/g4t1,,fail
Status,1031,18179472224,/g3t1_3,,running
Status,1032,18179543584,/g3t1_3,,success
Status,1033,18197425417,/g4t1,,success
Status,1034,18217664554,/g4t1,,success
Status,1035,18237665645,/g4t1,,success
Status,1036,18257741631,/g4t1,,success
Status,1037,18270157148,/g3t1_1,,running
Status,1038,18270181459,/g3t1_2,,running
Status,1039,18270269732,/g3t1_1,,success
Status,1040,18270327419,/g3t1_2,,success
Status,1041,18277914094,/g4t1,,fail
Status,1042,18279571447,/g3t1_3,,running
Status,1043,18279594557,/g3t1_3,,success
Status,1044,18298001309,/g4t1,,fail
Status,1045,18318117864,/g4t1,,success
Status,1046,18338155131,/g4t1,,success
Status,1047,18358188269,/g4t1,,success
Status,1048,18370511574,/g3t1_2,,running
Status,1049,18370568928,/g3t1_1,,running
Status,1050,18370586372,/g3t1_2,,success
Status,1051,18370595972,/g3t1_1,,success
Status,1052,18378222479,/g4t1,,fail
Status,1053,18379560552,/g3t1_3,,running
Status,1054,18379712831,/g3t1_3,,success
Status,1055,18398373361,/g4t1,,success
Status,1056,18418409263,/g4t1,,success
Status,1057,18438565808,/g4t1,,success
Status,1058,18458628397,/g4t1,,success
Status,1059,18470563063,/g3t1_2,,running
Status,1060,18470602480,/g3t1_1,,running
Status,1061,18470613801,/g3t1_1,,success
Status,1062,18470623047,/g3t1_2,,success
Status,1063,18478699559,/g4t1,,fail
Status,1064,18479660496,/g3t1_3,,running
Status,1065,18479684305,/g3t1_3,,success
Status,1066,18498811722,/g4t1,,fail
Status,1068,18518912265,/g4t1,,success
Status,1069,18539008563,/g4t1,,success
Status,1070,18559107531,/g4t1,,success
Status,1071,18570568231,/g3t1_1,,running
Status,1072,18570594345,/g3t1_2,,running
Status,1073,18570612086,/g3t1_2,,success
Status,1074,18570618369,/g3t1_1,,fail
Status,1075,18579222158,/g4t1,,success
Status,1076,18579700756,/g3t1_3,,running
Status,1077,18579895980,/g3t1_3,,success
Status,1078,18599320348,/g4t1,,success
Status,1079,18619554692,/g4t1,,success
Status,1080,18639517991,/g4t1,,success
Status,1081,18659615147,/g4t1,,success
Status,1082,18670490149,/g3t1_1,,running
Status,1083,18670516175,/g3t1_2,,running
Status,1084,18670526166,/g3t1_1,,fail
Status,1085,18670532713,/g3t1_2,,success
Status,1086,18679623430,/g4t1,,success
Status,1087,18679741563,/g3t1_3,,running
Status,1088,18679962516,/g3t1_3,,success
Status,1089,18699738028,/g4t1,,success
Status,1091,18720011050,/g4t1,,success
Status,1092,18739986444,/g4t1,,success
Status,1093,18760054665,/g4t1,,success
Status,1094,18770624963,/g3t1_1,,running
Status,1095,18770652900,/g3t1_2,,running
Status,1096,18770680532,/g3t1_2,,success
Status,1097,18771160214,/g3t1_1,,fail
Status,1098,18779949509,/g3t1_3,,running
Status,1099,18779970999,/g3t1_3,,success
Status,1100,18780045618,/g4t1,,success
Status,1101,18800214640,/g4t1,,success
Status,1102,18820373378,/g4t1,,success
Status,1103,18840424368,/g4t1,,success
Status,1104,18860464597,/g4t1,,success
Status,1105,18870912247,/g3t1_1,,running
Status,1106,18870935091,/g3t1_2,,running
Status,1107,18870966158,/g3t1_1,,fail
Status,1108,18870971034,/g3t1_2,,success
Status,1109,18880018708,/g3t1_3,,running
Status,1110,18880039554,/g3t1_3,,success
Status,1111,18880311355,/g4t1,,success
Status,1112,18900495839,/g4t1,,success
Status,1114,18920662463,/g4t1,,success
Status,1115,18940787292,/g4t1,,success
Status,1116,18960909457,/g4t1,,success
Status,1117,18970811778,/g3t1_1,,running
Status,1118,18970835761,/g3t1_1,,fail
Status,1119,18970845474,/g3t1_2,,running
Status,1120,18970926290,/g3t1_2,,success
Status,1121,18980017166,/g3t1_3,,running
Status,1122,18980112255,/g3t1_3,,success
Status,1123,18980740051,/g4t1,,success
Status,1124,19000922602,/g4t1,,success
Status,1125,19021100670,/g4t1,,success
Status,1126,19041185752,/g4t1,,success
Status,1127,19061272791,/g4t1,,success
Status,1128,19070937969,/g3t1_1,,running
Status,1129,19070969014,/g3t1_2,,running
Status,1130,19070986018,/g3t1_2,,success
Status,1131,19070994504,/g3t1_1,,fail
Status,1132,19080097723,/g3t1_3,,running
Status,1133,19080146108,/g3t1_3,,success
Status,1134,19081214992,/g4t1,,success
Status,1135,19101436133,/g4t1,,success
Status,1137,19121552685,/g4t1,,success
Status,1138,19141525032,/g4t1,,success
Status,1139,19161669981,/g4t1,,success
Status,1140,19170912829,/g3t1_1,,running
Status,1141,19170938893,/g3t1_2,,running
Status,1142,19170949702,/g3t1_1,,fail
Status,1143,19170956560,/g3t1_2,,success
Status,1144,19180331212,/g3t1_3,,running
Status,1145,19180353850,/g3t1_3,,success
Status,1146,19181584242,/g4t1,,success
Status,1147,19201919308,/g4t1,,success
Status,1148,19222257464,/g4t1,,success
Status,1149,19242085036,/g4t1,,success
Status,1150,19262216261,/g4t1,,success
Status,1151,19271015057,/g3t1_1,,running
Status,1152,19271045237,/g3t1_2,,running
Status,1153,19271254040,/g3t1_1,,fail
Status,1154,19271276367,/g3t1_2,,success
Status,1155,19280296002,/g3t1_3,,running
Status,1156,19280338804,/g3t1_3,,success
Status,1157,19282189215,/g4t1,,success
Status,1158,19302306575,/g4t1,,success
Status,1160,19322533248,/g4t1,,success
Status,1161,19342474113,/g4t1,,success
Status,1162,19362610989,/g4t1,,success
Status,1163,19371165009,/g3t1_1,,running
Status,1164,19371189136,/g3t1_2,,running
Status,1165,19371199915,/g3t1_1,,fail
Status,1166,19371263760,/g3t1_2,,success
Status,1167,19380306610,/g3t1_3,,running
Status,1168,19380437432,/g3t1_3,,success
Status,1169,19382397773,/g4t1,,success
Status,1170,19402786089,/g4t1,,success
Status,1171,19422861119,/g4t1,,success
Status,1172,19442850117,/g4t1,,success
Status,1173,19463118473,/g4t1,,success
Status,1174,19471161175,/g3t1_2,,running
Status,1175,19471303492,/g3t1_1,,running
Status,1176,19471350871,/g3t1_1,,fail
Status,1177,19471365537,/g3t1_2,,success
Status,1178,19480454631,/g3t1_3,,running
Status,1179,19480479226,/g3t1_3,,success
Status,1180,19483007467,/g4t1,,success
Status,1181,19503329925,/g4t1,,success
Status,1183,19523319353,/g4t1,,success
Status,1184,19543347454,/g4t1,,success
Status,1185,19563473956,/g4t1,,success
Status,1186,19571287948,/g3t1_2,,running
Status,1187,19571310612,/g3t1_1,,running
Status,1188,19571384015,/g3t1_1,,fail
Status,1189,19571395719,/g3t1_2,,success
Status,1190,19580575432,/g3t1_3,,running
Status,1191,19580604248,/g3t1_3,,success
Status,1192,19583508502,/g4t1,,success
Status,1193,19603731204,/g4t1,,success
Status,1194,19623745642,/g4t1,,success
Status,1195,19643825203,/g4t1,,success
Status,1196,19663929506,/g4t1,,success
Status,1197,19671321881,/g3t1_2,,running
Status,1198,19671368245,/g3t1_1,,running
Status,1199,19671381503,/g3t1_1,,fail
Status,1200,19671444899,/g3t1_2,,success
Status,1201,19680623960,/g3t1_3,,running
Status,1202,19680814406,/g3t1_3,,success
Status,1203,19683983666,/g4t1,,success
Status,1204,19704142061,/g4t1,,success
Status,1206,19724236615,/g4t1,,success
Status,1207,19744199826,/g4t1,,success
Status,1208,19764467546,/g4t1,,success
Status,1209,19771530513,/g3t1_2,,running
Status,1210,19771554827,/g3t1_1,,running
Status,1211,19771564790,/g3t1_1,,fail
Status,1212,19771572396,/g3t1_2,,success
Status,1213,19780777136,/g3t1_3,,running
Status,1214,19780797169,/g3t1_3,,success
Status,1215,19784466394,/g4t1,,success
Status,1216,19804510497,/g4t1,,success
Status,1217,19824732917,/g4t1,,success
Status,1218,19844848900,/g4t1,,success
Status,1219,19864914670,/g4t1,,success
Status,1220,19871581214,/g3t1_2,,running
Status,1221,19871607555,/g3t1_1,,running
Status,1222,19871620010,/g3t1_1,,fail
Status,1223,19871719297,/g3t1_2,,success
Status,1224,19880787160,/g3t1_3,,running
Status,1225,19880848053,/g3t1_3,,success
Status,1226,19885112209,/g4t1,,success
Status,1227,19905191820,/g4t1,,success
Status,1229,19925225504,/g4t1,,success
Status,1230,19945321212,/g4t1,,success
Status,1231,19965445982,/g4t1,,success
Status,1232,19971661722,/g3t1_2,,running
Status,1233,19971682862,/g3t1_1,,running
Status,1234,19971801332,/g3t1_1,,fail
Status,1235,19971814663,/g3t1_2,,success
Status,1236,19980926797,/g3t1_3,,running
Status,1237,19980948430,/g3t1_3,,success
Status,1238,19985332142,/g4t1,,success
Status,1239,20005496236,/g4t1,,success
Status,1240,20025563357,/g4t1,,success
Status,1241,20045693588,/g4t1,,success
Status,1242,20065827991,/g4t1,,success
Status,1243,20071774038,/g3t1_2,,running
Status,1244,20071795018,/g3t1_1,,running
Status,1245,20071893112,/g3t1_2,,success
Status,1246,20071910356,/g3t1_1,,fail
Status,1247,20080968061,/g3t1_3,,running
Status,1248,20080988574,/g3t1_3,,success
Status,1249,20085844955,/g4t1,,success
Status,1250,20106074900,/g4t1,,success
Status,1252,20126193242,/g4t1,,success
Status,1253,20146191680,/g4t1,,success
Status,1254,20166247642,/g4t1,,success
Status,1255,20171892646,/g3t1_2,,running
Status,1256,20171913995,/g3t1_1,,running
Status,1257,20171920614,/g3t1_2,,success
Status,1258,20171926342,/g3t1_1,,fail
Status,1259,20181115579,/g3t1_3,,running
Status,1260,20181149650,/g3t1_3,,success
Status,1261,20186300244,/g4t1,,success
Status,1262,20206367879,/g4t1,,success
Status,1263,20226430209,/g4t1,,success
Status,1264,20246596866,/g4t1,,success
Status,1265,20266742312,/g4t1,,success
Status,1266,20271860783,/g3t1_2,,running
Status,1267,20271897675,/g3t1_1,,running
Status,1268,20272026660,/g3t1_2,,success
Status,1269,20272044468,/g3t1_1,,fail
Status,1270,20281241353,/g3t1_3,,running
Status,1271,20281263162,/g3t1_3,,success
Status,1272,20286886023,/g4t1,,success
Status,1273,20306881025,/g4t1,,success
Status,1275,20326956886,/g4t1,,success
Status,1276,20347030005,/g4t1,,success
Status,1277,20367102800,/g4t1,,success
Status,1278,20372000877,/g3t1_2,,running
Status,1279,20372032376,/g3t1_1,,running
Status,1280,20372121387,/g3t1_1,,fail
Status,1281,20372206456,/g3t1_2,,success
Status,1282,20381237212,/g3t1_3,,running
Status,1283,20381262911,/g3t1_3,,success
Status,1284,20387317146,/g4t1,,success
Status,1285,20407375356,/g4t1,,success
Status,1286,20427384374,/g4t1,,success
Status,1287,20447555081,/g4t1,,success
Status,1288,20467593355,/g4t1,,success
Status,1289,20472158351,/g3t1_2,,running
Status,1290,20472184733,/g3t1_1,,running
Status,1291,20472320688,/g3t1_2,,success
Status,1292,20472337823,/g3t1_1,,fail
Status,1293,20481252072,/g3t1_3,,running
Status,1294,20481314462,/g3t1_3,,success
Status,1295,20487643419,/g4t1,,success
Status,1296,20507757809,/g4t1,,success
Status,1298,20527926448,/g4t1,,success
Status,1299,20547994503,/g4t1,,success
Status,1300,20568150362,/g4t1,,success
Status,1301,20572188276,/g3t1_2,,running
Status,1302,20572217597,/g3t1_1,,running
Status,1303,20572271182,/g3t1_1,,fail
Status,1304,20572283355,/g3t1_2,,success
Status,1305,20581425810,/g3t1_3,,running
Status,1306,20581448039,/g3t1_3,,success
Status,1307,20588158692,/g4t1,,success
Status,1308,20608258217,/g4t1,,success
Status,1309,20628353993,/g4t1,,success
Status,1310,20648441740,/g4t1,,success
Status,1311,20668680285,/g4t1,,success
Status,1312,20672278302,/g3t1_2,,running
Status,1313,20672303124,/g3t1_1,,running
Status,1314,20672418961,/g3t1_2,,success
Status,1315,20672444911,/g3t1_1,,fail
Status,1316,20681467529,/g3t1_3,,running
Status,1317,20681589398,/g3t1_3,,success
Status,1318,20688695995,/g4t1,,success
Status,1319,20708780685,/g4t1,,success
Status,1321,20728908431,/g4t1,,success
Status,1322,20748953229,/g4t1,,success
Status,1323,20769061897,/g4t1,,success
Status,1324,20772241433,/g3t1_2,,running
Status,1325,20772308973,/g3t1_1,,running
Status,1326,20772325829,/g3t1_2,,success
Status,1327,20772513170,/g3t1_1,,fail
Status,1328,20781610580,/g3t1_3,,running
Status,1329,20781673050,/g3t1_3,,success
Status,1330,20789185991,/g4t1,,success
Status,1331,20809243047,/g4t1,,success
Status,1332,20829328925,/g4t1,,success
Status,1333,20849513642,/g4t1,,success
Status,1334,20869602093,/g4t1,,success
Status,1335,20872333358,/g3t1_2,,running
Status,1336,20872434596,/g3t1_1,,running
Status,1337,20872457307,/g3t1_2,,success
Status,1338,20872538461,/g3t1_1,,fail
Status,1339,20881641161,/g3t1_3,,running
Status,1340,20881808028,/g3t1_3,,success
Status,1341,20889535573,/g4t1,,success
Status,1342,20909694580,/g4t1,,success
Status,1344,20929772762,/g4t1,,success
Status,1345,20949957620,/g4t1,,success
Status,1346,20970310251,/g4t1,,success
Status,1347,20972361882,/g3t1_2,,running
Status,1348,20972443192,/g3t1_1,,running
Status,1349,20972617881,/g3t1_1,,fail
Status,1350,20972644110,/g3t1_2,,success
Status,1351,20981731701,/g3t1_3,,running
Status,1352,20981804275,/g3t1_3,,success
Status,1353,20990212667,/g4t1,,success
Status,1354,21010205489,/g4t1,,success
Status,1355,21030363360,/g4t1,,success
Status,1356,21050442268,/g4t1,,success
Status,1357,21070618701,/g4t1,,success
Status,1358,21072374455,/g3t1_2,,running
Status,1359,21072626684,/g3t1_1,,running
Status,1360,21072644058,/g3t1_2,,success
Status,1361,21072655203,/g3t1_1,,fail
Status,1362,21081989795,/g3t1_3,,running
Status,1363,21082011854,/g3t1_3,,success
Status,1364,21090513968,/g4t1,,success
Status,1366,21172601378,/g3t1_2,,running
Status,1367,21172631734,/g3t1_1,,running
Status,1368,21172707781,/g3t1_2,,success
Status,1369,21172815100,/g3t1_1,,fail
Status,1370,21182000095,/g3t1_3,,running
Status,1371,21182107741,/g3t1_3,,success
Status,1372,21272724977,/g3t1_2,,running
Status,1373,21272751474,/g3t1_2,,success
Status,1374,21272763830,/g3t1_1,,running
Status,1375,21272770960,/g3t1_1,,fail
Status,1376,21281996394,/g3t1_3,,running
Status,1377,21282088652,/g3t1_3,,success
Status,1379,21372676764,/g3t1_2,,running
Status,1380,21372731557,/g3t1_2,,success
Status,1381,21372742429,/g3t1_1,,running
Status,1382,21372893852,/g3t1_1,,fail
Status,1383,21382035892,/g3t1_3,,running
Status,1384,21382158301,/g3t1_3,,success
Status,1385,21472798137,/g3t1_2,,running
Status,1386,21472893663,/g3t1_1,,running
Status,1387,21472908924,/g3t1_2,,success
Status,1388,21472933516,/g3t1_1,,fail
Status,1389,21482258123,/g3t1_3,,running
Status,1390,21482279683,/g3t1_3,,success
Status,1392,21572758648,/g3t1_2,,running
Status,1393,21572870049,/g3t1_2,,success
Status,1394,21572887887,/g3t1_1,,running
Status,1395,21572999838,/g3t1_1,,fail
Status,1396,21582236757,/g3t1_3,,running
Status,1397,21582485905,/g3t1_3,,success
Status,1398,21673070500,/g3t1_2,,running
Status,1399,21673089220,/g3t1_1,,running
Status,1400,21673099918,/g3t1_1,,fail
Status,1401,21673118244,/g3t1_2,,success
Status,1402,21682278144,/g3t1_3,,running
Status,1403,21682372197,/g3t1_3,,success
Status,1405,21772948403,/g3t1_2,,running
Status,1406,21773220473,/g3t1_1,,running
Status,1407,21773239957,/g3t1_2,,success
Status,1408,21773272859,/g3t1_1,,fail
Status,1409,21782433746,/g3t1_3,,running
Status,1410,21782562530,/g3t1_3,,success
Status,1411,21873114869,/g3t1_2,,running
Status,1412,21873139356,/g3t1_2,,success
Status,1413,21873162268,/g3t1_1,,running
Status,1414,21873236411,/g3t1_1,,fail
Status,1415,21882479253,/g3t1_3,,running
Status,1416,21882615593,/g3t1_3,,success
Status,1418,21973168238,/g3t1_2,,running
Status,1419,21973192406,/g3t1_1,,running
Status,1420,21973202361,/g3t1_2,,success
Status,1421,21973327356,/g3t1_1,,fail
Status,1422,21982518259,/g3t1_3,,running
Status,1423,21982601650,/g3t1_3,,success
Status,1424,22073342898,/g3t1_2,,running
Status,1425,22073385822,/g3t1_1,,running
Status,1426,22073397548,/g3t1_2,,success
Status,1427,22073405346,/g3t1_1,,fail
Status,1428,22082643118,/g3t1_3,,running
Status,1429,22082882832,/g3t1_3,,success
Status,1431,22173379172,/g3t1_2,,running
Status,1432,22173482225,/g3t1_1,,running
Status,1433,22173493031,/g3t1_2,,success
Status,1434,22173512006,/g3t1_1,,fail
Status,1435,22182709081,/g3t1_3,,running
Status,1436,22182797981,/g3t1_3,,success
Status,1437,22273492275,/g3t1_2,,running
Status,1438,22273537580,/g3t1_1,,running
Status,1439,22273547551,/g3t1_2,,success
Status,1440,22273553681,/g3t1_1,,fail
Status,1441,22282781961,/g3t1_3,,running
Status,1442,22282862117,/g3t1_3,,success
Status,1444,22373588778,/g3t1_2,,running
Status,1445,22373607825,/g3t1_1,,running
Status,1446,22373649822,/g3t1_2,,success
Status,1447,22373656189,/g3t1_1,,fail
Status,1448,22382886588,/g3t1_3,,running
Status,1449,22383016094,/g3t1_3,,success
Status,1450,22473743737,/g3t1_2,,running
Status,1451,22473767719,/g3t1_1,,running
Status,1452,22473791903,/g3t1_1,,fail
Status,1453,22473934567,/g3t1_2,,success
Status,1454,22483054849,/g3t1_3,,running
Status,1455,22483114466,/g3t1_3,,success
Status,1457,22573739035,/g3t1_2,,running
Status,1458,22573769932,/g3t1_1,,running
Status,1459,22573794528,/g3t1_2,,success
Status,1460,22573835965,/g3t1_1,,fail
Status,1461,22583176083,/g3t1_3,,running
Status,1462,22583197033,/g3t1_3,,success
Status,1463,22673800592,/g3t1_2,,running
Status,1464,22673819685,/g3t1_1,,running
Status,1465,22673899505,/g3t1_1,,fail
Status,1466,22673907219,/g3t1_2,,success
Status,1467,22683299932,/g3t1_3,,running
Status,1468,22683357170,/g3t1_3,,success
Status,1470,22773985878,/g3t1_2,,running
Status,1471,22774011291,/g3t1_2,,success
Status,1472,22774019231,/g3t1_1,,running
Status,1473,22774126447,/g3t1_1,,fail
Status,1474,22783244625,/g3t1_3,,running
Status,1475,22783270168,/g3t1_3,,success
Status,1476,22874017822,/g3t1_2,,running
Status,1477,22874064231,/g3t1_1,,running
Status,1478,22874103480,/g3t1_1,,fail
Status,1479,22874231960,/g3t1_2,,success
Status,1480,22883404461,/g3t1_3,,running
Status,1481,22883425179,/g3t1_3,,success
Status,1483,22974109652,/g3t1_2,,running
Status,1484,22974129126,/g3t1_1,,running
Status,1485,22974139460,/g3t1_1,,fail
Status,1486,22974157802,/g3t1_2,,success
Status,1487,22983403438,/g3t1_3,,running
Status,1488,22983596362,/g3t1_3,,success
Status,1489,23074130627,/g3t1_2,,running
Status,1490,23074150288,/g3t1_1,,running
Status,1491,23074161742,/g3t1_1,,fail
Status,1492,23074267840,/g3t1_2,,success
Status,1493,23083602080,/g3t1_3,,running
Status,1494,23083623056,/g3t1_3,,success
Status,1496,23174198841,/g3t1_1,,running
Status,1497,23174224160,/g3t1_2,,running
Status,1498,23174245546,/g3t1_2,,success
Status,1499,23174295374,/g3t1_1,,fail
Status,1500,23183714420,/g3t1_3,,running
Status,1501,23183738426,/g3t1_3,,success
Status,1502,23274365503,/g3t1_1,,running
Status,1503,23274387211,/g3t1_1,,fail
Status,1504,23274396582,/g3t1_2,,running
Status,1505,23274404304,/g3t1_2,,success
Status,1506,23283815364,/g3t1_3,,running
Status,1507,23283840733,/g3t1_3,,success
Status,1509,23374554413,/g3t1_2,,running
Status,1510,23374575236,/g3t1_1,,running
Status,1511,23374581569,/g3t1_2,,success
Status,1512,23374586983,/g3t1_1,,fail
Status,1513,23383887831,/g3t1_3,,running
Status,1514,23383908728,/g3t1_3,,success
Status,1515,23474510648,/g3t1_1,,running
Status,1516,23474534813,/g3t1_2,,running
Status,1517,23474544495,/g3t1_1,,fail
Status,1518,23474627156,/g3t1_2,,success
Status,1519,23483970373,/g3t1_3,,running
Status,1520,23484015049,/g3t1_3,,success
Status,1524,23574599110,/g3t1_2,,running
Status,1525,23574616168,/g3t1_1,,running
Status,1526,23574710802,/g3t1_2,,fail
Status,1527,23574795553,/g3t1_1,,fail
Status,1528,23584042713,/g3t1_3,,running
Status,1529,23584144598,/g3t1_3,,fail
Status,1530,23674706838,/g3t1_2,,running
Status,1531,23674725617,/g3t1_1,,running
Status,1532,23674848616,/g3t1_2,,fail
Status,1533,23674866339,/g3t1_1,,fail
Status,1534,23684026382,/g3t1_3,,running
Status,1535,23684045864,/g3t1_3,,fail
Status,1539,23774801726,/g3t1_2,,running
Status,1540,23774821993,/g3t1_1,,running
Status,1541,23774828333,/g3t1_1,,fail
Status,1542,23774834128,/g3t1_2,,fail
Status,1543,23784170196,/g3t1_3,,running
Status,1544,23784190013,/g3t1_3,,fail
Status,1545,23874852580,/g3t1_1,,running
Status,1546,23874874443,/g3t1_2,,running
Status,1547,23874961013,/g3t1_2,,fail
Status,1548,23874978169,/g3t1_1,,fail
Status,1549,23884260053,/g3t1_3,,running
Status,1550,23884280074,/g3t1_3,,fail
Status,1554,23974987397,/g3t1_2,,running
Status,1555,23975010947,/g3t1_1,,running
Status,1556,23975042472,/g3t1_1,,fail
Status,1557,23975052120,/g3t1_2,,fail
Status,1558,23984277524,/g3t1_3,,running
Status,1559,23984304086,/g3t1_3,,fail
Status,1560,24075003394,/g3t1_1,,running
Status,1561,24075027260,/g3t1_2,,running
Status,1562,24075086074,/g3t1_1,,fail
Status,1563,24075108820,/g3t1_2,,fail
Status,1564,24084322029,/g3t1_3,,running
Status,1565,24084351134,/g3t1_3,,fail
Status,1569,24175168274,/g3t1_2,,running
Status,1570,24175185645,/g3t1_1,,running
Status,1571,24175203785,/g3t1_2,,fail
Status,1572,24175211059,/g3t1_1,,fail
Status,1573,24184520248,/g3t1_3,,running
Status,1574,24184541829,/g3t1_3,,fail
Status,1575,24275249127,/g3t1_2,,running
Status,1576,24275269334,/g3t1_1,,running
Status,1577,24275275733,/g3t1_2,,fail
Status,1578,24275355215,/g3t1_1,,fail
