
Status,2,20647462812,g4t1,,init
Status,3,25859359614,g3t1_4,,init
Status,5,25869315882,g3t1_4,,init
Status,6,25869342839,g3t1_4,,running
Status,7,25871293173,g3t1_4,,success
Status,8,26869773256,g3t1_4,,running
Status,9,26877337717,g3t1_4,,success
Status,10,27869924638,g3t1_4,,running
Status,11,27876011799,g3t1_4,,success
Status,12,28870956237,g3t1_4,,running
Status,13,28877678500,g3t1_4,,success
Status,14,29870355269,g3t1_4,,running
Status,15,29878738549,g3t1_4,,success
Status,16,30871113541,g3t1_4,,running
Status,17,30878060190,g3t1_4,,success
Status,18,31870638297,g3t1_4,,running
Status,19,31877120981,g3t1_4,,success
Status,20,32870760318,g3t1_4,,running
Status,21,32876594538,g3t1_4,,success
Status,22,33870717704,g3t1_4,,running
Status,23,33873779476,g3t1_4,,success
Status,24,34494469152,g3t1_2,,init
Status,26,34503223435,g3t1_2,,init
Status,27,34503247821,g3t1_2,,running
Status,28,34504458244,g3t1_2,,success
Status,29,34703683964,g3t1_2,,running
Status,30,34705143481,g3t1_2,,success
Status,31,34871501263,g3t1_4,,running
Status,32,34877754777,g3t1_4,,success
Status,33,34903814829,g3t1_2,,running
Status,34,34905055246,g3t1_2,,success
Status,35,35104123985,g3t1_2,,running
Status,36,35105882402,g3t1_2,,success
Status,37,35303962097,g3t1_2,,running
Status,38,35305122138,g3t1_2,,success
Status,39,35503995852,g3t1_2,,running
Status,40,35505194421,g3t1_2,,success
Status,41,35664222445,g4t1,,success
Status,42,35704078602,g3t1_2,,running
Status,43,35705349164,g3t1_2,,success
Status,44,35870626262,g3t1_4,,running
Status,45,35877419642,g3t1_4,,success
Status,46,35904129459,g3t1_2,,running
Status,47,35905056950,g3t1_2,,success
Status,48,36104378713,g3t1_2,,running
Status,49,36104499130,g3t1_2,,success
Status,50,36304354961,g3t1_2,,running
Status,51,36305538331,g3t1_2,,success
Status,52,36504339952,g3t1_2,,running
Status,53,36505559622,g3t1_2,,success
Status,54,36664795965,g4t1,,success
Status,55,36704531304,g3t1_2,,running
Status,56,36705759409,g3t1_2,,success
Status,57,36870895231,g3t1_4,,running
Status,58,36877483108,g3t1_4,,success
Status,59,36904543879,g3t1_2,,running
Status,60,36906066902,g3t1_2,,success
Status,61,37104600512,g3t1_2,,running
Status,62,37105809124,g3t1_2,,success
Status,63,37304824962,g3t1_2,,running
Status,64,37304902495,g3t1_2,,success
Status,65,37504785689,g3t1_2,,running
Status,66,37506202679,g3t1_2,,success
Status,67,37664465931,g4t1,,success
Status,68,37704876904,g3t1_2,,running
Status,69,37705743159,g3t1_2,,success
Status,70,37871180114,g3t1_4,,running
Status,71,37878393809,g3t1_4,,success
Status,72,37905399294,g3t1_2,,running
Status,73,37906995352,g3t1_2,,success
Status,74,38105081870,g3t1_2,,running
Status,75,38106309497,g3t1_2,,success
Status,76,38305584704,g3t1_2,,running
Status,77,38307199703,g3t1_2,,success
Status,78,38505074299,g3t1_2,,running
Status,79,38505833404,g3t1_2,,success
Status,80,38664285983,g4t1,,success
Status,81,38705061541,g3t1_2,,running
Status,82,38705601272,g3t1_2,,success
Status,83,38871039098,g3t1_4,,running
Status,84,38873697793,g3t1_4,,success
Status,85,38905268817,g3t1_2,,running
Status,86,38905935224,g3t1_2,,success
Status,87,39105608620,g3t1_2,,running
Status,88,39106964936,g3t1_2,,success
Status,89,39306109486,g3t1_2,,running
Status,90,39307521104,g3t1_2,,success
Status,91,39505788532,g3t1_2,,running
Status,92,39507165895,g3t1_2,,success
Status,93,39664719693,g4t1,,success
Status,94,39705862251,g3t1_2,,running
Status,95,39707377203,g3t1_2,,success
Status,96,39871976131,g3t1_4,,running
Status,97,39878211875,g3t1_4,,success
Status,98,39905890574,g3t1_2,,running
Status,99,39906975340,g3t1_2,,success
Status,100,40105893983,g3t1_2,,running
Status,101,40107140237,g3t1_2,,success
Status,102,40306233263,g3t1_2,,running
Status,103,40307541859,g3t1_2,,success
Status,104,40506011729,g3t1_2,,running
Status,105,40506806143,g3t1_2,,success
Status,106,40664735079,g4t1,,success
Status,107,40706272984,g3t1_2,,running
Status,108,40707246680,g3t1_2,,success
Status,109,40871215705,g3t1_4,,running
Status,110,40877254764,g3t1_4,,success
Status,111,40906401829,g3t1_2,,running
Status,112,40907104836,g3t1_2,,success
Status,113,41106421928,g3t1_2,,running
Status,114,41107506159,g3t1_2,,success
Status,115,41306669022,g3t1_2,,running
Status,116,41308067777,g3t1_2,,success
Status,117,41507026257,g3t1_2,,running
Status,118,41508154887,g3t1_2,,success
Status,119,41664677778,g4t1,,success
Status,120,41706642073,g3t1_2,,running
Status,121,41707594270,g3t1_2,,success
Status,122,41871251003,g3t1_4,,running
Status,123,41878077916,g3t1_4,,success
Status,124,41906890019,g3t1_2,,running
Status,125,41907950234,g3t1_2,,success
Status,126,42106725424,g3t1_2,,running
Status,127,42107811544,g3t1_2,,success
Status,128,42308656752,g3t1_2,,running
Status,129,42308950360,g3t1_2,,success
Status,130,42507378505,g3t1_2,,running
Status,131,42508740463,g3t1_2,,success
Status,132,42665075093,g4t1,,success
Status,133,42707097406,g3t1_2,,running
Status,134,42708104946,g3t1_2,,success
Status,135,42871770602,g3t1_4,,running
Status,136,42877127873,g3t1_4,,success
Status,137,42907254323,g3t1_2,,running
Status,138,42908400949,g3t1_2,,success
Status,139,43107366857,g3t1_2,,running
Status,140,43108573862,g3t1_2,,success
Status,141,43307496414,g3t1_2,,running
Status,142,43308933469,g3t1_2,,success
Status,143,43507759087,g3t1_2,,running
Status,144,43509089749,g3t1_2,,success
Status,145,43665310142,g4t1,,success
Status,146,43707628562,g3t1_2,,running
Status,147,43708999307,g3t1_2,,success
Status,148,43871829334,g3t1_4,,running
Status,149,43878090835,g3t1_4,,success
Status,150,43909047677,g3t1_2,,running
Status,151,43909811322,g3t1_2,,success
Status,152,44107846027,g3t1_2,,running
Status,153,44108219827,g3t1_2,,success
Status,154,44307784892,g3t1_2,,running
Status,155,44308098505,g3t1_2,,success
Status,156,44507785720,g3t1_2,,running
Status,157,44508221929,g3t1_2,,success
Status,158,44664821062,g4t1,,success
Status,159,44707734428,g3t1_2,,running
Status,160,44708327554,g3t1_2,,success
Status,161,44871462676,g3t1_4,,running
Status,162,44878586766,g3t1_4,,success
Status,163,44908217901,g3t1_2,,running
Status,164,44909478951,g3t1_2,,success
Status,165,45108018762,g3t1_2,,running
Status,166,45664633636,g4t1,,success
Status,167,45871629938,g3t1_4,,running
Status,168,46664645461,g4t1,,success
Status,169,47664686257,g4t1,,success
Status,170,48665181035,g4t1,,success
Status,171,49664889123,g4t1,,success
Status,172,50056275644,g3t1_2,,success
Status,173,50056308118,g3t1_2,,running
Status,174,50665235523,g4t1,,success
Status,175,51665644138,g4t1,,success
Status,176,52665664131,g4t1,,success
Status,177,53665950546,g4t1,,success
Status,178,54665545110,g4t1,,success
Status,179,55056334777,g3t1_2,,success
Status,180,55056416830,g3t1_2,,running
Status,181,55065021054,g3t1_4,,success
Status,182,55065069476,g3t1_4,,running
Status,185,55665757350,g4t1,,success
Status,191,56666203029,g4t1,,success
Status,197,57666625524,g4t1,,success
Status,203,58666493646,g4t1,,success
Status,209,59666296641,g4t1,,success
Status,212,60057559366,g3t1_2,,success
Status,213,60057622640,g3t1_2,,running
Status,217,60666784856,g4t1,,success
Status,223,61666683533,g4t1,,success
Status,229,62666403539,g4t1,,success
Status,235,63666747372,g4t1,,success
Status,241,64666722947,g4t1,,success
Status,244,65056785050,g3t1_2,,success
Status,245,65056854147,g3t1_2,,running
Status,246,65063333510,g3t1_4,,success
Status,247,65063364827,g3t1_4,,running
Status,251,65667150827,g4t1,,success
Status,257,66666976629,g4t1,,success
Status,263,67667037768,g4t1,,success
Status,269,68666902176,g4t1,,success
Status,275,69666909261,g4t1,,success
Status,278,70057966300,g3t1_2,,success
Status,279,70057994257,g3t1_2,,running
Status,283,70667110253,g4t1,,success
Status,289,71667990975,g4t1,,success
Status,295,72667785006,g4t1,,success
Status,301,73668040722,g4t1,,success
Status,307,74668167012,g4t1,,success
Status,310,75060207034,g3t1_2,,success
Status,311,75060281551,g3t1_2,,running
Status,312,75062389382,g3t1_4,,success
Status,313,75062430578,g3t1_4,,running
Status,317,75668368930,g4t1,,success
Status,323,76668363254,g4t1,,success
Status,329,77668516412,g4t1,,success
Status,335,78668590807,g4t1,,success
Status,341,79668791806,g4t1,,success
Status,344,80059334936,g3t1_2,,success
Status,345,80059417974,g3t1_2,,running
Status,349,80668792558,g4t1,,success
Status,355,81668803246,g4t1,,success
Status,361,82669105722,g4t1,,success
Status,367,83669137802,g4t1,,success
Status,373,84669275664,g4t1,,success
Status,376,85057307872,g3t1_2,,success
Status,377,85057363585,g3t1_2,,running
Status,378,85062655255,g3t1_4,,success
Status,379,85062713219,g3t1_4,,running
Status,383,85669339839,g4t1,,success
Status,389,86669454977,g4t1,,success
Status,395,87669947597,g4t1,,success
Status,401,88669681835,g4t1,,success
Status,407,89669859772,g4t1,,success
Status,410,90057295265,g3t1_2,,success
Status,411,90057370783,g3t1_2,,running
Status,415,90670055262,g4t1,,success
Status,421,91670170818,g4t1,,success
Status,427,92670386256,g4t1,,success
Status,433,93670514992,g4t1,,success
Status,439,94670592417,g4t1,,success
Status,442,95056181949,g3t1_2,,success
Status,443,95056214390,g3t1_2,,running
Status,444,95059518326,g3t1_4,,success
Status,445,95059610956,g3t1_4,,running
Status,449,95670901364,g4t1,,success
Status,455,96670759677,g4t1,,success
Status,461,97670902287,g4t1,,success
Status,467,98671099210,g4t1,,success
Status,473,99671216486,g4t1,,success
Status,476,100057303945,g3t1_2,,success
Status,477,100057377021,g3t1_2,,running
Status,481,100671335035,g4t1,,success
Status,487,101671896534,g4t1,,success
Status,493,102671519323,g4t1,,success
Status,499,103671778675,g4t1,,success
Status,505,104671865098,g4t1,,success
Status,508,105059539475,g3t1_2,,success
Status,509,105059653978,g3t1_2,,running
Status,510,105066284689,g3t1_4,,success
Status,511,105066312194,g3t1_4,,running
Status,515,105671961403,g4t1,,success
Status,521,106672191424,g4t1,,success
Status,527,107672259475,g4t1,,success
Status,533,108672399075,g4t1,,success
Status,539,109672554845,g4t1,,success
Status,542,110057389506,g3t1_2,,success
Status,543,110057465127,g3t1_2,,running
Status,547,110672665369,g4t1,,success
Status,553,111672874473,g4t1,,success
Status,559,112673030123,g4t1,,success
Status,565,113673144252,g4t1,,success
Status,571,114672361491,g4t1,,success
Status,574,115059363742,g3t1_2,,success
Status,575,115059434554,g3t1_2,,running
Status,576,115062953228,g3t1_4,,success
Status,577,115063016593,g3t1_4,,running
Status,581,115673091456,g4t1,,success
Status,587,116673384410,g4t1,,success
Status,593,117673261138,g4t1,,success
Status,599,118673590047,g4t1,,success
Status,605,119673462949,g4t1,,success
Status,608,120058376813,g3t1_2,,success
Status,609,120058449146,g3t1_2,,running
Status,613,120673552987,g4t1,,success
Status,619,121673919364,g4t1,,success
Status,625,122673690041,g4t1,,success
Status,631,123674089540,g4t1,,success
Status,637,124674136139,g4t1,,success
Status,640,125057420160,g3t1_2,,success
Status,641,125057498187,g3t1_2,,running
Status,642,125062914779,g3t1_4,,success
Status,643,125062982629,g3t1_4,,running
Status,647,125674230193,g4t1,,success
Status,653,126674405604,g4t1,,success
Status,659,127673541617,g4t1,,success
Status,665,128674066727,g4t1,,success
Status,671,129674482215,g4t1,,success
Status,674,130059307130,g3t1_2,,success
Status,675,130059380316,g3t1_2,,running
Status,679,130674977154,g4t1,,success
Status,685,131674665251,g4t1,,success
Status,691,132674917503,g4t1,,success
Status,697,133674987976,g4t1,,success
Status,703,134674893717,g4t1,,success
Status,706,135059894523,g3t1_2,,success
Status,707,135059957335,g3t1_2,,running
Status,708,135062519727,g3t1_4,,success
Status,709,135062578263,g3t1_4,,running
Status,713,135675221559,g4t1,,success
Status,719,136674957151,g4t1,,success
Status,725,137675669107,g4t1,,success
Status,731,138675703508,g4t1,,success
Status,737,139675744833,g4t1,,success
Status,740,140060014437,g3t1_2,,success
Status,741,140060088698,g3t1_2,,running
Status,745,140676030116,g4t1,,success
Status,751,141676145387,g4t1,,success
Status,757,142676124815,g4t1,,success
Status,763,143676641302,g4t1,,success
Status,769,144676483501,g4t1,,success
Status,772,145057179038,g3t1_2,,success
Status,773,145057506176,g3t1_2,,running
Status,774,145063187316,g3t1_4,,success
Status,775,145063253072,g3t1_4,,running
Status,779,145676692217,g4t1,,success
Status,785,146676777314,g4t1,,success
Status,791,147676813155,g4t1,,success
Status,797,148676865411,g4t1,,success
Status,803,149676280008,g4t1,,success
Status,806,150055922359,g3t1_2,,success
Status,807,150055952783,g3t1_2,,running
Status,811,150676440547,g4t1,,success
Status,817,151676490057,g4t1,,success
Status,823,152676540329,g4t1,,success
Status,829,153676587108,g4t1,,success
Status,835,154676729524,g4t1,,success
Status,838,155056041379,g3t1_2,,success
Status,839,155056074257,g3t1_2,,running
Status,840,155059739736,g3t1_4,,success
Status,841,155059774184,g3t1_4,,running
Status,845,155676796309,g4t1,,success
Status,851,156676858540,g4t1,,success
Status,857,157676991463,g4t1,,success
Status,863,158677176193,g4t1,,success
Status,869,159677173745,g4t1,,success
Status,872,160057394472,g3t1_2,,success
Status,873,160057470627,g3t1_2,,running
Status,877,160677254065,g4t1,,success
Status,883,161677313657,g4t1,,success
Status,889,162677424638,g4t1,,success
Status,895,163677420026,g4t1,,success
Status,901,164677575284,g4t1,,success
Status,904,165058251925,g3t1_2,,success
Status,905,165058290194,g3t1_2,,running
Status,906,165060229753,g3t1_4,,success
Status,907,165060314672,g3t1_4,,running
Status,911,165677660883,g4t1,,success
Status,917,166677841138,g4t1,,success
Status,923,167677795221,g4t1,,success
Status,929,168677928996,g4t1,,success
Status,935,169677937715,g4t1,,success
Status,938,170057685836,g3t1_2,,success
Status,939,170057724569,g3t1_2,,running
Status,943,170678235227,g4t1,,success
Status,949,171678183376,g4t1,,success
Status,955,172678180824,g4t1,,success
Status,961,173678375177,g4t1,,success
Status,967,174678607700,g4t1,,success
Status,970,175056391740,g3t1_2,,success
Status,971,175056429296,g3t1_2,,running
Status,972,175060451443,g3t1_4,,success
Status,973,175060489820,g3t1_4,,running
Status,977,175678682364,g4t1,,success
Status,983,176678511310,g4t1,,success
Status,989,177678682365,g4t1,,success
Status,995,178678716495,g4t1,,success
Status,1001,179678855730,g4t1,,success
Status,1004,180056422700,g3t1_2,,success
Status,1005,180056461012,g3t1_2,,running
Status,1009,180678890513,g4t1,,success
Status,1015,181679097676,g4t1,,success
Status,1021,182679074672,g4t1,,success
Status,1027,183679174022,g4t1,,success
Status,1033,184679201700,g4t1,,success
Status,1036,185056583874,g3t1_2,,success
Status,1037,185056620578,g3t1_2,,running
Status,1038,185063906452,g3t1_4,,success
Status,1039,185063943020,g3t1_4,,running
Status,1043,185679457032,g4t1,,success
Status,1049,186679503175,g4t1,,success
Status,1055,187679471065,g4t1,,success
Status,1061,188679552385,g4t1,,success
Status,1067,189679759474,g4t1,,success
Status,1070,190057604138,g3t1_2,,success
Status,1071,190057641952,g3t1_2,,running
Status,1075,190679993337,g4t1,,success
Status,1081,191679898236,g4t1,,success
Status,1087,192679935038,g4t1,,success
Status,1093,193680065654,g4t1,,success
Status,1099,194680137132,g4t1,,success
Status,1102,195056229922,g3t1_2,,success
Status,1103,195056268536,g3t1_2,,running
Status,1104,195060594988,g3t1_4,,success
Status,1105,195060629503,g3t1_4,,running
Status,1109,195680183451,g4t1,,success
Status,1115,196680248522,g4t1,,success
Status,1121,197680394449,g4t1,,success
Status,1127,198680631994,g4t1,,success
Status,1133,199680476871,g4t1,,success
Status,1136,200058002286,g3t1_2,,success
Status,1137,200058040733,g3t1_2,,running
Status,1141,200680767200,g4t1,,success
Status,1147,201680861712,g4t1,,success
Status,1153,202680817667,g4t1,,success
Status,1159,203680875618,g4t1,,success
Status,1165,204681014262,g4t1,,success
Status,1168,205058534750,g3t1_2,,success
Status,1169,205058699883,g3t1_2,,running
Status,1170,205060678975,g3t1_4,,success
Status,1171,205060715481,g3t1_4,,running
Status,1175,205681174893,g4t1,,success
Status,1181,206681052127,g4t1,,success
Status,1187,207681139116,g4t1,,success
Status,1193,208681231461,g4t1,,success
Status,1199,209681309711,g4t1,,success
Status,1202,210057678171,g3t1_2,,success
Status,1203,210057720306,g3t1_2,,running
Status,1207,210681487023,g4t1,,success
Status,1213,211681462983,g4t1,,success
Status,1219,212681641089,g4t1,,success
Status,1225,213681639976,g4t1,,success
Status,1231,214681807844,g4t1,,success
Status,1234,215056496009,g3t1_2,,success
Status,1235,215056534249,g3t1_2,,running
Status,1236,215060888577,g3t1_4,,success
Status,1237,215060922633,g3t1_4,,running
Status,1241,215682001869,g4t1,,success
Status,1247,216682062663,g4t1,,success
Status,1253,217682136522,g4t1,,success
Status,1259,218682024036,g4t1,,success
Status,1265,219682097801,g4t1,,success
Status,1268,220057527370,g3t1_2,,success
Status,1269,220057563861,g3t1_2,,running
Status,1273,220682369215,g4t1,,success
Status,1279,221682402375,g4t1,,success
Status,1285,222682439475,g4t1,,success
Status,1291,223682488626,g4t1,,success
Status,1297,224682543518,g4t1,,success
Status,1300,225056333156,g3t1_2,,success
Status,1301,225056364717,g3t1_2,,running
Status,1302,225060474733,g3t1_4,,success
Status,1303,225060513688,g3t1_4,,running
Status,1307,225682712550,g4t1,,success
Status,1313,226682773256,g4t1,,success
Status,1319,227682880387,g4t1,,success
Status,1325,228682893703,g4t1,,success
Status,1331,229683071898,g4t1,,success
Status,1333,230057780641,g3t1_2,,success
Status,1334,230057816301,g3t1_2,,running
Status,1339,230683279403,g4t1,,success
Status,1345,231683344349,g4t1,,success
Status,1351,232683366094,g4t1,,success
Status,1357,233683510098,g4t1,,success
Status,1363,234683659704,g4t1,,success
Status,1365,235056465372,g3t1_2,,success
Status,1366,235056507375,g3t1_2,,running
Status,1368,235060391728,g3t1_4,,success
Status,1369,235060426077,g3t1_4,,running
Status,1373,235683740156,g4t1,,success
Status,1379,236683852398,g4t1,,success
Status,1385,237683728379,g4t1,,success
Status,1391,238683819079,g4t1,,success
Status,1397,239683908120,g4t1,,success
Status,1399,240056495148,g3t1_2,,success
Status,1400,240056535963,g3t1_2,,running
Status,1405,240684053009,g4t1,,success
Status,1411,241684215088,g4t1,,success
Status,1417,242684093704,g4t1,,success
Status,1423,243684276036,g4t1,,success
Status,1429,244684262404,g4t1,,success
Status,1431,245056580261,g3t1_2,,success
Status,1432,245056638511,g3t1_2,,running
Status,1433,245061170314,g3t1_4,,success
Status,1434,245061208071,g3t1_4,,running
Status,1439,245684446513,g4t1,,success
Status,1445,246684391076,g4t1,,success
Status,1451,247684498555,g4t1,,success
Status,1457,248684665306,g4t1,,success
Status,1463,249684753832,g4t1,,success
Status,1465,250056386862,g3t1_2,,success
Status,1466,250056427815,g3t1_2,,running
Status,1471,250684860433,g4t1,,success
Status,1477,251684890524,g4t1,,success
Status,1483,252685005562,g4t1,,success
Status,1489,253685107630,g4t1,,success
Status,1495,254685199977,g4t1,,success
Status,1497,255056423701,g3t1_2,,success
Status,1498,255056463950,g3t1_2,,running
Status,1499,255060464609,g3t1_4,,success
Status,1500,255060526955,g3t1_4,,running
Status,1505,255685236135,g4t1,,success
Status,1511,256685199637,g4t1,,success
Status,1517,257685465764,g4t1,,success
Status,1523,258685538158,g4t1,,success
Status,1529,259685585171,g4t1,,success
Status,1531,260057814227,g3t1_2,,success
Status,1532,260057843687,g3t1_2,,running
Status,1537,260685554057,g4t1,,success
Status,1543,261685662192,g4t1,,success
Status,1549,262685775423,g4t1,,success
Status,1555,263685959170,g4t1,,success
Status,1561,264686128228,g4t1,,success
Status,1563,265056797074,g3t1_2,,success
Status,1564,265056975537,g3t1_2,,running
Status,1565,265060526721,g3t1_4,,success
Status,1566,265060560211,g3t1_4,,running
Status,1571,265686222144,g4t1,,success
Status,1577,266686077819,g4t1,,success
Status,1583,267686371437,g4t1,,success
Status,1589,268686286113,g4t1,,success
Status,1595,269686381548,g4t1,,success
Status,1597,270056279418,g3t1_2,,success
Status,1598,270056316774,g3t1_2,,running
Status,1603,270686674864,g4t1,,success
Status,1609,271686594772,g4t1,,success
Status,1615,272686674792,g4t1,,success
Status,1621,273686659486,g4t1,,success
Status,1627,274687020369,g4t1,,success
Status,1629,275057704825,g3t1_2,,success
Status,1630,275057740374,g3t1_2,,running
Status,1631,275060642196,g3t1_4,,success
Status,1632,275060680655,g3t1_4,,running
Status,1637,275686921114,g4t1,,success
Status,1643,276686975229,g4t1,,success
Status,1649,277687182908,g4t1,,success
Status,1655,278687241895,g4t1,,success
Status,1661,279687307947,g4t1,,success
Status,1663,280057428876,g3t1_2,,success
Status,1664,280057485673,g3t1_2,,running
Status,1669,280687345295,g4t1,,success
Status,1675,281687415548,g4t1,,success
Status,1681,282687479753,g4t1,,success
Status,1687,283687704854,g4t1,,success
Status,1693,284687675979,g4t1,,success
Status,1695,285056506272,g3t1_2,,success
Status,1696,285056546255,g3t1_2,,running
Status,1697,285061111972,g3t1_4,,success
Status,1698,285061149808,g3t1_4,,running
Status,1703,285688009227,g4t1,,success
Status,1709,286687944989,g4t1,,success
Status,1715,287687974772,g4t1,,success
Status,1721,288688082032,g4t1,,success
Status,1727,289688210418,g4t1,,success
Status,1729,290057766260,g3t1_2,,success
Status,1730,290057805920,g3t1_2,,running
Status,1735,290688193358,g4t1,,success
Status,1741,291688284412,g4t1,,success
Status,1747,292688314145,g4t1,,success
Status,1753,293688385323,g4t1,,success
Status,1759,294688450700,g4t1,,success
Status,1761,295058700090,g3t1_2,,success
Status,1762,295058737843,g3t1_2,,running
Status,1763,295060229861,g3t1_4,,success
Status,1764,295060261697,g3t1_4,,running
Status,1769,295688769664,g4t1,,success
Status,1775,296688629398,g4t1,,success
Status,1781,297688971662,g4t1,,success
Status,1787,298688699424,g4t1,,success
Status,1793,299688994670,g4t1,,success
Status,1795,300056001390,g3t1_2,,success
Status,1796,300056460122,g3t1_2,,running
Status,1801,300689023850,g4t1,,success
Status,1807,301688958064,g4t1,,success
Status,1813,302689219605,g4t1,,success
Status,1819,303689240164,g4t1,,success
Status,1825,304689207652,g4t1,,success
Status,1827,305056609425,g3t1_2,,success
Status,1828,305056647729,g3t1_2,,running
Status,1829,305060812103,g3t1_4,,success
Status,1830,305060850039,g3t1_4,,running
Status,1835,305689385493,g4t1,,success
Status,1841,306689392870,g4t1,,success
Status,1847,307689754429,g4t1,,success
Status,1853,308689907886,g4t1,,success
Status,1858,309689634214,g4t1,,success
Status,1861,310056240151,g3t1_2,,success
Status,1862,310056277504,g3t1_2,,running
Status,1866,310689754372,g4t1,,success
Status,1872,311689729015,g4t1,,success
Status,1878,312689985601,g4t1,,success
Status,1884,313689885667,g4t1,,success
Status,1890,314689985135,g4t1,,success
Status,1893,315056411185,g3t1_2,,success
Status,1894,315056448059,g3t1_2,,running
Status,1895,315060491640,g3t1_4,,success
Status,1896,315060531406,g3t1_4,,running
Status,1900,315690128234,g4t1,,success
Status,1906,316690231323,g4t1,,success
Status,1912,317690234411,g4t1,,success
Status,1918,318690321493,g4t1,,success
Status,1924,319690362708,g4t1,,success
Status,1927,320056248627,g3t1_2,,success
Status,1928,320056289807,g3t1_2,,running
Status,1932,320690465346,g4t1,,success
Status,1938,321690587561,g4t1,,success
Status,1944,322690680623,g4t1,,success
Status,1950,323690840089,g4t1,,success
Status,1956,324690892940,g4t1,,success
Status,1959,325058795058,g3t1_2,,success
Status,1960,325058832966,g3t1_2,,running
Status,1961,325065367759,g3t1_4,,success
Status,1962,325065408216,g3t1_4,,running
Status,1966,325690980150,g4t1,,success
Status,1972,326690972416,g4t1,,success
Status,1978,327691028989,g4t1,,success
Status,1984,328691107951,g4t1,,success
Status,1990,329691345966,g4t1,,success
Status,1993,330057437212,g3t1_2,,success
Status,1994,330057474756,g3t1_2,,running
Status,1998,330691342936,g4t1,,success
Status,2004,331691493284,g4t1,,success
Status,2010,332691477029,g4t1,,success
Status,2016,333691544232,g4t1,,success
Status,2022,334691658455,g4t1,,success
Status,2025,335057850657,g3t1_2,,success
Status,2026,335057917223,g3t1_2,,running
Status,2027,335061971104,g3t1_4,,success
Status,2028,335062009501,g3t1_4,,running
Status,2032,335691755396,g4t1,,success
Status,2038,336691834541,g4t1,,success
Status,2044,337691933338,g4t1,,success
Status,2050,338692109757,g4t1,,success
Status,2056,339692087107,g4t1,,success
Status,2059,340056399505,g3t1_2,,success
Status,2060,340056442467,g3t1_2,,running
Status,2064,340692200486,g4t1,,success
Status,2070,341692273126,g4t1,,success
Status,2076,342692396205,g4t1,,success
Status,2082,343692490742,g4t1,,success
Status,2088,344692638549,g4t1,,success
Status,2091,345056397471,g3t1_2,,success
Status,2092,345056436642,g3t1_2,,running
Status,2093,345060721967,g3t1_4,,success
Status,2094,345060763100,g3t1_4,,running
Status,2098,345692548989,g4t1,,success
Status,2104,346692611818,g4t1,,success
Status,2110,347692694227,g4t1,,success
Status,2116,348692750250,g4t1,,success
Status,2122,349692951493,g4t1,,success
Status,2125,350056417021,g3t1_2,,success
Status,2126,350056457507,g3t1_2,,running
Status,2130,350693075592,g4t1,,success
Status,2136,351693714917,g4t1,,success
Status,2142,352693135499,g4t1,,success
Status,2148,353694286689,g4t1,,success
Status,2154,354693323078,g4t1,,success
Status,2157,355057592894,g3t1_2,,success
Status,2158,355057633609,g3t1_2,,running
Status,2159,355060390773,g3t1_4,,success
Status,2160,355060428405,g3t1_4,,running
Status,2164,355693467971,g4t1,,success
Status,2170,356693624493,g4t1,,success
Status,2176,357693648643,g4t1,,success
Status,2182,358693704500,g4t1,,success
Status,2188,359693728254,g4t1,,success
Status,2191,360056040417,g3t1_2,,success
Status,2192,360056213196,g3t1_2,,running
Status,2196,360694076776,g4t1,,success
Status,2202,361693900164,g4t1,,success
Status,2208,362694141868,g4t1,,success
Status,2214,363694067186,g4t1,,success
Status,2220,364694333907,g4t1,,success
Status,2223,365057729033,g3t1_2,,success
Status,2224,365057769193,g3t1_2,,running
Status,2225,365063825891,g3t1_4,,success
Status,2226,365063917496,g3t1_4,,running
Status,2230,365694403651,g4t1,,success
Status,2236,366694287846,g4t1,,success
Status,2242,367694547581,g4t1,,success
Status,2248,368694637431,g4t1,,success
Status,2254,369694746357,g4t1,,success
Status,2257,370059333720,g3t1_2,,success
Status,2258,370059364768,g3t1_2,,running
Status,2262,370695393721,g4t1,,success
Status,2268,371694862522,g4t1,,success
Status,2274,372694889555,g4t1,,success
Status,2280,373695090525,g4t1,,success
Status,2286,374695024465,g4t1,,success
Status,2289,375056345144,g3t1_2,,success
Status,2290,375056514747,g3t1_2,,running
Status,2291,375060799806,g3t1_4,,success
Status,2292,375060839929,g3t1_4,,running
Status,2296,375695165540,g4t1,,success
Status,2302,376695234742,g4t1,,success
Status,2308,377695296539,g4t1,,success
Status,2314,378695503205,g4t1,,success
Status,2320,379695535900,g4t1,,success
Status,2323,380056799064,g3t1_2,,success
Status,2324,380056829586,g3t1_2,,running
Status,2328,380695522057,g4t1,,success
Status,2334,381695767885,g4t1,,success
Status,2340,382695718211,g4t1,,success
Status,2346,383695918767,g4t1,,success
Status,2352,384695995306,g4t1,,success
Status,2355,385056186898,g3t1_2,,success
Status,2356,385056743561,g3t1_2,,running
Status,2357,385060945091,g3t1_4,,success
Status,2358,385061008078,g3t1_4,,running
Status,2362,385696087241,g4t1,,success
Status,2368,386696113143,g4t1,,success
Status,2374,387696096301,g4t1,,success
Status,2380,388696158374,g4t1,,success
Status,2386,389696204799,g4t1,,success
Status,2389,390056190309,g3t1_2,,success
Status,2390,390056230883,g3t1_2,,running
Status,2394,390696308943,g4t1,,success
Status,2400,391696407938,g4t1,,success
Status,2406,392696862712,g4t1,,success
Status,2412,393696648365,g4t1,,success
Status,2418,394696748864,g4t1,,success
Status,2421,395059580840,g3t1_2,,success
Status,2422,395059621724,g3t1_2,,running
Status,2423,395065820987,g3t1_4,,success
Status,2424,395065858710,g3t1_4,,running
Status,2428,395696900373,g4t1,,success
Status,2434,396696982042,g4t1,,success
Status,2440,397696899993,g4t1,,success
Status,2446,398697377774,g4t1,,success
Status,2452,399697229346,g4t1,,success
Status,2455,400056742446,g3t1_2,,success
Status,2456,400056783335,g3t1_2,,running
Status,2460,400697299493,g4t1,,success
Status,2466,401697340289,g4t1,,success
Status,2472,402697867612,g4t1,,success
Status,2478,403697374370,g4t1,,success
Status,2484,404697552266,g4t1,,success
Status,2487,405057759980,g3t1_2,,success
Status,2488,405057797912,g3t1_2,,running
Status,2489,405060842483,g3t1_4,,success
Status,2490,405060882032,g3t1_4,,running
Status,2494,405697779703,g4t1,,success
Status,2500,406697722323,g4t1,,success
Status,2506,407697758181,g4t1,,success
Status,2512,408697810651,g4t1,,success
Status,2518,409698066511,g4t1,,success
Status,2521,410057805829,g3t1_2,,success
Status,2522,410057968401,g3t1_2,,running
Status,2526,410698274595,g4t1,,success
Status,2532,411698116927,g4t1,,success
Status,2538,412698176954,g4t1,,success
Status,2544,413698306202,g4t1,,success
Status,2550,414698262002,g4t1,,success
Status,2553,415056253146,g3t1_2,,success
Status,2554,415056292490,g3t1_2,,running
Status,2555,415060378346,g3t1_4,,success
Status,2556,415060419125,g3t1_4,,running
Status,2560,415698485654,g4t1,,success
Status,2566,416698460710,g4t1,,success
Status,2572,417698638292,g4t1,,success
Status,2578,418698578463,g4t1,,success
Status,2584,419698843668,g4t1,,success
Status,2587,420058002620,g3t1_2,,success
Status,2588,420058035036,g3t1_2,,running
Status,2592,420698946949,g4t1,,success
Status,2598,421699002337,g4t1,,success
Status,2604,422699162191,g4t1,,success
Status,2610,423699127521,g4t1,,success
Status,2616,424699342053,g4t1,,success
Status,2619,425057755496,g3t1_2,,success
Status,2620,425057830580,g3t1_2,,running
Status,2621,425060986922,g3t1_4,,success
Status,2622,425061023182,g3t1_4,,running
Status,2626,425699459215,g4t1,,success
Status,2632,426699448886,g4t1,,success
Status,2638,427699551654,g4t1,,success
Status,2644,428699692002,g4t1,,success
Status,2650,429699933189,g4t1,,success
Status,2653,430056721809,g3t1_2,,success
Status,2654,430056752874,g3t1_2,,running
Status,2658,430699808421,g4t1,,success
Status,2664,431699871969,g4t1,,success
Status,2670,432699899628,g4t1,,success
Status,2676,433700275759,g4t1,,success
Status,2682,434700067413,g4t1,,success
Status,2685,435059358112,g3t1_2,,success
Status,2686,435059397458,g3t1_2,,running
Status,2687,435066192572,g3t1_4,,success
Status,2688,435066237253,g3t1_4,,running
Status,2692,435700710892,g4t1,,success
Status,2698,436700487397,g4t1,,success
Status,2704,437700420580,g4t1,,success
Status,2710,438700339656,g4t1,,success
Status,2716,439700656607,g4t1,,success
Status,2719,440057557364,g3t1_2,,success
Status,2720,440057597527,g3t1_2,,running
Status,2724,440700835097,g4t1,,success
Status,2730,441700750466,g4t1,,success
Status,2736,442700872648,g4t1,,success
Status,2742,443700708470,g4t1,,success
Status,2748,444700892672,g4t1,,success
Status,2751,445057204770,g3t1_2,,success
Status,2752,445057501421,g3t1_2,,running
Status,2753,445060966311,g3t1_4,,success
Status,2754,445060999160,g3t1_4,,running
Status,2758,445701032853,g4t1,,success
Status,2764,446701122698,g4t1,,success
Status,2770,447701203438,g4t1,,success
Status,2776,448701227631,g4t1,,success
Status,2782,449701373911,g4t1,,success
Status,2785,450055868220,g3t1_2,,success
Status,2786,450055897989,g3t1_2,,running
Status,2790,450701465382,g4t1,,success
Status,2796,451701491397,g4t1,,success
Status,2802,452701519003,g4t1,,success
Status,2808,453701659538,g4t1,,success
Status,2814,454701721596,g4t1,,success
Status,2817,455056798743,g3t1_2,,success
Status,2818,455056830601,g3t1_2,,running
Status,2819,455059942801,g3t1_4,,success
Status,2820,455059976143,g3t1_4,,running
Status,2824,455701762798,g4t1,,success
Status,2830,456701951863,g4t1,,success
Status,2836,457701977670,g4t1,,success
Status,2842,458702049799,g4t1,,success
Status,2848,459702006535,g4t1,,success
Status,2851,460057568469,g3t1_2,,success
Status,2852,460057603233,g3t1_2,,running
Status,2856,460702161839,g4t1,,success
Status,2862,461702673750,g4t1,,success
Status,2868,462702564706,g4t1,,success
Status,2874,463702660548,g4t1,,success
Status,2880,464702524225,g4t1,,success
Status,2883,465057701819,g3t1_2,,success
Status,2884,465057733909,g3t1_2,,running
Status,2885,465062148751,g3t1_4,,success
Status,2886,465062178366,g3t1_4,,running
Status,2890,465702733104,g4t1,,success
Status,2896,466702762891,g4t1,,success
Status,2902,467702722148,g4t1,,success
Status,2908,468702886381,g4t1,,success
Status,2914,469702937165,g4t1,,success
Status,2917,470057088457,g3t1_2,,success
Status,2918,470057120109,g3t1_2,,running
Status,2922,470703098404,g4t1,,success
Status,2928,471703160386,g4t1,,success
Status,2934,472703216029,g4t1,,success
Status,2940,473703377280,g4t1,,success
Status,2945,474470380456,g3t1_2,,success
Status,2946,474470428021,g3t1_2,,running
Status,2947,474470445143,g3t1_2,,success
Status,2948,474471704351,g3t1_4,,success
Status,2949,474471726396,g3t1_4,,running
Status,2950,474473673094,g3t1_4,,success
Status,2952,474669103843,g3t1_2,,running
Status,2953,474669730834,g3t1_2,,success
Status,2954,474703462741,g4t1,,success
Status,2956,474869499641,g3t1_2,,running
Status,2957,474870653365,g3t1_2,,success
Status,2959,475069834951,g3t1_2,,running
Status,2960,475070167516,g3t1_2,,success
Status,2962,475270381163,g3t1_2,,running
Status,2963,475270905529,g3t1_2,,success
Status,2965,475471127015,g3t1_2,,running
Status,2966,475471323183,g3t1_2,,success
Status,2967,475472209768,g3t1_4,,running
Status,2968,475477979516,g3t1_4,,success
Status,2970,475670826335,g3t1_2,,running
Status,2971,475671145002,g3t1_2,,success
Status,2972,475703937438,g4t1,,success
Status,2974,475871009189,g3t1_2,,running
Status,2975,475871308804,g3t1_2,,success
Status,2977,476070792574,g3t1_2,,running
Status,2978,476070904075,g3t1_2,,success
Status,2980,476270919615,g3t1_2,,running
Status,2981,476271337222,g3t1_2,,success
Status,2983,476470345762,g3t1_2,,running
Status,2984,476471697261,g3t1_2,,success
Status,2985,476472269021,g3t1_4,,running
Status,2986,476479492831,g3t1_4,,success
Status,2988,476670392964,g3t1_2,,running
Status,2989,476671653510,g3t1_2,,success
Status,2990,476703937906,g4t1,,success
Status,2993,476865928020,g3t1_2,,status
Status,2997,477472794978,g3t1_4,,running
Status,2998,477478897897,g3t1_4,,success
Status,3000,477704268689,g4t1,,success
