
Status,1,20859829226,g4t1,,init
Status,3,26283102023,g3t1_1,,init
Status,5,26315571113,g3t1_1,,init
Status,6,26315603905,g3t1_1,,running
Status,7,26317117842,g3t1_1,,success
Status,9,26680606165,g3t1_2,,init
Status,10,26689138048,g3t1_2,,init
Status,11,26689168012,g3t1_2,,running
Status,12,26690036527,g3t1_2,,success
Status,14,26781130798,g3t1_4,,init
Status,15,26794733360,g3t1_4,,init
Status,16,26794837596,g3t1_4,,running
Status,17,26797477753,g3t1_4,,success
Status,18,26889410469,g3t1_2,,running
Status,19,26890585642,g3t1_2,,success
Status,20,27089448437,g3t1_2,,running
Status,21,27090291147,g3t1_2,,success
Status,22,27289588603,g3t1_2,,running
Status,23,27290602906,g3t1_2,,success
Status,24,27489667904,g3t1_2,,running
Status,25,27490666431,g3t1_2,,success
Status,26,27689796740,g3t1_2,,running
Status,27,27691223803,g3t1_2,,success
Status,28,27795931148,g3t1_4,,running
Status,29,27801670971,g3t1_4,,success
Status,30,27878009043,g4t1,,success
Status,31,27890652818,g3t1_2,,running
Status,32,27890981528,g3t1_2,,success
Status,33,28089961417,g3t1_2,,running
Status,34,28091286700,g3t1_2,,success
Status,35,28290879619,g3t1_2,,running
Status,36,28290936675,g3t1_2,,success
Status,37,28490259675,g3t1_2,,running
Status,38,28491685227,g3t1_2,,success
Status,39,28690306010,g3t1_2,,running
Status,40,28691380337,g3t1_2,,success
Status,41,28795664117,g3t1_4,,running
Status,42,28802672571,g3t1_4,,success
Status,43,28878590291,g4t1,,success
Status,44,28890629298,g3t1_2,,running
Status,45,28891272898,g3t1_2,,success
Status,46,29090459406,g3t1_2,,running
Status,47,29091664887,g3t1_2,,success
Status,48,29291240627,g3t1_2,,running
Status,49,29291450799,g3t1_2,,success
Status,50,29491608229,g3t1_2,,running
Status,51,29492005016,g3t1_2,,success
Status,52,29690678968,g3t1_2,,running
Status,53,29692074858,g3t1_2,,success
Status,54,29795421972,g3t1_4,,running
Status,55,29802413387,g3t1_4,,success
Status,56,29878159793,g4t1,,success
Status,57,29890831142,g3t1_2,,running
Status,58,29892221174,g3t1_2,,success
Status,59,30091057087,g3t1_2,,running
Status,60,30091326006,g3t1_2,,success
Status,61,30290685853,g3t1_2,,running
Status,62,30291517371,g3t1_2,,success
Status,63,30491000937,g3t1_2,,running
Status,64,30491962977,g3t1_2,,success
Status,65,30691153545,g3t1_2,,running
Status,66,30691615956,g3t1_2,,success
Status,67,30795787554,g3t1_4,,running
Status,68,30798352967,g3t1_4,,success
Status,69,30877861096,g4t1,,success
Status,70,30891910577,g3t1_2,,running
Status,71,30891947054,g3t1_2,,success
Status,72,31090889875,g3t1_2,,running
Status,73,31091532061,g3t1_2,,success
Status,74,31292724390,g3t1_2,,running
Status,75,31292757892,g3t1_2,,success
Status,76,31316235457,g3t1_1,,running
Status,77,31317304017,g3t1_1,,success
Status,78,31492801325,g3t1_2,,running
Status,79,31492958918,g3t1_2,,success
Status,80,31692034222,g3t1_2,,running
Status,81,31693341575,g3t1_2,,success
Status,82,31795550904,g3t1_4,,running
Status,83,31807110414,g3t1_4,,success
Status,84,31877834226,g4t1,,success
Status,85,31891857385,g3t1_2,,running
Status,86,31892777260,g3t1_2,,success
Status,87,32092957169,g3t1_2,,running
Status,88,32093516072,g3t1_2,,success
Status,89,32292223104,g3t1_2,,running
Status,90,32293825715,g3t1_2,,success
Status,91,32492343676,g3t1_2,,running
Status,92,32493741446,g3t1_2,,success
Status,93,32692292246,g3t1_2,,running
Status,94,32693178118,g3t1_2,,success
Status,95,32795659828,g3t1_4,,running
Status,96,32800385132,g3t1_4,,success
Status,97,32878026491,g4t1,,success
Status,98,32892419506,g3t1_2,,running
Status,99,32893529733,g3t1_2,,success
Status,100,33092945963,g3t1_2,,running
Status,101,33093236326,g3t1_2,,success
Status,102,33293790907,g3t1_2,,running
Status,103,33294302251,g3t1_2,,success
Status,104,33493874357,g3t1_2,,running
Status,105,33494138329,g3t1_2,,success
Status,106,33692586336,g3t1_2,,running
Status,107,33693524545,g3t1_2,,success
Status,108,33796647637,g3t1_4,,running
Status,109,33804392439,g3t1_4,,success
Status,110,33878473856,g4t1,,success
Status,111,33892838329,g3t1_2,,running
Status,112,33895001571,g3t1_2,,success
Status,113,34093000256,g3t1_2,,running
Status,114,34093194222,g3t1_2,,success
Status,115,34294233442,g3t1_2,,running
Status,116,34294891469,g3t1_2,,success
Status,117,34493220297,g3t1_2,,running
Status,118,34494336618,g3t1_2,,success
Status,119,34693262143,g3t1_2,,running
Status,120,34694862101,g3t1_2,,success
Status,121,34795845242,g3t1_4,,running
Status,122,34802778396,g3t1_4,,success
Status,123,34878533568,g4t1,,success
Status,124,34893276327,g3t1_2,,running
Status,125,34894665093,g3t1_2,,success
Status,126,35093415568,g3t1_2,,running
Status,127,35094738622,g3t1_2,,success
Status,128,35293409914,g3t1_2,,running
Status,129,35294857815,g3t1_2,,success
Status,130,35493418497,g3t1_2,,running
Status,131,35494899051,g3t1_2,,success
Status,132,35693737434,g3t1_2,,running
Status,133,35695075437,g3t1_2,,success
Status,134,35795865897,g3t1_4,,running
Status,135,35801731083,g3t1_4,,success
Status,136,35878750002,g4t1,,success
Status,137,35893570176,g3t1_2,,running
Status,138,35894688419,g3t1_2,,success
Status,139,36094339248,g3t1_2,,running
Status,140,36095788812,g3t1_2,,success
Status,141,36293799370,g3t1_2,,running
Status,142,36294454535,g3t1_2,,success
Status,143,36315624252,g3t1_1,,running
Status,144,36316166806,g3t1_1,,success
Status,145,36494486789,g3t1_2,,running
Status,146,36495030677,g3t1_2,,success
Status,147,36694389992,g3t1_2,,running
Status,148,36695842880,g3t1_2,,success
Status,149,36795855046,g3t1_4,,running
Status,150,36803180561,g3t1_4,,success
Status,151,36878742806,g4t1,,success
Status,152,36894472194,g3t1_2,,running
Status,153,36895680774,g3t1_2,,success
Status,154,37094069145,g3t1_2,,running
Status,155,37094667090,g3t1_2,,success
Status,156,37294263220,g3t1_2,,running
Status,157,37294985698,g3t1_2,,success
Status,158,37494653157,g3t1_2,,running
Status,159,37496189731,g3t1_2,,success
Status,160,37694664675,g3t1_2,,running
Status,161,37695927292,g3t1_2,,success
Status,162,37795934319,g3t1_4,,running
Status,163,37803196244,g3t1_4,,success
Status,164,37878850667,g4t1,,success
Status,165,37894700909,g3t1_2,,running
Status,166,37896111558,g3t1_2,,success
Status,167,38094917469,g3t1_2,,running
Status,168,38096138625,g3t1_2,,success
Status,169,38294953476,g3t1_2,,running
Status,170,38296288433,g3t1_2,,success
Status,171,38495014542,g3t1_2,,running
Status,172,38496159596,g3t1_2,,success
Status,173,38695319312,g3t1_2,,running
Status,174,38695350842,g3t1_2,,success
Status,175,38796843362,g3t1_4,,running
Status,176,38803106257,g3t1_4,,success
Status,177,38878868512,g4t1,,success
Status,178,38895248162,g3t1_2,,running
Status,179,38896493717,g3t1_2,,success
Status,180,39095244792,g3t1_2,,running
Status,181,39096586273,g3t1_2,,success
Status,182,39295531953,g3t1_2,,running
Status,183,39295645401,g3t1_2,,success
Status,184,39495755578,g3t1_2,,running
Status,185,39497104284,g3t1_2,,success
Status,186,39695611954,g3t1_2,,running
Status,187,39696723435,g3t1_2,,success
Status,188,39795925558,g3t1_4,,running
Status,189,39800035387,g3t1_4,,success
Status,190,39878932561,g4t1,,success
Status,191,39895745338,g3t1_2,,running
Status,192,39897013954,g3t1_2,,success
Status,193,40095887122,g3t1_2,,running
Status,194,40097277619,g3t1_2,,success
Status,195,40295766406,g3t1_2,,running
Status,196,40297293494,g3t1_2,,success
Status,197,40496006403,g3t1_2,,running
Status,198,40497328983,g3t1_2,,success
Status,199,40696196648,g3t1_2,,running
Status,200,40697395231,g3t1_2,,success
Status,201,40796214328,g3t1_4,,running
Status,202,40804574983,g3t1_4,,success
Status,203,40879116060,g4t1,,success
Status,204,40896100705,g3t1_2,,running
Status,205,40897516188,g3t1_2,,success
Status,206,41096139952,g3t1_2,,running
Status,207,41097496913,g3t1_2,,success
Status,208,41297672947,g3t1_2,,running
Status,209,41297714187,g3t1_2,,success
Status,210,41316030402,g3t1_1,,running
Status,211,41317234433,g3t1_1,,success
Status,212,41496458909,g3t1_2,,running
Status,213,41497654120,g3t1_2,,success
Status,214,41696457317,g3t1_2,,running
Status,215,41697802412,g3t1_2,,success
Status,216,41796467174,g3t1_4,,running
Status,217,41802730426,g3t1_4,,success
Status,218,41879230228,g4t1,,success
Status,219,41896483515,g3t1_2,,running
Status,220,41897883664,g3t1_2,,success
Status,221,42096930671,g3t1_2,,running
Status,222,42098325267,g3t1_2,,success
Status,223,42296597407,g3t1_2,,running
Status,224,42297937964,g3t1_2,,success
Status,225,42497101084,g3t1_2,,running
Status,226,42498389236,g3t1_2,,success
Status,227,42697234024,g3t1_2,,running
Status,228,42698642402,g3t1_2,,success
Status,229,42796429865,g3t1_4,,running
Status,230,42801155450,g3t1_4,,success
Status,231,42879841287,g4t1,,success
Status,232,42897003357,g3t1_2,,running
Status,233,42898176532,g3t1_2,,success
Status,234,43097051264,g3t1_2,,running
Status,235,43098278661,g3t1_2,,success
Status,236,43297151500,g3t1_2,,running
Status,237,43298205895,g3t1_2,,success
Status,238,43497612784,g3t1_2,,running
Status,239,43498935337,g3t1_2,,success
Status,240,43697752649,g3t1_2,,running
Status,241,43699127985,g3t1_2,,success
Status,242,43797031458,g3t1_4,,running
Status,243,43801687086,g3t1_4,,success
Status,244,43879171382,g4t1,,success
Status,245,43897354232,g3t1_2,,running
Status,246,43898111199,g3t1_2,,success
Status,247,44098433275,g3t1_2,,running
Status,248,44098598018,g3t1_2,,success
Status,249,44297539425,g3t1_2,,running
Status,250,44298442563,g3t1_2,,success
Status,251,44498052584,g3t1_2,,running
Status,252,44498227089,g3t1_2,,success
Status,253,44697972499,g3t1_2,,running
Status,254,44698093368,g3t1_2,,success
Status,255,44796299943,g3t1_4,,running
Status,256,44798853873,g3t1_4,,success
Status,257,44879009722,g4t1,,success
Status,258,44897609662,g3t1_2,,running
Status,259,44898163108,g3t1_2,,success
Status,260,45097737997,g3t1_2,,running
Status,261,45098221852,g3t1_2,,success
Status,262,45298136569,g3t1_2,,running
Status,263,45299433143,g3t1_2,,success
Status,264,45497844633,g3t1_2,,running
Status,265,45498488543,g3t1_2,,success
Status,266,45698296693,g3t1_2,,running
Status,267,45699650517,g3t1_2,,success
Status,268,45796614657,g3t1_4,,running
Status,269,45804253743,g3t1_4,,success
Status,270,45879718176,g4t1,,success
Status,271,45898158475,g3t1_2,,running
Status,272,45899058522,g3t1_2,,success
Status,273,46098386868,g3t1_2,,running
Status,274,46099881848,g3t1_2,,success
Status,275,46298435779,g3t1_2,,running
Status,276,46299721827,g3t1_2,,success
Status,277,46315872503,g3t1_1,,running
Status,278,46316530057,g3t1_1,,success
Status,279,46498256511,g3t1_2,,running
Status,280,46498768125,g3t1_2,,success
Status,281,46698312273,g3t1_2,,running
Status,282,46698906345,g3t1_2,,success
Status,283,46797101290,g3t1_4,,running
Status,284,46803385820,g3t1_4,,success
Status,285,46879855517,g4t1,,success
Status,286,46898464457,g3t1_2,,running
Status,287,46899146245,g3t1_2,,success
Status,288,47098924847,g3t1_2,,running
Status,289,47100353575,g3t1_2,,success
Status,290,47298907658,g3t1_2,,running
Status,291,47300196318,g3t1_2,,success
Status,292,47499181125,g3t1_2,,running
Status,293,47500503774,g3t1_2,,success
Status,294,47699220770,g3t1_2,,running
Status,295,47700421353,g3t1_2,,success
Status,296,47796791662,g3t1_4,,running
Status,297,47803904265,g3t1_4,,success
Status,298,47880243854,g4t1,,success
Status,299,47899582251,g3t1_2,,running
Status,300,47900993956,g3t1_2,,success
Status,301,48099431759,g3t1_2,,running
Status,302,48100867515,g3t1_2,,success
Status,303,48299530064,g3t1_2,,running
Status,304,48300910331,g3t1_2,,success
Status,305,48499563090,g3t1_2,,running
Status,306,48500991162,g3t1_2,,success
Status,307,48700207249,g3t1_2,,running
Status,308,48701135983,g3t1_2,,success
Status,309,48796879945,g3t1_4,,running
Status,310,48804184944,g3t1_4,,success
Status,311,48879983538,g4t1,,success
Status,312,48899727514,g3t1_2,,running
Status,313,48900929453,g3t1_2,,success
Status,314,49099802950,g3t1_2,,running
Status,315,49101116255,g3t1_2,,success
Status,316,49299917031,g3t1_2,,running
Status,317,49301252877,g3t1_2,,success
Status,318,49499934593,g3t1_2,,running
Status,319,49501111289,g3t1_2,,success
Status,320,49700009795,g3t1_2,,running
Status,321,49701251024,g3t1_2,,success
Status,322,49796617130,g3t1_4,,running
Status,323,49799602039,g3t1_4,,success
Status,324,49879688378,g4t1,,success
Status,325,49900013098,g3t1_2,,running
Status,326,49901006769,g3t1_2,,success
Status,327,50100149466,g3t1_2,,running
Status,328,50101468544,g3t1_2,,success
Status,329,50303118832,g3t1_2,,running
Status,330,50303172874,g3t1_2,,success
Status,331,50500633617,g3t1_2,,running
Status,332,50501820525,g3t1_2,,success
Status,333,50700450980,g3t1_2,,running
Status,334,50701385816,g3t1_2,,success
Status,335,50797418182,g3t1_4,,running
Status,336,50807421831,g3t1_4,,success
Status,337,50880289124,g4t1,,success
Status,338,50900832217,g3t1_2,,running
Status,339,50901978337,g3t1_2,,success
Status,340,51100958085,g3t1_2,,running
Status,341,51102109363,g3t1_2,,success
Status,342,51300630473,g3t1_2,,running
Status,343,51301789931,g3t1_2,,success
Status,344,51316019686,g3t1_1,,running
Status,345,51317057095,g3t1_1,,success
Status,346,51500881799,g3t1_2,,running
Status,347,51502979908,g3t1_2,,success
Status,348,51702228573,g3t1_2,,running
Status,349,51702581362,g3t1_2,,success
Status,350,51797118457,g3t1_4,,running
Status,351,51805382206,g3t1_4,,success
Status,352,51880103912,g4t1,,success
Status,353,51901001857,g3t1_2,,running
Status,354,51902269957,g3t1_2,,success
Status,355,52101231150,g3t1_2,,running
Status,356,52102465807,g3t1_2,,success
Status,357,52301360188,g3t1_2,,running
Status,358,52302548009,g3t1_2,,success
Status,359,52501372287,g3t1_2,,running
Status,360,52502667879,g3t1_2,,success
Status,361,52702125306,g3t1_2,,running
Status,362,52702282032,g3t1_2,,success
Status,363,52797290530,g3t1_4,,running
Status,364,52803008235,g3t1_4,,success
Status,365,52880745180,g4t1,,success
Status,366,52901402291,g3t1_2,,running
Status,367,52902352398,g3t1_2,,success
Status,368,53101644179,g3t1_2,,running
Status,369,53102762322,g3t1_2,,success
Status,370,53302043323,g3t1_2,,running
Status,371,53303509695,g3t1_2,,success
Status,372,53502191798,g3t1_2,,running
Status,373,53503747870,g3t1_2,,success
Status,374,53702858533,g3t1_2,,running
Status,375,53703021169,g3t1_2,,success
Status,376,53797373031,g3t1_4,,running
Status,377,53803990633,g3t1_4,,success
Status,378,53880356561,g4t1,,success
Status,379,53902046593,g3t1_2,,running
Status,380,53903368467,g3t1_2,,success
Status,381,54102510693,g3t1_2,,running
Status,382,54104077222,g3t1_2,,success
Status,383,54302594675,g3t1_2,,running
Status,384,54303978340,g3t1_2,,success
Status,385,54502632376,g3t1_2,,running
Status,386,54503925619,g3t1_2,,success
Status,387,54702745294,g3t1_2,,running
Status,388,54704292446,g3t1_2,,success
Status,389,54797784854,g3t1_4,,running
Status,390,54804793121,g3t1_4,,success
Status,391,54880866420,g4t1,,success
Status,392,54903217289,g3t1_2,,running
Status,393,54904665302,g3t1_2,,success
Status,394,55102682940,g3t1_2,,running
Status,395,55103940710,g3t1_2,,success
Status,396,55303140158,g3t1_2,,running
Status,397,55304320198,g3t1_2,,success
Status,398,55503200925,g3t1_2,,running
Status,399,55504446189,g3t1_2,,success
Status,400,55702951608,g3t1_2,,running
Status,401,55704260203,g3t1_2,,success
Status,402,55797567058,g3t1_4,,running
Status,403,55806668674,g3t1_4,,success
Status,404,55880841236,g4t1,,success
Status,405,55903270479,g3t1_2,,running
Status,406,55904404255,g3t1_2,,success
Status,407,56103195930,g3t1_2,,running
Status,408,56104486293,g3t1_2,,success
Status,409,56303261430,g3t1_2,,running
Status,410,56304347360,g3t1_2,,success
Status,411,56316206486,g3t1_1,,running
Status,412,56317497224,g3t1_1,,success
Status,413,56503386278,g3t1_2,,running
Status,414,56504654735,g3t1_2,,success
Status,416,56703507522,g3t1_2,,running
Status,417,56704702218,g3t1_2,,success
Status,419,56797582442,g3t1_4,,running
Status,420,56804003232,g3t1_4,,success
Status,421,56881185179,g4t1,,success
Status,422,56903287463,g3t1_2,,running
Status,423,56904237788,g3t1_2,,success
Status,425,57103494336,g3t1_2,,running
Status,426,57104545718,g3t1_2,,success
Status,428,57303697281,g3t1_2,,running
Status,429,57304941951,g3t1_2,,success
Status,431,57504127287,g3t1_2,,running
Status,432,57505457611,g3t1_2,,success
Status,434,57703933831,g3t1_2,,running
Status,435,57705062117,g3t1_2,,success
Status,437,57797752705,g3t1_4,,running
Status,438,57807233037,g3t1_4,,success
Status,439,57880829845,g4t1,,success
Status,440,57903939433,g3t1_2,,running
Status,441,57905265299,g3t1_2,,success
Status,443,58104063736,g3t1_2,,running
Status,444,58105313624,g3t1_2,,success
Status,446,58304495627,g3t1_2,,running
Status,447,58305730547,g3t1_2,,success
Status,449,58504691589,g3t1_2,,running
Status,450,58506073780,g3t1_2,,success
Status,452,58704717413,g3t1_2,,running
Status,453,58705938349,g3t1_2,,success
Status,455,58798154750,g3t1_4,,running
Status,456,58805440789,g3t1_4,,success
Status,457,58881443168,g4t1,,success
Status,458,58904867201,g3t1_2,,running
Status,459,58906339357,g3t1_2,,success
Status,461,59104666212,g3t1_2,,running
Status,462,59105942088,g3t1_2,,success
Status,464,59305098860,g3t1_2,,running
Status,465,59306434476,g3t1_2,,success
Status,467,59505229662,g3t1_2,,running
Status,468,59506620573,g3t1_2,,success
Status,470,59705390712,g3t1_2,,running
Status,471,59706676248,g3t1_2,,success
Status,473,59797832640,g3t1_4,,running
Status,474,59802179681,g3t1_4,,success
Status,475,59881055289,g4t1,,success
Status,476,59905172109,g3t1_2,,running
Status,477,59906434312,g3t1_2,,success
Status,479,60105211644,g3t1_2,,running
Status,480,60106415177,g3t1_2,,success
Status,482,60305679055,g3t1_2,,running
Status,483,60307163515,g3t1_2,,success
Status,485,60505854134,g3t1_2,,running
Status,486,60507401552,g3t1_2,,success
Status,488,60705927004,g3t1_2,,running
Status,489,60707192534,g3t1_2,,success
Status,491,60798304831,g3t1_4,,running
Status,492,60810455194,g3t1_4,,success
Status,493,60881341161,g4t1,,success
Status,494,60905646030,g3t1_2,,running
Status,495,60906911463,g3t1_2,,success
Status,497,61105669839,g3t1_2,,running
Status,498,61107047834,g3t1_2,,success
Status,500,61306400643,g3t1_2,,running
Status,501,61307713528,g3t1_2,,success
Status,502,61316765578,g3t1_1,,running
Status,503,61318041970,g3t1_1,,success
Status,505,61507328097,g3t1_2,,running
Status,506,61507677825,g3t1_2,,success
Status,508,61706933291,g3t1_2,,running
Status,509,61707269242,g3t1_2,,success
Status,511,61798472070,g3t1_4,,running
Status,512,61804866850,g3t1_4,,success
Status,513,61881661356,g4t1,,success
Status,514,61906549727,g3t1_2,,running
Status,515,61907983138,g3t1_2,,success
Status,517,62106553855,g3t1_2,,running
Status,518,62107925129,g3t1_2,,success
Status,520,62307291398,g3t1_2,,running
Status,521,62307907818,g3t1_2,,success
Status,523,62507045864,g3t1_2,,running
Status,524,62508371538,g3t1_2,,success
Status,526,62707181978,g3t1_2,,running
Status,527,62708482140,g3t1_2,,success
Status,529,62798753552,g3t1_4,,running
Status,530,62805341419,g3t1_4,,success
Status,531,62881896296,g4t1,,success
Status,532,62906774787,g3t1_2,,running
Status,533,62908112799,g3t1_2,,success
Status,535,63107259481,g3t1_2,,running
Status,536,63108653573,g3t1_2,,success
Status,538,63307230230,g3t1_2,,running
Status,539,63308612899,g3t1_2,,success
Status,541,63507577258,g3t1_2,,running
Status,542,63508769954,g3t1_2,,success
Status,544,63708498243,g3t1_2,,running
Status,545,63708992941,g3t1_2,,success
Status,547,63798565987,g3t1_4,,running
Status,548,63804813082,g3t1_4,,success
Status,549,63881704826,g4t1,,success
Status,550,63908003325,g3t1_2,,running
Status,551,63909382041,g3t1_2,,success
Status,553,64107729887,g3t1_2,,running
Status,554,64108981262,g3t1_2,,success
Status,556,64308080026,g3t1_2,,running
Status,557,64309342599,g3t1_2,,success
Status,559,64508041751,g3t1_2,,running
Status,560,64509288856,g3t1_2,,success
Status,562,64708053640,g3t1_2,,running
Status,563,64709345176,g3t1_2,,success
Status,565,64798896095,g3t1_4,,running
Status,566,64806004078,g3t1_4,,success
Status,567,64881931206,g4t1,,success
Status,568,64908012155,g3t1_2,,running
Status,569,64909598365,g3t1_2,,success
Status,571,65108112598,g3t1_2,,running
Status,572,65109386247,g3t1_2,,success
Status,574,65308196821,g3t1_2,,running
Status,575,65309668525,g3t1_2,,success
Status,577,65508556053,g3t1_2,,running
Status,578,65509847242,g3t1_2,,success
Status,580,65708501288,g3t1_2,,running
Status,581,65709795410,g3t1_2,,success
Status,583,65799218045,g3t1_4,,running
Status,584,65807845963,g3t1_4,,success
Status,585,65882302186,g4t1,,success
Status,586,65908988534,g3t1_2,,running
Status,587,65910421684,g3t1_2,,success
Status,589,66108830916,g3t1_2,,running
Status,590,66110138311,g3t1_2,,success
Status,592,66309053165,g3t1_2,,running
Status,593,66310361324,g3t1_2,,success
Status,594,66316851802,g3t1_1,,running
Status,595,66318094882,g3t1_1,,success
Status,597,66509162113,g3t1_2,,running
Status,598,66510601895,g3t1_2,,success
Status,600,66709305585,g3t1_2,,running
Status,601,66709334592,g3t1_2,,success
Status,603,66798661831,g3t1_4,,running
Status,604,66804871507,g3t1_4,,success
Status,605,66881912659,g4t1,,success
Status,606,66908891212,g3t1_2,,running
Status,607,66909947130,g3t1_2,,success
Status,609,67109051459,g3t1_2,,running
Status,610,67110297896,g3t1_2,,success
Status,612,67309610006,g3t1_2,,running
Status,613,67311009654,g3t1_2,,success
Status,615,67510614931,g3t1_2,,running
Status,616,67510743346,g3t1_2,,success
Status,618,67709734389,g3t1_2,,running
Status,619,67711292235,g3t1_2,,success
Status,621,67799262921,g3t1_4,,running
Status,622,67806216310,g3t1_4,,success
Status,623,67882293521,g4t1,,success
Status,624,67909999261,g3t1_2,,running
Status,625,67911110028,g3t1_2,,success
Status,627,68110139771,g3t1_2,,running
Status,628,68111588467,g3t1_2,,success
Status,630,68309787909,g3t1_2,,running
Status,631,68311135492,g3t1_2,,success
Status,633,68509623738,g3t1_2,,running
Status,634,68510611231,g3t1_2,,success
Status,636,68709610117,g3t1_2,,running
Status,637,68710366179,g3t1_2,,success
Status,639,68798969720,g3t1_4,,running
Status,640,68806112709,g3t1_4,,success
Status,641,68882052328,g4t1,,success
Status,642,68910193635,g3t1_2,,running
Status,643,68911575849,g3t1_2,,success
Status,645,69110074150,g3t1_2,,running
Status,646,69111510734,g3t1_2,,success
Status,648,69310445659,g3t1_2,,running
Status,649,69310731312,g3t1_2,,success
Status,651,69510342231,g3t1_2,,running
Status,652,69511924606,g3t1_2,,success
Status,654,69710065555,g3t1_2,,running
Status,655,69710761413,g3t1_2,,success
Status,657,69798706161,g3t1_4,,running
Status,658,69802409905,g3t1_4,,success
Status,659,69881976760,g4t1,,success
Status,660,69910418620,g3t1_2,,running
Status,661,69911665674,g3t1_2,,success
Status,663,70111244241,g3t1_2,,running
Status,664,70111959672,g3t1_2,,success
Status,666,70310229360,g3t1_2,,running
Status,667,70310745799,g3t1_2,,success
Status,669,70510652685,g3t1_2,,running
Status,670,70512129077,g3t1_2,,success
Status,672,70710973514,g3t1_2,,running
Status,673,70712357981,g3t1_2,,success
Status,675,70799630942,g3t1_4,,running
Status,676,70806756598,g3t1_4,,success
Status,677,70881850728,g4t1,,success
Status,678,70911024866,g3t1_2,,running
Status,679,70911491058,g3t1_2,,success
Status,681,71111012810,g3t1_2,,running
Status,682,71111077411,g3t1_2,,success
Status,684,71311190298,g3t1_2,,running
Status,685,71312576438,g3t1_2,,success
Status,686,71316951306,g3t1_1,,running
Status,687,71318442561,g3t1_1,,success
Status,689,71510725673,g3t1_2,,running
Status,690,71511421654,g3t1_2,,success
Status,692,71711283503,g3t1_2,,running
Status,693,71712532383,g3t1_2,,success
Status,695,71799179844,g3t1_4,,running
Status,696,71805246815,g3t1_4,,success
Status,697,71882618251,g4t1,,success
Status,698,71911265904,g3t1_2,,running
Status,699,71912490354,g3t1_2,,success
Status,701,72111419793,g3t1_2,,running
Status,702,72112626036,g3t1_2,,success
Status,704,72311873707,g3t1_2,,running
Status,705,72313099834,g3t1_2,,success
Status,707,72511934690,g3t1_2,,running
Status,708,72513203190,g3t1_2,,success
Status,710,72711974786,g3t1_2,,running
Status,711,72713258294,g3t1_2,,success
Status,713,72799706464,g3t1_4,,running
Status,714,72806026672,g3t1_4,,success
Status,715,72882521960,g4t1,,success
Status,716,72911795751,g3t1_2,,running
Status,717,72912958579,g3t1_2,,success
Status,719,73112201307,g3t1_2,,running
Status,720,73113470265,g3t1_2,,success
Status,722,73311666585,g3t1_2,,running
Status,723,73312238805,g3t1_2,,success
Status,725,73512353930,g3t1_2,,running
Status,726,73512477549,g3t1_2,,success
Status,728,73712191454,g3t1_2,,running
Status,729,73713475750,g3t1_2,,success
Status,731,73799337676,g3t1_4,,running
Status,732,73805582066,g3t1_4,,success
Status,733,73882538622,g4t1,,success
Status,734,73912330186,g3t1_2,,running
Status,735,73913605904,g3t1_2,,success
Status,737,74112194797,g3t1_2,,running
Status,738,74113228778,g3t1_2,,success
Status,740,74312673409,g3t1_2,,running
Status,741,74313980901,g3t1_2,,success
Status,743,74512864747,g3t1_2,,running
Status,744,74514066951,g3t1_2,,success
Status,746,74712466524,g3t1_2,,running
Status,747,74713355274,g3t1_2,,success
Status,749,74799495424,g3t1_4,,running
Status,750,74803072088,g3t1_4,,success
Status,751,74882318922,g4t1,,success
Status,752,74912521467,g3t1_2,,running
Status,753,74913282653,g3t1_2,,success
Status,755,75112879073,g3t1_2,,running
Status,756,75114123993,g3t1_2,,success
Status,758,75313244647,g3t1_2,,running
Status,759,75314606639,g3t1_2,,success
Status,761,75513028492,g3t1_2,,running
Status,762,75514371558,g3t1_2,,success
Status,764,75713102105,g3t1_2,,running
Status,765,75714475894,g3t1_2,,success
Status,767,75799747034,g3t1_4,,running
Status,768,75806853531,g3t1_4,,success
Status,769,75882447641,g4t1,,success
Status,770,75913189428,g3t1_2,,running
Status,771,75914384091,g3t1_2,,success
Status,773,76113346191,g3t1_2,,running
Status,774,76114561562,g3t1_2,,success
Status,776,76313656046,g3t1_2,,running
Status,777,76314850044,g3t1_2,,success
Status,778,76316579993,g3t1_1,,running
Status,779,76317787078,g3t1_1,,success
Status,781,76513475472,g3t1_2,,running
Status,782,76514746912,g3t1_2,,success
Status,784,76713258247,g3t1_2,,running
Status,785,76713859640,g3t1_2,,success
Status,787,76799881475,g3t1_4,,running
Status,788,76806637590,g3t1_4,,success
Status,789,76882684468,g4t1,,success
Status,790,76913816228,g3t1_2,,running
Status,791,76915181468,g3t1_2,,success
Status,793,77113950386,g3t1_2,,running
Status,794,77115165879,g3t1_2,,success
Status,796,77314683493,g3t1_2,,running
Status,797,77314849900,g3t1_2,,success
Status,799,77515059667,g3t1_2,,running
Status,800,77515102437,g3t1_2,,success
Status,802,77713991640,g3t1_2,,running
Status,803,77715209787,g3t1_2,,success
Status,805,77799975251,g3t1_4,,running
Status,806,77806714528,g3t1_4,,success
Status,807,77883180886,g4t1,,success
Status,808,77914281014,g3t1_2,,running
Status,809,77915590870,g3t1_2,,success
Status,811,78114369995,g3t1_2,,running
Status,812,78115691833,g3t1_2,,success
Status,814,78314331914,g3t1_2,,running
Status,815,78315567689,g3t1_2,,success
Status,817,78515240953,g3t1_2,,running
Status,818,78515304122,g3t1_2,,success
Status,820,78714745515,g3t1_2,,running
Status,821,78715923555,g3t1_2,,success
Status,823,78800312893,g3t1_4,,running
Status,824,78807542508,g3t1_4,,success
Status,825,78883103970,g4t1,,success
Status,826,78914687151,g3t1_2,,running
Status,827,78915946732,g3t1_2,,success
Status,829,79114652966,g3t1_2,,running
Status,830,79115575127,g3t1_2,,success
Status,832,79314653380,g3t1_2,,running
Status,833,79315243396,g3t1_2,,success
Status,835,79515099783,g3t1_2,,running
Status,836,79516544837,g3t1_2,,success
Status,838,79715212353,g3t1_2,,running
Status,839,79716485855,g3t1_2,,success
Status,841,79800091278,g3t1_4,,running
Status,842,79808470477,g3t1_4,,success
Status,843,79882748075,g4t1,,success
Status,844,79915195056,g3t1_2,,running
Status,845,79916630054,g3t1_2,,success
Status,847,80115299745,g3t1_2,,running
Status,848,80116636076,g3t1_2,,success
Status,850,80315702417,g3t1_2,,running
Status,851,80316826245,g3t1_2,,success
Status,853,80515590712,g3t1_2,,running
Status,854,80516954171,g3t1_2,,success
Status,856,80715657616,g3t1_2,,running
Status,857,80717019083,g3t1_2,,success
Status,859,80800133347,g3t1_4,,running
Status,860,80807152452,g3t1_4,,success
Status,861,80883397370,g4t1,,success
Status,862,80915774920,g3t1_2,,running
Status,863,80917270900,g3t1_2,,success
Status,865,81115892134,g3t1_2,,running
Status,866,81117186577,g3t1_2,,success
Status,868,81315888909,g3t1_2,,running
Status,869,81316786496,g3t1_1,,running
Status,870,81317215134,g3t1_2,,success
Status,871,81318547355,g3t1_1,,success
Status,873,81516221455,g3t1_2,,running
Status,874,81517589928,g3t1_2,,success
Status,876,81716124018,g3t1_2,,running
Status,877,81717476163,g3t1_2,,success
Status,879,81800287209,g3t1_4,,running
Status,880,81806883583,g3t1_4,,success
Status,881,81883317593,g4t1,,success
Status,882,81916175609,g3t1_2,,running
Status,883,81917350059,g3t1_2,,success
Status,885,82116261251,g3t1_2,,running
Status,886,82117629671,g3t1_2,,success
Status,888,82316696676,g3t1_2,,running
Status,889,82318085606,g3t1_2,,success
Status,891,82516727705,g3t1_2,,running
Status,892,82518139103,g3t1_2,,success
Status,894,82716610234,g3t1_2,,running
Status,895,82718113814,g3t1_2,,success
Status,897,82800302872,g3t1_4,,running
Status,898,82806582906,g3t1_4,,success
Status,899,82883217680,g4t1,,success
Status,900,82916574089,g3t1_2,,running
Status,901,82917600379,g3t1_2,,success
Status,903,83116725320,g3t1_2,,running
Status,904,83117886741,g3t1_2,,success
Status,906,83317256118,g3t1_2,,running
Status,907,83318612046,g3t1_2,,success
Status,909,83517040778,g3t1_2,,running
Status,910,83518354996,g3t1_2,,success
Status,912,83717078101,g3t1_2,,running
Status,913,83718399602,g3t1_2,,success
Status,915,83800461427,g3t1_4,,running
Status,916,83809778553,g3t1_4,,success
Status,917,83883267002,g4t1,,success
Status,918,83917404616,g3t1_2,,running
Status,919,83917606714,g3t1_2,,success
Status,921,84117275122,g3t1_2,,running
Status,922,84118438130,g3t1_2,,success
Status,924,84317364293,g3t1_2,,running
Status,925,84318456377,g3t1_2,,success
Status,927,84518363244,g3t1_2,,running
Status,928,84518527948,g3t1_2,,success
Status,930,84717400415,g3t1_2,,running
Status,931,84718701236,g3t1_2,,success
Status,933,84800438944,g3t1_4,,running
Status,934,84808608601,g3t1_4,,success
Status,935,84883472338,g4t1,,success
Status,936,84917665370,g3t1_2,,running
Status,937,84919121933,g3t1_2,,success
Status,939,85117720969,g3t1_2,,running
Status,940,85119109952,g3t1_2,,success
Status,942,85318137609,g3t1_2,,running
Status,943,85319506195,g3t1_2,,success
Status,945,85518220044,g3t1_2,,running
Status,946,85519611453,g3t1_2,,success
Status,948,85718006563,g3t1_2,,running
Status,949,85719428270,g3t1_2,,success
Status,951,85800509241,g3t1_4,,running
Status,952,85809630236,g3t1_4,,success
Status,953,85883750552,g4t1,,success
Status,954,85918345674,g3t1_2,,running
Status,955,85919549420,g3t1_2,,success
Status,957,86118582324,g3t1_2,,running
Status,958,86120005144,g3t1_2,,success
Status,960,86317355069,g3t1_1,,running
Status,961,86318391216,g3t1_2,,running
Status,962,86318940354,g3t1_1,,success
Status,963,86319886377,g3t1_2,,success
Status,965,86518846393,g3t1_2,,running
Status,966,86520232036,g3t1_2,,success
Status,968,86719064297,g3t1_2,,running
Status,969,86719751380,g3t1_2,,success
Status,971,86800563703,g3t1_4,,running
Status,972,86805095901,g3t1_4,,success
Status,973,86883615936,g4t1,,success
Status,974,86918628069,g3t1_2,,running
Status,975,86920099247,g3t1_2,,success
Status,977,87118751026,g3t1_2,,running
Status,978,87120020319,g3t1_2,,success
Status,980,87318573271,g3t1_2,,running
Status,981,87319765243,g3t1_2,,success
Status,983,87518964157,g3t1_2,,running
Status,984,87520413678,g3t1_2,,success
Status,986,87719763800,g3t1_2,,running
Status,987,87719805697,g3t1_2,,success
Status,989,87800777990,g3t1_4,,running
Status,990,87807910392,g3t1_4,,success
Status,991,87883607848,g4t1,,success
Status,992,87918700416,g3t1_2,,running
Status,993,87919457474,g3t1_2,,success
Status,995,88119720996,g3t1_2,,running
Status,996,88119749683,g3t1_2,,success
Status,998,88320362997,g3t1_2,,running
Status,999,88320429001,g3t1_2,,success
Status,1001,88519478048,g3t1_2,,running
Status,1002,88520590137,g3t1_2,,success
Status,1004,88719674652,g3t1_2,,running
Status,1005,88719807087,g3t1_2,,success
Status,1007,88800522107,g3t1_4,,running
Status,1008,88803601643,g3t1_4,,success
Status,1009,88883851588,g4t1,,success
Status,1010,88919652855,g3t1_2,,running
Status,1012,88921095680,g3t1_2,,success
Status,1013,89119574728,g3t1_2,,running
Status,1014,89120511811,g3t1_2,,success
Status,1016,89319724074,g3t1_2,,running
Status,1018,89320981295,g3t1_2,,success
Status,1019,89519706817,g3t1_2,,running
Status,1020,89520816257,g3t1_2,,success
Status,1022,89720244461,g3t1_2,,running
Status,1024,89721582923,g3t1_2,,success
Status,1025,89801238892,g3t1_4,,running
Status,1026,89807939374,g3t1_4,,success
Status,1027,89884271590,g4t1,,success
Status,1028,89920252227,g3t1_2,,running
Status,1030,89921511309,g3t1_2,,success
Status,1032,90121162594,g3t1_2,,running
Status,1033,90121735182,g3t1_2,,success
Status,1034,90319940007,g3t1_2,,running
Status,1035,90320636948,g3t1_2,,success
Status,1037,90519911324,g3t1_2,,running
Status,1038,90520455587,g3t1_2,,success
Status,1040,90720279131,g3t1_2,,running
Status,1042,90721685308,g3t1_2,,success
Status,1043,90801096528,g3t1_4,,running
Status,1044,90806903966,g3t1_4,,success
Status,1045,90884115076,g4t1,,success
Status,1046,90920396763,g3t1_2,,running
Status,1048,90921542710,g3t1_2,,success
Status,1050,91121768077,g3t1_2,,running
