
Status,1,20640334149,/g4t1,,init
Status,5,26465234979,/g3t1_2,,init
Status,6,26465370822,/g3t1_1,,init
Status,7,26511674783,/g3t1_1,,init
Status,8,26511783207,/g3t1_1,,running
Status,9,26520642214,/g3t1_1,,success
Status,10,26521986908,/g3t1_2,,init
Status,11,26522080769,/g3t1_2,,running
Status,12,26524948649,/g3t1_2,,success
Status,13,26766920643,/g3t1_3,,init
Status,15,26783093063,/g3t1_3,,init
Status,16,26783119834,/g3t1_3,,running
Status,17,26785495984,/g3t1_3,,success
Status,18,26867663447,/g3t1_4,,init
Status,20,26886312277,/g3t1_4,,init
Status,21,26886338660,/g3t1_4,,running
Status,22,26891510263,/g3t1_4,,success
Status,23,27783348975,/g3t1_3,,running
Status,24,27784838812,/g3t1_3,,success
Status,25,27886487119,/g3t1_4,,running
Status,26,27893205159,/g3t1_4,,success
Status,27,28662716154,/g4t1,,success
Status,28,28783400138,/g3t1_3,,running
Status,29,28784941843,/g3t1_3,,success
Status,30,28886496156,/g3t1_4,,running
Status,31,28893051491,/g3t1_4,,success
Status,32,29662524285,/g4t1,,success
Status,33,29783719398,/g3t1_3,,running
Status,34,29786449822,/g3t1_3,,success
Status,35,29886603964,/g3t1_4,,running
Status,36,29892440089,/g3t1_4,,success
Status,37,30662820959,/g4t1,,success
Status,38,30783659938,/g3t1_3,,running
Status,39,30785068794,/g3t1_3,,success
Status,40,30886717140,/g3t1_4,,running
Status,41,30892793794,/g3t1_4,,success
Status,42,31511913616,/g3t1_1,,running
Status,43,31513432143,/g3t1_1,,success
Status,44,31522408197,/g3t1_2,,running
Status,45,31525629490,/g3t1_2,,success
Status,46,31662655190,/g4t1,,success
Status,47,31783680900,/g3t1_3,,running
Status,48,31785150508,/g3t1_3,,success
Status,49,31886952630,/g3t1_4,,running
Status,50,31892926796,/g3t1_4,,success
Status,51,32662736546,/g4t1,,success
Status,52,32783889825,/g3t1_3,,running
Status,53,32785285422,/g3t1_3,,success
Status,54,32886908435,/g3t1_4,,running
Status,55,32892600401,/g3t1_4,,success
Status,56,33662788380,/g4t1,,success
Status,57,33784015652,/g3t1_3,,running
Status,58,33785579674,/g3t1_3,,success
Status,59,33887059385,/g3t1_4,,running
Status,60,33892780405,/g3t1_4,,success
Status,61,34662864046,/g4t1,,success
Status,62,34784131402,/g3t1_3,,running
Status,63,34785692545,/g3t1_3,,success
Status,64,34887099651,/g3t1_4,,running
Status,65,34895167746,/g3t1_4,,success
Status,66,35663027006,/g4t1,,success
Status,67,35784266758,/g3t1_3,,running
Status,68,35785727912,/g3t1_3,,success
Status,69,35887236079,/g3t1_4,,running
Status,70,35893216636,/g3t1_4,,success
Status,71,36512062900,/g3t1_1,,running
Status,72,36513630473,/g3t1_1,,success
Status,73,36522257581,/g3t1_2,,running
Status,74,36524052623,/g3t1_2,,success
Status,75,36663324835,/g4t1,,success
Status,76,36784392764,/g3t1_3,,running
Status,77,36785815280,/g3t1_3,,success
Status,78,36887348846,/g3t1_4,,running
Status,79,36894386987,/g3t1_4,,success
Status,80,37663456620,/g4t1,,success
Status,81,37784523567,/g3t1_3,,running
Status,82,37786017656,/g3t1_3,,success
Status,83,37887439253,/g3t1_4,,running
Status,84,37893436302,/g3t1_4,,success
Status,85,38663436798,/g4t1,,success
Status,86,38784587035,/g3t1_3,,running
Status,87,38786086248,/g3t1_3,,success
Status,88,38887490368,/g3t1_4,,running
Status,89,38893426667,/g3t1_4,,success
Status,90,39663497675,/g4t1,,success
Status,91,39784687994,/g3t1_3,,running
Status,92,39786196201,/g3t1_3,,success
Status,93,39887566143,/g3t1_4,,running
Status,94,39893110827,/g3t1_4,,success
Status,95,40663653005,/g4t1,,success
Status,96,40785646805,/g3t1_3,,running
Status,97,40789062044,/g3t1_3,,success
Status,98,40887712479,/g3t1_4,,running
Status,99,40893533012,/g3t1_4,,success
Status,100,41512153922,/g3t1_1,,running
Status,101,41513667570,/g3t1_1,,success
Status,102,41522725806,/g3t1_2,,running
Status,103,41525907026,/g3t1_2,,success
Status,104,41663740193,/g4t1,,success
Status,105,41784905910,/g3t1_3,,running
Status,106,41786432184,/g3t1_3,,success
Status,107,41887760205,/g3t1_4,,running
Status,108,41893319122,/g3t1_4,,success
Status,109,42664932758,/g4t1,,success
Status,110,42785050022,/g3t1_3,,running
Status,111,42786611665,/g3t1_3,,success
Status,112,42887818087,/g3t1_4,,running
Status,113,42893803602,/g3t1_4,,success
Status,114,43664235978,/g4t1,,success
Status,115,43785198099,/g3t1_3,,running
Status,116,43786850050,/g3t1_3,,success
Status,117,43888051934,/g3t1_4,,running
Status,118,43894668288,/g3t1_4,,success
Status,119,44664171375,/g4t1,,success
Status,120,44785341865,/g3t1_3,,running
Status,121,44788574708,/g3t1_3,,success
Status,122,44887996678,/g3t1_4,,running
Status,123,44893601659,/g3t1_4,,success
Status,124,45664243954,/g4t1,,success
Status,125,45785588679,/g3t1_3,,running
Status,126,45787168516,/g3t1_3,,success
Status,127,45888064262,/g3t1_4,,running
Status,128,45893652424,/g3t1_4,,success
Status,129,46512310033,/g3t1_1,,running
Status,130,46514043407,/g3t1_1,,success
Status,131,46522389818,/g3t1_2,,running
Status,132,46523830148,/g3t1_2,,success
Status,133,46664410163,/g4t1,,success
Status,134,46785686977,/g3t1_3,,running
Status,135,46787225227,/g3t1_3,,success
Status,136,46888174467,/g3t1_4,,running
Status,137,46893856847,/g3t1_4,,success
Status,138,47664490444,/g4t1,,success
Status,139,47786506741,/g3t1_3,,running
Status,140,47789482283,/g3t1_3,,success
Status,141,47888304130,/g3t1_4,,running
Status,142,47893900840,/g3t1_4,,success
Status,143,48664600455,/g4t1,,success
Status,144,48785876857,/g3t1_3,,running
Status,145,48787406164,/g3t1_3,,success
Status,146,48888375319,/g3t1_4,,running
Status,147,48894400385,/g3t1_4,,success
Status,148,49664658239,/g4t1,,success
Status,149,49785979900,/g3t1_3,,running
Status,150,49787653210,/g3t1_3,,success
Status,151,49888443997,/g3t1_4,,running
Status,152,49894130359,/g3t1_4,,success
Status,153,50664773118,/g4t1,,success
Status,154,50786119269,/g3t1_3,,running
Status,155,50787732012,/g3t1_3,,success
Status,156,50888555591,/g3t1_4,,running
Status,157,50894369962,/g3t1_4,,success
Status,158,51512445466,/g3t1_1,,running
Status,159,51514050515,/g3t1_1,,success
Status,160,51522397490,/g3t1_2,,running
Status,161,51523961112,/g3t1_2,,success
Status,162,51664887252,/g4t1,,success
Status,163,51786557607,/g3t1_3,,running
Status,164,51790344912,/g3t1_3,,success
Status,165,51888570082,/g3t1_4,,running
Status,166,51894420197,/g3t1_4,,success
Status,167,52665018677,/g4t1,,success
Status,168,52786378620,/g3t1_3,,running
Status,169,52788108212,/g3t1_3,,success
Status,170,52888624859,/g3t1_4,,running
Status,171,52894286687,/g3t1_4,,success
Status,172,53665091685,/g4t1,,success
Status,173,53786467362,/g3t1_3,,running
Status,174,53788157616,/g3t1_3,,success
Status,175,53888682034,/g3t1_4,,running
Status,176,53895100747,/g3t1_4,,success
Status,177,54665269957,/g4t1,,success
Status,178,54786609665,/g3t1_3,,running
Status,179,54788233919,/g3t1_3,,success
Status,180,54888784439,/g3t1_4,,running
Status,181,54894858287,/g3t1_4,,success
Status,183,55665354419,/g4t1,,success
Status,184,55786608809,/g3t1_3,,running
Status,185,55788353217,/g3t1_3,,success
Status,186,55888865059,/g3t1_4,,running
Status,187,55895451073,/g3t1_4,,success
Status,189,56512519565,/g3t1_1,,running
Status,190,56514038133,/g3t1_1,,success
Status,191,56522562637,/g3t1_2,,running
Status,192,56524228902,/g3t1_2,,success
Status,193,56665462630,/g4t1,,success
Status,194,56786728040,/g3t1_3,,running
Status,195,56788308580,/g3t1_3,,success
Status,196,56888903692,/g3t1_4,,running
Status,197,56895817527,/g3t1_4,,success
Status,199,57665808994,/g4t1,,success
Status,200,57786769063,/g3t1_3,,running
Status,201,57788333602,/g3t1_3,,success
Status,202,57889336526,/g3t1_4,,running
Status,203,57898519579,/g3t1_4,,success
Status,205,58665631603,/g4t1,,success
Status,206,58787128676,/g3t1_3,,running
Status,207,58790037398,/g3t1_3,,success
Status,208,58889131503,/g3t1_4,,running
Status,209,58895412304,/g3t1_4,,success
Status,211,59665830365,/g4t1,,success
Status,212,59787211765,/g3t1_3,,running
Status,213,59790386042,/g3t1_3,,success
Status,214,59889266567,/g3t1_4,,running
Status,215,59896707802,/g3t1_4,,success
Status,217,60665833328,/g4t1,,success
Status,218,60787119593,/g3t1_3,,running
Status,219,60788804806,/g3t1_3,,success
Status,220,60889326899,/g3t1_4,,running
Status,221,60896428665,/g3t1_4,,success
Status,223,61512671565,/g3t1_1,,running
Status,224,61514215651,/g3t1_1,,success
Status,225,61522631496,/g3t1_2,,running
Status,226,61524340430,/g3t1_2,,success
Status,227,61665908332,/g4t1,,success
Status,228,61787176296,/g3t1_3,,running
Status,229,61788696574,/g3t1_3,,success
Status,230,61889359147,/g3t1_4,,running
Status,231,61895687061,/g3t1_4,,success
Status,233,62666035455,/g4t1,,success
Status,234,62787314605,/g3t1_3,,running
Status,235,62788927670,/g3t1_3,,success
Status,236,62889372020,/g3t1_4,,running
Status,237,62895492078,/g3t1_4,,success
Status,239,63666369543,/g4t1,,success
Status,240,63787443250,/g3t1_3,,running
