
Status,1,20705295831,g4t1,,init
Status,4,25817988125,g3t1_4,,init
Status,5,25828052761,g3t1_4,,init
Status,6,25828084537,g3t1_4,,running
Status,7,25831404916,g3t1_4,,success
Status,8,26828379116,g3t1_4,,running
Status,9,26835171359,g3t1_4,,success
Status,10,27828952607,g3t1_4,,running
Status,11,27835877562,g3t1_4,,success
Status,12,28829074613,g3t1_4,,running
Status,13,28837923553,g3t1_4,,success
Status,14,29828364732,g3t1_4,,running
Status,15,29831146584,g3t1_4,,success
Status,16,30828779939,g3t1_4,,running
Status,17,30835256937,g3t1_4,,success
Status,18,31830001460,g3t1_4,,running
Status,19,31835311741,g3t1_4,,success
Status,20,32829236999,g3t1_4,,running
Status,21,32835931597,g3t1_4,,success
Status,22,33830386111,g3t1_4,,running
Status,23,33836657361,g3t1_4,,success
Status,24,34830444674,g3t1_4,,running
Status,25,34838654311,g3t1_4,,success
Status,26,35829260050,g3t1_4,,running
Status,27,35835710757,g3t1_4,,success
Status,28,36829726360,g3t1_4,,running
Status,29,36836392909,g3t1_4,,success
Status,30,37829842988,g3t1_4,,running
Status,31,37836834401,g3t1_4,,success
Status,32,38829626124,g3t1_4,,running
Status,33,38836846098,g3t1_4,,success
Status,34,39830520579,g3t1_4,,running
Status,35,39837328619,g3t1_4,,success
Status,36,40829750943,g3t1_4,,running
Status,37,40835797023,g3t1_4,,success
Status,38,41829823689,g3t1_4,,running
Status,39,41835925641,g3t1_4,,success
Status,40,42830377831,g3t1_4,,running
Status,41,42837503437,g3t1_4,,success
Status,42,43830584337,g3t1_4,,running
Status,43,43837949702,g3t1_4,,success
Status,44,44830607039,g3t1_4,,running
Status,45,44839076413,g3t1_4,,success
Status,46,45830749453,g3t1_4,,running
Status,47,45836929344,g3t1_4,,success
Status,48,46831053885,g3t1_4,,running
Status,49,46838320532,g3t1_4,,success
Status,50,47830667101,g3t1_4,,running
Status,51,47837680514,g3t1_4,,success
Status,52,48831184688,g3t1_4,,running
Status,53,48837947486,g3t1_4,,success
Status,54,49831111106,g3t1_4,,running
Status,55,49840302250,g3t1_4,,success
Status,56,50830870021,g3t1_4,,running
Status,57,50837954107,g3t1_4,,success
Status,58,51831398737,g3t1_4,,running
Status,59,51837884858,g3t1_4,,success
Status,60,52831110478,g3t1_4,,running
Status,61,52838956447,g3t1_4,,success
Status,62,53831581371,g3t1_4,,running
Status,63,53839999416,g3t1_4,,success
Status,64,54831329539,g3t1_4,,running
Status,65,54840582929,g3t1_4,,success
Status,69,55831403627,g3t1_4,,running
Status,70,55838336496,g3t1_4,,success
Status,76,56831497274,g3t1_4,,running
Status,77,56838562503,g3t1_4,,success
Status,83,57831529964,g3t1_4,,running
Status,84,57838644155,g3t1_4,,success
Status,90,58831651824,g3t1_4,,running
Status,91,58839556872,g3t1_4,,success
Status,97,59832230862,g3t1_4,,running
Status,98,59841531704,g3t1_4,,success
Status,104,60831854069,g3t1_4,,running
Status,105,60837882649,g3t1_4,,success
Status,111,61831913806,g3t1_4,,running
Status,112,61838569737,g3t1_4,,success
Status,118,62832484741,g3t1_4,,running
Status,119,62838612490,g3t1_4,,success
Status,125,63832671498,g3t1_4,,running
Status,126,63839241536,g3t1_4,,success
Status,132,64832310913,g3t1_4,,running
Status,133,64841005420,g3t1_4,,success
Status,139,65832357856,g3t1_4,,running
Status,140,65839213296,g3t1_4,,success
Status,146,66833028894,g3t1_4,,running
Status,147,66840172752,g3t1_4,,success
Status,153,67832587664,g3t1_4,,running
Status,154,67839590857,g3t1_4,,success
Status,160,68833223678,g3t1_4,,running
Status,161,68840471977,g3t1_4,,success
Status,167,69832903296,g3t1_4,,running
Status,168,69842121262,g3t1_4,,success
Status,174,70832994128,g3t1_4,,running
Status,175,70839918142,g3t1_4,,success
Status,181,71833339622,g3t1_4,,running
Status,182,71838902532,g3t1_4,,success
Status,188,72833705091,g3t1_4,,running
Status,189,72841057911,g3t1_4,,success
Status,195,73833304532,g3t1_4,,running
Status,196,73839923672,g3t1_4,,success
Status,202,74833870041,g3t1_4,,running
Status,203,74843690890,g3t1_4,,success
Status,209,75833921874,g3t1_4,,running
Status,210,75840813109,g3t1_4,,success
Status,216,76833654432,g3t1_4,,running
Status,217,76843957996,g3t1_4,,success
Status,223,77834064556,g3t1_4,,running
Status,224,77840781023,g3t1_4,,success
Status,230,78834367130,g3t1_4,,running
Status,231,78844903954,g3t1_4,,success
Status,237,79833965993,g3t1_4,,running
Status,238,79839978038,g3t1_4,,success
Status,244,80834492341,g3t1_4,,running
Status,245,80840715262,g3t1_4,,success
Status,251,81834645082,g3t1_4,,running
Status,252,81840941511,g3t1_4,,success
Status,258,82834765139,g3t1_4,,running
Status,259,82841058301,g3t1_4,,success
Status,265,83834899016,g3t1_4,,running
Status,266,83841141316,g3t1_4,,success
Status,272,84835263468,g3t1_4,,running
Status,273,84840652015,g3t1_4,,success
Status,279,85834717797,g3t1_4,,running
Status,280,85842737124,g3t1_4,,success
Status,286,86834785044,g3t1_4,,running
Status,287,86840972719,g3t1_4,,success
Status,293,87835481212,g3t1_4,,running
Status,294,87841629576,g3t1_4,,success
Status,300,88834938254,g3t1_4,,running
Status,301,88842461060,g3t1_4,,success
Status,307,89835089493,g3t1_4,,running
Status,308,89841957529,g3t1_4,,success
Status,314,90835127828,g3t1_4,,running
Status,315,90843846403,g3t1_4,,success
Status,321,91835217912,g3t1_4,,running
Status,322,91841372276,g3t1_4,,success
Status,328,92835765887,g3t1_4,,running
Status,329,92842118384,g3t1_4,,success
Status,335,93835436924,g3t1_4,,running
Status,336,93841845092,g3t1_4,,success
Status,342,94835533989,g3t1_4,,running
Status,343,94842075381,g3t1_4,,success
Status,349,95835560891,g3t1_4,,running
Status,350,95844547793,g3t1_4,,success
Status,356,96836206629,g3t1_4,,running
Status,357,96842289594,g3t1_4,,success
Status,363,97835798437,g3t1_4,,running
Status,364,97842337187,g3t1_4,,success
Status,370,98836393539,g3t1_4,,running
Status,371,98842880294,g3t1_4,,success
Status,377,99836421309,g3t1_4,,running
Status,378,99846488308,g3t1_4,,success
Status,384,100836397142,g3t1_4,,running
Status,385,100846409592,g3t1_4,,success
Status,391,101836306713,g3t1_4,,running
Status,392,101843077480,g3t1_4,,success
Status,398,102836979118,g3t1_4,,running
Status,399,102844009072,g3t1_4,,success
Status,405,103837887827,g3t1_4,,running
Status,406,103843213741,g3t1_4,,success
Status,412,104837064414,g3t1_4,,running
Status,413,104844163992,g3t1_4,,success
Status,419,105837098549,g3t1_4,,running
Status,420,105845673956,g3t1_4,,success
Status,426,106836858124,g3t1_4,,running
Status,427,106843894038,g3t1_4,,success
Status,433,107837363796,g3t1_4,,running
Status,434,107844813916,g3t1_4,,success
Status,440,108837439525,g3t1_4,,running
Status,441,108845076765,g3t1_4,,success
Status,447,109837122046,g3t1_4,,running
Status,448,109844217511,g3t1_4,,success
Status,454,110837587457,g3t1_4,,running
Status,455,110846157741,g3t1_4,,success
Status,461,111837862412,g3t1_4,,running
Status,462,111844463627,g3t1_4,,success
Status,468,112837431655,g3t1_4,,running
Status,469,112843999901,g3t1_4,,success
Status,475,113838277566,g3t1_4,,running
Status,476,113842737743,g3t1_4,,success
Status,482,114837594834,g3t1_4,,running
Status,483,114844696452,g3t1_4,,success
Status,489,115837704552,g3t1_4,,running
Status,490,115847130531,g3t1_4,,success
Status,496,116837595918,g3t1_4,,running
Status,497,116840976148,g3t1_4,,success
Status,503,117837855453,g3t1_4,,running
Status,504,117843112941,g3t1_4,,success
Status,510,118837880884,g3t1_4,,running
Status,511,118843610960,g3t1_4,,success
Status,517,119838507713,g3t1_4,,running
Status,518,119845763111,g3t1_4,,success
Status,524,120838196799,g3t1_4,,running
Status,525,120847412382,g3t1_4,,success
Status,531,121838373031,g3t1_4,,running
Status,532,121845192972,g3t1_4,,success
Status,538,122838310749,g3t1_4,,running
Status,539,122844304135,g3t1_4,,success
Status,545,123838511196,g3t1_4,,running
Status,546,123846694633,g3t1_4,,success
Status,552,124838978355,g3t1_4,,running
Status,553,124845491439,g3t1_4,,success
Status,559,125838735715,g3t1_4,,running
Status,560,125848892958,g3t1_4,,success
Status,566,126838813158,g3t1_4,,running
Status,567,126845609829,g3t1_4,,success
Status,573,127838839406,g3t1_4,,running
Status,574,127845960976,g3t1_4,,success
Status,580,128839375568,g3t1_4,,running
Status,581,128845685526,g3t1_4,,success
Status,587,129839531199,g3t1_4,,running
Status,588,129846512431,g3t1_4,,success
Status,594,130839271983,g3t1_4,,running
Status,595,130846938460,g3t1_4,,success
Status,601,131839351188,g3t1_4,,running
Status,602,131845998219,g3t1_4,,success
Status,608,132839416798,g3t1_4,,running
Status,609,132845427728,g3t1_4,,success
Status,615,133839536368,g3t1_4,,running
Status,616,133846575857,g3t1_4,,success
Status,622,134839517743,g3t1_4,,running
Status,623,134845355889,g3t1_4,,success
Status,629,135840089416,g3t1_4,,running
Status,630,135844626623,g3t1_4,,success
Status,636,136839704503,g3t1_4,,running
Status,637,136845671485,g3t1_4,,success
Status,643,137840138655,g3t1_4,,running
Status,644,137842748202,g3t1_4,,success
Status,650,138839872017,g3t1_4,,running
Status,651,138846533361,g3t1_4,,success
Status,657,139840082509,g3t1_4,,running
Status,658,139847211979,g3t1_4,,success
