
Status,2,20527425966,/g4t1,,init
Status,3,25941173818,/g3t1_1,,init
Status,5,25948821196,/g3t1_1,,init
Status,6,25948849659,/g3t1_1,,running
Status,7,25951007839,/g3t1_1,,success
Status,8,26143859515,/g3t1_2,,init
Status,10,26148314201,/g3t1_2,,init
Status,11,26148332834,/g3t1_2,,running
Status,12,26149329842,/g3t1_2,,success
Status,13,26244404788,/g3t1_3,,init
Status,15,26250335094,/g3t1_3,,init
Status,16,26250351028,/g3t1_3,,running
Status,17,26251274202,/g3t1_3,,success
Status,18,26348456444,/g3t1_2,,running
Status,19,26348535782,/g3t1_2,,success
Status,21,26448552727,/g3t1_4,,init
Status,22,26453522521,/g3t1_4,,init
Status,23,26453535603,/g3t1_4,,running
Status,24,26455141911,/g3t1_4,,success
Status,25,26549368305,/g3t1_2,,running
Status,26,26550206845,/g3t1_2,,success
Status,27,26749292761,/g3t1_2,,running
Status,28,26749732097,/g3t1_2,,success
Status,29,26949041099,/g3t1_2,,running
Status,30,26949298281,/g3t1_2,,success
Status,31,27149073802,/g3t1_2,,running
Status,32,27149157417,/g3t1_2,,success
Status,33,27349655225,/g3t1_2,,running
Status,34,27349907069,/g3t1_2,,success
Status,35,27454754702,/g3t1_4,,running
Status,36,27465200607,/g3t1_4,,success
Status,37,27537524212,/g4t1,,success
Status,38,27549878312,/g3t1_2,,running
Status,39,27550222931,/g3t1_2,,success
Status,40,27750919565,/g3t1_2,,running
Status,41,27750993984,/g3t1_2,,success
Status,42,27950435924,/g3t1_2,,running
Status,43,27950879560,/g3t1_2,,success
Status,44,28150748827,/g3t1_2,,running
Status,45,28151110927,/g3t1_2,,success
Status,46,28350603272,/g3t1_2,,running
Status,47,28351541503,/g3t1_2,,success
Status,48,28454612656,/g3t1_4,,running
Status,49,28462402618,/g3t1_4,,success
Status,50,28537578721,/g4t1,,success
Status,51,28550705148,/g3t1_2,,running
Status,52,28551409190,/g3t1_2,,success
Status,53,28750113853,/g3t1_2,,running
Status,54,28750252050,/g3t1_2,,success
Status,55,28951101626,/g3t1_2,,running
Status,56,28951647903,/g3t1_2,,success
Status,57,29150436679,/g3t1_2,,running
Status,58,29150648751,/g3t1_2,,success
Status,59,29350501086,/g3t1_2,,running
Status,60,29350584352,/g3t1_2,,success
Status,61,29454230872,/g3t1_4,,running
Status,62,29458685126,/g3t1_4,,success
Status,63,29537188004,/g4t1,,success
Status,64,29550653645,/g3t1_2,,running
Status,65,29550693334,/g3t1_2,,success
Status,66,29751213114,/g3t1_2,,running
Status,67,29751474491,/g3t1_2,,success
Status,68,29951725696,/g3t1_2,,running
Status,69,29951989025,/g3t1_2,,success
Status,70,30150903416,/g3t1_2,,running
Status,71,30150920155,/g3t1_2,,success
Status,72,30350990142,/g3t1_2,,running
Status,73,30351095578,/g3t1_2,,success
Status,74,30454433906,/g3t1_4,,running
Status,75,30457495308,/g3t1_4,,success
Status,76,30537576881,/g4t1,,success
Status,77,30551372491,/g3t1_2,,running
Status,78,30551664036,/g3t1_2,,success
Status,79,30751421285,/g3t1_2,,running
Status,80,30751700687,/g3t1_2,,success
Status,81,30949044866,/g3t1_1,,running
Status,82,30949232878,/g3t1_1,,success
Status,83,30951303979,/g3t1_2,,running
Status,84,30951431668,/g3t1_2,,success
Status,85,31151745836,/g3t1_2,,running
Status,86,31151991622,/g3t1_2,,success
Status,88,31352265538,/g3t1_2,,running
Status,89,31352673328,/g3t1_2,,success
Status,90,31455129040,/g3t1_4,,running
Status,91,31463119694,/g3t1_4,,success
Status,92,31537475286,/g4t1,,success
Status,93,31551872495,/g3t1_2,,running
Status,94,31552052316,/g3t1_2,,success
Status,95,31751815653,/g3t1_2,,running
Status,96,31752206669,/g3t1_2,,success
Status,97,31952484420,/g3t1_2,,running
Status,98,31953123702,/g3t1_2,,success
Status,99,32152017178,/g3t1_2,,running
Status,100,32152213610,/g3t1_2,,success
Status,101,32352709974,/g3t1_2,,running
Status,102,32353212295,/g3t1_2,,success
Status,103,32454844173,/g3t1_4,,running
Status,104,32460550255,/g3t1_4,,success
Status,105,32537379096,/g4t1,,success
Status,106,32552419716,/g3t1_2,,running
Status,107,32553044398,/g3t1_2,,success
Status,108,32752191343,/g3t1_2,,running
Status,109,32752347763,/g3t1_2,,success
Status,110,32952367660,/g3t1_2,,running
Status,111,32952387749,/g3t1_2,,success
Status,112,33153018612,/g3t1_2,,running
Status,113,33153634605,/g3t1_2,,success
Status,114,33353103831,/g3t1_2,,running
Status,115,33353829745,/g3t1_2,,success
Status,116,33455372262,/g3t1_4,,running
Status,117,33463093809,/g3t1_4,,success
Status,118,33538109096,/g4t1,,success
Status,119,33553172829,/g3t1_2,,running
Status,120,33553746466,/g3t1_2,,success
Status,121,33753494979,/g3t1_2,,running
Status,122,33754139412,/g3t1_2,,success
Status,123,33953589516,/g3t1_2,,running
Status,124,33953774015,/g3t1_2,,success
Status,125,34153783237,/g3t1_2,,running
Status,126,34154314102,/g3t1_2,,success
Status,127,34354210269,/g3t1_2,,running
Status,128,34354271463,/g3t1_2,,success
Status,129,34454867255,/g3t1_4,,running
Status,130,34460518065,/g3t1_4,,success
Status,131,34537790828,/g4t1,,success
Status,132,34553489450,/g3t1_2,,running
Status,133,34553927007,/g3t1_2,,success
Status,134,34754345777,/g3t1_2,,running
Status,135,34754424014,/g3t1_2,,success
Status,136,34954177585,/g3t1_2,,running
Status,137,34954467426,/g3t1_2,,success
Status,138,35153699984,/g3t1_2,,running
Status,139,35153805390,/g3t1_2,,success
Status,140,35353715243,/g3t1_2,,running
Status,141,35353904407,/g3t1_2,,success
Status,142,35455480057,/g3t1_4,,running
Status,143,35462879364,/g3t1_4,,success
Status,144,35538379190,/g4t1,,success
Status,145,35554735796,/g3t1_2,,running
Status,146,35555114889,/g3t1_2,,success
Status,147,35754711377,/g3t1_2,,running
Status,148,35755188995,/g3t1_2,,success
Status,149,35949726156,/g3t1_1,,running
Status,150,35950316538,/g3t1_1,,success
Status,151,35954532631,/g3t1_2,,running
Status,152,35955536470,/g3t1_2,,success
Status,153,36154484578,/g3t1_2,,running
Status,154,36154698275,/g3t1_2,,success
Status,155,36251304036,/g3t1_3,,running
Status,156,36251941929,/g3t1_3,,success
Status,158,36354635172,/g3t1_2,,running
Status,159,36354878116,/g3t1_2,,success
Status,160,36456006746,/g3t1_4,,running
Status,161,36463871418,/g3t1_4,,success
Status,162,36538578477,/g4t1,,success
Status,163,36555272501,/g3t1_2,,running
Status,164,36555685483,/g3t1_2,,success
Status,165,36756025000,/g3t1_2,,running
Status,166,36756120026,/g3t1_2,,success
Status,167,36955247396,/g3t1_2,,running
Status,168,36955423521,/g3t1_2,,success
Status,169,37155937504,/g3t1_2,,running
Status,170,37156449948,/g3t1_2,,success
Status,171,37356155643,/g3t1_2,,running
Status,172,37356619058,/g3t1_2,,success
Status,173,37456031642,/g3t1_4,,running
Status,174,37464146050,/g3t1_4,,success
Status,175,37538633115,/g4t1,,success
Status,176,37556364195,/g3t1_2,,running
Status,177,37556675679,/g3t1_2,,success
Status,178,37756661345,/g3t1_2,,running
Status,179,37757096894,/g3t1_2,,success
Status,180,37956575799,/g3t1_2,,running
Status,181,37956949736,/g3t1_2,,success
Status,182,38156648690,/g3t1_2,,running
Status,183,38157362962,/g3t1_2,,success
Status,184,38356958497,/g3t1_2,,running
Status,185,38357019227,/g3t1_2,,success
Status,186,38456107628,/g3t1_4,,running
Status,187,38463196531,/g3t1_4,,success
Status,188,38538884228,/g4t1,,success
Status,189,38556933998,/g3t1_2,,running
Status,190,38557337559,/g3t1_2,,success
Status,191,38757139431,/g3t1_2,,running
Status,192,38757641755,/g3t1_2,,success
Status,193,38957222787,/g3t1_2,,running
Status,194,38957825702,/g3t1_2,,success
Status,195,39156750230,/g3t1_2,,running
Status,196,39156783799,/g3t1_2,,success
Status,197,39357425728,/g3t1_2,,running
Status,198,39358146496,/g3t1_2,,success
Status,199,39456491834,/g3t1_4,,running
Status,200,39464065231,/g3t1_4,,success
Status,201,39538841408,/g4t1,,success
Status,202,39557568244,/g3t1_2,,running
Status,203,39557727675,/g3t1_2,,success
Status,204,39757966223,/g3t1_2,,running
Status,205,39758427408,/g3t1_2,,success
Status,206,39958101715,/g3t1_2,,running
Status,207,39958205998,/g3t1_2,,success
Status,208,40158183388,/g3t1_2,,running
Status,209,40158816606,/g3t1_2,,success
Status,210,40358416135,/g3t1_2,,running
Status,211,40358471284,/g3t1_2,,success
Status,212,40456334690,/g3t1_4,,running
Status,213,40464211225,/g3t1_4,,success
Status,214,40538971829,/g4t1,,success
Status,215,40558333279,/g3t1_2,,running
Status,216,40558743288,/g3t1_2,,success
Status,217,40758893822,/g3t1_2,,running
Status,218,40759081968,/g3t1_2,,success
Status,219,40949972927,/g3t1_1,,running
Status,220,40950643236,/g3t1_1,,success
Status,221,40958778837,/g3t1_2,,running
Status,222,40959233016,/g3t1_2,,success
Status,223,41158924600,/g3t1_2,,running
Status,224,41159712961,/g3t1_2,,success
Status,225,41359070930,/g3t1_2,,running
Status,226,41359848496,/g3t1_2,,success
Status,229,41456461688,/g3t1_4,,running
Status,230,41462750639,/g3t1_4,,success
Status,231,41539165731,/g4t1,,success
Status,232,41559037024,/g3t1_2,,running
Status,233,41560120229,/g3t1_2,,success
Status,234,41759269211,/g3t1_2,,running
Status,235,41759770615,/g3t1_2,,success
Status,236,41959266046,/g3t1_2,,running
Status,237,41959900805,/g3t1_2,,success
Status,238,42159619276,/g3t1_2,,running
Status,239,42160013784,/g3t1_2,,success
Status,240,42360022806,/g3t1_2,,running
Status,241,42360750249,/g3t1_2,,success
Status,242,42456733085,/g3t1_4,,running
Status,243,42464303318,/g3t1_4,,success
Status,244,42538988708,/g4t1,,success
Status,245,42560513199,/g3t1_2,,running
Status,246,42560599452,/g3t1_2,,success
Status,247,42760360668,/g3t1_2,,running
Status,248,42760881186,/g3t1_2,,success
Status,249,42960654204,/g3t1_2,,running
Status,250,42961530443,/g3t1_2,,success
Status,251,43160537006,/g3t1_2,,running
Status,252,43161222802,/g3t1_2,,success
Status,253,43360565713,/g3t1_2,,running
Status,254,43361228050,/g3t1_2,,success
Status,255,43456948390,/g3t1_4,,running
Status,256,43464235572,/g3t1_4,,success
Status,257,43539531341,/g4t1,,success
Status,258,43560658733,/g3t1_2,,running
Status,259,43561020380,/g3t1_2,,success
Status,260,43760630812,/g3t1_2,,running
Status,261,43761244211,/g3t1_2,,success
Status,262,43960712814,/g3t1_2,,running
Status,263,43961240815,/g3t1_2,,success
Status,264,44160922960,/g3t1_2,,running
Status,265,44161658227,/g3t1_2,,success
Status,266,44360566411,/g3t1_2,,running
Status,267,44360731978,/g3t1_2,,success
Status,268,44456361897,/g3t1_4,,running
Status,269,44458607097,/g3t1_4,,success
Status,270,44538751519,/g4t1,,success
Status,271,44560496352,/g3t1_2,,running
Status,272,44560635790,/g3t1_2,,success
Status,273,44760498648,/g3t1_2,,running
Status,274,44760615949,/g3t1_2,,success
Status,275,44960739198,/g3t1_2,,running
Status,276,44960913400,/g3t1_2,,success
Status,277,45161087306,/g3t1_2,,running
Status,278,45161575297,/g3t1_2,,success
Status,279,45361467416,/g3t1_2,,running
Status,280,45362181838,/g3t1_2,,success
Status,281,45456397403,/g3t1_4,,running
Status,282,45459330975,/g3t1_4,,success
Status,283,45538851793,/g4t1,,success
Status,284,45560982205,/g3t1_2,,running
Status,285,45561146193,/g3t1_2,,success
Status,286,45761045038,/g3t1_2,,running
Status,287,45761170906,/g3t1_2,,success
Status,288,45949440870,/g3t1_1,,running
Status,289,45949458911,/g3t1_1,,success
Status,290,45961079407,/g3t1_2,,running
Status,291,45961238603,/g3t1_2,,success
Status,292,46161215292,/g3t1_2,,running
Status,293,46161293479,/g3t1_2,,success
Status,294,46251237356,/g3t1_3,,running
Status,295,46251626345,/g3t1_3,,success
Status,296,46362210623,/g3t1_2,,running
Status,297,46362283864,/g3t1_2,,success
Status,299,46457316986,/g3t1_4,,running
Status,300,46465542021,/g3t1_4,,success
Status,301,46538950021,/g4t1,,success
Status,302,46561446830,/g3t1_2,,running
Status,303,46561651940,/g3t1_2,,success
Status,304,46762286085,/g3t1_2,,running
Status,305,46762949191,/g3t1_2,,success
Status,306,46962291652,/g3t1_2,,running
Status,307,46962890415,/g3t1_2,,success
Status,308,47162438007,/g3t1_2,,running
Status,309,47163071464,/g3t1_2,,success
Status,310,47362799854,/g3t1_2,,running
Status,311,47363232119,/g3t1_2,,success
Status,312,47457136963,/g3t1_4,,running
Status,313,47463633087,/g3t1_4,,success
Status,314,47539212991,/g4t1,,success
Status,315,47562904215,/g3t1_2,,running
Status,316,47563782174,/g3t1_2,,success
Status,317,47763120790,/g3t1_2,,running
Status,318,47763545872,/g3t1_2,,success
Status,319,47963123785,/g3t1_2,,running
Status,320,47963827550,/g3t1_2,,success
Status,321,48163291509,/g3t1_2,,running
Status,322,48163653450,/g3t1_2,,success
Status,323,48363788657,/g3t1_2,,running
Status,324,48364286707,/g3t1_2,,success
Status,325,48457592957,/g3t1_4,,running
Status,326,48465186301,/g3t1_4,,success
Status,327,48540401225,/g4t1,,success
Status,328,48563777612,/g3t1_2,,running
Status,329,48564167989,/g3t1_2,,success
Status,330,48763706906,/g3t1_2,,running
Status,331,48764083858,/g3t1_2,,success
Status,332,48963826979,/g3t1_2,,running
Status,333,48964246648,/g3t1_2,,success
Status,334,49163410825,/g3t1_2,,running
Status,335,49163592646,/g3t1_2,,success
Status,336,49364414410,/g3t1_2,,running
Status,337,49364990351,/g3t1_2,,success
Status,338,49457553266,/g3t1_4,,running
Status,339,49469195993,/g3t1_4,,success
Status,340,49539569827,/g4t1,,success
Status,341,49563651549,/g3t1_2,,running
Status,342,49563803753,/g3t1_2,,success
Status,343,49764483657,/g3t1_2,,running
Status,344,49765075373,/g3t1_2,,success
Status,345,49964627035,/g3t1_2,,running
Status,346,49964954645,/g3t1_2,,success
Status,347,50164646753,/g3t1_2,,running
Status,348,50165022114,/g3t1_2,,success
Status,349,50364770314,/g3t1_2,,running
Status,350,50365424278,/g3t1_2,,success
Status,351,50457676756,/g3t1_4,,running
Status,352,50465441972,/g3t1_4,,success
Status,353,50540647757,/g4t1,,success
Status,354,50565215560,/g3t1_2,,running
Status,355,50565741579,/g3t1_2,,success
Status,356,50765249863,/g3t1_2,,running
Status,357,50766042671,/g3t1_2,,success
Status,358,50950543466,/g3t1_1,,running
Status,359,50950875328,/g3t1_1,,success
Status,360,50965327315,/g3t1_2,,running
Status,361,50965745913,/g3t1_2,,success
Status,362,51165750910,/g3t1_2,,running
Status,363,51166512916,/g3t1_2,,success
Status,364,51366047043,/g3t1_2,,running
Status,365,51366102473,/g3t1_2,,success
Status,366,51457793942,/g3t1_4,,running
Status,367,51465323142,/g3t1_4,,success
Status,369,51540954462,/g4t1,,success
Status,370,51566007642,/g3t1_2,,running
Status,371,51566757317,/g3t1_2,,success
Status,372,51766422683,/g3t1_2,,running
Status,373,51766978723,/g3t1_2,,success
Status,374,51966623305,/g3t1_2,,running
Status,375,51967445643,/g3t1_2,,success
Status,376,52166545538,/g3t1_2,,running
Status,377,52167364801,/g3t1_2,,success
Status,378,52367000639,/g3t1_2,,running
Status,379,52367564260,/g3t1_2,,success
Status,380,52458153774,/g3t1_4,,running
Status,381,52466112228,/g3t1_4,,success
Status,382,52541271628,/g4t1,,success
Status,383,52566850928,/g3t1_2,,running
Status,384,52567505159,/g3t1_2,,success
Status,385,52767400227,/g3t1_2,,running
Status,386,52768210132,/g3t1_2,,success
Status,387,52967229910,/g3t1_2,,running
Status,388,52967531527,/g3t1_2,,success
Status,389,53167592328,/g3t1_2,,running
Status,390,53168159691,/g3t1_2,,success
Status,391,53367559487,/g3t1_2,,running
Status,392,53368009926,/g3t1_2,,success
Status,393,53458426453,/g3t1_4,,running
Status,394,53472156336,/g3t1_4,,success
Status,395,53541241049,/g4t1,,success
Status,396,53568062675,/g3t1_2,,running
Status,397,53568145939,/g3t1_2,,success
Status,398,53767976353,/g3t1_2,,running
Status,399,53768540588,/g3t1_2,,success
Status,400,53968290104,/g3t1_2,,running
Status,401,53968749644,/g3t1_2,,success
Status,402,54168076843,/g3t1_2,,running
Status,403,54168495765,/g3t1_2,,success
Status,404,54368377807,/g3t1_2,,running
Status,405,54369124503,/g3t1_2,,success
Status,406,54458537864,/g3t1_4,,running
Status,407,54468834298,/g3t1_4,,success
Status,408,54541340225,/g4t1,,success
Status,409,54568461590,/g3t1_2,,running
Status,410,54569108559,/g3t1_2,,success
Status,411,54768812867,/g3t1_2,,running
Status,412,54769132072,/g3t1_2,,success
Status,413,54968566444,/g3t1_2,,running
Status,414,54969464063,/g3t1_2,,success
Status,415,55168797605,/g3t1_2,,running
Status,416,55169584217,/g3t1_2,,success
Status,417,55369124354,/g3t1_2,,running
Status,418,55369538292,/g3t1_2,,success
Status,419,55458537901,/g3t1_4,,running
Status,420,55466334640,/g3t1_4,,success
Status,421,55541087907,/g4t1,,success
Status,422,55568315195,/g3t1_2,,running
Status,423,55568336132,/g3t1_2,,success
Status,424,55768664676,/g3t1_2,,running
Status,425,55769000045,/g3t1_2,,success
Status,426,55949921899,/g3t1_1,,running
Status,427,55950089433,/g3t1_1,,success
Status,428,55968569646,/g3t1_2,,running
Status,429,55968669609,/g3t1_2,,success
Status,430,56168667344,/g3t1_2,,running
Status,431,56168805633,/g3t1_2,,success
Status,432,56251055427,/g3t1_3,,running
Status,433,56251190968,/g3t1_3,,success
Status,434,56369165391,/g3t1_2,,running
Status,435,56369696289,/g3t1_2,,success
Status,436,56458511837,/g3t1_4,,running
Status,437,56465666301,/g3t1_4,,success
Status,438,56541215780,/g4t1,,success
Status,439,56569584463,/g3t1_2,,running
Status,440,56570392132,/g3t1_2,,success
Status,444,56769437666,/g3t1_2,,running
Status,445,56769947934,/g3t1_2,,success
Status,446,56969864246,/g3t1_2,,running
Status,447,56970405021,/g3t1_2,,success
Status,448,57170164896,/g3t1_2,,running
Status,449,57170822495,/g3t1_2,,success
Status,450,57370282618,/g3t1_2,,running
Status,451,57370552196,/g3t1_2,,success
Status,452,57458113525,/g3t1_4,,running
Status,453,57460831482,/g3t1_4,,success
Status,454,57541862379,/g4t1,,success
Status,455,57570246221,/g3t1_2,,running
Status,456,57570757331,/g3t1_2,,success
Status,457,57770703154,/g3t1_2,,running
Status,458,57771686881,/g3t1_2,,success
Status,459,57970826125,/g3t1_2,,running
Status,460,57971430644,/g3t1_2,,success
Status,461,58170706871,/g3t1_2,,running
Status,462,58171043743,/g3t1_2,,success
Status,463,58370765550,/g3t1_2,,running
Status,464,58371301454,/g3t1_2,,success
Status,465,58458246811,/g3t1_4,,running
Status,466,58461093277,/g3t1_4,,success
Status,467,58541279194,/g4t1,,success
Status,468,58570395305,/g3t1_2,,running
Status,469,58570668299,/g3t1_2,,success
Status,470,58770675229,/g3t1_2,,running
Status,471,58770867909,/g3t1_2,,success
Status,472,58970473739,/g3t1_2,,running
Status,473,58970492164,/g3t1_2,,success
Status,474,59171609640,/g3t1_2,,running
Status,475,59172444920,/g3t1_2,,success
Status,476,59371903201,/g3t1_2,,running
Status,477,59372680710,/g3t1_2,,success
Status,478,59459286030,/g3t1_4,,running
Status,479,59466827417,/g3t1_4,,success
Status,480,59541804003,/g4t1,,success
Status,481,59571495644,/g3t1_2,,running
Status,482,59571734036,/g3t1_2,,success
Status,483,59771974208,/g3t1_2,,running
Status,484,59772518258,/g3t1_2,,success
Status,485,59972160780,/g3t1_2,,running
Status,486,59972739738,/g3t1_2,,success
Status,487,60172176452,/g3t1_2,,running
Status,488,60172557906,/g3t1_2,,success
Status,489,60371699428,/g3t1_2,,running
Status,490,60371719445,/g3t1_2,,success
Status,491,60458585255,/g3t1_4,,running
Status,492,60461970422,/g3t1_4,,success
Status,493,60541840802,/g4t1,,success
Status,494,60572436060,/g3t1_2,,running
Status,495,60573214757,/g3t1_2,,success
Status,496,60772058604,/g3t1_2,,running
Status,497,60772507274,/g3t1_2,,success
Status,498,60950122654,/g3t1_1,,running
Status,499,60950421548,/g3t1_1,,success
Status,500,60972674688,/g3t1_2,,running
Status,501,60973248325,/g3t1_2,,success
Status,502,61172053672,/g3t1_2,,running
Status,503,61172200182,/g3t1_2,,success
Status,504,61372770557,/g3t1_2,,running
Status,505,61373445730,/g3t1_2,,success
Status,506,61459666094,/g3t1_4,,running
Status,507,61467283673,/g3t1_4,,success
Status,508,61542496441,/g4t1,,success
Status,509,61572898845,/g3t1_2,,running
Status,510,61573639612,/g3t1_2,,success
Status,512,61773002168,/g3t1_2,,running
Status,513,61773470417,/g3t1_2,,success
Status,514,61973307722,/g3t1_2,,running
Status,515,61973705165,/g3t1_2,,success
Status,516,62172651350,/g3t1_2,,running
Status,517,62172811106,/g3t1_2,,success
Status,518,62372684985,/g3t1_2,,running
Status,519,62372825376,/g3t1_2,,success
Status,520,62458844401,/g3t1_4,,running
Status,521,62461035704,/g3t1_4,,success
Status,522,62541752536,/g4t1,,success
Status,523,62573427726,/g3t1_2,,running
Status,524,62573719165,/g3t1_2,,success
Status,525,62772951656,/g3t1_2,,running
Status,526,62773071695,/g3t1_2,,success
Status,527,62973011448,/g3t1_2,,running
Status,528,62973044405,/g3t1_2,,success
Status,529,63173103236,/g3t1_2,,running
Status,530,63173205908,/g3t1_2,,success
Status,531,63374268094,/g3t1_2,,running
Status,532,63374388157,/g3t1_2,,success
Status,533,63458940208,/g3t1_4,,running
Status,534,63461393927,/g3t1_4,,success
Status,535,63542104334,/g4t1,,success
Status,536,63574183731,/g3t1_2,,running
Status,537,63574480897,/g3t1_2,,success
Status,538,63774418787,/g3t1_2,,running
Status,539,63774768473,/g3t1_2,,success
Status,540,63974463748,/g3t1_2,,running
Status,541,63974522923,/g3t1_2,,success
Status,542,64174542418,/g3t1_2,,running
Status,543,64174860176,/g3t1_2,,success
Status,544,64374875525,/g3t1_2,,running
Status,545,64375461381,/g3t1_2,,success
Status,546,64459767519,/g3t1_4,,running
Status,547,64467849451,/g3t1_4,,success
Status,548,64542844724,/g4t1,,success
Status,549,64574272267,/g3t1_2,,running
Status,550,64574563291,/g3t1_2,,success
Status,551,64775409294,/g3t1_2,,running
Status,552,64775493370,/g3t1_2,,success
Status,553,64975035636,/g3t1_2,,running
Status,554,64975935668,/g3t1_2,,success
Status,555,65175168067,/g3t1_2,,running
Status,556,65175750289,/g3t1_2,,success
Status,557,65375247998,/g3t1_2,,running
Status,558,65376088447,/g3t1_2,,success
Status,559,65460287947,/g3t1_4,,running
Status,560,65467645701,/g3t1_4,,success
Status,561,65543127824,/g4t1,,success
Status,562,65575521835,/g3t1_2,,running
Status,563,65575969563,/g3t1_2,,success
Status,564,65776081974,/g3t1_2,,running
Status,565,65776764005,/g3t1_2,,success
Status,566,65950811809,/g3t1_1,,running
Status,567,65951398464,/g3t1_1,,success
Status,568,65976039734,/g3t1_2,,running
Status,569,65976100042,/g3t1_2,,success
Status,570,66176162194,/g3t1_2,,running
Status,571,66176775705,/g3t1_2,,success
Status,572,66251744576,/g3t1_3,,running
Status,573,66252074939,/g3t1_3,,success
Status,574,66376564161,/g3t1_2,,running
Status,575,66376901052,/g3t1_2,,success
Status,576,66460084564,/g3t1_4,,running
Status,577,66467915203,/g3t1_4,,success
Status,578,66543001415,/g4t1,,success
Status,579,66576081275,/g3t1_2,,running
Status,580,66576331931,/g3t1_2,,success
Status,582,66776714645,/g3t1_2,,running
Status,583,66777027589,/g3t1_2,,success
Status,584,66976632473,/g3t1_2,,running
Status,585,66976901689,/g3t1_2,,success
Status,586,67176708162,/g3t1_2,,running
Status,587,67177327851,/g3t1_2,,success
Status,588,67377534775,/g3t1_2,,running
Status,589,67378060936,/g3t1_2,,success
Status,590,67460010198,/g3t1_4,,running
Status,591,67464465185,/g3t1_4,,success
Status,592,67542962277,/g4t1,,success
Status,593,67577135315,/g3t1_2,,running
Status,594,67577499370,/g3t1_2,,success
Status,595,67777378585,/g3t1_2,,running
Status,596,67777745081,/g3t1_2,,success
Status,597,67977466834,/g3t1_2,,running
Status,598,67977740367,/g3t1_2,,success
Status,599,68177574974,/g3t1_2,,running
Status,600,68177935671,/g3t1_2,,success
Status,601,68377652082,/g3t1_2,,running
Status,602,68378052264,/g3t1_2,,fail
Status,603,68460489907,/g3t1_4,,running
Status,604,68468246354,/g3t1_4,,success
Status,605,68543655107,/g4t1,,success
Status,606,68577740294,/g3t1_2,,running
Status,607,68578246529,/g3t1_2,,success
Status,608,68777954064,/g3t1_2,,running
Status,609,68778291208,/g3t1_2,,success
Status,610,68978211263,/g3t1_2,,running
Status,611,68979056818,/g3t1_2,,success
Status,612,69178007350,/g3t1_2,,running
Status,613,69178043947,/g3t1_2,,success
Status,614,69378337490,/g3t1_2,,running
Status,615,69378917690,/g3t1_2,,success
Status,616,69460603529,/g3t1_4,,running
Status,617,69468605528,/g3t1_4,,success
Status,618,69543632863,/g4t1,,success
Status,619,69577854106,/g3t1_2,,running
Status,620,69578245909,/g3t1_2,,success
Status,621,69778105239,/g3t1_2,,running
Status,622,69778304391,/g3t1_2,,success
Status,623,69978163941,/g3t1_2,,running
Status,624,69978422086,/g3t1_2,,success
Status,625,70178657066,/g3t1_2,,running
Status,626,70179039881,/g3t1_2,,success
Status,627,70378832108,/g3t1_2,,running
Status,628,70379421099,/g3t1_2,,success
Status,629,70460901669,/g3t1_4,,running
Status,630,70469512293,/g3t1_4,,success
Status,631,70543060228,/g4t1,,success
Status,632,70578450047,/g3t1_2,,running
Status,633,70578601415,/g3t1_2,,success
Status,634,70779102158,/g3t1_2,,running
Status,635,70779580569,/g3t1_2,,success
Status,636,70950252506,/g3t1_1,,running
Status,637,70950359327,/g3t1_1,,success
Status,638,70978726643,/g3t1_2,,running
Status,639,70979121271,/g3t1_2,,success
Status,640,71179075811,/g3t1_2,,running
Status,641,71179240890,/g3t1_2,,success
Status,642,71380062772,/g3t1_2,,running
Status,643,71380836099,/g3t1_2,,success
Status,644,71460724547,/g3t1_4,,running
Status,645,71473560345,/g3t1_4,,success
Status,646,71543564515,/g4t1,,success
Status,647,71579937730,/g3t1_2,,running
Status,648,71580745088,/g3t1_2,,success
Status,651,71780161541,/g3t1_2,,running
Status,652,71780521219,/g3t1_2,,success
Status,653,71979485972,/g3t1_2,,running
Status,654,71979666633,/g3t1_2,,success
Status,655,72179599507,/g3t1_2,,running
Status,656,72179761964,/g3t1_2,,success
Status,657,72379694679,/g3t1_2,,running
Status,658,72379719564,/g3t1_2,,success
Status,659,72460358113,/g3t1_4,,running
Status,660,72463025108,/g3t1_4,,success
Status,661,72543417941,/g4t1,,success
Status,662,72579727195,/g3t1_2,,running
Status,663,72579884508,/g3t1_2,,success
Status,664,72779824705,/g3t1_2,,running
Status,665,72779917871,/g3t1_2,,success
Status,666,72979935949,/g3t1_2,,running
Status,667,72980119754,/g3t1_2,,success
Status,668,73180640049,/g3t1_2,,running
Status,669,73181054328,/g3t1_2,,success
Status,670,73380455956,/g3t1_2,,running
Status,671,73380913717,/g3t1_2,,success
Status,672,73460387189,/g3t1_4,,running
Status,673,73463009519,/g3t1_4,,success
Status,674,73543667488,/g4t1,,success
Status,675,73580674302,/g3t1_2,,running
Status,676,73581033394,/g3t1_2,,success
Status,677,73781345574,/g3t1_2,,running
Status,678,73781527913,/g3t1_2,,success
Status,679,73981154584,/g3t1_2,,running
Status,680,73981483868,/g3t1_2,,success
Status,681,74181281858,/g3t1_2,,running
Status,682,74181739499,/g3t1_2,,success
Status,683,74381465421,/g3t1_2,,running
Status,684,74381890751,/g3t1_2,,success
Status,685,74461478706,/g3t1_4,,running
Status,686,74472580732,/g3t1_4,,success
Status,687,74543683492,/g4t1,,success
Status,688,74581538815,/g3t1_2,,running
Status,689,74581591762,/g3t1_2,,success
Status,690,74781176382,/g3t1_2,,running
Status,691,74781489138,/g3t1_2,,success
Status,692,74981117590,/g3t1_2,,running
Status,693,74981223378,/g3t1_2,,success
Status,694,75181280627,/g3t1_2,,running
Status,695,75181645509,/g3t1_2,,success
Status,696,75382031356,/g3t1_2,,running
Status,697,75382537511,/g3t1_2,,success
Status,698,75461306797,/g3t1_4,,running
Status,699,75468924041,/g3t1_4,,success
Status,700,75543862611,/g4t1,,success
Status,701,75581465737,/g3t1_2,,running
Status,702,75581564162,/g3t1_2,,success
Status,703,75782496264,/g3t1_2,,running
Status,704,75782778966,/g3t1_2,,success
Status,705,75950532702,/g3t1_1,,running
Status,706,75950689679,/g3t1_1,,success
Status,707,75982365229,/g3t1_2,,running
Status,708,75982736485,/g3t1_2,,success
Status,709,76181810357,/g3t1_2,,running
Status,710,76181849059,/g3t1_2,,success
Status,711,76251350335,/g3t1_3,,running
Status,712,76251377030,/g3t1_3,,success
Status,713,76382771959,/g3t1_2,,running
Status,714,76383843107,/g3t1_2,,success
Status,715,76461426525,/g3t1_4,,running
Status,716,76469218826,/g3t1_4,,success
Status,717,76543850493,/g4t1,,success
Status,718,76582146379,/g3t1_2,,running
Status,719,76582376629,/g3t1_2,,success
Status,720,76782954231,/g3t1_2,,running
Status,721,76783595472,/g3t1_2,,success
Status,723,76982395745,/g3t1_2,,running
Status,724,76982479314,/g3t1_2,,success
Status,725,77183404996,/g3t1_2,,running
Status,726,77184139081,/g3t1_2,,success
Status,727,77383371404,/g3t1_2,,running
Status,728,77383719992,/g3t1_2,,success
Status,729,77460927223,/g3t1_4,,running
Status,730,77463475827,/g3t1_4,,success
Status,731,77544911075,/g4t1,,success
Status,732,77582991138,/g3t1_2,,running
Status,733,77583015822,/g3t1_2,,success
Status,734,77784222097,/g3t1_2,,running
Status,735,77785292843,/g3t1_2,,success
Status,736,77983970566,/g3t1_2,,running
Status,737,77984262885,/g3t1_2,,success
Status,738,78184295468,/g3t1_2,,running
Status,739,78184637919,/g3t1_2,,success
Status,740,78384847481,/g3t1_2,,running
Status,741,78385278115,/g3t1_2,,success
Status,742,78461605931,/g3t1_4,,running
Status,743,78469281495,/g3t1_4,,success
Status,744,78544878179,/g4t1,,success
Status,745,78584649968,/g3t1_2,,running
Status,746,78585109614,/g3t1_2,,success
Status,747,78785033508,/g3t1_2,,running
Status,748,78785359241,/g3t1_2,,success
Status,749,78984891120,/g3t1_2,,running
Status,750,78985375341,/g3t1_2,,success
Status,751,79185245106,/g3t1_2,,running
Status,752,79185783833,/g3t1_2,,success
Status,753,79385089919,/g3t1_2,,running
Status,754,79385318733,/g3t1_2,,success
Status,755,79461908890,/g3t1_4,,running
Status,756,79469842395,/g3t1_4,,success
Status,757,79545009980,/g4t1,,success
Status,758,79585400922,/g3t1_2,,running
Status,759,79585973666,/g3t1_2,,success
Status,760,79785404341,/g3t1_2,,running
Status,761,79786143885,/g3t1_2,,success
Status,762,79985493920,/g3t1_2,,running
Status,763,79986778710,/g3t1_2,,success
Status,764,80185581589,/g3t1_2,,running
Status,765,80185952652,/g3t1_2,,success
Status,766,80385645888,/g3t1_2,,running
Status,767,80385934373,/g3t1_2,,success
Status,768,80461958720,/g3t1_4,,running
Status,769,80469708728,/g3t1_4,,success
Status,770,80544443581,/g4t1,,success
Status,771,80585834957,/g3t1_2,,running
Status,772,80587175867,/g3t1_2,,success
Status,773,80786045782,/g3t1_2,,running
Status,774,80786413705,/g3t1_2,,success
Status,775,80950555986,/g3t1_1,,running
Status,776,80950760005,/g3t1_1,,success
Status,777,80985557691,/g3t1_2,,running
Status,778,80985690728,/g3t1_2,,success
Status,779,81186515348,/g3t1_2,,running
Status,780,81186987160,/g3t1_2,,success
Status,781,81385859090,/g3t1_2,,running
Status,782,81386043518,/g3t1_2,,success
Status,783,81462323529,/g3t1_4,,fail
Status,784,81544569404,/g4t1,,success
Status,785,81586545097,/g3t1_2,,running
Status,786,81587209367,/g3t1_2,,success
Status,787,81786907665,/g3t1_2,,running
Status,788,81787398475,/g3t1_2,,success
Status,790,81987069697,/g3t1_2,,running
Status,791,81987705671,/g3t1_2,,success
Status,792,82187446893,/g3t1_2,,running
Status,793,82188150745,/g3t1_2,,success
Status,794,82387667889,/g3t1_2,,running
Status,795,82388372778,/g3t1_2,,success
Status,796,82462557175,/g3t1_4,,fail
Status,797,82545391613,/g4t1,,success
Status,798,82587812256,/g3t1_2,,running
Status,799,82588675568,/g3t1_2,,success
Status,800,82788088317,/g3t1_2,,running
Status,801,82788693819,/g3t1_2,,success
Status,802,82987213879,/g3t1_2,,running
Status,803,82987234097,/g3t1_2,,success
Status,804,83187284866,/g3t1_2,,running
Status,805,83187323929,/g3t1_2,,success
Status,806,83388233190,/g3t1_2,,running
Status,807,83388659352,/g3t1_2,,success
Status,808,83462088654,/g3t1_4,,fail
Status,809,83545548468,/g4t1,,success
Status,810,83588285445,/g3t1_2,,running
Status,811,83588980153,/g3t1_2,,success
Status,812,83788627733,/g3t1_2,,running
Status,813,83789145336,/g3t1_2,,success
Status,814,83988565946,/g3t1_2,,running
Status,815,83988808740,/g3t1_2,,success
Status,816,84188821219,/g3t1_2,,running
Status,817,84189284485,/g3t1_2,,success
Status,818,84389338547,/g3t1_2,,running
Status,819,84389413806,/g3t1_2,,success
Status,820,84462615605,/g3t1_4,,fail
Status,821,84545936297,/g4t1,,success
Status,822,84588922614,/g3t1_2,,running
Status,823,84589467258,/g3t1_2,,success
Status,824,84789288208,/g3t1_2,,running
Status,825,84789662650,/g3t1_2,,success
Status,826,84989513970,/g3t1_2,,running
Status,827,84989861222,/g3t1_2,,success
Status,828,85189462773,/g3t1_2,,running
Status,829,85190261403,/g3t1_2,,success
Status,830,85389639215,/g3t1_2,,running
Status,831,85390178146,/g3t1_2,,success
Status,832,85462246803,/g3t1_4,,fail
Status,833,85545791849,/g4t1,,success
Status,834,85589495149,/g3t1_2,,running
Status,835,85589942091,/g3t1_2,,success
Status,836,85789744689,/g3t1_2,,running
Status,837,85790098750,/g3t1_2,,success
Status,838,85951179537,/g3t1_1,,running
Status,839,85951623736,/g3t1_1,,success
Status,840,85989788915,/g3t1_2,,running
Status,841,85990238585,/g3t1_2,,success
Status,842,86189900243,/g3t1_2,,running
Status,843,86190471125,/g3t1_2,,success
Status,844,86251893779,/g3t1_3,,running
Status,845,86252437338,/g3t1_3,,success
Status,846,86390425598,/g3t1_2,,running
Status,847,86391305049,/g3t1_2,,success
Status,848,86462938357,/g3t1_4,,fail
Status,849,86546086126,/g4t1,,success
Status,850,86590342300,/g3t1_2,,running
Status,851,86591081925,/g3t1_2,,success
Status,852,86790867450,/g3t1_2,,running
Status,853,86791262192,/g3t1_2,,success
Status,858,86990602057,/g3t1_2,,running
Status,859,86991208422,/g3t1_2,,success
Status,860,87191111698,/g3t1_2,,running
Status,861,87191428709,/g3t1_2,,success
Status,862,87391101837,/g3t1_2,,running
Status,863,87391368001,/g3t1_2,,success
Status,864,87462886716,/g3t1_4,,fail
Status,865,87545956306,/g4t1,,success
Status,866,87591141239,/g3t1_2,,running
Status,867,87591959616,/g3t1_2,,success
Status,868,87791782736,/g3t1_2,,running
Status,869,87792438632,/g3t1_2,,success
Status,870,87991971416,/g3t1_2,,running
Status,871,87992273404,/g3t1_2,,success
Status,872,88192244817,/g3t1_2,,running
Status,873,88192875249,/g3t1_2,,success
Status,874,88392635573,/g3t1_2,,running
Status,875,88393363249,/g3t1_2,,success
Status,876,88463481028,/g3t1_4,,fail
Status,877,88546351556,/g4t1,,success
Status,878,88592362847,/g3t1_2,,running
Status,879,88592965835,/g3t1_2,,success
Status,880,88792462874,/g3t1_2,,running
Status,881,88793036503,/g3t1_2,,success
Status,882,88992865172,/g3t1_2,,running
Status,883,88992928875,/g3t1_2,,success
Status,884,89192760477,/g3t1_2,,running
Status,885,89192817713,/g3t1_2,,fail
Status,886,89392096739,/g3t1_2,,running
Status,887,89392207389,/g3t1_2,,success
Status,888,89462966850,/g3t1_4,,fail
Status,889,89546504721,/g4t1,,success
Status,890,89593206897,/g3t1_2,,running
Status,891,89593274072,/g3t1_2,,success
Status,892,89793666533,/g3t1_2,,running
Status,893,89793996517,/g3t1_2,,success
Status,894,89993374822,/g3t1_2,,running
Status,895,89993789599,/g3t1_2,,success
Status,896,90193475966,/g3t1_2,,running
Status,897,90193764134,/g3t1_2,,success
Status,898,90393576174,/g3t1_2,,running
Status,899,90394386869,/g3t1_2,,success
Status,900,90463597507,/g3t1_4,,fail
Status,901,90546049151,/g4t1,,success
Status,902,90593033657,/g3t1_2,,running
Status,903,90593224811,/g3t1_2,,success
Status,904,90794020476,/g3t1_2,,running
Status,905,90794718472,/g3t1_2,,success
Status,906,90951272129,/g3t1_1,,running
Status,907,90952233281,/g3t1_1,,success
Status,908,90993994138,/g3t1_2,,running
Status,909,90994597922,/g3t1_2,,success
Status,910,91194679157,/g3t1_2,,running
Status,911,91195235547,/g3t1_2,,success
Status,912,91394529733,/g3t1_2,,running
Status,913,91395122490,/g3t1_2,,success
Status,914,91463886179,/g3t1_4,,fail
Status,915,91546699917,/g4t1,,success
Status,916,91594533398,/g3t1_2,,running
Status,917,91594805791,/g3t1_2,,success
Status,918,91794944436,/g3t1_2,,running
Status,919,91795897008,/g3t1_2,,success
Status,920,91995223793,/g3t1_2,,running
Status,921,91995705666,/g3t1_2,,success
Status,923,92195107969,/g3t1_2,,running
Status,924,92195727324,/g3t1_2,,success
Status,925,92395748333,/g3t1_2,,running
Status,926,92396405990,/g3t1_2,,success
Status,927,92464261941,/g3t1_4,,fail
Status,928,92546744244,/g4t1,,success
Status,929,92595502301,/g3t1_2,,running
Status,930,92596013862,/g3t1_2,,success
Status,931,92795988425,/g3t1_2,,running
Status,932,92796472150,/g3t1_2,,success
Status,933,92996070193,/g3t1_2,,running
Status,934,92996579323,/g3t1_2,,success
Status,935,93196393571,/g3t1_2,,running
Status,936,93197164485,/g3t1_2,,success
Status,937,93396757664,/g3t1_2,,running
Status,938,93396867505,/g3t1_2,,success
Status,939,93463712102,/g3t1_4,,fail
Status,940,93547450025,/g4t1,,success
Status,941,93596657970,/g3t1_2,,running
Status,942,93596947455,/g3t1_2,,success
Status,943,93796689926,/g3t1_2,,running
Status,944,93797180818,/g3t1_2,,success
Status,945,93997093591,/g3t1_2,,running
Status,946,93997639984,/g3t1_2,,success
Status,947,94196986702,/g3t1_2,,running
Status,948,94197929274,/g3t1_2,,success
Status,949,94397315245,/g3t1_2,,running
Status,950,94397404748,/g3t1_2,,success
Status,951,94463747323,/g3t1_4,,fail
Status,952,94547288210,/g4t1,,success
Status,953,94597141949,/g3t1_2,,running
Status,954,94597526654,/g3t1_2,,success
Status,955,94797363250,/g3t1_2,,running
Status,956,94798142237,/g3t1_2,,success
Status,957,94997382880,/g3t1_2,,running
Status,958,94997808561,/g3t1_2,,success
Status,959,95197684963,/g3t1_2,,running
Status,960,95198117261,/g3t1_2,,success
Status,961,95398168467,/g3t1_2,,running
Status,962,95398647673,/g3t1_2,,success
Status,963,95464433072,/g3t1_4,,fail
Status,964,95546871576,/g4t1,,success
Status,965,95597974101,/g3t1_2,,running
Status,966,95598731372,/g3t1_2,,success
Status,967,95798014296,/g3t1_2,,running
Status,968,95798285005,/g3t1_2,,success
Status,969,95951912175,/g3t1_1,,running
Status,970,95952609414,/g3t1_1,,success
Status,971,95998348271,/g3t1_2,,running
Status,972,95998625359,/g3t1_2,,success
Status,973,96197794711,/g3t1_2,,running
Status,974,96197960306,/g3t1_2,,success
Status,975,96252222775,/g3t1_3,,running
Status,976,96252895599,/g3t1_3,,success
Status,977,96398668575,/g3t1_2,,running
Status,978,96399196858,/g3t1_2,,success
Status,979,96464623023,/g3t1_4,,fail
Status,980,96547786677,/g4t1,,success
Status,981,96598716974,/g3t1_2,,running
Status,982,96599414023,/g3t1_2,,success
Status,983,96798784513,/g3t1_2,,running
Status,984,96799469567,/g3t1_2,,success
Status,985,96998449886,/g3t1_2,,running
Status,986,96998473751,/g3t1_2,,success
Status,988,97199432356,/g3t1_2,,running
Status,989,97199870585,/g3t1_2,,success
Status,990,97399587076,/g3t1_2,,running
Status,991,97400330297,/g3t1_2,,success
Status,992,97464726668,/g3t1_4,,fail
Status,993,97548090975,/g4t1,,success
Status,994,97599294794,/g3t1_2,,running
Status,995,97600153652,/g3t1_2,,success
Status,996,97799701404,/g3t1_2,,running
Status,997,97800667738,/g3t1_2,,success
Status,998,98000039798,/g3t1_2,,running
Status,999,98000315648,/g3t1_2,,success
Status,1000,98200405429,/g3t1_2,,running
Status,1001,98200830406,/g3t1_2,,success
Status,1002,98400586175,/g3t1_2,,running
Status,1003,98400646841,/g3t1_2,,success
Status,1004,98464767461,/g3t1_4,,fail
Status,1005,98548304864,/g4t1,,success
Status,1006,98600353830,/g3t1_2,,running
Status,1007,98600827069,/g3t1_2,,success
Status,1008,98800590018,/g3t1_2,,running
Status,1009,98800888202,/g3t1_2,,success
Status,1010,99000781227,/g3t1_2,,running
Status,1011,99001341287,/g3t1_2,,success
Status,1012,99200942561,/g3t1_2,,fail
Status,1013,99400909172,/g3t1_2,,fail
Status,1014,99465075412,/g3t1_4,,running
Status,1015,99472500003,/g3t1_4,,success
Status,1016,99547894685,/g4t1,,success
Status,1017,99600913593,/g3t1_2,,fail
Status,1018,99801139290,/g3t1_2,,fail
Status,1019,100001567022,/g3t1_2,,fail
Status,1020,100201594820,/g3t1_2,,fail
Status,1021,100401687987,/g3t1_2,,fail
Status,1022,100465047464,/g3t1_4,,running
Status,1023,100472564595,/g3t1_4,,success
Status,1024,100548517949,/g4t1,,success
Status,1025,100601881519,/g3t1_2,,fail
Status,1026,100802026367,/g3t1_2,,fail
Status,1027,100951933803,/g3t1_1,,running
Status,1028,100952763337,/g3t1_1,,success
Status,1029,101002043192,/g3t1_2,,fail
Status,1030,101201801786,/g3t1_2,,fail
Status,1031,101402625528,/g3t1_2,,fail
Status,1032,101465374661,/g3t1_4,,running
Status,1033,101473064644,/g3t1_4,,success
Status,1034,101548717070,/g4t1,,success
Status,1035,101602551545,/g3t1_2,,fail
Status,1036,101802717384,/g3t1_2,,fail
Status,1037,102002889669,/g3t1_2,,fail
Status,1038,102203299922,/g3t1_2,,fail
Status,1041,102403427616,/g3t1_2,,fail
Status,1042,102465289699,/g3t1_4,,running
Status,1043,102472801241,/g3t1_4,,success
Status,1044,102548425718,/g4t1,,success
Status,1045,102603420994,/g3t1_2,,fail
Status,1046,102803693269,/g3t1_2,,fail
Status,1047,103004165910,/g3t1_2,,fail
Status,1048,103204105722,/g3t1_2,,fail
Status,1049,103404512848,/g3t1_2,,fail
Status,1050,103465584190,/g3t1_4,,running
Status,1051,103473447690,/g3t1_4,,success
Status,1052,103548222578,/g4t1,,success
Status,1053,103603839765,/g3t1_2,,fail
Status,1054,103805113633,/g3t1_2,,fail
Status,1055,104004660038,/g3t1_2,,fail
Status,1056,104204780302,/g3t1_2,,fail
Status,1057,104404873162,/g3t1_2,,fail
Status,1058,104465398305,/g3t1_4,,running
Status,1059,104480975888,/g3t1_4,,success
Status,1060,104548839744,/g4t1,,success
Status,1061,104604951595,/g3t1_2,,fail
Status,1062,104805246312,/g3t1_2,,fail
Status,1063,105005391164,/g3t1_2,,fail
Status,1064,105205437504,/g3t1_2,,fail
Status,1065,105405813638,/g3t1_2,,fail
Status,1066,105465831503,/g3t1_4,,running
Status,1067,105476444389,/g3t1_4,,success
Status,1068,105548878943,/g4t1,,success
Status,1069,105605945060,/g3t1_2,,fail
Status,1070,105805969676,/g3t1_2,,fail
Status,1071,105951948694,/g3t1_1,,running
Status,1072,105952619461,/g3t1_1,,success
Status,1073,106005888050,/g3t1_2,,fail
Status,1074,106206537485,/g3t1_2,,fail
Status,1075,106252357742,/g3t1_3,,running
Status,1076,106252687099,/g3t1_3,,fail
Status,1077,106406547008,/g3t1_2,,fail
Status,1078,106465782338,/g3t1_4,,running
Status,1079,106475658828,/g3t1_4,,success
Status,1080,106549140042,/g4t1,,success
Status,1081,106606546206,/g3t1_2,,fail
Status,1082,106806980662,/g3t1_2,,fail
Status,1083,107007005625,/g3t1_2,,fail
Status,1084,107207224426,/g3t1_2,,fail
Status,1086,107407797531,/g3t1_2,,fail
Status,1087,107466195545,/g3t1_4,,running
Status,1088,107474207849,/g3t1_4,,success
Status,1089,107549238397,/g4t1,,success
Status,1090,107607616428,/g3t1_2,,fail
Status,1091,107808121846,/g3t1_2,,fail
Status,1092,108008218240,/g3t1_2,,fail
Status,1093,108208419303,/g3t1_2,,fail
Status,1094,108408752438,/g3t1_2,,fail
Status,1095,108466074962,/g3t1_4,,running
Status,1096,108474070471,/g3t1_4,,success
Status,1097,108549346581,/g4t1,,success
Status,1098,108608497504,/g3t1_2,,fail
Status,1099,108808862168,/g3t1_2,,fail
Status,1100,109008774412,/g3t1_2,,fail
Status,1101,109208778467,/g3t1_2,,fail
Status,1102,109408947108,/g3t1_2,,fail
Status,1103,109466537448,/g3t1_4,,running
Status,1104,109474411112,/g3t1_4,,success
Status,1105,109549524209,/g4t1,,success
Status,1106,109609127041,/g3t1_2,,fail
Status,1107,109809143074,/g3t1_2,,fail
Status,1108,110009619923,/g3t1_2,,fail
Status,1109,110209922365,/g3t1_2,,fail
Status,1110,110410041134,/g3t1_2,,fail
Status,1111,110466573877,/g3t1_4,,running
Status,1112,110476046370,/g3t1_4,,success
Status,1113,110549682887,/g4t1,,success
Status,1114,110610074155,/g3t1_2,,fail
Status,1115,110810170588,/g3t1_2,,fail
Status,1116,110951893610,/g3t1_1,,running
Status,1117,110952498237,/g3t1_1,,success
Status,1118,111010521279,/g3t1_2,,fail
Status,1119,111210336789,/g3t1_2,,fail
Status,1120,111410612634,/g3t1_2,,fail
Status,1121,111466508457,/g3t1_4,,running
Status,1122,111475638937,/g3t1_4,,success
Status,1123,111549744865,/g4t1,,success
Status,1124,111610658621,/g3t1_2,,fail
Status,1125,111810866110,/g3t1_2,,fail
Status,1126,112011118852,/g3t1_2,,fail
Status,1127,112211364098,/g3t1_2,,fail
Status,1129,112411421969,/g3t1_2,,fail
Status,1130,112466818797,/g3t1_4,,running
Status,1131,112474590182,/g3t1_4,,success
Status,1132,112550455055,/g4t1,,success
Status,1133,112611520568,/g3t1_2,,fail
Status,1134,112812053278,/g3t1_2,,fail
Status,1135,113011910473,/g3t1_2,,fail
Status,1136,113212408541,/g3t1_2,,fail
Status,1137,113412261072,/g3t1_2,,fail
Status,1138,113466966490,/g3t1_4,,running
Status,1139,113474933905,/g3t1_4,,success
Status,1140,113550256011,/g4t1,,success
Status,1141,113612553221,/g3t1_2,,fail
Status,1142,113812898913,/g3t1_2,,fail
Status,1143,114012933893,/g3t1_2,,fail
Status,1144,114213245693,/g3t1_2,,fail
Status,1145,114413415727,/g3t1_2,,fail
Status,1146,114467305872,/g3t1_4,,running
Status,1147,114546046095,/g3t1_4,,success
Status,1148,114550115245,/g4t1,,success
Status,1149,114613426498,/g3t1_2,,fail
Status,1150,114813597215,/g3t1_2,,fail
Status,1151,115013986987,/g3t1_2,,fail
Status,1152,115213986091,/g3t1_2,,fail
Status,1153,115414397437,/g3t1_2,,fail
Status,1154,115467185489,/g3t1_4,,running
Status,1155,115474935898,/g3t1_4,,success
Status,1156,115550385515,/g4t1,,success
Status,1157,115614299909,/g3t1_2,,fail
Status,1158,115814731697,/g3t1_2,,fail
Status,1159,115952116182,/g3t1_1,,running
Status,1160,115952708744,/g3t1_1,,success
Status,1161,116014571145,/g3t1_2,,fail
Status,1162,116214596798,/g3t1_2,,fail
Status,1163,116252524301,/g3t1_3,,running
Status,1164,116252962279,/g3t1_3,,success
Status,1165,116415095514,/g3t1_2,,fail
Status,1166,116467505055,/g3t1_4,,running
Status,1167,116475386333,/g3t1_4,,success
Status,1168,116550659816,/g4t1,,success
Status,1169,116615081893,/g3t1_2,,fail
Status,1170,116815611171,/g3t1_2,,fail
Status,1171,117015864520,/g3t1_2,,running
Status,1172,117016367664,/g3t1_2,,success
Status,1173,117215912107,/g3t1_2,,running
Status,1174,117216605370,/g3t1_2,,success
Status,1175,117416173365,/g3t1_2,,running
Status,1176,117417017951,/g3t1_2,,success
Status,1180,117467526084,/g3t1_4,,running
Status,1181,117475442867,/g3t1_4,,success
Status,1182,117550722371,/g4t1,,success
Status,1183,117616301028,/g3t1_2,,running
Status,1184,117616604585,/g3t1_2,,success
Status,1185,117816253526,/g3t1_2,,running
Status,1186,117817012168,/g3t1_2,,success
Status,1187,118016596937,/g3t1_2,,running
Status,1188,118017191908,/g3t1_2,,success
Status,1189,118216829273,/g3t1_2,,running
Status,1190,118217282126,/g3t1_2,,success
Status,1191,118417070188,/g3t1_2,,running
Status,1192,118417917788,/g3t1_2,,success
Status,1193,118467630992,/g3t1_4,,running
Status,1194,118475945112,/g3t1_4,,success
Status,1195,118550958818,/g4t1,,success
Status,1196,118616946829,/g3t1_2,,running
Status,1197,118617682864,/g3t1_2,,success
Status,1198,118817436494,/g3t1_2,,running
Status,1199,118818073811,/g3t1_2,,success
Status,1200,119017291639,/g3t1_2,,running
Status,1201,119018005968,/g3t1_2,,success
Status,1202,119218031759,/g3t1_2,,running
Status,1203,119218490297,/g3t1_2,,success
Status,1204,119417216248,/g3t1_2,,running
Status,1205,119417480692,/g3t1_2,,success
Status,1206,119467592066,/g3t1_4,,running
Status,1207,119472388652,/g3t1_4,,success
Status,1208,119550838947,/g4t1,,success
Status,1209,119617801945,/g3t1_2,,running
Status,1210,119618501094,/g3t1_2,,success
Status,1211,119818548797,/g3t1_2,,running
Status,1212,119818912924,/g3t1_2,,success
Status,1213,120018132898,/g3t1_2,,running
Status,1214,120018642733,/g3t1_2,,success
Status,1215,120218598371,/g3t1_2,,running
Status,1216,120219532383,/g3t1_2,,success
Status,1217,120418991996,/g3t1_2,,running
Status,1218,120419519283,/g3t1_2,,success
Status,1219,120468012521,/g3t1_4,,running
Status,1220,120476127913,/g3t1_4,,success
Status,1221,120551522624,/g4t1,,success
Status,1222,120618770971,/g3t1_2,,running
Status,1223,120619472449,/g3t1_2,,success
Status,1224,120819272977,/g3t1_2,,running
Status,1225,120820266622,/g3t1_2,,success
Status,1226,120952352767,/g3t1_1,,running
Status,1227,120952420432,/g3t1_1,,success
Status,1228,121019306261,/g3t1_2,,running
Status,1229,121019696408,/g3t1_2,,success
Status,1230,121218830353,/g3t1_2,,running
Status,1231,121218976336,/g3t1_2,,success
Status,1232,121420172768,/g3t1_2,,running
Status,1233,121420630163,/g3t1_2,,success
Status,1234,121467610146,/g3t1_4,,running
Status,1235,121472334120,/g3t1_4,,success
Status,1236,121551632502,/g4t1,,success
Status,1237,121620245315,/g3t1_2,,running
Status,1238,121620493316,/g3t1_2,,success
Status,1239,121819448064,/g3t1_2,,running
Status,1240,121819466765,/g3t1_2,,success
Status,1241,122019603738,/g3t1_2,,running
Status,1242,122019628625,/g3t1_2,,success
Status,1243,122220589606,/g3t1_2,,running
Status,1244,122221418708,/g3t1_2,,success
Status,1245,122420744902,/g3t1_2,,running
Status,1246,122421410458,/g3t1_2,,success
Status,1247,122468163359,/g3t1_4,,running
Status,1248,122476446137,/g3t1_4,,success
Status,1250,122551657934,/g4t1,,success
Status,1251,122620990254,/g3t1_2,,running
Status,1252,122621396996,/g3t1_2,,success
Status,1253,122821046345,/g3t1_2,,running
Status,1254,122822000910,/g3t1_2,,success
Status,1255,123021173223,/g3t1_2,,running
Status,1256,123021686524,/g3t1_2,,success
Status,1257,123221479495,/g3t1_2,,running
Status,1258,123222016450,/g3t1_2,,success
Status,1259,123421705225,/g3t1_2,,running
Status,1260,123422020332,/g3t1_2,,success
Status,1261,123468477612,/g3t1_4,,running
Status,1262,123481159384,/g3t1_4,,success
Status,1263,123551877318,/g4t1,,success
Status,1264,123621884534,/g3t1_2,,running
Status,1265,123621959294,/g3t1_2,,success
Status,1266,123822280538,/g3t1_2,,running
Status,1267,123822469699,/g3t1_2,,success
Status,1268,124022204547,/g3t1_2,,running
Status,1269,124022877764,/g3t1_2,,success
Status,1270,124222244937,/g3t1_2,,running
Status,1271,124222706933,/g3t1_2,,success
Status,1272,124422238961,/g3t1_2,,running
Status,1273,124422633452,/g3t1_2,,success
Status,1274,124468378142,/g3t1_4,,running
Status,1275,124479018760,/g3t1_4,,success
Status,1276,124551911114,/g4t1,,success
Status,1277,124622392418,/g3t1_2,,running
Status,1278,124622903108,/g3t1_2,,success
Status,1279,124822592726,/g3t1_2,,running
Status,1280,124822901170,/g3t1_2,,success
Status,1281,125023021725,/g3t1_2,,running
Status,1282,125023563168,/g3t1_2,,success
Status,1283,125223042317,/g3t1_2,,running
Status,1284,125223492799,/g3t1_2,,success
Status,1285,125423533249,/g3t1_2,,running
Status,1286,125423614069,/g3t1_2,,success
Status,1287,125468457230,/g3t1_4,,running
Status,1288,125477029612,/g3t1_4,,success
Status,1289,125552165218,/g4t1,,success
Status,1290,125623500570,/g3t1_2,,running
Status,1291,125623809486,/g3t1_2,,success
Status,1292,125823938116,/g3t1_2,,running
Status,1293,125824736883,/g3t1_2,,success
Status,1294,125952389297,/g3t1_1,,running
Status,1295,125952683166,/g3t1_1,,success
Status,1296,126023933511,/g3t1_2,,running
Status,1297,126024299252,/g3t1_2,,success
Status,1298,126223243527,/g3t1_2,,running
Status,1299,126223351650,/g3t1_2,,success
Status,1300,126252007537,/g3t1_3,,running
Status,1301,126252110020,/g3t1_3,,success
Status,1302,126424009336,/g3t1_2,,running
Status,1303,126424727736,/g3t1_2,,success
Status,1304,126468503841,/g3t1_4,,running
Status,1305,126478482117,/g3t1_4,,success
Status,1306,126552327753,/g4t1,,success
Status,1307,126624150988,/g3t1_2,,running
Status,1308,126624417655,/g3t1_2,,success
Status,1309,126824426065,/g3t1_2,,running
Status,1310,126824732600,/g3t1_2,,success
Status,1311,127024917361,/g3t1_2,,running
Status,1312,127025324714,/g3t1_2,,success
Status,1313,127225220162,/g3t1_2,,running
Status,1314,127225275393,/g3t1_2,,success
Status,1315,127425051154,/g3t1_2,,running
Status,1316,127425426258,/g3t1_2,,success
Status,1317,127468724817,/g3t1_4,,running
Status,1318,127476529029,/g3t1_4,,success
Status,1319,127551767547,/g4t1,,success
Status,1321,127624981889,/g3t1_2,,running
Status,1322,127625293899,/g3t1_2,,success
Status,1323,127825311135,/g3t1_2,,running
Status,1324,127825756635,/g3t1_2,,success
Status,1325,128025428880,/g3t1_2,,running
Status,1326,128025981576,/g3t1_2,,success
Status,1327,128225893336,/g3t1_2,,running
Status,1328,128226604680,/g3t1_2,,success
Status,1329,128425705906,/g3t1_2,,running
Status,1330,128426299261,/g3t1_2,,success
Status,1331,128468449812,/g3t1_4,,running
Status,1332,128473190194,/g3t1_4,,success
Status,1333,128551451212,/g4t1,,success
Status,1334,128625289555,/g3t1_2,,running
Status,1335,128625306998,/g3t1_2,,success
Status,1336,128825379485,/g3t1_2,,running
Status,1337,128825401134,/g3t1_2,,fail
Status,1338,129025528432,/g3t1_2,,running
Status,1339,129025561381,/g3t1_2,,fail
Status,1340,129225509657,/g3t1_2,,running
Status,1341,129225739868,/g3t1_2,,success
Status,1342,129425690926,/g3t1_2,,running
Status,1343,129425887213,/g3t1_2,,success
Status,1344,129468444929,/g3t1_4,,running
Status,1345,129472288334,/g3t1_4,,success
Status,1346,129552636719,/g4t1,,success
Status,1347,129625617545,/g3t1_2,,running
Status,1348,129625746789,/g3t1_2,,success
Status,1349,129826550541,/g3t1_2,,running
Status,1350,129827385398,/g3t1_2,,success
Status,1351,130028801156,/g3t1_2,,running
Status,1352,130028877270,/g3t1_2,,success
Status,1353,130226103254,/g3t1_2,,running
Status,1354,130226687053,/g3t1_2,,success
Status,1355,130426201218,/g3t1_2,,running
Status,1356,130426231107,/g3t1_2,,success
Status,1357,130468323660,/g3t1_4,,running
Status,1358,130470814113,/g3t1_4,,success
Status,1359,130552504759,/g4t1,,success
Status,1360,130626940139,/g3t1_2,,running
Status,1361,130627299542,/g3t1_2,,success
Status,1362,130827501206,/g3t1_2,,running
Status,1363,130828293739,/g3t1_2,,success
Status,1364,130952475335,/g3t1_1,,running
Status,1365,130952791560,/g3t1_1,,success
Status,1366,131026737453,/g3t1_2,,running
Status,1367,131026998625,/g3t1_2,,success
Status,1368,131227405373,/g3t1_2,,running
Status,1369,131228237124,/g3t1_2,,success
Status,1370,131427715625,/g3t1_2,,running
Status,1371,131428424905,/g3t1_2,,success
Status,1372,131469147993,/g3t1_4,,running
Status,1373,131478361725,/g3t1_4,,success
Status,1374,131553494048,/g4t1,,success
Status,1375,131627015493,/g3t1_2,,running
Status,1376,131627036473,/g3t1_2,,success
Status,1377,131827113866,/g3t1_2,,running
Status,1378,131827141140,/g3t1_2,,success
Status,1379,132027709633,/g3t1_2,,running
Status,1380,132027990887,/g3t1_2,,success
Status,1381,132228014481,/g3t1_2,,running
Status,1382,132228204555,/g3t1_2,,fail
Status,1383,132428249078,/g3t1_2,,running
Status,1384,132428660951,/g3t1_2,,fail
Status,1385,132469125725,/g3t1_4,,running
Status,1386,132476964676,/g3t1_4,,success
Status,1387,132552682144,/g4t1,,success
Status,1388,132627997002,/g3t1_2,,running
Status,1389,132628213888,/g3t1_2,,success
Status,1392,132828403935,/g3t1_2,,running
Status,1393,132829211729,/g3t1_2,,success
Status,1394,133027997088,/g3t1_2,,running
Status,1395,133028224029,/g3t1_2,,success
Status,1396,133228260600,/g3t1_2,,running
Status,1397,133228436543,/g3t1_2,,success
Status,1398,133428492499,/g3t1_2,,running
Status,1399,133428533164,/g3t1_2,,success
Status,1400,133469416691,/g3t1_4,,running
Status,1401,133477660507,/g3t1_4,,success
Status,1402,133553008034,/g4t1,,success
Status,1403,133628898281,/g3t1_2,,running
Status,1404,133629551088,/g3t1_2,,success
Status,1405,133829126449,/g3t1_2,,running
Status,1406,133829490968,/g3t1_2,,success
Status,1407,134029187721,/g3t1_2,,running
Status,1408,134029621714,/g3t1_2,,success
Status,1409,134228610427,/g3t1_2,,running
Status,1410,134228755069,/g3t1_2,,success
Status,1411,134428784547,/g3t1_2,,running
Status,1412,134428923332,/g3t1_2,,success
Status,1413,134469408428,/g3t1_4,,running
Status,1414,134476809337,/g3t1_4,,success
Status,1415,134552797113,/g4t1,,success
Status,1416,134629721244,/g3t1_2,,running
Status,1417,134630571714,/g3t1_2,,success
Status,1418,134829360097,/g3t1_2,,running
Status,1419,134829889777,/g3t1_2,,success
Status,1420,135029877477,/g3t1_2,,running
Status,1421,135029952896,/g3t1_2,,success
Status,1422,135229293535,/g3t1_2,,running
Status,1423,135229320656,/g3t1_2,,success
Status,1424,135429921604,/g3t1_2,,running
Status,1425,135430231068,/g3t1_2,,success
Status,1426,135469582632,/g3t1_4,,running
Status,1427,135477355683,/g3t1_4,,success
Status,1428,135552936828,/g4t1,,success
Status,1429,135629999090,/g3t1_2,,running
Status,1430,135630040526,/g3t1_2,,success
Status,1431,135830673986,/g3t1_2,,running
Status,1432,135830738046,/g3t1_2,,success
Status,1433,135952484018,/g3t1_1,,running
Status,1434,135952909613,/g3t1_1,,success
Status,1435,136030565922,/g3t1_2,,running
Status,1436,136030838699,/g3t1_2,,success
Status,1437,136230881919,/g3t1_2,,running
Status,1438,136231612872,/g3t1_2,,success
Status,1439,136252751170,/g3t1_3,,running
Status,1440,136253393951,/g3t1_3,,success
Status,1441,136431461154,/g3t1_2,,running
Status,1442,136432191001,/g3t1_2,,success
Status,1443,136469115150,/g3t1_4,,running
Status,1444,136471397117,/g3t1_4,,success
Status,1445,136552990036,/g4t1,,success
Status,1446,136631463735,/g3t1_2,,running
Status,1447,136631532837,/g3t1_2,,success
Status,1448,136831441808,/g3t1_2,,running
Status,1449,136831888083,/g3t1_2,,success
Status,1450,137031576183,/g3t1_2,,running
Status,1451,137032446231,/g3t1_2,,success
Status,1452,137231518475,/g3t1_2,,running
Status,1453,137232127295,/g3t1_2,,success
Status,1454,137431106899,/g3t1_2,,running
Status,1455,137431199704,/g3t1_2,,success
Status,1456,137469133209,/g3t1_4,,running
Status,1457,137471691978,/g3t1_4,,success
Status,1458,137553282274,/g4t1,,success
Status,1459,137631696760,/g3t1_2,,running
Status,1460,137631975960,/g3t1_2,,success
Status,1462,137831426221,/g3t1_2,,running
Status,1463,137831446180,/g3t1_2,,success
Status,1464,138031691281,/g3t1_2,,running
Status,1465,138031894865,/g3t1_2,,success
Status,1466,138231858152,/g3t1_2,,running
Status,1467,138232005473,/g3t1_2,,success
Status,1468,138431769524,/g3t1_2,,running
Status,1469,138431926401,/g3t1_2,,success
Status,1470,138469549325,/g3t1_4,,running
Status,1471,138476015555,/g3t1_4,,success
Status,1472,138552613564,/g4t1,,success
Status,1473,138631855721,/g3t1_2,,running
Status,1474,138631988615,/g3t1_2,,success
Status,1475,138832536704,/g3t1_2,,running
Status,1476,138833292993,/g3t1_2,,success
Status,1477,139032405936,/g3t1_2,,running
Status,1478,139032711959,/g3t1_2,,success
Status,1479,139232097385,/g3t1_2,,running
Status,1480,139232245011,/g3t1_2,,success
Status,1481,139432479605,/g3t1_2,,running
Status,1482,139432933453,/g3t1_2,,success
Status,1483,139469570630,/g3t1_4,,running
Status,1484,139475679703,/g3t1_4,,success
Status,1485,139553001817,/g4t1,,success
Status,1486,139632519853,/g3t1_2,,running
Status,1487,139632801665,/g3t1_2,,success
Status,1488,139833126020,/g3t1_2,,running
Status,1489,139833712986,/g3t1_2,,success
Status,1490,140033331644,/g3t1_2,,running
Status,1491,140034049205,/g3t1_2,,success
Status,1492,140233798184,/g3t1_2,,running
Status,1493,140235081339,/g3t1_2,,success
Status,1494,140433732843,/g3t1_2,,running
Status,1495,140434240145,/g3t1_2,,success
Status,1496,140469421316,/g3t1_4,,running
Status,1497,140472566981,/g3t1_4,,success
Status,1498,140552920308,/g4t1,,success
Status,1499,140633832472,/g3t1_2,,running
Status,1500,140634279761,/g3t1_2,,success
Status,1501,140834043893,/g3t1_2,,running
Status,1502,140834691078,/g3t1_2,,success
Status,1503,140952670068,/g3t1_1,,running
Status,1504,140952990727,/g3t1_1,,success
Status,1505,141034240455,/g3t1_2,,running
Status,1506,141034575978,/g3t1_2,,success
Status,1507,141234486280,/g3t1_2,,running
Status,1508,141234934495,/g3t1_2,,success
Status,1509,141434560535,/g3t1_2,,running
Status,1510,141435246304,/g3t1_2,,success
Status,1511,141469488575,/g3t1_4,,running
Status,1512,141472448493,/g3t1_4,,success
Status,1513,141553132518,/g4t1,,success
Status,1514,141635000633,/g3t1_2,,running
Status,1515,141635067549,/g3t1_2,,success
Status,1516,141834553485,/g3t1_2,,running
Status,1517,141835028948,/g3t1_2,,success
Status,1518,142034678932,/g3t1_2,,running
Status,1519,142035495060,/g3t1_2,,success
Status,1520,142234918912,/g3t1_2,,running
Status,1521,142235381997,/g3t1_2,,success
Status,1522,142435015535,/g3t1_2,,running
Status,1523,142435283445,/g3t1_2,,success
Status,1524,142470312167,/g3t1_4,,running
Status,1525,142477972034,/g3t1_4,,success
Status,1526,142553994313,/g4t1,,success
Status,1527,142634578843,/g3t1_2,,running
Status,1528,142634814522,/g3t1_2,,success
Status,1530,142835097602,/g3t1_2,,running
Status,1531,142835840935,/g3t1_2,,success
