
Status,2,3447283542,/g4t1,,init
Status,3,8459589864,/g3t1_1,,init
Status,5,8468974005,/g3t1_1,,init
Status,6,8468992943,/g3t1_1,,running
Status,7,8469882911,/g3t1_1,,success
Status,8,8663594333,/g3t1_2,,init
Status,10,8670846541,/g3t1_2,,init
Status,11,8670876206,/g3t1_2,,running
Status,12,8672754878,/g3t1_2,,success
Status,14,8865288851,/g3t1_3,,init
Status,15,8871824048,/g3t1_3,,init
Status,16,8871840553,/g3t1_3,,running
Status,17,8873462203,/g3t1_3,,success
Status,24,9469815491,/g3t1_1,,running
Status,25,9473595011,/g3t1_1,,success
Status,29,9567219805,/g4t1,,success
Status,30,9667396729,/g4t1,,success
Status,31,9671709819,/g3t1_2,,running
Status,32,9675830465,/g3t1_2,,success
Status,36,9767557040,/g4t1,,success
Status,37,9867652842,/g4t1,,success
Status,38,9872843239,/g3t1_3,,running
Status,39,9876950597,/g3t1_3,,fail
Status,43,9967651541,/g4t1,,success
Status,44,10067831545,/g4t1,,success
Status,48,10167855902,/g4t1,,success
Status,49,10268126019,/g4t1,,success
Status,53,10368397242,/g4t1,,success
Status,54,10468534657,/g4t1,,success
Status,55,10469989080,/g3t1_1,,running
Status,56,10474723108,/g3t1_1,,fail
Status,60,10568523242,/g4t1,,success
Status,61,10668614295,/g4t1,,success
Status,62,10671903363,/g3t1_2,,running
Status,63,10676082640,/g3t1_2,,success
Status,67,10768944337,/g4t1,,success
Status,68,10869074410,/g4t1,,success
Status,69,10873040054,/g3t1_3,,running
Status,70,10877563846,/g3t1_3,,fail
Status,74,10969117063,/g4t1,,success
Status,75,11069257862,/g4t1,,success
Status,79,11169269430,/g4t1,,success
Status,80,11269372030,/g4t1,,success
Status,84,11369446222,/g4t1,,success
Status,85,11469622085,/g4t1,,success
Status,86,11469934548,/g3t1_1,,running
Status,87,11474144489,/g3t1_1,,success
Status,91,11569767448,/g4t1,,success
Status,92,11669959383,/g4t1,,success
Status,93,11672037166,/g3t1_2,,running
Status,94,11676273122,/g3t1_2,,success
Status,95,11770035898,/g4t1,,success
Status,96,11870132125,/g4t1,,success
Status,97,11873123275,/g3t1_3,,running
Status,98,11877730234,/g3t1_3,,success
Status,99,11970344784,/g4t1,,success
Status,100,12070482642,/g4t1,,success
Status,101,12170616214,/g4t1,,success
Status,102,12270753863,/g4t1,,success
Status,103,12370893071,/g4t1,,success
Status,104,12470369295,/g3t1_1,,running
Status,105,12471005487,/g4t1,,success
Status,106,12474785107,/g3t1_1,,fail
Status,110,12571180106,/g4t1,,success
Status,111,12671163715,/g4t1,,success
Status,112,12672012945,/g3t1_2,,running
Status,113,12677148159,/g3t1_2,,success
Status,117,12771467778,/g4t1,,success
Status,118,12871607823,/g4t1,,success
Status,119,12873199598,/g3t1_3,,running
Status,120,12876983449,/g3t1_3,,fail
Status,124,12971638840,/g4t1,,success
Status,125,13071773707,/g4t1,,success
Status,129,13171886866,/g4t1,,success
Status,130,13272268697,/g4t1,,success
Status,134,13372293014,/g4t1,,success
Status,135,13470487451,/g3t1_1,,running
Status,136,13472339901,/g4t1,,success
Status,137,13475009448,/g3t1_1,,success
Status,141,13572434894,/g4t1,,success
Status,142,13672401883,/g3t1_2,,running
Status,143,13672471305,/g4t1,,success
Status,144,13676431643,/g3t1_2,,success
Status,148,13772710055,/g4t1,,success
Status,149,13872612196,/g4t1,,success
Status,150,13872927800,/g3t1_3,,running
Status,151,13876769926,/g3t1_3,,success
Status,155,13973148274,/g4t1,,success
Status,156,14073248677,/g4t1,,success
Status,160,14173312381,/g4t1,,success
Status,161,14273454856,/g4t1,,success
Status,165,14373539556,/g4t1,,success
Status,166,14470483344,/g3t1_1,,running
Status,167,14473583098,/g4t1,,success
Status,168,14474395762,/g3t1_1,,success
Status,172,14573804837,/g4t1,,success
Status,173,14672554737,/g3t1_2,,running
Status,174,14673794809,/g4t1,,success
Status,175,14676802256,/g3t1_2,,fail
Status,179,14774082116,/g4t1,,success
Status,180,14873523056,/g3t1_3,,running
Status,181,14874353725,/g4t1,,success
Status,182,14879110036,/g3t1_3,,fail
Status,186,14974438042,/g4t1,,success
Status,187,15074519314,/g4t1,,success
Status,191,15174606394,/g4t1,,success
Status,192,15274665992,/g4t1,,success
Status,196,15374726496,/g4t1,,success
Status,197,15470606034,/g3t1_1,,running
Status,198,15475060514,/g4t1,,success
Status,199,15475440405,/g3t1_1,,success
Status,203,15575186903,/g4t1,,success
Status,204,15672822128,/g3t1_2,,running
Status,205,15675213021,/g4t1,,success
Status,206,15676879493,/g3t1_2,,fail
Status,207,15775316782,/g4t1,,success
Status,208,15873629231,/g3t1_3,,running
Status,209,15875238297,/g4t1,,success
Status,210,15878142281,/g3t1_3,,success
Status,211,15975591437,/g4t1,,success
Status,212,16075809163,/g4t1,,success
Status,213,16175928373,/g4t1,,success
Status,214,16276127761,/g4t1,,success
Status,215,16376252052,/g4t1,,success
Status,216,16470766913,/g3t1_1,,running
Status,217,16474780097,/g3t1_1,,success
Status,218,16476264362,/g4t1,,success
Status,222,16576454881,/g4t1,,success
Status,223,16672816452,/g3t1_2,,running
Status,224,16676691826,/g4t1,,success
Status,225,16677685856,/g3t1_2,,fail
Status,229,16776549262,/g4t1,,success
Status,230,16873743425,/g3t1_3,,running
Status,231,16876771407,/g4t1,,success
Status,232,16878307840,/g3t1_3,,success
Status,236,16976941199,/g4t1,,success
Status,237,17077120488,/g4t1,,success
Status,241,17177282557,/g4t1,,success
Status,242,17277343376,/g4t1,,success
Status,246,17377374122,/g4t1,,success
Status,247,17470942724,/g3t1_1,,running
Status,248,17474977702,/g3t1_1,,fail
Status,249,17477267418,/g4t1,,success
Status,253,17577761495,/g4t1,,success
Status,254,17673181428,/g3t1_2,,running
Status,255,17676666617,/g3t1_2,,success
Status,256,17677568564,/g4t1,,success
Status,260,17777892662,/g4t1,,success
Status,261,17873695830,/g3t1_3,,running
Status,262,17878190143,/g4t1,,success
Status,263,17878447381,/g3t1_3,,success
Status,267,17978063068,/g4t1,,success
Status,268,18078229405,/g4t1,,success
Status,272,18178445908,/g4t1,,success
Status,273,18278510626,/g4t1,,success
Status,277,18378621631,/g4t1,,success
Status,278,18471039828,/g3t1_1,,running
Status,279,18475465592,/g3t1_1,,success
Status,280,18478796917,/g4t1,,success
Status,284,18578912436,/g4t1,,success
Status,285,18672733829,/g3t1_2,,running
Status,286,18675705898,/g3t1_2,,success
Status,287,18678693046,/g4t1,,success
Status,291,18779282165,/g4t1,,success
Status,292,18873984600,/g3t1_3,,running
Status,293,18878338573,/g3t1_3,,success
Status,294,18879355805,/g4t1,,success
Status,298,18979643729,/g4t1,,success
Status,299,19079661936,/g4t1,,success
Status,303,19179564407,/g4t1,,success
Status,304,19279793043,/g4t1,,success
Status,308,19380126898,/g4t1,,success
Status,309,19471028857,/g3t1_1,,running
Status,310,19475339024,/g3t1_1,,success
Status,311,19480097283,/g4t1,,success
Status,315,19580287549,/g4t1,,success
Status,316,19673135311,/g3t1_2,,running
Status,317,19676841265,/g3t1_2,,fail
Status,318,19680226927,/g4t1,,success
Status,319,19780430398,/g4t1,,success
Status,320,19874148853,/g3t1_3,,running
Status,321,19878300009,/g3t1_3,,success
Status,322,19880671998,/g4t1,,success
Status,323,19980747232,/g4t1,,success
Status,324,20081005392,/g4t1,,success
Status,325,20181175872,/g4t1,,success
Status,326,20281361674,/g4t1,,success
Status,327,20381366161,/g4t1,,success
Status,328,20470613303,/g3t1_1,,running
Status,329,20472156485,/g3t1_1,,fail
Status,330,20480673279,/g4t1,,success
Status,331,20581562419,/g4t1,,success
Status,332,20673115269,/g3t1_2,,running
Status,333,20677428147,/g3t1_2,,success
Status,334,20681671204,/g4t1,,success
Status,335,20781846344,/g4t1,,success
Status,336,20874210995,/g3t1_3,,running
Status,337,20878673960,/g3t1_3,,success
Status,338,20881923119,/g4t1,,success
Status,339,20982124172,/g4t1,,success
Status,340,21082295032,/g4t1,,success
Status,341,21182393470,/g4t1,,success
Status,342,21282595822,/g4t1,,success
Status,343,21382726694,/g4t1,,success
Status,344,21471297991,/g3t1_1,,running
Status,345,21475586359,/g3t1_1,,fail
Status,346,21482699297,/g4t1,,success
Status,347,21582919156,/g4t1,,success
Status,348,21673331019,/g3t1_2,,running
Status,349,21677439790,/g3t1_2,,fail
Status,350,21682973134,/g4t1,,success
Status,351,21782606451,/g4t1,,success
Status,352,21874450390,/g3t1_3,,running
Status,353,21878293709,/g3t1_3,,success
Status,354,21883298668,/g4t1,,success
Status,355,21983514836,/g4t1,,success
Status,356,22083744240,/g4t1,,success
Status,357,22182963587,/g4t1,,success
Status,358,22283041763,/g4t1,,success
Status,359,22383116295,/g4t1,,success
Status,360,22471389115,/g3t1_1,,running
Status,361,22476116154,/g3t1_1,,fail
Status,362,22483718968,/g4t1,,success
Status,363,22584202904,/g4t1,,success
Status,364,22673476943,/g3t1_2,,running
Status,365,22677557020,/g3t1_2,,fail
Status,366,22684123938,/g4t1,,success
Status,367,22784007925,/g4t1,,success
Status,368,22874715524,/g3t1_3,,running
Status,369,22878295398,/g3t1_3,,fail
Status,370,22884378673,/g4t1,,success
Status,371,22984897383,/g4t1,,success
Status,372,23084883801,/g4t1,,success
Status,373,23185096549,/g4t1,,success
Status,374,23285342542,/g4t1,,success
Status,375,23385419836,/g4t1,,success
Status,376,23471545668,/g3t1_1,,running
Status,377,23476067933,/g3t1_1,,success
Status,378,23485450631,/g4t1,,success
Status,379,23585640203,/g4t1,,success
Status,380,23673663530,/g3t1_2,,running
Status,381,23678330979,/g3t1_2,,success
Status,382,23685684079,/g4t1,,success
Status,383,23785896675,/g4t1,,success
Status,384,23874881256,/g3t1_3,,running
Status,385,23879598561,/g3t1_3,,success
Status,386,23885908064,/g4t1,,success
Status,387,23986084990,/g4t1,,success
Status,388,24086316202,/g4t1,,success
Status,389,24186454803,/g4t1,,success
Status,390,24286646566,/g4t1,,success
Status,391,24386834953,/g4t1,,success
Status,392,24471740041,/g3t1_1,,running
Status,393,24476095603,/g3t1_1,,success
Status,394,24486793322,/g4t1,,success
Status,395,24587009484,/g4t1,,success
Status,396,24673849954,/g3t1_2,,running
Status,397,24678254959,/g3t1_2,,success
Status,398,24686980417,/g4t1,,success
Status,399,24787387045,/g4t1,,success
Status,400,24874958850,/g3t1_3,,running
Status,401,24878732262,/g3t1_3,,success
Status,402,24887388248,/g4t1,,success
Status,403,24987652438,/g4t1,,success
Status,404,25087862353,/g4t1,,success
Status,405,25188057960,/g4t1,,success
Status,406,25288250145,/g4t1,,success
Status,407,25388304289,/g4t1,,success
Status,408,25471786601,/g3t1_1,,running
Status,409,25476426144,/g3t1_1,,fail
Status,410,25488232036,/g4t1,,success
Status,411,25588488150,/g4t1,,success
Status,412,25673981450,/g3t1_2,,running
Status,413,25677924988,/g3t1_2,,fail
Status,414,25688637243,/g4t1,,success
Status,415,25788872130,/g4t1,,success
Status,416,25875144723,/g3t1_3,,running
Status,417,25879361938,/g3t1_3,,fail
Status,418,25888762941,/g4t1,,success
Status,419,25989053448,/g4t1,,success
Status,420,26089277376,/g4t1,,success
Status,421,26189393552,/g4t1,,success
Status,422,26289413644,/g4t1,,success
Status,423,26389660829,/g4t1,,success
Status,424,26471821201,/g3t1_1,,running
Status,425,26476608196,/g3t1_1,,fail
Status,426,26489539480,/g4t1,,success
Status,427,26589777517,/g4t1,,success
Status,428,26674100832,/g3t1_2,,running
Status,429,26677880049,/g3t1_2,,fail
Status,430,26689901598,/g4t1,,success
Status,431,26789277514,/g4t1,,success
Status,432,26874832534,/g3t1_3,,running
Status,433,26876684038,/g3t1_3,,success
Status,434,26889637906,/g4t1,,success
Status,435,26990341413,/g4t1,,success
Status,436,27090469411,/g4t1,,success
Status,437,27190447062,/g4t1,,success
Status,438,27290616581,/g4t1,,success
Status,439,27390826379,/g4t1,,success
Status,440,27471867429,/g3t1_1,,running
Status,441,27475527934,/g3t1_1,,fail
Status,442,27490932294,/g4t1,,success
Status,443,27590989929,/g4t1,,success
Status,444,27674214062,/g3t1_2,,running
Status,445,27678855109,/g3t1_2,,success
Status,446,27691158651,/g4t1,,success
Status,447,27790529328,/g4t1,,success
Status,448,27875123377,/g3t1_3,,running
Status,449,27877463801,/g3t1_3,,success
Status,450,27890736292,/g4t1,,success
