
Status,2,20624143447,/g4t1,,init
Status,4,25635207973,/g3t1_2,,init
Status,5,25642113078,/g3t1_2,,init
Status,6,25642124695,/g3t1_2,,running
Status,7,25642697821,/g3t1_2,,success
Status,8,25842927572,/g3t1_2,,running
Status,9,25843656140,/g3t1_2,,success
Status,10,26043132750,/g3t1_2,,running
Status,11,26043692664,/g3t1_2,,success
Status,12,26243200637,/g3t1_2,,running
Status,13,26243564021,/g3t1_2,,success
Status,14,26443374350,/g3t1_2,,running
Status,15,26443853816,/g3t1_2,,success
Status,16,26636032307,/g4t1,,success
Status,17,26643533507,/g3t1_2,,running
Status,18,26644371052,/g3t1_2,,success
Status,19,26843680222,/g3t1_2,,running
Status,20,26844091612,/g3t1_2,,success
Status,21,27043754014,/g3t1_2,,running
Status,22,27044044691,/g3t1_2,,success
Status,23,27243943322,/g3t1_2,,running
Status,24,27244310875,/g3t1_2,,success
Status,25,27443989459,/g3t1_2,,running
Status,26,27444591674,/g3t1_2,,success
Status,27,27636005935,/g4t1,,success
Status,28,27644221543,/g3t1_2,,running
Status,29,27644519822,/g3t1_2,,success
Status,30,27844579373,/g3t1_2,,running
Status,31,27844839982,/g3t1_2,,success
Status,32,28044646777,/g3t1_2,,running
Status,33,28045313978,/g3t1_2,,success
Status,34,28244609938,/g3t1_2,,running
Status,35,28245015188,/g3t1_2,,success
Status,36,28444766567,/g3t1_2,,running
Status,37,28445252377,/g3t1_2,,success
Status,38,28636080440,/g4t1,,success
Status,39,28644666404,/g3t1_2,,running
Status,40,28644940297,/g3t1_2,,success
Status,41,28844979678,/g3t1_2,,running
Status,42,28845454670,/g3t1_2,,success
Status,43,29045021340,/g3t1_2,,running
Status,44,29045080818,/g3t1_2,,success
Status,45,29245198857,/g3t1_2,,running
Status,46,29245462556,/g3t1_2,,success
Status,47,29445318180,/g3t1_2,,running
Status,48,29446110033,/g3t1_2,,success
Status,49,29636703220,/g4t1,,success
Status,50,29645691326,/g3t1_2,,running
Status,51,29645817998,/g3t1_2,,success
Status,52,29845929835,/g3t1_2,,running
Status,53,29846835401,/g3t1_2,,success
Status,54,30045453797,/g3t1_2,,running
Status,55,30045681291,/g3t1_2,,success
Status,56,30246113826,/g3t1_2,,running
Status,57,30246865490,/g3t1_2,,success
Status,58,30446354929,/g3t1_2,,running
Status,59,30446740523,/g3t1_2,,success
Status,60,30636814675,/g4t1,,success
Status,61,30646281426,/g3t1_2,,running
Status,62,30646797432,/g3t1_2,,success
Status,63,30846920749,/g3t1_2,,running
Status,64,30846986121,/g3t1_2,,success
Status,65,31047043673,/g3t1_2,,running
Status,66,31047656673,/g3t1_2,,success
Status,67,31247065258,/g3t1_2,,running
Status,68,31247674134,/g3t1_2,,success
Status,69,31447470165,/g3t1_2,,running
Status,70,31447860643,/g3t1_2,,success
Status,71,31636830733,/g4t1,,success
Status,72,31647764771,/g3t1_2,,running
Status,73,31648089186,/g3t1_2,,success
Status,74,31847677871,/g3t1_2,,running
Status,75,31848476141,/g3t1_2,,success
Status,76,32047486086,/g3t1_2,,running
Status,77,32048082396,/g3t1_2,,success
Status,78,32248018010,/g3t1_2,,running
Status,79,32248374521,/g3t1_2,,success
Status,80,32448089447,/g3t1_2,,running
Status,81,32448686283,/g3t1_2,,success
Status,82,32637211099,/g4t1,,success
Status,83,32648168835,/g3t1_2,,running
Status,84,32648494317,/g3t1_2,,success
Status,85,32848446090,/g3t1_2,,running
Status,86,32849105957,/g3t1_2,,success
Status,87,33048464122,/g3t1_2,,running
Status,88,33049277026,/g3t1_2,,success
Status,89,33249055865,/g3t1_2,,running
Status,90,33249129119,/g3t1_2,,success
Status,91,33448676079,/g3t1_2,,running
Status,92,33449180709,/g3t1_2,,success
Status,93,33637501200,/g4t1,,success
Status,94,33648886730,/g3t1_2,,running
Status,95,33649558500,/g3t1_2,,success
Status,96,33848707605,/g3t1_2,,running
Status,97,33849260943,/g3t1_2,,success
Status,98,34048773690,/g3t1_2,,running
Status,99,34049450277,/g3t1_2,,success
Status,100,34249185510,/g3t1_2,,running
Status,101,34249565618,/g3t1_2,,success
Status,102,34449496105,/g3t1_2,,running
Status,103,34449938684,/g3t1_2,,success
Status,104,34637551823,/g4t1,,success
Status,105,34649620499,/g3t1_2,,running
Status,106,34649924275,/g3t1_2,,success
Status,107,34849936420,/g3t1_2,,running
Status,108,34850204342,/g3t1_2,,success
Status,109,35050506075,/g3t1_2,,running
Status,110,35050599311,/g3t1_2,,success
Status,111,35250485041,/g3t1_2,,running
Status,112,35250869078,/g3t1_2,,success
Status,113,35450812701,/g3t1_2,,running
Status,114,35450895571,/g3t1_2,,success
Status,115,35637441897,/g4t1,,success
Status,116,35650741595,/g3t1_2,,running
Status,117,35651127523,/g3t1_2,,success
Status,118,35850902326,/g3t1_2,,running
Status,119,35851344562,/g3t1_2,,success
Status,120,36051364240,/g3t1_2,,running
Status,121,36052030048,/g3t1_2,,success
Status,122,36251508695,/g3t1_2,,running
Status,123,36252267923,/g3t1_2,,success
Status,124,36451737673,/g3t1_2,,running
Status,125,36452040654,/g3t1_2,,success
Status,126,36637971980,/g4t1,,success
Status,127,36651670552,/g3t1_2,,running
Status,128,36652209536,/g3t1_2,,success
Status,129,36851725361,/g3t1_2,,running
Status,130,36852011102,/g3t1_2,,success
Status,131,37052084805,/g3t1_2,,running
Status,132,37052317208,/g3t1_2,,success
Status,133,37252048376,/g3t1_2,,running
Status,134,37252550361,/g3t1_2,,success
Status,135,37452173279,/g3t1_2,,running
Status,136,37452509803,/g3t1_2,,success
Status,137,37638163154,/g4t1,,success
Status,138,37652579249,/g3t1_2,,running
Status,139,37652677363,/g3t1_2,,success
Status,140,37852531633,/g3t1_2,,running
Status,141,37852874758,/g3t1_2,,success
Status,142,38052567995,/g3t1_2,,running
Status,143,38052874482,/g3t1_2,,success
Status,144,38252757666,/g3t1_2,,running
Status,145,38253550305,/g3t1_2,,success
Status,146,38453179294,/g3t1_2,,running
Status,147,38453822792,/g3t1_2,,success
Status,148,38638364473,/g4t1,,success
Status,149,38653243846,/g3t1_2,,running
Status,150,38653861691,/g3t1_2,,success
Status,151,38853621367,/g3t1_2,,running
Status,152,38854326491,/g3t1_2,,success
Status,153,39053660686,/g3t1_2,,running
Status,154,39054118381,/g3t1_2,,success
Status,155,39253971429,/g3t1_2,,running
Status,156,39254402659,/g3t1_2,,success
Status,157,39454525241,/g3t1_2,,running
Status,158,39454602577,/g3t1_2,,success
Status,159,39638478287,/g4t1,,success
Status,160,39654100137,/g3t1_2,,running
Status,161,39655068979,/g3t1_2,,success
Status,162,39854727547,/g3t1_2,,running
Status,163,39854808001,/g3t1_2,,success
Status,164,40053665287,/g3t1_2,,running
Status,165,40053873653,/g3t1_2,,success
Status,166,40254915138,/g3t1_2,,running
Status,167,40255212256,/g3t1_2,,success
Status,168,40455048640,/g3t1_2,,running
Status,169,40455514839,/g3t1_2,,success
Status,170,40638874758,/g4t1,,success
Status,171,40655517549,/g3t1_2,,running
Status,172,40655612460,/g3t1_2,,success
Status,173,40855923608,/g3t1_2,,running
Status,174,40856017137,/g3t1_2,,success
Status,175,41055759330,/g3t1_2,,running
Status,176,41056136681,/g3t1_2,,success
Status,177,41256027824,/g3t1_2,,running
Status,178,41256393181,/g3t1_2,,success
Status,179,41456352085,/g3t1_2,,running
Status,180,41456430541,/g3t1_2,,success
Status,181,41639034598,/g4t1,,success
Status,182,41655854746,/g3t1_2,,running
Status,183,41656182682,/g3t1_2,,success
Status,184,41856145700,/g3t1_2,,running
Status,185,41856229416,/g3t1_2,,success
Status,186,42055567031,/g3t1_2,,running
Status,187,42055783994,/g3t1_2,,success
Status,188,42256626320,/g3t1_2,,running
Status,189,42257257875,/g3t1_2,,success
Status,190,42456748196,/g3t1_2,,running
Status,191,42456886870,/g3t1_2,,success
Status,192,42639288929,/g4t1,,success
Status,193,42656701796,/g3t1_2,,running
Status,194,42657593022,/g3t1_2,,success
Status,195,42857094861,/g3t1_2,,running
Status,196,42857984712,/g3t1_2,,success
Status,197,43056861970,/g3t1_2,,running
Status,198,43057212281,/g3t1_2,,success
Status,199,43257570244,/g3t1_2,,running
Status,200,43258279485,/g3t1_2,,success
Status,201,43457754422,/g3t1_2,,running
Status,202,43457842677,/g3t1_2,,success
Status,203,43639312433,/g4t1,,success
Status,204,43657720522,/g3t1_2,,running
Status,205,43658378254,/g3t1_2,,success
Status,206,43858117468,/g3t1_2,,running
Status,207,43858201672,/g3t1_2,,success
Status,208,44058074142,/g3t1_2,,running
Status,209,44058872829,/g3t1_2,,success
Status,210,44258306817,/g3t1_2,,running
Status,211,44258771379,/g3t1_2,,success
Status,212,44458750119,/g3t1_2,,running
Status,213,44458821362,/g3t1_2,,success
Status,214,44639666957,/g4t1,,success
Status,215,44658495701,/g3t1_2,,running
Status,216,44659022984,/g3t1_2,,success
Status,217,44859183792,/g3t1_2,,running
Status,218,44859263934,/g3t1_2,,success
Status,219,45058262730,/g3t1_2,,running
Status,220,45058505524,/g3t1_2,,success
Status,221,45259283355,/g3t1_2,,running
Status,222,45260100074,/g3t1_2,,success
Status,223,45459372470,/g3t1_2,,running
Status,224,45460181782,/g3t1_2,,success
Status,225,45639763988,/g4t1,,success
Status,226,45659399897,/g3t1_2,,running
Status,227,45660208490,/g3t1_2,,success
Status,228,45859543922,/g3t1_2,,running
Status,229,45860233629,/g3t1_2,,success
Status,230,46059607092,/g3t1_2,,running
Status,231,46060114040,/g3t1_2,,success
Status,232,46259572078,/g3t1_2,,running
Status,233,46260073249,/g3t1_2,,success
Status,234,46460018475,/g3t1_2,,running
Status,235,46460471838,/g3t1_2,,success
Status,236,46639851009,/g4t1,,success
Status,237,46660259554,/g3t1_2,,running
Status,238,46660919431,/g3t1_2,,success
Status,239,46860486410,/g3t1_2,,running
Status,240,46860642614,/g3t1_2,,success
Status,241,47060172038,/g3t1_2,,running
Status,242,47060644196,/g3t1_2,,success
Status,243,47260570228,/g3t1_2,,running
Status,244,47261356483,/g3t1_2,,success
Status,245,47460931502,/g3t1_2,,running
Status,246,47461006918,/g3t1_2,,success
Status,247,47640025329,/g4t1,,success
Status,248,47660805386,/g3t1_2,,running
Status,249,47661441907,/g3t1_2,,success
Status,250,47861103966,/g3t1_2,,running
Status,251,47861451743,/g3t1_2,,success
Status,252,48061579764,/g3t1_2,,running
Status,253,48061838211,/g3t1_2,,success
Status,254,48261255979,/g3t1_2,,running
Status,255,48261774415,/g3t1_2,,success
Status,256,48461732578,/g3t1_2,,running
Status,257,48461847868,/g3t1_2,,success
Status,258,48640106733,/g4t1,,success
Status,259,48661673255,/g3t1_2,,running
Status,260,48662215458,/g3t1_2,,success
Status,261,48862144220,/g3t1_2,,running
Status,262,48862911242,/g3t1_2,,success
Status,263,49062385957,/g3t1_2,,running
Status,264,49062933421,/g3t1_2,,success
Status,265,49262899686,/g3t1_2,,running
Status,266,49262973336,/g3t1_2,,success
Status,267,49463150966,/g3t1_2,,running
Status,268,49463237934,/g3t1_2,,success
Status,269,49640079099,/g4t1,,success
Status,270,49662702579,/g3t1_2,,running
Status,271,49663084616,/g3t1_2,,success
Status,272,49863190362,/g3t1_2,,running
Status,273,49863588705,/g3t1_2,,success
Status,274,50063116504,/g3t1_2,,running
Status,275,50063739630,/g3t1_2,,success
Status,276,50263273894,/g3t1_2,,running
Status,277,50264147164,/g3t1_2,,success
Status,278,50463647799,/g3t1_2,,running
Status,279,50464285185,/g3t1_2,,success
Status,280,50640438505,/g4t1,,success
Status,281,50663661615,/g3t1_2,,running
Status,282,50664428371,/g3t1_2,,success
Status,283,50863798481,/g3t1_2,,running
Status,284,50864465952,/g3t1_2,,success
Status,285,51064115361,/g3t1_2,,running
Status,286,51064489524,/g3t1_2,,success
Status,287,51264551367,/g3t1_2,,running
Status,288,51264673386,/g3t1_2,,success
Status,289,51464296753,/g3t1_2,,running
Status,290,51464914321,/g3t1_2,,success
Status,291,51640646300,/g4t1,,success
Status,292,51664645114,/g3t1_2,,running
Status,293,51665099166,/g3t1_2,,success
Status,294,51864809419,/g3t1_2,,running
Status,295,51865447532,/g3t1_2,,success
Status,296,52065053117,/g3t1_2,,running
Status,297,52065687632,/g3t1_2,,success
Status,298,52265251695,/g3t1_2,,running
Status,299,52265980735,/g3t1_2,,success
Status,300,52465434013,/g3t1_2,,running
Status,301,52465810284,/g3t1_2,,success
Status,302,52640722088,/g4t1,,success
Status,303,52665912443,/g3t1_2,,running
Status,304,52666073243,/g3t1_2,,success
Status,305,52865580672,/g3t1_2,,running
Status,306,52866248987,/g3t1_2,,success
Status,307,53065963431,/g3t1_2,,running
Status,308,53066135341,/g3t1_2,,success
Status,309,53265803339,/g3t1_2,,running
Status,310,53266770872,/g3t1_2,,success
Status,311,53466517809,/g3t1_2,,running
Status,312,53466944197,/g3t1_2,,success
Status,313,53640875339,/g4t1,,success
Status,314,53666306986,/g3t1_2,,running
Status,315,53667009611,/g3t1_2,,success
Status,316,53866903656,/g3t1_2,,running
Status,317,53867412555,/g3t1_2,,success
Status,318,54067168368,/g3t1_2,,running
Status,319,54067672646,/g3t1_2,,success
Status,320,54267185168,/g3t1_2,,running
Status,321,54267554103,/g3t1_2,,success
Status,322,54467323002,/g3t1_2,,running
Status,323,54467966876,/g3t1_2,,success
Status,324,54641162418,/g4t1,,success
Status,325,54667355395,/g3t1_2,,running
Status,326,54667429263,/g3t1_2,,success
Status,327,54867589445,/g3t1_2,,running
Status,328,54868051983,/g3t1_2,,success
Status,329,55067407209,/g3t1_2,,running
Status,330,55068039016,/g3t1_2,,success
Status,332,55268013175,/g3t1_2,,running
Status,333,55268196452,/g3t1_2,,success
Status,335,55467909992,/g3t1_2,,running
Status,336,55468292150,/g3t1_2,,success
Status,338,55641357785,/g4t1,,success
Status,339,55667913284,/g3t1_2,,running
Status,340,55668275254,/g3t1_2,,success
Status,342,55868143148,/g3t1_2,,running
Status,343,55868508321,/g3t1_2,,fail
Status,345,56068537760,/g3t1_2,,running
Status,346,56068860870,/g3t1_2,,success
Status,348,56268779716,/g3t1_2,,running
Status,349,56269485353,/g3t1_2,,success
Status,351,56469008224,/g3t1_2,,running
Status,352,56469080006,/g3t1_2,,fail
Status,354,56641506704,/g4t1,,success
Status,355,56668830129,/g3t1_2,,running
Status,356,56669382291,/g3t1_2,,fail
Status,358,56869151427,/g3t1_2,,running
Status,359,56869480786,/g3t1_2,,success
Status,361,57069183497,/g3t1_2,,running
Status,362,57069487640,/g3t1_2,,success
Status,364,57269372655,/g3t1_2,,running
Status,365,57269438802,/g3t1_2,,success
Status,367,57469413170,/g3t1_2,,running
Status,368,57469475482,/g3t1_2,,fail
Status,370,57641470284,/g4t1,,success
Status,371,57669385394,/g3t1_2,,running
Status,372,57669734804,/g3t1_2,,fail
Status,374,57870211031,/g3t1_2,,running
Status,375,57870287851,/g3t1_2,,success
Status,377,58070302799,/g3t1_2,,running
Status,378,58070783070,/g3t1_2,,success
Status,380,58270607340,/g3t1_2,,running
Status,381,58270681812,/g3t1_2,,fail
Status,383,58470884418,/g3t1_2,,running
Status,384,58471216595,/g3t1_2,,success
Status,386,58641891975,/g4t1,,success
Status,387,58671069330,/g3t1_2,,running
Status,388,58671406495,/g3t1_2,,success
Status,390,58871217454,/g3t1_2,,running
Status,391,58872225608,/g3t1_2,,success
Status,393,59071897964,/g3t1_2,,running
Status,394,59071973053,/g3t1_2,,success
Status,396,59271679614,/g3t1_2,,running
Status,397,59271758891,/g3t1_2,,fail
Status,399,59471835796,/g3t1_2,,running
Status,400,59472176704,/g3t1_2,,fail
Status,402,59641970722,/g4t1,,success
Status,403,59671865150,/g3t1_2,,running
Status,404,59672231777,/g3t1_2,,success
Status,406,59872067377,/g3t1_2,,running
Status,407,59873132556,/g3t1_2,,success
Status,409,60072194306,/g3t1_2,,running
Status,410,60072267378,/g3t1_2,,fail
Status,412,60272270786,/g3t1_2,,running
Status,413,60272749850,/g3t1_2,,success
Status,415,60472716991,/g3t1_2,,running
Status,416,60472788322,/g3t1_2,,fail
Status,418,60642088205,/g4t1,,success
Status,419,60672705031,/g3t1_2,,running
Status,420,60672767924,/g3t1_2,,success
Status,422,60872780685,/g3t1_2,,running
Status,423,60873348407,/g3t1_2,,success
Status,425,61073123014,/g3t1_2,,running
Status,426,61073565212,/g3t1_2,,success
Status,428,61273245934,/g3t1_2,,running
Status,429,61273716246,/g3t1_2,,fail
Status,431,61473315669,/g3t1_2,,running
Status,432,61473770975,/g3t1_2,,success
Status,434,61642301004,/g4t1,,success
Status,435,61673264643,/g3t1_2,,running
Status,436,61673813425,/g3t1_2,,success
Status,438,61873688102,/g3t1_2,,running
Status,439,61874182708,/g3t1_2,,success
Status,441,62073797739,/g3t1_2,,running
Status,442,62073983460,/g3t1_2,,fail
Status,444,62274355771,/g3t1_2,,running
Status,445,62275034595,/g3t1_2,,success
Status,447,62474285893,/g3t1_2,,running
Status,448,62474350133,/g3t1_2,,fail
Status,450,62642652573,/g4t1,,success
Status,451,62674364640,/g3t1_2,,running
Status,452,62674690656,/g3t1_2,,success
Status,454,62875000646,/g3t1_2,,running
Status,455,62875074032,/g3t1_2,,fail
Status,457,63075222331,/g3t1_2,,running
Status,458,63075723113,/g3t1_2,,success
Status,460,63275361316,/g3t1_2,,running
Status,461,63275703382,/g3t1_2,,success
Status,463,63475753599,/g3t1_2,,running
Status,464,63475826849,/g3t1_2,,success
Status,466,63642728013,/g4t1,,success
Status,467,63675383286,/g3t1_2,,running
Status,468,63675918071,/g3t1_2,,success
Status,470,63875886433,/g3t1_2,,running
Status,471,63876239937,/g3t1_2,,success
Status,473,64076123994,/g3t1_2,,running
Status,474,64076377742,/g3t1_2,,success
Status,476,64275991460,/g3t1_2,,running
Status,477,64276951580,/g3t1_2,,success
Status,479,64476278159,/g3t1_2,,running
Status,480,64476500281,/g3t1_2,,success
Status,482,64643342095,/g4t1,,success
Status,483,64676051778,/g3t1_2,,running
Status,484,64676618850,/g3t1_2,,success
Status,486,64876589203,/g3t1_2,,running
Status,487,64877298060,/g3t1_2,,success
Status,489,65076845197,/g3t1_2,,running
Status,490,65077154500,/g3t1_2,,fail
Status,492,65277090735,/g3t1_2,,running
Status,493,65277274255,/g3t1_2,,success
Status,495,65477212658,/g3t1_2,,running
Status,496,65477288378,/g3t1_2,,fail
Status,498,65643068908,/g4t1,,success
Status,499,65677603300,/g3t1_2,,running
Status,500,65678246289,/g3t1_2,,success
Status,502,65877363364,/g3t1_2,,running
Status,503,65878128985,/g3t1_2,,success
Status,505,66077536152,/g3t1_2,,running
Status,506,66077823449,/g3t1_2,,success
Status,508,66277887588,/g3t1_2,,running
Status,509,66277965764,/g3t1_2,,fail
Status,511,66478481233,/g3t1_2,,running
Status,512,66478554925,/g3t1_2,,success
Status,514,66643477813,/g4t1,,success
Status,515,66678141861,/g3t1_2,,running
Status,516,66678205518,/g3t1_2,,fail
Status,518,66878543011,/g3t1_2,,running
Status,519,66879224090,/g3t1_2,,success
Status,521,67078597584,/g3t1_2,,running
Status,522,67078918927,/g3t1_2,,fail
Status,524,67279059773,/g3t1_2,,running
Status,525,67279805006,/g3t1_2,,success
Status,527,67479125951,/g3t1_2,,running
Status,528,67479598579,/g3t1_2,,success
Status,530,67643353764,/g4t1,,success
Status,531,67679142793,/g3t1_2,,running
Status,532,67679471507,/g3t1_2,,success
Status,534,67879559921,/g3t1_2,,running
Status,535,67880370570,/g3t1_2,,success
Status,537,68079638070,/g3t1_2,,running
Status,538,68080412305,/g3t1_2,,success
Status,540,68279770360,/g3t1_2,,running
Status,541,68280234220,/g3t1_2,,success
Status,543,68480080969,/g3t1_2,,running
Status,544,68480492796,/g3t1_2,,success
Status,546,68643691083,/g4t1,,success
Status,547,68679710150,/g3t1_2,,running
Status,548,68680178236,/g3t1_2,,success
Status,550,68880103919,/g3t1_2,,running
Status,551,68880939003,/g3t1_2,,success
Status,553,69080250784,/g3t1_2,,running
Status,554,69080545252,/g3t1_2,,success
Status,556,69280752498,/g3t1_2,,running
Status,557,69281112532,/g3t1_2,,success
Status,559,69480903505,/g3t1_2,,running
Status,560,69481284857,/g3t1_2,,success
Status,562,69643576387,/g4t1,,success
Status,563,69680666155,/g3t1_2,,running
Status,564,69681053315,/g3t1_2,,success
Status,566,69881063805,/g3t1_2,,running
Status,567,69881664894,/g3t1_2,,success
Status,569,70081352676,/g3t1_2,,running
Status,570,70081811190,/g3t1_2,,fail
Status,572,70281629560,/g3t1_2,,running
Status,573,70282054169,/g3t1_2,,success
Status,575,70481812116,/g3t1_2,,running
Status,576,70481886014,/g3t1_2,,success
Status,578,70643989075,/g4t1,,success
Status,579,70681767821,/g3t1_2,,running
Status,580,70681829756,/g3t1_2,,success
Status,582,70882259890,/g3t1_2,,running
Status,583,70882559851,/g3t1_2,,success
Status,585,71082211875,/g3t1_2,,running
Status,586,71082722544,/g3t1_2,,success
Status,588,71282634284,/g3t1_2,,running
Status,589,71283101367,/g3t1_2,,success
Status,591,71482852939,/g3t1_2,,running
Status,592,71483803585,/g3t1_2,,success
Status,594,71643934739,/g4t1,,success
Status,595,71682963441,/g3t1_2,,running
Status,596,71683042703,/g3t1_2,,success
Status,598,71883008675,/g3t1_2,,running
Status,599,71883245866,/g3t1_2,,success
Status,601,72083602996,/g3t1_2,,running
Status,602,72083666031,/g3t1_2,,success
Status,604,72283519341,/g3t1_2,,running
Status,605,72283583815,/g3t1_2,,fail
Status,607,72483570567,/g3t1_2,,running
Status,608,72484250573,/g3t1_2,,success
Status,610,72644154720,/g4t1,,success
Status,611,72683619408,/g3t1_2,,running
Status,612,72684509772,/g3t1_2,,success
Status,614,72884139595,/g3t1_2,,running
Status,615,72884471202,/g3t1_2,,success
Status,617,73084426197,/g3t1_2,,running
Status,618,73084500853,/g3t1_2,,success
Status,620,73284103845,/g3t1_2,,running
Status,621,73284540890,/g3t1_2,,success
Status,623,73484406028,/g3t1_2,,running
Status,624,73484837275,/g3t1_2,,success
Status,626,73644264284,/g4t1,,success
Status,627,73684449964,/g3t1_2,,running
Status,628,73684854574,/g3t1_2,,success
Status,630,73884929867,/g3t1_2,,running
Status,631,73885607296,/g3t1_2,,success
Status,633,74085153370,/g3t1_2,,running
Status,634,74085710018,/g3t1_2,,success
Status,636,74285503543,/g3t1_2,,running
Status,637,74286600307,/g3t1_2,,success
Status,639,74485544470,/g3t1_2,,running
Status,640,74485605710,/g3t1_2,,fail
Status,642,74644366293,/g4t1,,success
Status,643,74685670881,/g3t1_2,,running
Status,644,74686503241,/g3t1_2,,success
Status,646,74886077995,/g3t1_2,,running
Status,647,74886585956,/g3t1_2,,success
Status,649,75085911317,/g3t1_2,,running
Status,650,75086468239,/g3t1_2,,success
Status,652,75286702973,/g3t1_2,,running
Status,653,75287241417,/g3t1_2,,success
Status,655,75487002668,/g3t1_2,,running
Status,656,75487081435,/g3t1_2,,fail
Status,658,75644679045,/g4t1,,success
Status,659,75686534513,/g3t1_2,,running
Status,660,75686864167,/g3t1_2,,success
Status,662,75886878634,/g3t1_2,,running
Status,663,75887204721,/g3t1_2,,fail
Status,665,76087035958,/g3t1_2,,running
Status,666,76087804889,/g3t1_2,,success
Status,668,76287391522,/g3t1_2,,running
Status,669,76288106517,/g3t1_2,,success
Status,671,76487754334,/g3t1_2,,running
Status,672,76488083303,/g3t1_2,,success
Status,674,76644846184,/g4t1,,success
Status,675,76687727353,/g3t1_2,,running
Status,676,76687792570,/g3t1_2,,success
Status,678,76887913728,/g3t1_2,,running
Status,679,76888322239,/g3t1_2,,success
Status,681,77087873640,/g3t1_2,,running
Status,682,77087941563,/g3t1_2,,fail
Status,684,77288109376,/g3t1_2,,running
Status,685,77288189159,/g3t1_2,,fail
Status,687,77488113239,/g3t1_2,,running
Status,688,77488599734,/g3t1_2,,success
Status,690,77645016602,/g4t1,,success
Status,691,77688234780,/g3t1_2,,running
Status,692,77688532423,/g3t1_2,,success
Status,694,77888396004,/g3t1_2,,running
Status,695,77888457356,/g3t1_2,,fail
Status,697,78088841387,/g3t1_2,,running
Status,698,78088913245,/g3t1_2,,fail
Status,700,78288989147,/g3t1_2,,running
Status,701,78289063320,/g3t1_2,,fail
Status,703,78489108397,/g3t1_2,,running
Status,704,78489597807,/g3t1_2,,success
Status,706,78645072410,/g4t1,,success
Status,707,78689210496,/g3t1_2,,running
Status,708,78689707113,/g3t1_2,,success
Status,710,78889523062,/g3t1_2,,running
Status,711,78889596753,/g3t1_2,,success
Status,713,79089567184,/g3t1_2,,running
Status,714,79089914859,/g3t1_2,,success
Status,716,79289739815,/g3t1_2,,running
Status,717,79289809704,/g3t1_2,,fail
Status,719,79490364939,/g3t1_2,,running
Status,720,79490436713,/g3t1_2,,fail
Status,722,79645272043,/g4t1,,success
Status,723,79690269732,/g3t1_2,,running
Status,724,79690650708,/g3t1_2,,success
Status,726,79890728707,/g3t1_2,,running
Status,727,79891133601,/g3t1_2,,success
Status,729,80090966285,/g3t1_2,,running
Status,730,80091571891,/g3t1_2,,success
Status,732,80291173751,/g3t1_2,,running
Status,733,80291245635,/g3t1_2,,fail
Status,735,80491334752,/g3t1_2,,running
Status,736,80492089721,/g3t1_2,,success
Status,738,80645373751,/g4t1,,success
Status,739,80691065062,/g3t1_2,,running
Status,740,80691705749,/g3t1_2,,success
Status,742,80891427251,/g3t1_2,,running
Status,743,80891651891,/g3t1_2,,success
Status,745,81091856630,/g3t1_2,,running
Status,746,81091928252,/g3t1_2,,fail
Status,748,81292009962,/g3t1_2,,running
Status,749,81292085384,/g3t1_2,,success
Status,751,81491824641,/g3t1_2,,running
Status,752,81491901873,/g3t1_2,,fail
Status,754,81645421134,/g4t1,,success
Status,755,81692117236,/g3t1_2,,running
Status,756,81692189748,/g3t1_2,,success
Status,758,81892226805,/g3t1_2,,running
Status,759,81892306104,/g3t1_2,,fail
Status,761,82092056899,/g3t1_2,,running
Status,762,82092123068,/g3t1_2,,fail
Status,764,82292213294,/g3t1_2,,running
Status,765,82292556523,/g3t1_2,,success
Status,767,82492468638,/g3t1_2,,running
Status,768,82492529097,/g3t1_2,,fail
Status,770,82645727689,/g4t1,,success
Status,771,82692731389,/g3t1_2,,running
Status,772,82692811812,/g3t1_2,,fail
Status,774,82892956125,/g3t1_2,,running
Status,775,82893684545,/g3t1_2,,success
Status,777,83093161302,/g3t1_2,,running
Status,778,83093468125,/g3t1_2,,success
Status,780,83293232358,/g3t1_2,,running
Status,781,83293943095,/g3t1_2,,success
Status,783,83493197284,/g3t1_2,,running
Status,784,83493687768,/g3t1_2,,success
Status,786,83645990565,/g4t1,,success
Status,787,83693480772,/g3t1_2,,running
Status,788,83693901047,/g3t1_2,,success
Status,790,83893929801,/g3t1_2,,running
Status,791,83894085832,/g3t1_2,,success
Status,793,84094159240,/g3t1_2,,running
Status,794,84095322803,/g3t1_2,,success
Status,796,84294687117,/g3t1_2,,running
Status,797,84295100215,/g3t1_2,,success
Status,799,84494568380,/g3t1_2,,running
Status,800,84495136291,/g3t1_2,,success
Status,802,84646248013,/g4t1,,success
Status,803,84694473080,/g3t1_2,,running
Status,804,84695312694,/g3t1_2,,success
Status,806,84894650709,/g3t1_2,,running
Status,807,84895334032,/g3t1_2,,success
Status,809,85095015849,/g3t1_2,,running
Status,810,85095480675,/g3t1_2,,success
Status,812,85295551658,/g3t1_2,,running
Status,813,85295705347,/g3t1_2,,success
Status,815,85495660074,/g3t1_2,,running
Status,816,85495732303,/g3t1_2,,fail
Status,818,85646425647,/g4t1,,success
Status,819,85695436146,/g3t1_2,,running
Status,820,85695742403,/g3t1_2,,success
Status,822,85895825620,/g3t1_2,,running
Status,823,85896309633,/g3t1_2,,success
Status,825,86095037037,/g3t1_2,,running
Status,826,86095166527,/g3t1_2,,success
Status,828,86296178794,/g3t1_2,,running
Status,829,86296761756,/g3t1_2,,success
Status,831,86496495946,/g3t1_2,,running
Status,832,86496573047,/g3t1_2,,success
Status,834,86646505660,/g4t1,,success
Status,835,86696155205,/g3t1_2,,running
Status,836,86696589995,/g3t1_2,,success
Status,838,86896702745,/g3t1_2,,running
Status,839,86896779795,/g3t1_2,,fail
Status,841,87095784146,/g3t1_2,,running
Status,842,87096007776,/g3t1_2,,success
Status,844,87295880963,/g3t1_2,,running
Status,845,87295900059,/g3t1_2,,fail
Status,847,87497186350,/g3t1_2,,running
Status,848,87497274011,/g3t1_2,,fail
Status,850,87646606490,/g4t1,,success
Status,851,87697072286,/g3t1_2,,running
Status,852,87697135836,/g3t1_2,,fail
Status,854,87897403985,/g3t1_2,,running
Status,855,87898192096,/g3t1_2,,success
Status,857,88096608452,/g3t1_2,,running
Status,858,88097156463,/g3t1_2,,success
Status,860,88297710665,/g3t1_2,,running
Status,861,88297959555,/g3t1_2,,success
Status,863,88498135793,/g3t1_2,,running
Status,864,88498613054,/g3t1_2,,success
Status,866,88647229727,/g4t1,,success
Status,867,88697820592,/g3t1_2,,running
Status,868,88698510619,/g3t1_2,,success
Status,870,88898632966,/g3t1_2,,running
Status,871,88898710128,/g3t1_2,,success
Status,873,89098194307,/g3t1_2,,running
Status,874,89098823860,/g3t1_2,,success
Status,876,89298365919,/g3t1_2,,running
Status,877,89299067105,/g3t1_2,,success
Status,879,89498574697,/g3t1_2,,running
Status,880,89499125641,/g3t1_2,,success
Status,882,89647617331,/g4t1,,success
Status,883,89698708905,/g3t1_2,,running
Status,884,89699006834,/g3t1_2,,success
Status,886,89899138033,/g3t1_2,,running
Status,887,89899903969,/g3t1_2,,success
Status,889,90099437163,/g3t1_2,,running
Status,890,90100048227,/g3t1_2,,success
Status,892,90299553776,/g3t1_2,,running
Status,893,90300170941,/g3t1_2,,success
Status,895,90499583545,/g3t1_2,,running
Status,896,90500467823,/g3t1_2,,success
Status,898,90647575290,/g4t1,,success
Status,899,90699610227,/g3t1_2,,running
Status,900,90700086817,/g3t1_2,,success
Status,902,90900129971,/g3t1_2,,running
Status,903,90900587731,/g3t1_2,,success
Status,905,91099941755,/g3t1_2,,running
Status,906,91100891584,/g3t1_2,,success
Status,908,91300257920,/g3t1_2,,running
Status,909,91300775143,/g3t1_2,,success
Status,911,91500251270,/g3t1_2,,running
Status,912,91500669744,/g3t1_2,,success
Status,914,91647506608,/g4t1,,success
Status,915,91700457035,/g3t1_2,,running
Status,916,91700522340,/g3t1_2,,fail
Status,918,91900933384,/g3t1_2,,running
Status,919,91901699242,/g3t1_2,,success
Status,921,92100955499,/g3t1_2,,running
Status,922,92101019836,/g3t1_2,,success
Status,924,92301139946,/g3t1_2,,running
Status,925,92301687085,/g3t1_2,,success
Status,927,92501178840,/g3t1_2,,running
Status,928,92501242682,/g3t1_2,,fail
Status,930,92647677706,/g4t1,,success
Status,931,92701391644,/g3t1_2,,running
Status,932,92701720479,/g3t1_2,,success
Status,934,92902089132,/g3t1_2,,running
Status,935,92902163979,/g3t1_2,,success
Status,937,93101947508,/g3t1_2,,running
Status,938,93102600660,/g3t1_2,,success
Status,940,93302648926,/g3t1_2,,running
Status,941,93302723240,/g3t1_2,,success
Status,943,93502468423,/g3t1_2,,running
Status,944,93502885936,/g3t1_2,,success
Status,946,93647828231,/g4t1,,success
Status,947,93702366997,/g3t1_2,,running
Status,948,93702457459,/g3t1_2,,success
Status,950,93902725397,/g3t1_2,,running
Status,951,93902817042,/g3t1_2,,fail
Status,953,94102923488,/g3t1_2,,running
Status,954,94103740579,/g3t1_2,,success
Status,956,94303209158,/g3t1_2,,running
Status,957,94303562551,/g3t1_2,,success
Status,959,94503238549,/g3t1_2,,running
Status,960,94503758729,/g3t1_2,,success
Status,962,94647456317,/g4t1,,success
Status,963,94703132227,/g3t1_2,,running
Status,964,94703560086,/g3t1_2,,success
Status,966,94903600422,/g3t1_2,,running
Status,967,94904067062,/g3t1_2,,success
Status,969,95103034702,/g3t1_2,,running
Status,970,95103070829,/g3t1_2,,fail
Status,972,95303564635,/g3t1_2,,running
Status,973,95304412095,/g3t1_2,,success
Status,975,95503871035,/g3t1_2,,running
Status,976,95504240280,/g3t1_2,,success
Status,978,95648250387,/g4t1,,success
Status,979,95704096486,/g3t1_2,,running
Status,980,95704161933,/g3t1_2,,fail
Status,982,95904287069,/g3t1_2,,running
Status,983,95905152039,/g3t1_2,,success
Status,985,96104736788,/g3t1_2,,running
Status,986,96104835883,/g3t1_2,,success
Status,988,96304977801,/g3t1_2,,running
Status,989,96305318090,/g3t1_2,,success
Status,991,96505066487,/g3t1_2,,running
Status,992,96505510840,/g3t1_2,,success
Status,994,96648368844,/g4t1,,success
Status,995,96705224843,/g3t1_2,,running
Status,996,96705307015,/g3t1_2,,success
Status,998,96905502457,/g3t1_2,,running
Status,999,96905581917,/g3t1_2,,fail
Status,1001,97105528576,/g3t1_2,,running
Status,1002,97105590442,/g3t1_2,,fail
Status,1004,97305805863,/g3t1_2,,running
Status,1005,97306752810,/g3t1_2,,success
Status,1007,97505877803,/g3t1_2,,running
Status,1008,97506306033,/g3t1_2,,success
Status,1010,97648390664,/g4t1,,success
Status,1011,97705880631,/g3t1_2,,running
Status,1012,97706646128,/g3t1_2,,success
Status,1014,97906350188,/g3t1_2,,running
Status,1015,97907008876,/g3t1_2,,success
Status,1017,98106423578,/g3t1_2,,running
Status,1018,98106478821,/g3t1_2,,fail
Status,1020,98306852910,/g3t1_2,,running
Status,1021,98307197186,/g3t1_2,,success
Status,1023,98506742696,/g3t1_2,,running
Status,1024,98507568812,/g3t1_2,,success
Status,1026,98648781277,/g4t1,,success
Status,1027,98706850039,/g3t1_2,,running
Status,1028,98707485267,/g3t1_2,,success
Status,1030,98907226815,/g3t1_2,,running
Status,1031,98908065153,/g3t1_2,,success
Status,1033,99107310139,/g3t1_2,,running
Status,1034,99107382395,/g3t1_2,,fail
Status,1036,99307532409,/g3t1_2,,running
Status,1037,99307605007,/g3t1_2,,fail
Status,1039,99507619108,/g3t1_2,,running
Status,1040,99508072318,/g3t1_2,,success
Status,1042,99648808217,/g4t1,,success
Status,1043,99707644420,/g3t1_2,,running
Status,1044,99707730774,/g3t1_2,,fail
Status,1046,99907934280,/g3t1_2,,running
Status,1047,99908006794,/g3t1_2,,fail
Status,1049,100108113350,/g3t1_2,,running
Status,1050,100108760179,/g3t1_2,,success
Status,1052,100308557476,/g3t1_2,,running
Status,1053,100308633347,/g3t1_2,,fail
Status,1055,100509151007,/g3t1_2,,running
Status,1056,100509222968,/g3t1_2,,success
Status,1058,100648960524,/g4t1,,success
Status,1059,100708646218,/g3t1_2,,running
Status,1060,100709007819,/g3t1_2,,success
Status,1062,100908888432,/g3t1_2,,running
Status,1063,100909391352,/g3t1_2,,success
Status,1065,101109192067,/g3t1_2,,running
Status,1066,101109263624,/g3t1_2,,fail
Status,1068,101309443157,/g3t1_2,,running
Status,1069,101309835770,/g3t1_2,,success
Status,1071,101509668988,/g3t1_2,,running
Status,1072,101509768256,/g3t1_2,,fail
Status,1074,101649196078,/g4t1,,success
Status,1075,101709412230,/g3t1_2,,running
Status,1076,101709865101,/g3t1_2,,fail
Status,1078,101909940647,/g3t1_2,,running
Status,1079,101910116096,/g3t1_2,,fail
Status,1081,102110109504,/g3t1_2,,running
Status,1082,102110208133,/g3t1_2,,fail
Status,1084,102310348021,/g3t1_2,,running
Status,1085,102310973403,/g3t1_2,,success
Status,1087,102510342324,/g3t1_2,,running
Status,1088,102510405239,/g3t1_2,,fail
Status,1090,102649258545,/g4t1,,success
Status,1091,102710262616,/g3t1_2,,running
Status,1092,102710740788,/g3t1_2,,success
Status,1094,102911087537,/g3t1_2,,running
Status,1095,102911160613,/g3t1_2,,fail
Status,1097,103111092958,/g3t1_2,,running
Status,1098,103111425481,/g3t1_2,,fail
Status,1100,103311645792,/g3t1_2,,running
Status,1101,103311716758,/g3t1_2,,success
Status,1103,103511580061,/g3t1_2,,running
Status,1104,103511651469,/g3t1_2,,fail
Status,1106,103649541714,/g4t1,,success
Status,1107,103711509843,/g3t1_2,,running
Status,1108,103711920691,/g3t1_2,,success
Status,1110,103911872492,/g3t1_2,,running
Status,1111,103911945960,/g3t1_2,,fail
Status,1113,104111794065,/g3t1_2,,running
Status,1114,104112197919,/g3t1_2,,success
Status,1116,104312288260,/g3t1_2,,running
Status,1117,104312380279,/g3t1_2,,success
Status,1119,104512531099,/g3t1_2,,running
Status,1120,104512859394,/g3t1_2,,success
Status,1122,104649707893,/g4t1,,success
Status,1123,104712898682,/g3t1_2,,running
Status,1124,104712963129,/g3t1_2,,fail
Status,1126,104913217412,/g3t1_2,,running
Status,1127,104913304997,/g3t1_2,,success
Status,1129,105112808543,/g3t1_2,,running
Status,1130,105112884898,/g3t1_2,,fail
Status,1132,105313349242,/g3t1_2,,running
Status,1133,105313424747,/g3t1_2,,success
Status,1135,105513462846,/g3t1_2,,running
Status,1136,105513931469,/g3t1_2,,success
Status,1138,105649877444,/g4t1,,success
Status,1139,105713420608,/g3t1_2,,running
Status,1140,105713482259,/g3t1_2,,success
Status,1142,105913545350,/g3t1_2,,running
Status,1143,105914260309,/g3t1_2,,success
Status,1145,106113129034,/g3t1_2,,running
Status,1146,106113415719,/g3t1_2,,success
Status,1148,106313761059,/g3t1_2,,running
Status,1149,106314409069,/g3t1_2,,success
Status,1151,106514491409,/g3t1_2,,running
Status,1152,106514564635,/g3t1_2,,success
Status,1154,106650282303,/g4t1,,success
Status,1155,106713854466,/g3t1_2,,running
Status,1156,106714263004,/g3t1_2,,success
Status,1158,106914185123,/g3t1_2,,running
Status,1159,106914548251,/g3t1_2,,success
Status,1161,107114619914,/g3t1_2,,running
Status,1162,107114695739,/g3t1_2,,fail
Status,1164,107314817997,/g3t1_2,,running
Status,1165,107315158512,/g3t1_2,,success
Status,1167,107515030501,/g3t1_2,,running
Status,1168,107515769298,/g3t1_2,,success
Status,1170,107650354935,/g4t1,,success
Status,1171,107714654164,/g3t1_2,,running
Status,1172,107714941727,/g3t1_2,,success
Status,1174,107915378860,/g3t1_2,,running
Status,1175,107915817849,/g3t1_2,,success
Status,1177,108115336616,/g3t1_2,,running
Status,1178,108115993141,/g3t1_2,,success
Status,1180,108315312284,/g3t1_2,,running
Status,1181,108316138143,/g3t1_2,,success
Status,1183,108515654806,/g3t1_2,,running
Status,1184,108516040936,/g3t1_2,,success
Status,1186,108650496467,/g4t1,,success
Status,1187,108715393177,/g3t1_2,,running
Status,1188,108715798845,/g3t1_2,,success
Status,1190,108915999139,/g3t1_2,,running
Status,1191,108916463508,/g3t1_2,,success
Status,1193,109116588693,/g3t1_2,,running
Status,1194,109116668276,/g3t1_2,,success
Status,1196,109316497605,/g3t1_2,,running
Status,1197,109316916001,/g3t1_2,,success
Status,1199,109516759586,/g3t1_2,,running
Status,1200,109516867490,/g3t1_2,,success
Status,1202,109650428609,/g4t1,,success
Status,1203,109716106037,/g3t1_2,,running
Status,1204,109716368694,/g3t1_2,,success
Status,1206,109916870620,/g3t1_2,,running
Status,1207,109917638179,/g3t1_2,,success
Status,1209,110117200864,/g3t1_2,,running
Status,1210,110117541828,/g3t1_2,,success
Status,1212,110317607698,/g3t1_2,,running
Status,1213,110317987943,/g3t1_2,,success
Status,1215,110517679120,/g3t1_2,,running
Status,1216,110518289466,/g3t1_2,,success
Status,1218,110651144975,/g4t1,,success
Status,1219,110717974279,/g3t1_2,,running
Status,1220,110718144948,/g3t1_2,,success
Status,1222,110918075553,/g3t1_2,,running
Status,1223,110918437250,/g3t1_2,,fail
Status,1225,111118273082,/g3t1_2,,running
Status,1226,111118346700,/g3t1_2,,fail
Status,1228,111318431502,/g3t1_2,,running
Status,1229,111318510736,/g3t1_2,,success
Status,1231,111518662479,/g3t1_2,,running
Status,1232,111518746497,/g3t1_2,,fail
Status,1234,111651105594,/g4t1,,success
Status,1235,111718813463,/g3t1_2,,running
Status,1236,111718878793,/g3t1_2,,fail
Status,1238,111919077718,/g3t1_2,,running
Status,1239,111919454271,/g3t1_2,,success
Status,1241,112119178983,/g3t1_2,,running
Status,1242,112119429493,/g3t1_2,,success
Status,1244,112319214817,/g3t1_2,,running
Status,1245,112320194543,/g3t1_2,,success
Status,1247,112519631559,/g3t1_2,,running
Status,1248,112519924095,/g3t1_2,,success
Status,1250,112651281921,/g4t1,,success
Status,1251,112719152992,/g3t1_2,,running
Status,1252,112719489076,/g3t1_2,,success
Status,1254,112919493428,/g3t1_2,,running
Status,1255,112919947788,/g3t1_2,,fail
Status,1257,113119444980,/g3t1_2,,running
Status,1258,113119828758,/g3t1_2,,success
Status,1260,113319997201,/g3t1_2,,running
Status,1261,113320070496,/g3t1_2,,success
Status,1263,113520049127,/g3t1_2,,running
Status,1264,113520141230,/g3t1_2,,fail
Status,1266,113651297610,/g4t1,,success
Status,1267,113719864732,/g3t1_2,,running
Status,1268,113720161061,/g3t1_2,,success
Status,1270,113920228828,/g3t1_2,,running
Status,1271,113920895887,/g3t1_2,,success
Status,1273,114120427620,/g3t1_2,,running
Status,1274,114120962224,/g3t1_2,,success
Status,1276,114320575891,/g3t1_2,,running
Status,1277,114321519078,/g3t1_2,,success
Status,1279,114521074219,/g3t1_2,,running
Status,1280,114521151044,/g3t1_2,,fail
Status,1282,114651218741,/g4t1,,success
Status,1283,114721079294,/g3t1_2,,running
Status,1284,114721557167,/g3t1_2,,success
Status,1286,114921697965,/g3t1_2,,running
Status,1287,114922221492,/g3t1_2,,success
Status,1289,115121955736,/g3t1_2,,running
Status,1290,115122181724,/g3t1_2,,success
Status,1292,115322117688,/g3t1_2,,running
Status,1293,115322649282,/g3t1_2,,success
Status,1295,115522199863,/g3t1_2,,running
Status,1296,115522756758,/g3t1_2,,success
Status,1298,115651567899,/g4t1,,success
Status,1299,115722450232,/g3t1_2,,running
Status,1300,115722526374,/g3t1_2,,success
Status,1302,115922699758,/g3t1_2,,running
Status,1303,115923182926,/g3t1_2,,success
Status,1305,116123059854,/g3t1_2,,running
Status,1306,116123402460,/g3t1_2,,success
Status,1308,116323200347,/g3t1_2,,running
Status,1309,116323278519,/g3t1_2,,fail
Status,1311,116523609893,/g3t1_2,,running
Status,1312,116524057393,/g3t1_2,,success
Status,1314,116651704283,/g4t1,,success
Status,1315,116723376928,/g3t1_2,,running
Status,1316,116723454881,/g3t1_2,,success
Status,1318,116923665260,/g3t1_2,,running
Status,1319,116923742349,/g3t1_2,,fail
Status,1321,117123650184,/g3t1_2,,running
Status,1322,117124286539,/g3t1_2,,success
Status,1324,117323793424,/g3t1_2,,running
Status,1325,117324310893,/g3t1_2,,success
Status,1327,117524005551,/g3t1_2,,running
Status,1328,117524077856,/g3t1_2,,fail
Status,1330,117651789492,/g4t1,,success
Status,1331,117724028582,/g3t1_2,,running
Status,1332,117724397902,/g3t1_2,,success
Status,1334,117924279862,/g3t1_2,,running
Status,1335,117924422340,/g3t1_2,,fail
Status,1337,118123719341,/g3t1_2,,running
Status,1338,118123931772,/g3t1_2,,fail
Status,1340,118324344028,/g3t1_2,,running
Status,1341,118324560813,/g3t1_2,,success
Status,1343,118524455516,/g3t1_2,,running
Status,1344,118525048739,/g3t1_2,,success
Status,1346,118651771224,/g4t1,,success
Status,1347,118724577539,/g3t1_2,,running
Status,1348,118724909132,/g3t1_2,,success
Status,1350,118925194151,/g3t1_2,,running
Status,1351,118925285403,/g3t1_2,,fail
Status,1353,119125025665,/g3t1_2,,running
Status,1354,119125465428,/g3t1_2,,success
Status,1356,119325625001,/g3t1_2,,running
Status,1357,119325773754,/g3t1_2,,success
Status,1359,119526085673,/g3t1_2,,running
Status,1360,119526183301,/g3t1_2,,success
Status,1362,119651865269,/g4t1,,success
Status,1363,119726199953,/g3t1_2,,running
Status,1364,119726756385,/g3t1_2,,success
Status,1366,119926374946,/g3t1_2,,running
Status,1367,119926816265,/g3t1_2,,fail
Status,1369,120126438671,/g3t1_2,,running
Status,1370,120126917810,/g3t1_2,,success
Status,1372,120326774297,/g3t1_2,,running
Status,1373,120327266609,/g3t1_2,,success
Status,1375,120526840687,/g3t1_2,,running
Status,1376,120526915230,/g3t1_2,,fail
Status,1378,120652282414,/g4t1,,success
Status,1379,120727067420,/g3t1_2,,running
Status,1380,120727655197,/g3t1_2,,success
Status,1382,120927245638,/g3t1_2,,running
Status,1383,120927659485,/g3t1_2,,success
Status,1385,121127353201,/g3t1_2,,running
Status,1386,121127638595,/g3t1_2,,fail
Status,1388,121327426124,/g3t1_2,,running
Status,1389,121327949501,/g3t1_2,,fail
Status,1391,121527338689,/g3t1_2,,running
Status,1392,121527717487,/g3t1_2,,fail
Status,1394,121652293816,/g4t1,,success
Status,1395,121727692165,/g3t1_2,,running
Status,1396,121728375450,/g3t1_2,,success
Status,1398,121927795121,/g3t1_2,,running
Status,1399,121928726501,/g3t1_2,,success
Status,1401,122128082070,/g3t1_2,,running
Status,1402,122128550576,/g3t1_2,,success
Status,1404,122328111882,/g3t1_2,,running
Status,1405,122328780388,/g3t1_2,,fail
Status,1407,122528341983,/g3t1_2,,running
Status,1408,122528823446,/g3t1_2,,success
Status,1410,122652526292,/g4t1,,success
Status,1411,122728397381,/g3t1_2,,running
Status,1412,122728475364,/g3t1_2,,fail
Status,1414,122928549653,/g3t1_2,,running
Status,1415,122928918269,/g3t1_2,,success
Status,1417,123128626591,/g3t1_2,,running
Status,1418,123129007086,/g3t1_2,,fail
Status,1420,123329049256,/g3t1_2,,running
Status,1421,123329442328,/g3t1_2,,success
Status,1423,123529449826,/g3t1_2,,running
Status,1424,123529908073,/g3t1_2,,success
Status,1426,123652558392,/g4t1,,success
Status,1427,123729844209,/g3t1_2,,running
Status,1428,123729964604,/g3t1_2,,fail
Status,1430,123930155343,/g3t1_2,,running
Status,1431,123930274176,/g3t1_2,,fail
Status,1433,124130402031,/g3t1_2,,running
Status,1434,124130467371,/g3t1_2,,success
Status,1436,124330468281,/g3t1_2,,running
Status,1437,124330790009,/g3t1_2,,success
Status,1439,124530385901,/g3t1_2,,running
Status,1440,124530763020,/g3t1_2,,success
Status,1442,124652655319,/g4t1,,success
Status,1443,124730712775,/g3t1_2,,running
Status,1444,124731042068,/g3t1_2,,success
Status,1446,124930880899,/g3t1_2,,running
Status,1447,124931234987,/g3t1_2,,success
Status,1449,125131194213,/g3t1_2,,running
Status,1450,125131529559,/g3t1_2,,success
Status,1452,125331393661,/g3t1_2,,running
Status,1453,125331652294,/g3t1_2,,success
Status,1455,125531495885,/g3t1_2,,running
Status,1456,125531570765,/g3t1_2,,fail
Status,1458,125652853648,/g4t1,,success
Status,1459,125731652919,/g3t1_2,,running
Status,1460,125731976817,/g3t1_2,,success
Status,1462,125931876510,/g3t1_2,,running
Status,1463,125931959972,/g3t1_2,,success
Status,1465,126131837973,/g3t1_2,,running
Status,1466,126132149354,/g3t1_2,,success
Status,1468,126332335422,/g3t1_2,,running
Status,1469,126332417457,/g3t1_2,,success
Status,1471,126532220861,/g3t1_2,,running
Status,1472,126532795742,/g3t1_2,,success
Status,1474,126653032495,/g4t1,,success
Status,1475,126732215014,/g3t1_2,,running
Status,1476,126732546997,/g3t1_2,,success
Status,1478,126932797164,/g3t1_2,,running
Status,1479,126932867667,/g3t1_2,,success
Status,1481,127132758295,/g3t1_2,,running
Status,1482,127132816557,/g3t1_2,,success
Status,1484,127333132758,/g3t1_2,,running
Status,1485,127333222135,/g3t1_2,,fail
Status,1487,127532943705,/g3t1_2,,running
Status,1488,127533470966,/g3t1_2,,success
Status,1490,127653090576,/g4t1,,success
Status,1491,127733206651,/g3t1_2,,running
Status,1492,127733286126,/g3t1_2,,fail
Status,1494,127933335882,/g3t1_2,,running
Status,1495,127933774422,/g3t1_2,,success
Status,1497,128133382282,/g3t1_2,,running
Status,1498,128133727363,/g3t1_2,,success
Status,1500,128333737515,/g3t1_2,,running
Status,1501,128334204055,/g3t1_2,,success
Status,1503,128534428841,/g3t1_2,,running
Status,1504,128534509601,/g3t1_2,,success
Status,1506,128653259233,/g4t1,,success
Status,1507,128734233176,/g3t1_2,,running
Status,1508,128734662871,/g3t1_2,,success
Status,1510,128934407470,/g3t1_2,,running
Status,1511,128934944336,/g3t1_2,,success
Status,1513,129134961310,/g3t1_2,,running
Status,1514,129135438911,/g3t1_2,,success
Status,1516,129334760071,/g3t1_2,,running
Status,1517,129335555998,/g3t1_2,,success
Status,1519,129535317315,/g3t1_2,,running
Status,1520,129535648352,/g3t1_2,,success
Status,1522,129653389722,/g4t1,,success
Status,1523,129735371817,/g3t1_2,,running
Status,1524,129735911956,/g3t1_2,,success
Status,1526,129935649807,/g3t1_2,,running
Status,1527,129935723705,/g3t1_2,,fail
Status,1529,130135696559,/g3t1_2,,running
Status,1530,130136436007,/g3t1_2,,success
Status,1532,130336008872,/g3t1_2,,running
Status,1533,130336509716,/g3t1_2,,success
Status,1535,130535939286,/g3t1_2,,running
Status,1536,130536020367,/g3t1_2,,fail
Status,1538,130653726929,/g4t1,,success
Status,1539,130736068435,/g3t1_2,,running
Status,1540,130736447053,/g3t1_2,,success
Status,1542,130936901421,/g3t1_2,,running
Status,1543,130937264475,/g3t1_2,,success
Status,1545,131136834736,/g3t1_2,,running
Status,1546,131137349806,/g3t1_2,,success
Status,1548,131336764224,/g3t1_2,,running
Status,1549,131337166313,/g3t1_2,,success
Status,1551,131536978267,/g3t1_2,,running
Status,1552,131537307261,/g3t1_2,,success
Status,1554,131653634487,/g4t1,,success
Status,1555,131737296543,/g3t1_2,,running
Status,1556,131737359379,/g3t1_2,,fail
Status,1558,131937345819,/g3t1_2,,running
Status,1559,131938065226,/g3t1_2,,fail
Status,1561,132137132697,/g3t1_2,,running
Status,1562,132137537915,/g3t1_2,,success
Status,1564,132337742397,/g3t1_2,,running
Status,1565,132338574765,/g3t1_2,,success
Status,1567,132537713785,/g3t1_2,,running
Status,1568,132537917210,/g3t1_2,,success
Status,1570,132653767305,/g4t1,,success
Status,1571,132737987177,/g3t1_2,,running
Status,1572,132738115135,/g3t1_2,,fail
Status,1574,132938672172,/g3t1_2,,running
Status,1575,132938745439,/g3t1_2,,success
Status,1577,133138808652,/g3t1_2,,running
Status,1578,133139181652,/g3t1_2,,success
Status,1580,133338926448,/g3t1_2,,running
Status,1581,133339457658,/g3t1_2,,success
Status,1583,133539109923,/g3t1_2,,running
Status,1584,133539190908,/g3t1_2,,fail
Status,1586,133653810918,/g4t1,,success
Status,1587,133739322357,/g3t1_2,,running
Status,1588,133739922243,/g3t1_2,,success
Status,1590,133939737540,/g3t1_2,,running
Status,1591,133940555347,/g3t1_2,,success
Status,1593,134139722658,/g3t1_2,,running
Status,1594,134140429500,/g3t1_2,,success
Status,1596,134340058013,/g3t1_2,,running
Status,1597,134340671387,/g3t1_2,,success
Status,1599,134540148026,/g3t1_2,,running
Status,1600,134540996711,/g3t1_2,,success
Status,1602,134654192733,/g4t1,,success
Status,1603,134740279391,/g3t1_2,,running
Status,1604,134740614590,/g3t1_2,,success
Status,1606,134940499472,/g3t1_2,,running
Status,1607,134941095302,/g3t1_2,,success
Status,1609,135140611387,/g3t1_2,,running
Status,1610,135140677507,/g3t1_2,,success
Status,1612,135340621756,/g3t1_2,,running
Status,1613,135340689799,/g3t1_2,,fail
Status,1615,135540934552,/g3t1_2,,running
Status,1616,135541603732,/g3t1_2,,success
Status,1618,135654112006,/g4t1,,success
Status,1619,135741236489,/g3t1_2,,running
Status,1620,135741310210,/g3t1_2,,success
Status,1622,135941035137,/g3t1_2,,running
Status,1623,135941423991,/g3t1_2,,success
Status,1625,136141376555,/g3t1_2,,running
Status,1626,136141750014,/g3t1_2,,fail
Status,1628,136341722442,/g3t1_2,,running
Status,1629,136342566829,/g3t1_2,,success
Status,1631,136541956188,/g3t1_2,,running
Status,1632,136542279209,/g3t1_2,,success
Status,1634,136654219678,/g4t1,,success
Status,1635,136741957439,/g3t1_2,,running
Status,1636,136742333167,/g3t1_2,,success
Status,1638,136942437304,/g3t1_2,,running
Status,1639,136942972686,/g3t1_2,,success
Status,1641,137142677878,/g3t1_2,,running
Status,1642,137143344921,/g3t1_2,,success
Status,1644,137342900599,/g3t1_2,,running
Status,1645,137343196219,/g3t1_2,,success
Status,1647,137543290599,/g3t1_2,,running
Status,1648,137543600619,/g3t1_2,,success
Status,1650,137654629962,/g4t1,,success
Status,1651,137743118957,/g3t1_2,,running
Status,1652,137743351676,/g3t1_2,,success
Status,1654,137943610971,/g3t1_2,,running
Status,1655,137943969866,/g3t1_2,,success
Status,1657,138143653361,/g3t1_2,,running
Status,1658,138144216978,/g3t1_2,,success
Status,1660,138343575204,/g3t1_2,,running
Status,1661,138343928799,/g3t1_2,,success
Status,1663,138543777625,/g3t1_2,,running
Status,1664,138543840074,/g3t1_2,,fail
Status,1666,138654591134,/g4t1,,success
Status,1667,138744026098,/g3t1_2,,running
Status,1668,138744506049,/g3t1_2,,success
Status,1670,138944397892,/g3t1_2,,running
Status,1671,138944472752,/g3t1_2,,success
Status,1673,139144313627,/g3t1_2,,running
Status,1674,139144644050,/g3t1_2,,success
Status,1676,139344466762,/g3t1_2,,running
Status,1677,139345034087,/g3t1_2,,success
Status,1679,139544729749,/g3t1_2,,running
Status,1680,139545523622,/g3t1_2,,success
Status,1682,139654636294,/g4t1,,success
Status,1683,139744955885,/g3t1_2,,running
Status,1684,139745352967,/g3t1_2,,success
Status,1686,139945036540,/g3t1_2,,running
Status,1687,139945601206,/g3t1_2,,success
Status,1689,140145341143,/g3t1_2,,running
Status,1690,140145438864,/g3t1_2,,fail
Status,1692,140345673159,/g3t1_2,,running
Status,1693,140346061257,/g3t1_2,,success
Status,1695,140545803787,/g3t1_2,,running
Status,1696,140546255093,/g3t1_2,,success
Status,1698,140654996085,/g4t1,,success
Status,1699,140745623656,/g3t1_2,,running
Status,1700,140745877984,/g3t1_2,,success
Status,1702,140945837404,/g3t1_2,,running
Status,1703,140945927034,/g3t1_2,,fail
Status,1705,141145785274,/g3t1_2,,running
Status,1706,141146531128,/g3t1_2,,success
Status,1708,141346665003,/g3t1_2,,running
Status,1709,141346737524,/g3t1_2,,fail
Status,1711,141546592281,/g3t1_2,,running
Status,1712,141547034229,/g3t1_2,,success
Status,1714,141655211175,/g4t1,,success
Status,1715,141747234314,/g3t1_2,,running
Status,1716,141747319441,/g3t1_2,,success
Status,1718,141947032301,/g3t1_2,,running
Status,1719,141947556635,/g3t1_2,,success
Status,1721,142147029583,/g3t1_2,,running
Status,1722,142147428068,/g3t1_2,,success
Status,1724,142347654526,/g3t1_2,,running
Status,1725,142347726628,/g3t1_2,,fail
Status,1727,142547993403,/g3t1_2,,running
Status,1728,142548063934,/g3t1_2,,success
Status,1730,142655226056,/g4t1,,success
Status,1731,142747878659,/g3t1_2,,running
Status,1732,142748296554,/g3t1_2,,success
Status,1734,142947943141,/g3t1_2,,running
Status,1735,142948250496,/g3t1_2,,success
Status,1737,143147915675,/g3t1_2,,running
Status,1738,143148354340,/g3t1_2,,success
Status,1740,143348233104,/g3t1_2,,running
Status,1741,143348556530,/g3t1_2,,success
Status,1743,143548396936,/g3t1_2,,running
Status,1744,143548727167,/g3t1_2,,success
Status,1746,143655487256,/g4t1,,success
Status,1747,143748574006,/g3t1_2,,running
Status,1748,143749240752,/g3t1_2,,success
Status,1750,143949078542,/g3t1_2,,running
Status,1751,143949154732,/g3t1_2,,success
Status,1753,144148960975,/g3t1_2,,running
Status,1754,144149396667,/g3t1_2,,success
Status,1756,144349100743,/g3t1_2,,running
Status,1757,144349960920,/g3t1_2,,success
Status,1759,144550141973,/g3t1_2,,running
Status,1760,144550244649,/g3t1_2,,success
Status,1762,144655703275,/g4t1,,success
Status,1763,144749177025,/g3t1_2,,running
Status,1764,144749269854,/g3t1_2,,fail
Status,1766,144949628259,/g3t1_2,,running
Status,1767,144949989176,/g3t1_2,,success
Status,1769,145149598502,/g3t1_2,,running
Status,1770,145150373025,/g3t1_2,,success
Status,1772,145349758519,/g3t1_2,,running
Status,1773,145349819864,/g3t1_2,,success
Status,1775,145549871659,/g3t1_2,,running
Status,1776,145550338750,/g3t1_2,,success
Status,1778,145655913552,/g4t1,,success
Status,1779,145750126375,/g3t1_2,,running
Status,1780,145750569977,/g3t1_2,,success
Status,1782,145950503347,/g3t1_2,,running
Status,1783,145950579412,/g3t1_2,,fail
Status,1785,146150844451,/g3t1_2,,running
Status,1786,146150935206,/g3t1_2,,fail
Status,1788,146351149677,/g3t1_2,,running
Status,1789,146351219441,/g3t1_2,,fail
Status,1791,146551162649,/g3t1_2,,running
Status,1792,146551225102,/g3t1_2,,success
Status,1794,146655917082,/g4t1,,success
Status,1795,146751271922,/g3t1_2,,running
Status,1796,146751334552,/g3t1_2,,success
Status,1798,146951667031,/g3t1_2,,running
Status,1799,146952260692,/g3t1_2,,success
Status,1801,147151796085,/g3t1_2,,running
Status,1802,147151867091,/g3t1_2,,fail
Status,1804,147351760978,/g3t1_2,,running
Status,1805,147352084885,/g3t1_2,,success
Status,1807,147551999222,/g3t1_2,,running
Status,1808,147552500138,/g3t1_2,,success
Status,1810,147656059067,/g4t1,,success
Status,1811,147752241746,/g3t1_2,,running
Status,1812,147752556820,/g3t1_2,,fail
Status,1814,147952371211,/g3t1_2,,running
Status,1815,147952445806,/g3t1_2,,fail
Status,1817,148152732250,/g3t1_2,,running
Status,1818,148152805581,/g3t1_2,,success
Status,1820,148352759070,/g3t1_2,,running
Status,1821,148353200007,/g3t1_2,,success
Status,1823,148552983035,/g3t1_2,,running
Status,1824,148553442225,/g3t1_2,,success
Status,1826,148656068828,/g4t1,,success
Status,1827,148753366508,/g3t1_2,,running
Status,1828,148753445901,/g3t1_2,,fail
Status,1830,148953382158,/g3t1_2,,running
Status,1831,148953803226,/g3t1_2,,success
Status,1833,149153423353,/g3t1_2,,running
Status,1834,149153491803,/g3t1_2,,success
Status,1836,149353451444,/g3t1_2,,running
Status,1837,149353804598,/g3t1_2,,success
Status,1839,149553881089,/g3t1_2,,running
Status,1840,149554634575,/g3t1_2,,success
Status,1842,149656343997,/g4t1,,success
Status,1843,149754110418,/g3t1_2,,running
Status,1844,149754558229,/g3t1_2,,success
Status,1846,149954495558,/g3t1_2,,running
Status,1847,149955076951,/g3t1_2,,success
Status,1849,150154930491,/g3t1_2,,running
Status,1850,150155006365,/g3t1_2,,success
Status,1852,150354896947,/g3t1_2,,running
Status,1853,150354976206,/g3t1_2,,fail
Status,1855,150555265078,/g3t1_2,,running
Status,1856,150555342478,/g3t1_2,,fail
Status,1858,150656370161,/g4t1,,success
Status,1859,150755508696,/g3t1_2,,running
Status,1860,150755575031,/g3t1_2,,success
Status,1862,150955579092,/g3t1_2,,running
Status,1863,150956229766,/g3t1_2,,success
Status,1865,151155691838,/g3t1_2,,running
Status,1866,151156217011,/g3t1_2,,success
Status,1868,151355612836,/g3t1_2,,running
Status,1869,151356302589,/g3t1_2,,success
Status,1871,151555824400,/g3t1_2,,running
Status,1872,151556319240,/g3t1_2,,success
Status,1874,151656597636,/g4t1,,success
Status,1875,151755886433,/g3t1_2,,running
Status,1876,151756301018,/g3t1_2,,fail
Status,1878,151956172323,/g3t1_2,,running
Status,1879,151956973444,/g3t1_2,,success
Status,1881,152156449348,/g3t1_2,,running
Status,1882,152156523381,/g3t1_2,,fail
Status,1884,152356533293,/g3t1_2,,running
Status,1885,152356911585,/g3t1_2,,fail
Status,1887,152556664018,/g3t1_2,,running
Status,1888,152556736011,/g3t1_2,,fail
Status,1890,152656726742,/g4t1,,success
Status,1891,152756687361,/g3t1_2,,running
Status,1892,152757137387,/g3t1_2,,success
Status,1894,152956993012,/g3t1_2,,running
Status,1895,152957378243,/g3t1_2,,success
Status,1897,153157256321,/g3t1_2,,running
Status,1898,153157561897,/g3t1_2,,success
Status,1900,153357345981,/g3t1_2,,running
Status,1901,153357816863,/g3t1_2,,fail
Status,1903,153557474628,/g3t1_2,,running
Status,1904,153557553077,/g3t1_2,,fail
Status,1906,153656914970,/g4t1,,success
Status,1907,153757469173,/g3t1_2,,running
Status,1908,153757814000,/g3t1_2,,success
Status,1910,153957856691,/g3t1_2,,running
Status,1911,153957934034,/g3t1_2,,fail
Status,1913,154158079450,/g3t1_2,,running
Status,1914,154158154958,/g3t1_2,,fail
Status,1916,154357980662,/g3t1_2,,running
Status,1917,154358503279,/g3t1_2,,success
Status,1919,154558342011,/g3t1_2,,running
Status,1920,154558937325,/g3t1_2,,success
Status,1922,154656930363,/g4t1,,success
Status,1923,154758540645,/g3t1_2,,running
Status,1924,154758602405,/g3t1_2,,fail
Status,1926,154958898815,/g3t1_2,,running
Status,1927,154959739413,/g3t1_2,,success
Status,1929,155159072315,/g3t1_2,,running
Status,1930,155159584396,/g3t1_2,,success
Status,1932,155359392934,/g3t1_2,,running
Status,1933,155359472632,/g3t1_2,,fail
Status,1935,155559829642,/g3t1_2,,running
Status,1936,155560597109,/g3t1_2,,success
Status,1938,155657080657,/g4t1,,success
Status,1939,155759465963,/g3t1_2,,running
Status,1940,155759817290,/g3t1_2,,success
Status,1942,155959779331,/g3t1_2,,running
Status,1943,155959842400,/g3t1_2,,fail
Status,1945,156160207275,/g3t1_2,,running
Status,1946,156160279384,/g3t1_2,,fail
Status,1948,156360139865,/g3t1_2,,running
Status,1949,156360936331,/g3t1_2,,success
Status,1951,156560191571,/g3t1_2,,running
Status,1952,156560844009,/g3t1_2,,success
Status,1954,156657144986,/g4t1,,success
Status,1955,156760246288,/g3t1_2,,running
Status,1956,156760439374,/g3t1_2,,success
Status,1958,156960544223,/g3t1_2,,running
Status,1959,156961204374,/g3t1_2,,success
Status,1961,157160935660,/g3t1_2,,running
Status,1962,157161006661,/g3t1_2,,fail
Status,1964,157361171950,/g3t1_2,,running
Status,1965,157361253565,/g3t1_2,,fail
Status,1967,157561369663,/g3t1_2,,running
Status,1968,157561853855,/g3t1_2,,success
Status,1970,157657528863,/g4t1,,success
Status,1971,157761359062,/g3t1_2,,running
Status,1972,157761504372,/g3t1_2,,success
Status,1974,157961350770,/g3t1_2,,running
Status,1975,157961901399,/g3t1_2,,success
Status,1977,158161740381,/g3t1_2,,running
Status,1978,158162299976,/g3t1_2,,success
Status,1980,158362115192,/g3t1_2,,running
Status,1981,158362192540,/g3t1_2,,fail
Status,1983,158562131131,/g3t1_2,,running
Status,1984,158562201770,/g3t1_2,,success
Status,1986,158657635516,/g4t1,,success
Status,1987,158762342071,/g3t1_2,,running
Status,1988,158762457586,/g3t1_2,,fail
Status,1990,158962584999,/g3t1_2,,running
Status,1991,158963132113,/g3t1_2,,success
Status,1993,159162951019,/g3t1_2,,running
Status,1994,159163430087,/g3t1_2,,success
Status,1996,159363078714,/g3t1_2,,running
Status,1997,159363690490,/g3t1_2,,success
Status,1999,159563157851,/g3t1_2,,running
Status,2000,159563237136,/g3t1_2,,fail
Status,2002,159657629127,/g4t1,,success
Status,2003,159763072953,/g3t1_2,,running
Status,2004,159763607457,/g3t1_2,,success
Status,2006,159963153244,/g3t1_2,,running
Status,2007,159963503361,/g3t1_2,,success
Status,2009,160163600953,/g3t1_2,,running
Status,2010,160164563507,/g3t1_2,,success
Status,2012,160363816675,/g3t1_2,,running
Status,2013,160363903886,/g3t1_2,,fail
