
Status,1,9604573539,/g4t1,,init
Status,4,14649291927,/g3t1_2,,init
Status,5,14669566804,/g3t1_2,,init
Status,6,14669597038,/g3t1_2,,running
Status,7,14671474173,/g3t1_2,,success
Status,8,14869648757,/g3t1_2,,running
Status,9,14871022013,/g3t1_2,,success
Status,10,15069743176,/g3t1_2,,running
Status,11,15070993575,/g3t1_2,,success
Status,12,15269746869,/g3t1_2,,running
Status,13,15270941801,/g3t1_2,,success
Status,14,15469843513,/g3t1_2,,running
Status,15,15470916996,/g3t1_2,,success
Status,16,15630012398,/g4t1,,success
Status,17,15669946124,/g3t1_2,,running
Status,18,15671058967,/g3t1_2,,success
Status,19,15869966158,/g3t1_2,,running
Status,20,15870987647,/g3t1_2,,success
Status,21,16070048053,/g3t1_2,,running
Status,22,16071236881,/g3t1_2,,success
Status,23,16270087248,/g3t1_2,,running
Status,24,16271068473,/g3t1_2,,success
Status,25,16470229801,/g3t1_2,,running
Status,26,16471365576,/g3t1_2,,success
Status,27,16630046988,/g4t1,,success
Status,28,16670285850,/g3t1_2,,running
Status,29,16671431405,/g3t1_2,,success
Status,30,16870337159,/g3t1_2,,running
Status,31,16871932611,/g3t1_2,,success
Status,32,17070416928,/g3t1_2,,running
Status,33,17071575899,/g3t1_2,,success
Status,34,17270503427,/g3t1_2,,running
Status,35,17271777601,/g3t1_2,,success
Status,36,17470543082,/g3t1_2,,running
Status,37,17471699000,/g3t1_2,,success
Status,38,17630102494,/g4t1,,success
Status,39,17670630227,/g3t1_2,,running
Status,40,17671929898,/g3t1_2,,success
Status,41,17870669371,/g3t1_2,,running
Status,42,17871586199,/g3t1_2,,success
Status,43,18070800539,/g3t1_2,,running
Status,44,18071952419,/g3t1_2,,success
Status,45,18270832877,/g3t1_2,,running
Status,46,18272000333,/g3t1_2,,success
Status,47,18470921793,/g3t1_2,,running
Status,48,18471876970,/g3t1_2,,success
Status,49,18630211797,/g4t1,,success
Status,50,18670964880,/g3t1_2,,running
Status,51,18672062965,/g3t1_2,,success
Status,52,18871012003,/g3t1_2,,running
Status,53,18872175520,/g3t1_2,,success
Status,54,19071172428,/g3t1_2,,running
Status,55,19072089764,/g3t1_2,,success
Status,56,19271159153,/g3t1_2,,running
Status,57,19272291016,/g3t1_2,,success
Status,58,19471129526,/g3t1_2,,running
Status,59,19472253053,/g3t1_2,,success
Status,60,19630744163,/g4t1,,success
Status,61,19671555103,/g3t1_2,,running
Status,62,19672279489,/g3t1_2,,success
Status,63,19871327010,/g3t1_2,,running
Status,64,19872499908,/g3t1_2,,success
Status,65,20071385275,/g3t1_2,,running
Status,66,20072420257,/g3t1_2,,success
Status,67,20271453381,/g3t1_2,,running
Status,68,20272586178,/g3t1_2,,success
Status,69,20471468551,/g3t1_2,,running
Status,70,20472636825,/g3t1_2,,success
Status,71,20630332638,/g4t1,,success
Status,72,20671601786,/g3t1_2,,running
Status,73,20672650762,/g3t1_2,,success
Status,74,20872064258,/g3t1_2,,running
Status,75,20874694452,/g3t1_2,,success
Status,76,21071688768,/g3t1_2,,running
Status,77,21072900997,/g3t1_2,,success
Status,78,21271751037,/g3t1_2,,running
Status,79,21278147904,/g3t1_2,,success
Status,80,21471765248,/g3t1_2,,running
Status,81,21472731468,/g3t1_2,,success
Status,82,21630367657,/g4t1,,success
Status,83,21671810791,/g3t1_2,,running
Status,84,21672868889,/g3t1_2,,success
Status,85,21871987813,/g3t1_2,,running
Status,86,21873082249,/g3t1_2,,success
Status,87,22071989040,/g3t1_2,,running
Status,88,22073098204,/g3t1_2,,success
Status,89,22272036305,/g3t1_2,,running
Status,90,22273176094,/g3t1_2,,success
Status,91,22472090354,/g3t1_2,,running
Status,92,22473151986,/g3t1_2,,success
Status,93,22630429258,/g4t1,,success
Status,94,22672230071,/g3t1_2,,running
Status,95,22673185154,/g3t1_2,,success
Status,96,22872218569,/g3t1_2,,running
Status,97,22873200024,/g3t1_2,,success
Status,98,23072301736,/g3t1_2,,running
Status,99,23073406189,/g3t1_2,,success
Status,100,23272325697,/g3t1_2,,running
Status,101,23273520703,/g3t1_2,,success
Status,102,23472404222,/g3t1_2,,running
Status,103,23473377222,/g3t1_2,,success
Status,104,23630415941,/g4t1,,success
Status,105,23672505634,/g3t1_2,,running
Status,106,23673632698,/g3t1_2,,success
Status,107,23872538371,/g3t1_2,,running
Status,108,23873464111,/g3t1_2,,success
Status,109,24072566447,/g3t1_2,,running
Status,110,24073933996,/g3t1_2,,success
Status,111,24272605267,/g3t1_2,,running
Status,112,24273674619,/g3t1_2,,success
Status,113,24472668606,/g3t1_2,,running
Status,114,24473778636,/g3t1_2,,success
Status,115,24630630119,/g4t1,,success
Status,116,24672786893,/g3t1_2,,running
Status,117,24673852866,/g3t1_2,,success
Status,118,24872795916,/g3t1_2,,running
Status,119,24873823571,/g3t1_2,,success
Status,120,25073119137,/g3t1_2,,running
Status,121,25074515961,/g3t1_2,,success
Status,122,25273183194,/g3t1_2,,running
Status,123,25274898870,/g3t1_2,,success
Status,124,25473042048,/g3t1_2,,running
Status,125,25474086410,/g3t1_2,,success
Status,126,25630504122,/g4t1,,success
Status,127,25673173865,/g3t1_2,,running
Status,128,25674165230,/g3t1_2,,success
Status,129,25873184325,/g3t1_2,,running
Status,130,25874243373,/g3t1_2,,success
Status,131,26073164382,/g3t1_2,,running
Status,132,26076919240,/g3t1_2,,success
Status,133,26273268346,/g3t1_2,,running
Status,134,26274322532,/g3t1_2,,success
Status,135,26473372638,/g3t1_2,,running
Status,136,26474228497,/g3t1_2,,success
Status,137,26630640459,/g4t1,,success
Status,138,26673382721,/g3t1_2,,running
Status,139,26674564384,/g3t1_2,,success
Status,140,26873457297,/g3t1_2,,running
Status,141,26874552704,/g3t1_2,,success
Status,142,27073496162,/g3t1_2,,running
Status,143,27074580952,/g3t1_2,,success
Status,144,27273642069,/g3t1_2,,running
Status,145,27274585889,/g3t1_2,,success
Status,146,27473649423,/g3t1_2,,running
Status,147,27474763360,/g3t1_2,,success
Status,148,27630782911,/g4t1,,success
Status,149,27673764031,/g3t1_2,,running
Status,150,27674968703,/g3t1_2,,success
Status,151,27873811908,/g3t1_2,,running
Status,152,27874818090,/g3t1_2,,success
Status,153,28073849183,/g3t1_2,,running
Status,154,28074967011,/g3t1_2,,success
Status,155,28273911708,/g3t1_2,,running
Status,156,28274880684,/g3t1_2,,success
Status,157,28474009879,/g3t1_2,,running
Status,158,28475080370,/g3t1_2,,success
Status,159,28630807894,/g4t1,,success
Status,160,28674106180,/g3t1_2,,running
Status,161,28675398059,/g3t1_2,,success
Status,162,28874067395,/g3t1_2,,running
Status,163,28875060895,/g3t1_2,,success
Status,164,29074190032,/g3t1_2,,running
Status,165,29075329155,/g3t1_2,,success
Status,166,29274210308,/g3t1_2,,running
Status,167,29279725083,/g3t1_2,,success
Status,168,29474361507,/g3t1_2,,running
Status,169,29475273072,/g3t1_2,,success
Status,170,29630814284,/g4t1,,success
Status,171,29674350975,/g3t1_2,,running
Status,172,29675852463,/g3t1_2,,success
Status,173,29874346941,/g3t1_2,,running
Status,174,29875506389,/g3t1_2,,success
Status,175,30074503151,/g3t1_2,,running
Status,176,30075389725,/g3t1_2,,success
Status,177,30274500025,/g3t1_2,,running
Status,178,30275575425,/g3t1_2,,success
Status,179,30474597636,/g3t1_2,,running
Status,180,30475777890,/g3t1_2,,success
Status,181,30630920776,/g4t1,,success
Status,182,30674686700,/g3t1_2,,running
Status,183,30675869283,/g3t1_2,,success
Status,184,30874766047,/g3t1_2,,running
Status,185,30879037298,/g3t1_2,,success
Status,186,31074817427,/g3t1_2,,running
Status,187,31075909412,/g3t1_2,,success
Status,188,31274945272,/g3t1_2,,running
Status,189,31275999246,/g3t1_2,,success
Status,190,31474967436,/g3t1_2,,running
Status,191,31476072499,/g3t1_2,,success
Status,192,31630987069,/g4t1,,success
Status,193,31675026828,/g3t1_2,,running
Status,194,31676036260,/g3t1_2,,success
Status,195,31875150322,/g3t1_2,,running
Status,196,31876273335,/g3t1_2,,success
Status,197,32075169600,/g3t1_2,,running
Status,198,32076371127,/g3t1_2,,success
Status,199,32275246491,/g3t1_2,,running
Status,200,32276271649,/g3t1_2,,success
Status,201,32475627608,/g3t1_2,,running
Status,202,32478182147,/g3t1_2,,success
Status,203,32631034542,/g4t1,,success
Status,204,32675331990,/g3t1_2,,running
Status,205,32676461762,/g3t1_2,,success
Status,206,32875404100,/g3t1_2,,running
Status,207,32876414659,/g3t1_2,,success
Status,208,33075490745,/g3t1_2,,running
Status,209,33076423740,/g3t1_2,,success
Status,210,33275478059,/g3t1_2,,running
Status,211,33276917602,/g3t1_2,,success
Status,212,33475575501,/g3t1_2,,running
Status,213,33476640610,/g3t1_2,,success
Status,214,33631124071,/g4t1,,success
Status,215,33675706132,/g3t1_2,,running
Status,216,33676922641,/g3t1_2,,success
Status,217,33875790714,/g3t1_2,,running
Status,218,33876751686,/g3t1_2,,success
Status,219,34075838005,/g3t1_2,,running
Status,220,34076840393,/g3t1_2,,success
Status,221,34275931209,/g3t1_2,,running
Status,222,34277311706,/g3t1_2,,success
Status,223,34475908814,/g3t1_2,,running
Status,224,34476936742,/g3t1_2,,success
Status,225,34631121200,/g4t1,,success
Status,226,34676173195,/g3t1_2,,running
Status,227,34677606235,/g3t1_2,,success
Status,228,34876006080,/g3t1_2,,running
Status,229,34877080202,/g3t1_2,,success
Status,230,35076146278,/g3t1_2,,running
Status,231,35077213109,/g3t1_2,,success
Status,232,35276158470,/g3t1_2,,running
Status,233,35277189012,/g3t1_2,,success
Status,234,35476200591,/g3t1_2,,running
Status,235,35477208867,/g3t1_2,,success
Status,236,35631272426,/g4t1,,success
Status,237,35676293493,/g3t1_2,,running
Status,238,35677285672,/g3t1_2,,success
Status,239,35876373618,/g3t1_2,,running
Status,240,35877582974,/g3t1_2,,success
Status,241,36076427105,/g3t1_2,,running
Status,242,36077536785,/g3t1_2,,success
Status,243,36276510145,/g3t1_2,,running
Status,244,36277553881,/g3t1_2,,success
Status,245,36476611638,/g3t1_2,,running
Status,246,36477706945,/g3t1_2,,success
Status,247,36631330025,/g4t1,,success
Status,248,36676640451,/g3t1_2,,running
Status,249,36679104759,/g3t1_2,,success
Status,250,36876937893,/g3t1_2,,running
Status,251,36878074682,/g3t1_2,,success
Status,252,37076750669,/g3t1_2,,running
Status,253,37077781083,/g3t1_2,,success
Status,254,37276854313,/g3t1_2,,running
Status,255,37277902100,/g3t1_2,,success
Status,256,37476897055,/g3t1_2,,running
Status,257,37483151159,/g3t1_2,,success
Status,258,37631348083,/g4t1,,success
Status,259,37677003880,/g3t1_2,,running
Status,260,37678123030,/g3t1_2,,success
Status,261,37877969265,/g3t1_2,,running
Status,262,37878483385,/g3t1_2,,success
Status,263,38077335185,/g3t1_2,,running
Status,264,38078513587,/g3t1_2,,success
Status,265,38277443094,/g3t1_2,,running
Status,266,38279455064,/g3t1_2,,success
Status,267,38477309762,/g3t1_2,,running
Status,268,38478443331,/g3t1_2,,success
Status,269,38631392603,/g4t1,,success
Status,270,38677344304,/g3t1_2,,running
Status,271,38678928749,/g3t1_2,,success
Status,272,38877892600,/g3t1_2,,running
Status,273,38878816923,/g3t1_2,,success
Status,274,39077460676,/g3t1_2,,running
Status,275,39078258209,/g3t1_2,,success
Status,276,39277548566,/g3t1_2,,running
Status,277,39278496850,/g3t1_2,,success
Status,278,39477565813,/g3t1_2,,running
Status,279,39478633685,/g3t1_2,,success
Status,280,39631478472,/g4t1,,success
Status,281,39677689506,/g3t1_2,,running
Status,282,39678416207,/g3t1_2,,success
Status,283,39877678565,/g3t1_2,,running
Status,284,39878708670,/g3t1_2,,success
Status,285,40077725110,/g3t1_2,,running
Status,286,40078780874,/g3t1_2,,success
Status,287,40277795246,/g3t1_2,,running
Status,288,40278848208,/g3t1_2,,success
Status,289,40477841283,/g3t1_2,,running
Status,290,40478894233,/g3t1_2,,success
Status,291,40631525525,/g4t1,,success
Status,292,40677950270,/g3t1_2,,running
Status,293,40678929543,/g3t1_2,,success
Status,294,40877970745,/g3t1_2,,running
Status,295,40879063208,/g3t1_2,,success
Status,296,41078043209,/g3t1_2,,running
Status,297,41079005073,/g3t1_2,,success
Status,298,41278142858,/g3t1_2,,running
Status,299,41283014619,/g3t1_2,,success
Status,300,41478242698,/g3t1_2,,running
Status,301,41483933173,/g3t1_2,,success
Status,302,41631612516,/g4t1,,success
Status,303,41678280582,/g3t1_2,,running
Status,304,41679836419,/g3t1_2,,success
Status,305,41879026924,/g3t1_2,,running
Status,306,41879952046,/g3t1_2,,success
Status,307,42078404381,/g3t1_2,,running
Status,308,42079405562,/g3t1_2,,success
Status,309,42278429592,/g3t1_2,,running
Status,310,42279458426,/g3t1_2,,success
Status,311,42478544683,/g3t1_2,,running
Status,312,42479827523,/g3t1_2,,success
Status,313,42631608815,/g4t1,,success
Status,314,42678814092,/g3t1_2,,running
Status,315,42679740829,/g3t1_2,,success
Status,316,42878659666,/g3t1_2,,running
Status,317,42888286249,/g3t1_2,,success
Status,318,43078724079,/g3t1_2,,running
Status,319,43080006702,/g3t1_2,,success
Status,320,43278774093,/g3t1_2,,running
Status,321,43279998497,/g3t1_2,,success
Status,322,43478942011,/g3t1_2,,running
Status,323,43480103273,/g3t1_2,,success
Status,324,43631702561,/g4t1,,success
Status,325,43678949283,/g3t1_2,,running
Status,326,43679986735,/g3t1_2,,success
Status,327,43879030568,/g3t1_2,,running
Status,328,43880183219,/g3t1_2,,success
Status,329,44079068725,/g3t1_2,,running
Status,330,44080354618,/g3t1_2,,success
