
Status,1,20799870594,g4t1,,init
Status,4,26115043977,g3t1_1,,init
Status,5,26130628942,g3t1_1,,init
Status,6,26130659855,g3t1_1,,running
Status,7,26131898364,g3t1_1,,success
Status,9,26518501797,g3t1_2,,init
Status,10,26534095071,g3t1_2,,init
Status,11,26534119747,g3t1_2,,running
Status,12,26535158443,g3t1_2,,success
Status,14,26718991883,g3t1_4,,init
Status,15,26733993971,g3t1_4,,init
Status,16,26734020505,g3t1_4,,running
Status,17,26734211788,g3t1_2,,running
Status,18,26734781631,g3t1_2,,success
Status,19,26737226611,g3t1_4,,success
Status,20,26934569162,g3t1_2,,running
Status,21,26935803972,g3t1_2,,success
Status,22,27134688715,g3t1_2,,running
Status,23,27135947713,g3t1_2,,success
Status,24,27334798845,g3t1_2,,running
Status,25,27336078210,g3t1_2,,success
Status,26,27534906587,g3t1_2,,running
Status,27,27536125303,g3t1_2,,success
Status,28,27734641371,g3t1_4,,running
Status,29,27734843033,g3t1_2,,running
Status,30,27736604759,g3t1_2,,success
Status,31,27741978263,g3t1_4,,success
Status,32,27818918108,g4t1,,success
Status,33,27934951751,g3t1_2,,running
Status,34,27936050004,g3t1_2,,success
Status,35,28135130355,g3t1_2,,running
Status,36,28136227389,g3t1_2,,success
Status,37,28335209192,g3t1_2,,running
Status,38,28336319704,g3t1_2,,success
Status,39,28535298014,g3t1_2,,running
Status,40,28536397654,g3t1_2,,success
Status,41,28734453133,g3t1_4,,running
Status,42,28735268994,g3t1_2,,running
Status,43,28736667438,g3t1_2,,success
Status,44,28741632499,g3t1_4,,success
Status,45,28818969386,g4t1,,success
Status,46,28935438991,g3t1_2,,running
Status,47,28936682320,g3t1_2,,success
Status,48,29135579905,g3t1_2,,running
Status,49,29136763787,g3t1_2,,success
Status,50,29336074509,g3t1_2,,running
Status,51,29337522647,g3t1_2,,success
Status,52,29536199379,g3t1_2,,running
Status,53,29537620632,g3t1_2,,success
Status,54,29735059711,g3t1_4,,running
Status,55,29735809250,g3t1_2,,running
Status,56,29737358699,g3t1_2,,success
Status,57,29742764321,g3t1_4,,success
Status,58,29819136254,g4t1,,success
Status,59,29935604808,g3t1_2,,running
Status,60,29936146994,g3t1_2,,success
Status,61,30136383735,g3t1_2,,running
Status,62,30137800032,g3t1_2,,success
Status,63,30336151459,g3t1_2,,running
Status,64,30336231941,g3t1_2,,success
Status,65,30535790954,g3t1_2,,running
Status,66,30536396716,g3t1_2,,success
Status,67,30734410585,g3t1_4,,running
Status,68,30735841303,g3t1_2,,running
Status,69,30736553750,g3t1_2,,success
Status,70,30738102254,g3t1_4,,success
Status,71,30818736931,g4t1,,success
Status,72,30936001935,g3t1_2,,running
Status,73,30936684593,g3t1_2,,success
Status,74,31131040312,g3t1_1,,running
Status,75,31132499883,g3t1_1,,success
Status,76,31136247694,g3t1_2,,running
Status,77,31137426001,g3t1_2,,success
Status,78,31336464759,g3t1_2,,running
Status,79,31337844878,g3t1_2,,success
Status,80,31536512343,g3t1_2,,running
Status,81,31537860004,g3t1_2,,success
Status,82,31735150719,g3t1_4,,running
Status,83,31736553139,g3t1_2,,running
Status,84,31738612098,g3t1_2,,success
Status,85,31744663331,g3t1_4,,success
Status,86,31819388183,g4t1,,success
Status,87,31936743242,g3t1_2,,running
Status,88,31937980100,g3t1_2,,success
Status,89,32136736425,g3t1_2,,running
Status,90,32138115448,g3t1_2,,success
Status,91,32337405393,g3t1_2,,running
Status,92,32338750479,g3t1_2,,success
Status,93,32537082576,g3t1_2,,running
Status,94,32538420231,g3t1_2,,success
Status,95,32735286122,g3t1_4,,running
Status,96,32737020461,g3t1_2,,running
Status,97,32738418712,g3t1_2,,success
Status,98,32742973239,g3t1_4,,success
Status,99,32819622974,g4t1,,success
Status,100,32937740012,g3t1_2,,running
Status,101,32938756970,g3t1_2,,success
Status,102,33137939106,g3t1_2,,running
Status,103,33139144679,g3t1_2,,success
Status,104,33337888352,g3t1_2,,running
Status,105,33339201170,g3t1_2,,success
Status,106,33537914255,g3t1_2,,running
Status,107,33539395275,g3t1_2,,success
Status,108,33736217384,g3t1_4,,running
Status,109,33737695223,g3t1_2,,running
Status,110,33740249344,g3t1_2,,success
Status,111,33743678060,g3t1_4,,success
Status,112,33819888996,g4t1,,success
Status,113,33937843280,g3t1_2,,running
Status,114,33938961425,g3t1_2,,success
Status,115,34137945260,g3t1_2,,running
Status,116,34139131094,g3t1_2,,success
Status,117,34338371327,g3t1_2,,running
Status,118,34339870822,g3t1_2,,success
Status,119,34538523201,g3t1_2,,running
Status,120,34539755514,g3t1_2,,success
Status,121,34735113994,g3t1_4,,running
Status,122,34738110179,g3t1_2,,running
Status,123,34739488049,g3t1_2,,success
Status,124,34742845112,g3t1_4,,success
Status,125,34819604297,g4t1,,success
Status,126,34938377754,g3t1_2,,running
Status,127,34939602260,g3t1_2,,success
Status,128,35138471595,g3t1_2,,running
Status,129,35139817055,g3t1_2,,success
Status,130,35338961825,g3t1_2,,running
Status,131,35340321029,g3t1_2,,success
Status,132,35539113508,g3t1_2,,running
Status,133,35540375340,g3t1_2,,success
Status,134,35735529427,g3t1_4,,running
Status,135,35738790824,g3t1_2,,running
Status,136,35740178678,g3t1_2,,success
Status,137,35743510735,g3t1_4,,success
Status,138,35819666779,g4t1,,success
Status,139,35938926651,g3t1_2,,running
Status,140,35940177781,g3t1_2,,success
Status,141,36131653463,g3t1_1,,running
Status,142,36133239944,g3t1_1,,success
Status,143,36138799309,g3t1_2,,running
Status,144,36139926793,g3t1_2,,success
Status,145,36340291057,g3t1_2,,running
Status,146,36340538948,g3t1_2,,success
Status,147,36539699391,g3t1_2,,running
Status,148,36540768936,g3t1_2,,success
Status,149,36735191802,g3t1_4,,running
Status,150,36739338991,g3t1_2,,running
Status,151,36740347466,g3t1_2,,success
Status,152,36742222604,g3t1_4,,success
Status,153,36819778334,g4t1,,success
Status,154,36939286659,g3t1_2,,running
Status,155,36940712917,g3t1_2,,success
Status,156,37139772388,g3t1_2,,running
Status,157,37141084869,g3t1_2,,success
Status,158,37339934736,g3t1_2,,running
Status,159,37341250190,g3t1_2,,success
Status,160,37540014248,g3t1_2,,running
Status,161,37541118900,g3t1_2,,success
Status,162,37736691357,g3t1_4,,running
Status,163,37739611643,g3t1_2,,running
Status,164,37740720371,g3t1_2,,success
Status,165,37743553756,g3t1_4,,success
Status,166,37820388497,g4t1,,success
Status,167,37939776074,g3t1_2,,running
Status,168,37941059622,g3t1_2,,success
Status,169,38139922080,g3t1_2,,running
Status,170,38141129890,g3t1_2,,success
Status,171,38340367852,g3t1_2,,running
Status,172,38341766590,g3t1_2,,success
Status,173,38540555494,g3t1_2,,running
Status,174,38541851277,g3t1_2,,success
Status,175,38735454234,g3t1_4,,running
Status,176,38740145114,g3t1_2,,running
Status,177,38741932061,g3t1_2,,success
Status,178,38742803385,g3t1_4,,success
Status,179,38819961908,g4t1,,success
Status,180,38940676528,g3t1_2,,running
Status,181,38941937076,g3t1_2,,success
Status,182,39140741470,g3t1_2,,running
Status,183,39142161400,g3t1_2,,success
Status,184,39340558616,g3t1_2,,running
Status,185,39341804688,g3t1_2,,success
Status,186,39540582246,g3t1_2,,running
Status,187,39541239647,g3t1_2,,success
Status,188,39735809625,g3t1_4,,running
Status,189,39740666633,g3t1_2,,running
Status,190,39741736876,g3t1_2,,success
Status,191,39742739900,g3t1_4,,success
Status,192,39820052435,g4t1,,success
Status,193,39940853902,g3t1_2,,running
Status,194,39942250843,g3t1_2,,success
Status,195,40141345526,g3t1_2,,running
Status,196,40142827027,g3t1_2,,success
Status,197,40341426122,g3t1_2,,running
Status,198,40342930068,g3t1_2,,success
Status,199,40541134376,g3t1_2,,running
Status,200,40542533969,g3t1_2,,success
Status,201,40735544231,g3t1_4,,running
Status,202,40741152395,g3t1_2,,running
Status,203,40742240395,g3t1_4,,success
Status,204,40742541975,g3t1_2,,success
Status,205,40820124911,g4t1,,success
Status,206,40941343089,g3t1_2,,running
Status,207,40942809402,g3t1_2,,success
Status,208,41132215282,g3t1_1,,running
Status,209,41132444673,g3t1_1,,success
Status,210,41141366364,g3t1_2,,running
Status,211,41142438979,g3t1_2,,success
Status,212,41342438435,g3t1_2,,running
Status,213,41342497069,g3t1_2,,success
Status,214,41542054677,g3t1_2,,running
Status,215,41543201141,g3t1_2,,success
Status,216,41736194817,g3t1_4,,running
Status,217,41741525819,g3t1_2,,running
Status,218,41743301718,g3t1_2,,success
Status,219,41744239094,g3t1_4,,success
Status,220,41820583114,g4t1,,success
Status,221,41941697780,g3t1_2,,running
Status,222,41942886962,g3t1_2,,success
Status,223,42142112671,g3t1_2,,running
Status,224,42143241428,g3t1_2,,success
Status,225,42342126462,g3t1_2,,running
Status,226,42343259950,g3t1_2,,success
Status,227,42542479206,g3t1_2,,running
Status,228,42543950156,g3t1_2,,success
Status,229,42735881771,g3t1_4,,running
Status,230,42741765889,g3t1_2,,running
Status,231,42742493531,g3t1_2,,success
Status,232,42743652234,g3t1_4,,success
Status,233,42820321506,g4t1,,success
Status,234,42942123117,g3t1_2,,running
Status,235,42943470614,g3t1_2,,success
Status,236,43142217184,g3t1_2,,running
Status,237,43143395993,g3t1_2,,success
Status,238,43342737173,g3t1_2,,running
Status,239,43344178469,g3t1_2,,success
Status,240,43542977843,g3t1_2,,running
Status,241,43544418497,g3t1_2,,success
Status,242,43736297625,g3t1_4,,running
Status,243,43742512888,g3t1_2,,running
Status,244,43743910300,g3t1_4,,success
Status,245,43744142441,g3t1_2,,success
Status,246,43820887532,g4t1,,success
Status,247,43943116274,g3t1_2,,running
Status,248,43944427693,g3t1_2,,success
Status,249,44143180029,g3t1_2,,running
Status,250,44144401308,g3t1_2,,success
Status,251,44343313351,g3t1_2,,running
Status,252,44344472003,g3t1_2,,success
Status,253,44543435790,g3t1_2,,running
Status,254,44544690485,g3t1_2,,success
Status,255,44737310994,g3t1_4,,running
Status,256,44742192438,g3t1_4,,success
Status,257,44743051953,g3t1_2,,running
Status,258,44743869072,g3t1_2,,success
Status,259,44820909524,g4t1,,success
Status,260,44943816620,g3t1_2,,running
Status,261,44944923126,g3t1_2,,success
Status,262,45143830173,g3t1_2,,running
Status,263,45145336527,g3t1_2,,success
Status,264,45344835847,g3t1_2,,running
Status,265,45345003976,g3t1_2,,success
Status,266,45544890357,g3t1_2,,running
Status,267,45545058946,g3t1_2,,success
Status,268,45736492398,g3t1_4,,running
Status,269,45743419487,g3t1_4,,success
Status,270,45743704092,g3t1_2,,running
Status,271,45744587516,g3t1_2,,success
Status,272,45821047560,g4t1,,success
Status,273,45944265533,g3t1_2,,running
Status,274,45945787481,g3t1_2,,success
Status,275,46131701650,g3t1_1,,running
Status,276,46132985154,g3t1_1,,success
Status,277,46144050041,g3t1_2,,running
Status,278,46145187731,g3t1_2,,success
Status,279,46344466222,g3t1_2,,running
Status,280,46345704466,g3t1_2,,success
Status,281,46544578048,g3t1_2,,running
Status,282,46545843137,g3t1_2,,success
Status,283,46736296478,g3t1_4,,running
Status,284,46743016988,g3t1_4,,success
Status,285,46744208833,g3t1_2,,running
Status,286,46745330036,g3t1_2,,success
Status,287,46820762445,g4t1,,success
Status,288,46944408419,g3t1_2,,running
Status,289,46945634275,g3t1_2,,success
Status,290,47144440388,g3t1_2,,running
Status,291,47145664116,g3t1_2,,success
Status,292,47344848060,g3t1_2,,running
Status,293,47346153304,g3t1_2,,success
Status,294,47545077133,g3t1_2,,running
Status,295,47546422118,g3t1_2,,success
Status,296,47737517390,g3t1_4,,running
Status,297,47744463501,g3t1_2,,running
Status,298,47745113589,g3t1_4,,success
Status,299,47745242640,g3t1_2,,success
Status,300,47821245081,g4t1,,success
Status,301,47945369322,g3t1_2,,running
Status,302,47946629837,g3t1_2,,success
Status,303,48145530489,g3t1_2,,running
Status,304,48146826934,g3t1_2,,success
Status,305,48345499612,g3t1_2,,running
Status,306,48346669758,g3t1_2,,success
Status,307,48545714552,g3t1_2,,running
Status,308,48547005253,g3t1_2,,success
Status,309,48737028682,g3t1_4,,running
Status,310,48743811174,g3t1_4,,success
Status,311,48745031494,g3t1_2,,running
Status,312,48745924107,g3t1_2,,success
Status,313,48821016155,g4t1,,success
Status,314,48945723699,g3t1_2,,running
Status,315,48946968592,g3t1_2,,success
Status,316,49145888862,g3t1_2,,running
Status,317,49147150510,g3t1_2,,success
Status,318,49345989344,g3t1_2,,running
Status,319,49347305961,g3t1_2,,success
Status,320,49546163235,g3t1_2,,running
Status,321,49547413795,g3t1_2,,success
Status,322,49738138768,g3t1_4,,running
Status,323,49743887190,g3t1_4,,success
Status,324,49745744678,g3t1_2,,running
Status,325,49746859116,g3t1_2,,success
Status,326,49821016413,g4t1,,success
Status,327,49945887409,g3t1_2,,running
Status,328,49947140407,g3t1_2,,success
Status,329,50146400788,g3t1_2,,running
Status,330,50147571039,g3t1_2,,success
Status,331,50346394427,g3t1_2,,running
Status,332,50347414389,g3t1_2,,success
Status,333,50546168158,g3t1_2,,running
Status,334,50547383590,g3t1_2,,success
Status,335,50737296619,g3t1_4,,running
Status,336,50744168980,g3t1_4,,success
Status,337,50746089676,g3t1_2,,running
Status,338,50747108854,g3t1_2,,success
Status,339,50821279180,g4t1,,success
Status,340,50946399215,g3t1_2,,running
Status,341,50947449973,g3t1_2,,success
Status,342,51131321251,g3t1_1,,running
Status,343,51132773421,g3t1_1,,success
Status,344,51146381043,g3t1_2,,running
Status,345,51147634381,g3t1_2,,success
Status,346,51346595304,g3t1_2,,running
Status,347,51347853691,g3t1_2,,success
Status,348,51547123678,g3t1_2,,running
Status,349,51548738682,g3t1_2,,success
Status,350,51737388844,g3t1_4,,running
Status,351,51744633992,g3t1_4,,success
Status,352,51747241173,g3t1_2,,running
Status,353,51748691981,g3t1_2,,success
Status,354,51821755412,g4t1,,success
Status,355,51947330456,g3t1_2,,running
Status,356,51948536657,g3t1_2,,success
Status,357,52147063400,g3t1_2,,running
Status,358,52148307160,g3t1_2,,success
Status,359,52347460395,g3t1_2,,running
Status,360,52348638843,g3t1_2,,success
Status,361,52547729114,g3t1_2,,running
Status,362,52548931661,g3t1_2,,success
Status,363,52737013210,g3t1_4,,running
Status,364,52746269638,g3t1_4,,success
Status,365,52747038370,g3t1_2,,running
Status,366,52747902568,g3t1_2,,success
Status,367,52821492946,g4t1,,success
Status,368,52947334366,g3t1_2,,running
Status,369,52948752459,g3t1_2,,success
Status,370,53147986005,g3t1_2,,running
Status,371,53149607627,g3t1_2,,success
Status,372,53348032118,g3t1_2,,running
Status,373,53350143768,g3t1_2,,success
Status,374,53548250681,g3t1_2,,running
Status,375,53549927429,g3t1_2,,success
Status,376,53737738572,g3t1_4,,running
Status,377,53744753065,g3t1_4,,success
Status,378,53748053775,g3t1_2,,running
Status,379,53749091115,g3t1_2,,success
Status,380,53822054997,g4t1,,success
Status,381,53947980647,g3t1_2,,running
Status,382,53949367973,g3t1_2,,success
Status,383,54147966535,g3t1_2,,running
Status,384,54149424830,g3t1_2,,success
Status,385,54348441112,g3t1_2,,running
Status,386,54349769181,g3t1_2,,success
Status,387,54549193554,g3t1_2,,running
Status,388,54550499337,g3t1_2,,success
Status,389,54737773726,g3t1_4,,running
Status,390,54745826493,g3t1_4,,success
Status,391,54748121231,g3t1_2,,running
Status,392,54749507880,g3t1_2,,success
Status,393,54822384976,g4t1,,success
Status,394,54948494349,g3t1_2,,running
Status,395,54949831427,g3t1_2,,success
Status,396,55149574307,g3t1_2,,running
Status,397,55149641464,g3t1_2,,success
Status,398,55348592013,g3t1_2,,running
Status,399,55349878591,g3t1_2,,success
Status,400,55549212128,g3t1_2,,running
Status,401,55550578068,g3t1_2,,success
Status,402,55737833908,g3t1_4,,running
Status,403,55747045674,g3t1_4,,success
Status,404,55749191465,g3t1_2,,running
Status,405,55749818530,g3t1_2,,success
Status,406,55822591514,g4t1,,success
Status,407,55949852704,g3t1_2,,running
Status,408,55950018857,g3t1_2,,success
Status,409,56131391994,g3t1_1,,running
Status,410,56132604416,g3t1_1,,success
Status,411,56148881977,g3t1_2,,running
Status,412,56150120294,g3t1_2,,success
Status,413,56349399939,g3t1_2,,running
Status,414,56350174826,g3t1_2,,success
Status,416,56549211148,g3t1_2,,running
Status,417,56550666088,g3t1_2,,success
Status,419,56737535097,g3t1_4,,running
Status,420,56746026091,g3t1_4,,success
Status,421,56749098087,g3t1_2,,running
Status,422,56750365836,g3t1_2,,success
Status,424,56822449424,g4t1,,success
Status,425,56949600935,g3t1_2,,running
Status,426,56951796591,g3t1_2,,success
Status,428,57149760965,g3t1_2,,running
Status,429,57150993402,g3t1_2,,success
Status,431,57350752904,g3t1_2,,running
Status,432,57350810713,g3t1_2,,success
Status,434,57549696907,g3t1_2,,running
Status,435,57550945254,g3t1_2,,success
Status,437,57737967083,g3t1_4,,running
Status,438,57746934958,g3t1_4,,success
Status,439,57749697339,g3t1_2,,running
Status,440,57750464240,g3t1_2,,success
Status,442,57822513545,g4t1,,success
Status,443,57950125489,g3t1_2,,running
Status,444,57951350944,g3t1_2,,success
Status,446,58150160852,g3t1_2,,running
Status,447,58151392866,g3t1_2,,success
Status,449,58350299430,g3t1_2,,running
Status,450,58351584860,g3t1_2,,success
Status,452,58550470253,g3t1_2,,running
Status,453,58551759906,g3t1_2,,success
Status,455,58737778960,g3t1_4,,running
Status,456,58744794693,g3t1_4,,success
Status,457,58750121035,g3t1_2,,running
Status,458,58751096481,g3t1_2,,success
Status,460,58822120209,g4t1,,success
Status,461,58950289129,g3t1_2,,running
Status,462,58951616407,g3t1_2,,success
Status,464,59150699270,g3t1_2,,running
Status,465,59151942913,g3t1_2,,success
Status,467,59350592017,g3t1_2,,running
Status,468,59351903770,g3t1_2,,success
Status,470,59551042499,g3t1_2,,running
Status,471,59552539777,g3t1_2,,success
Status,473,59738262068,g3t1_4,,running
Status,474,59745263977,g3t1_4,,success
Status,475,59750885936,g3t1_2,,running
Status,476,59751860425,g3t1_2,,success
Status,478,59822670193,g4t1,,success
Status,479,59950727589,g3t1_2,,running
Status,480,59952022487,g3t1_2,,success
Status,482,60150874446,g3t1_2,,running
Status,483,60151951549,g3t1_2,,success
Status,485,60351531704,g3t1_2,,running
Status,486,60352734914,g3t1_2,,success
Status,488,60551578655,g3t1_2,,running
Status,489,60552801945,g3t1_2,,success
Status,491,60739274763,g3t1_4,,running
Status,492,60745360220,g3t1_4,,success
Status,493,60751334787,g3t1_2,,running
Status,494,60752352376,g3t1_2,,success
Status,496,60822747179,g4t1,,success
Status,497,60951814265,g3t1_2,,running
Status,498,60952871957,g3t1_2,,success
Status,500,61131566870,g3t1_1,,running
Status,501,61132873707,g3t1_1,,success
Status,502,61151386611,g3t1_2,,running
Status,503,61152760096,g3t1_2,,success
Status,505,61351572994,g3t1_2,,running
Status,506,61352781190,g3t1_2,,success
Status,508,61552006835,g3t1_2,,running
Status,509,61553291362,g3t1_2,,success
Status,511,61738948533,g3t1_4,,running
Status,512,61744132172,g3t1_4,,success
Status,513,61751702665,g3t1_2,,running
Status,514,61752708242,g3t1_2,,success
Status,516,61822530574,g4t1,,success
Status,517,61951826254,g3t1_2,,running
Status,518,61953170088,g3t1_2,,success
Status,520,62152385918,g3t1_2,,running
Status,521,62153895584,g3t1_2,,success
Status,523,62352356165,g3t1_2,,running
Status,524,62353609918,g3t1_2,,success
Status,526,62552072912,g3t1_2,,running
Status,527,62553306670,g3t1_2,,success
Status,529,62738508636,g3t1_4,,running
Status,530,62747356815,g3t1_4,,success
Status,531,62752209857,g3t1_2,,running
Status,532,62753299082,g3t1_2,,success
Status,534,62823219931,g4t1,,success
Status,535,62952275564,g3t1_2,,running
Status,536,62953407238,g3t1_2,,success
Status,538,63152437557,g3t1_2,,running
Status,539,63153682256,g3t1_2,,success
Status,541,63353554390,g3t1_2,,running
Status,542,63353634410,g3t1_2,,success
Status,544,63553527347,g3t1_2,,running
Status,545,63553793321,g3t1_2,,success
Status,547,63738312350,g3t1_4,,running
Status,548,63745597627,g3t1_4,,success
Status,549,63752681982,g3t1_2,,running
Status,550,63753858478,g3t1_2,,success
Status,552,63822824600,g4t1,,success
Status,553,63952819431,g3t1_2,,running
Status,554,63954021088,g3t1_2,,success
Status,556,64153507734,g3t1_2,,running
Status,557,64154148197,g3t1_2,,success
Status,559,64353022793,g3t1_2,,running
Status,560,64354210165,g3t1_2,,success
Status,562,64553052667,g3t1_2,,running
Status,563,64554397861,g3t1_2,,success
Status,565,64739815121,g3t1_4,,running
Status,566,64746232800,g3t1_4,,success
Status,567,64753027467,g3t1_2,,running
Status,568,64753744712,g3t1_2,,success
Status,570,64822908277,g4t1,,success
Status,571,64953203961,g3t1_2,,running
Status,572,64954345621,g3t1_2,,success
Status,574,65153530578,g3t1_2,,running
Status,575,65153569405,g3t1_2,,success
Status,577,65353199513,g3t1_2,,running
Status,578,65353608919,g3t1_2,,success
Status,580,65553450333,g3t1_2,,running
Status,581,65554509364,g3t1_2,,success
Status,583,65738542061,g3t1_4,,running
Status,584,65745542830,g3t1_4,,success
Status,585,65753555913,g3t1_2,,running
Status,586,65754645167,g3t1_2,,success
Status,588,65823390862,g4t1,,success
Status,589,65953995091,g3t1_2,,running
Status,590,65954998966,g3t1_2,,success
Status,592,66132589163,g3t1_1,,running
Status,593,66132922467,g3t1_1,,success
Status,594,66153881917,g3t1_2,,running
Status,595,66155054893,g3t1_2,,success
Status,597,66353570302,g3t1_2,,running
Status,598,66354172589,g3t1_2,,success
Status,600,66553990973,g3t1_2,,running
Status,601,66555106871,g3t1_2,,success
Status,603,66739424689,g3t1_4,,running
Status,604,66745666488,g3t1_4,,success
Status,605,66753878511,g3t1_2,,running
Status,606,66754747245,g3t1_2,,success
Status,608,66823075156,g4t1,,success
Status,609,66953831223,g3t1_2,,running
Status,610,66954315515,g3t1_2,,success
Status,612,67154314976,g3t1_2,,running
Status,613,67155660687,g3t1_2,,success
Status,615,67354431328,g3t1_2,,running
Status,616,67354521303,g3t1_2,,success
Status,618,67554379771,g3t1_2,,running
Status,619,67555619957,g3t1_2,,success
Status,621,67739587733,g3t1_4,,running
Status,622,67747909483,g3t1_4,,success
Status,623,67754467363,g3t1_2,,running
Status,624,67755758444,g3t1_2,,success
Status,626,67823198657,g4t1,,success
Status,627,67955562406,g3t1_2,,running
Status,628,67955660410,g3t1_2,,success
Status,630,68155531248,g3t1_2,,running
Status,631,68155742161,g3t1_2,,success
Status,633,68355584106,g3t1_2,,running
Status,634,68355956024,g3t1_2,,success
Status,636,68554854825,g3t1_2,,running
Status,637,68555991855,g3t1_2,,success
Status,639,68739245973,g3t1_4,,running
Status,640,68743425461,g3t1_4,,success
Status,641,68754527278,g3t1_2,,running
Status,642,68755181047,g3t1_2,,success
Status,644,68822900434,g4t1,,success
Status,645,68954680157,g3t1_2,,running
Status,646,68955236159,g3t1_2,,success
Status,648,69155098268,g3t1_2,,running
Status,649,69156392063,g3t1_2,,success
Status,651,69355628169,g3t1_2,,running
Status,652,69356929569,g3t1_2,,success
Status,654,69554931182,g3t1_2,,running
Status,655,69555438661,g3t1_2,,success
Status,657,69738791052,g3t1_4,,running
Status,658,69745687165,g3t1_4,,success
Status,659,69755204790,g3t1_2,,running
Status,660,69756211994,g3t1_2,,success
Status,662,69823278072,g4t1,,success
Status,663,69955081845,g3t1_2,,running
Status,664,69955497958,g3t1_2,,success
Status,666,70155560796,g3t1_2,,running
Status,667,70155640926,g3t1_2,,success
Status,669,70356264014,g3t1_2,,running
Status,670,70356371300,g3t1_2,,success
Status,672,70555644175,g3t1_2,,running
Status,673,70556651691,g3t1_2,,success
Status,675,70738957760,g3t1_4,,running
Status,676,70746003115,g3t1_4,,success
Status,677,70755977367,g3t1_2,,running
Status,678,70757139225,g3t1_2,,success
Status,680,70823759232,g4t1,,success
Status,681,70955924164,g3t1_2,,running
Status,682,70957048538,g3t1_2,,success
Status,684,71132817876,g3t1_1,,running
Status,685,71133127538,g3t1_1,,success
Status,686,71156001710,g3t1_2,,running
Status,687,71157178066,g3t1_2,,success
Status,689,71356062091,g3t1_2,,running
Status,690,71357347012,g3t1_2,,success
Status,692,71556246662,g3t1_2,,running
Status,693,71557813907,g3t1_2,,success
Status,695,71739502183,g3t1_4,,running
Status,696,71746542220,g3t1_4,,success
Status,697,71756432749,g3t1_2,,running
Status,698,71757582835,g3t1_2,,success
Status,700,71823973280,g4t1,,success
Status,701,71956390796,g3t1_2,,running
Status,702,71957479963,g3t1_2,,success
Status,704,72156486021,g3t1_2,,running
Status,705,72157638833,g3t1_2,,success
Status,707,72356593081,g3t1_2,,running
Status,708,72357583772,g3t1_2,,success
Status,710,72557517065,g3t1_2,,running
Status,711,72557569886,g3t1_2,,success
Status,713,72739121444,g3t1_4,,running
Status,714,72747481263,g3t1_4,,success
Status,715,72756510855,g3t1_2,,running
Status,716,72757551340,g3t1_2,,success
Status,718,72823712801,g4t1,,success
Status,719,72956862879,g3t1_2,,running
Status,720,72958119185,g3t1_2,,success
Status,722,73156842494,g3t1_2,,running
Status,723,73158178773,g3t1_2,,success
Status,725,73356992470,g3t1_2,,running
Status,726,73357111499,g3t1_2,,success
Status,728,73557500612,g3t1_2,,running
Status,729,73558499845,g3t1_2,,success
Status,731,73740096598,g3t1_4,,running
Status,732,73746217728,g3t1_4,,success
Status,733,73757177003,g3t1_2,,running
Status,734,73758450883,g3t1_2,,success
Status,736,73824388984,g4t1,,success
Status,737,73957801013,g3t1_2,,running
Status,738,73959082981,g3t1_2,,success
Status,740,74157886222,g3t1_2,,running
Status,741,74159235645,g3t1_2,,success
Status,743,74357661013,g3t1_2,,running
Status,744,74358868190,g3t1_2,,success
Status,746,74557703678,g3t1_2,,running
Status,747,74558915649,g3t1_2,,success
Status,749,74739459524,g3t1_4,,running
Status,750,74741707541,g3t1_4,,success
Status,751,74757436691,g3t1_2,,running
Status,752,74757936514,g3t1_2,,success
Status,754,74823418109,g4t1,,success
Status,755,74957782415,g3t1_2,,running
Status,756,74958931072,g3t1_2,,success
Status,758,75157906023,g3t1_2,,running
Status,759,75159086094,g3t1_2,,success
Status,761,75358047148,g3t1_2,,running
Status,762,75359237573,g3t1_2,,success
Status,764,75558477769,g3t1_2,,running
Status,765,75559748769,g3t1_2,,success
Status,767,75740039182,g3t1_4,,running
Status,768,75747477509,g3t1_4,,success
Status,769,75758286937,g3t1_2,,running
Status,770,75759168279,g3t1_2,,success
Status,772,75824043182,g4t1,,success
Status,773,75958280229,g3t1_2,,running
Status,774,75959522834,g3t1_2,,success
Status,776,76132438675,g3t1_1,,running
Status,777,76133729117,g3t1_1,,success
Status,778,76158755660,g3t1_2,,running
Status,779,76160069311,g3t1_2,,success
Status,781,76358303540,g3t1_2,,running
Status,782,76359269194,g3t1_2,,success
Status,784,76558584728,g3t1_2,,running
Status,785,76559976351,g3t1_2,,success
Status,787,76739502351,g3t1_4,,running
Status,788,76745599702,g3t1_4,,success
Status,789,76758615283,g3t1_2,,running
Status,790,76759879844,g3t1_2,,success
Status,792,76823951729,g4t1,,success
Status,793,76959570124,g3t1_2,,running
Status,794,76959624555,g3t1_2,,success
Status,796,77158840832,g3t1_2,,running
Status,797,77160033302,g3t1_2,,success
Status,799,77359242015,g3t1_2,,running
Status,800,77360629504,g3t1_2,,success
Status,802,77559852870,g3t1_2,,running
Status,803,77560062380,g3t1_2,,success
Status,805,77739615631,g3t1_4,,running
Status,806,77747976679,g3t1_4,,success
Status,807,77758965812,g3t1_2,,running
Status,808,77759959832,g3t1_2,,success
Status,810,77824566037,g4t1,,success
Status,811,77959683012,g3t1_2,,running
Status,812,77961202561,g3t1_2,,success
Status,814,78159374075,g3t1_2,,running
Status,815,78160694902,g3t1_2,,success
Status,817,78359910827,g3t1_2,,running
Status,818,78361432721,g3t1_2,,success
Status,820,78560016371,g3t1_2,,running
Status,821,78561645988,g3t1_2,,success
Status,823,78740542207,g3t1_4,,running
Status,824,78746166597,g3t1_4,,success
Status,825,78759603779,g3t1_2,,running
Status,826,78760683317,g3t1_2,,success
Status,828,78824300974,g4t1,,success
Status,829,78959767608,g3t1_2,,running
Status,830,78961047361,g3t1_2,,success
Status,832,79160239551,g3t1_2,,running
Status,833,79161455234,g3t1_2,,success
Status,835,79360358715,g3t1_2,,running
Status,836,79361674136,g3t1_2,,success
Status,838,79560533414,g3t1_2,,running
Status,839,79561831549,g3t1_2,,success
Status,841,79740124563,g3t1_4,,running
Status,842,79749696990,g3t1_4,,success
Status,843,79760387190,g3t1_2,,running
Status,844,79761384536,g3t1_2,,success
Status,846,79824727098,g4t1,,success
Status,847,79960706193,g3t1_2,,running
Status,848,79961986615,g3t1_2,,success
Status,850,80160832221,g3t1_2,,running
Status,851,80162159573,g3t1_2,,success
Status,853,80361017084,g3t1_2,,running
Status,854,80362152740,g3t1_2,,success
Status,856,80561168766,g3t1_2,,running
Status,857,80562363585,g3t1_2,,success
Status,859,80740735307,g3t1_4,,running
Status,860,80746329667,g3t1_4,,success
Status,861,80760598881,g3t1_2,,running
Status,862,80761537514,g3t1_2,,success
Status,864,80824472910,g4t1,,success
Status,865,80960866819,g3t1_2,,running
Status,866,80962154143,g3t1_2,,success
Status,868,81131957639,g3t1_1,,running
Status,869,81133241712,g3t1_1,,success
Status,870,81161011247,g3t1_2,,running
Status,871,81162060279,g3t1_2,,success
Status,873,81361141933,g3t1_2,,running
Status,874,81362442878,g3t1_2,,success
Status,876,81561652638,g3t1_2,,running
Status,877,81562826924,g3t1_2,,success
Status,879,81740339876,g3t1_4,,running
Status,880,81747372008,g3t1_4,,success
Status,881,81761497338,g3t1_2,,running
Status,882,81762634626,g3t1_2,,success
Status,884,81825075073,g4t1,,success
Status,885,81961410647,g3t1_2,,running
Status,886,81962587786,g3t1_2,,success
Status,888,82161855422,g3t1_2,,running
Status,889,82163008930,g3t1_2,,success
Status,891,82362030589,g3t1_2,,running
Status,892,82363206027,g3t1_2,,success
Status,894,82561920408,g3t1_2,,running
Status,895,82562223571,g3t1_2,,success
Status,897,82739734437,g3t1_4,,running
Status,898,82746143811,g3t1_4,,success
Status,899,82761530321,g3t1_2,,running
Status,900,82762057508,g3t1_2,,success
Status,902,82824463672,g4t1,,success
Status,903,82961759120,g3t1_2,,running
Status,904,82962731222,g3t1_2,,success
Status,906,83162429741,g3t1_2,,running
Status,907,83163821838,g3t1_2,,success
Status,909,83362125886,g3t1_2,,running
Status,910,83363294957,g3t1_2,,success
Status,912,83562204775,g3t1_2,,running
Status,913,83563399761,g3t1_2,,success
Status,915,83741600999,g3t1_4,,running
Status,916,83748394801,g3t1_4,,success
Status,917,83762598671,g3t1_2,,running
Status,918,83763820705,g3t1_2,,success
Status,920,83824755407,g4t1,,success
Status,921,83962615269,g3t1_2,,running
Status,922,83962827058,g3t1_2,,success
Status,924,84162512572,g3t1_2,,running
Status,925,84162598699,g3t1_2,,success
Status,927,84363364236,g3t1_2,,running
Status,928,84363543286,g3t1_2,,success
Status,930,84562813356,g3t1_2,,running
