
Status,2,3458565265,/g4t1,,init
Status,3,8671817316,/g3t1_1,,init
Status,5,8680609406,/g3t1_1,,init
Status,6,8680628772,/g3t1_1,,running
Status,7,8681105305,/g3t1_1,,success
Status,8,8780821902,/g3t1_1,,running
Status,9,8780835236,/g3t1_1,,success
Status,10,8872226083,/g3t1_2,,init
Status,12,8880240614,/g3t1_2,,init
Status,13,8880306521,/g3t1_2,,running
Status,14,8881107536,/g3t1_1,,running
Status,15,8881448153,/g3t1_1,,success
Status,16,8881972603,/g3t1_2,,success
Status,17,8973050661,/g3t1_3,,init
Status,19,8979757926,/g3t1_2,,running
Status,20,8979957955,/g3t1_2,,success
Status,21,8981083439,/g3t1_1,,running
Status,22,8981116046,/g3t1_1,,success
Status,23,8985235182,/g4t1,,success
Status,24,8991965588,/g3t1_3,,init
Status,25,8991995154,/g3t1_3,,running
Status,26,8993142749,/g3t1_3,,success
Status,27,9080824104,/g3t1_2,,running
Status,28,9081029066,/g3t1_2,,success
Status,29,9081444431,/g3t1_1,,running
Status,30,9081598132,/g3t1_1,,success
Status,31,9085966081,/g4t1,,success
Status,32,9092793564,/g3t1_3,,running
Status,33,9092825420,/g3t1_3,,success
Status,34,9106060537,/g4t1,,success
Status,35,9125598170,/g4t1,,success
Status,36,9180051947,/g3t1_2,,running
Status,37,9180177968,/g3t1_2,,success
Status,38,9181091735,/g3t1_1,,running
Status,39,9181481381,/g3t1_1,,success
Status,40,9186369697,/g4t1,,success
Status,41,9192101793,/g3t1_3,,running
Status,42,9192233052,/g3t1_3,,success
Status,43,9206095577,/g4t1,,success
Status,44,9226197010,/g4t1,,success
Status,45,9246175403,/g4t1,,success
Status,46,9266651229,/g4t1,,success
Status,47,9280372097,/g3t1_2,,running
Status,48,9280424458,/g3t1_2,,success
Status,49,9281145049,/g3t1_1,,running
Status,50,9281391543,/g3t1_1,,success
Status,51,9286920029,/g4t1,,success
Status,52,9292147960,/g3t1_3,,running
Status,53,9292286954,/g3t1_3,,success
Status,54,9306547388,/g4t1,,success
Status,55,9326540623,/g4t1,,success
Status,56,9346988061,/g4t1,,success
Status,57,9367192288,/g4t1,,success
Status,58,9380482443,/g3t1_2,,running
Status,59,9380509404,/g3t1_2,,success
Status,60,9381263599,/g3t1_1,,running
Status,61,9381444992,/g3t1_1,,success
Status,62,9387193286,/g4t1,,fail
Status,63,9392197713,/g3t1_3,,running
Status,64,9392341265,/g3t1_3,,success
Status,65,9407009025,/g4t1,,success
Status,66,9427239585,/g4t1,,success
Status,67,9447312987,/g4t1,,success
Status,68,9467198069,/g4t1,,success
Status,69,9480651560,/g3t1_2,,running
Status,70,9480680390,/g3t1_2,,success
Status,71,9481315939,/g3t1_1,,running
Status,72,9481436357,/g3t1_1,,success
Status,73,9487930313,/g4t1,,fail
Status,74,9492285839,/g3t1_3,,running
Status,75,9492310858,/g3t1_3,,success
Status,76,9508220861,/g4t1,,fail
Status,77,9528256020,/g4t1,,success
Status,78,9547596531,/g4t1,,success
Status,79,9568273896,/g4t1,,success
Status,80,9580427847,/g3t1_2,,running
Status,81,9580457468,/g3t1_2,,success
Status,82,9581466879,/g3t1_1,,running
Status,83,9582175485,/g3t1_1,,success
Status,84,9588885110,/g4t1,,fail
Status,85,9592549802,/g3t1_3,,running
Status,86,9592691418,/g3t1_3,,success
Status,87,9608110326,/g4t1,,fail
Status,88,9628493798,/g4t1,,success
Status,89,9648411330,/g4t1,,success
Status,90,9668913463,/g4t1,,success
Status,91,9680508494,/g3t1_2,,running
Status,92,9680648891,/g3t1_2,,success
Status,93,9681486023,/g3t1_1,,running
Status,94,9681576247,/g3t1_1,,success
Status,95,9688396281,/g4t1,,fail
Status,96,9692523909,/g3t1_3,,running
Status,97,9692551915,/g3t1_3,,success
Status,98,9708538627,/g4t1,,fail
Status,99,9728611105,/g4t1,,success
Status,100,9748616035,/g4t1,,success
Status,101,9768657751,/g4t1,,success
Status,102,9780619813,/g3t1_2,,running
Status,103,9780638617,/g3t1_2,,success
Status,104,9781512663,/g3t1_1,,running
Status,105,9781587574,/g3t1_1,,success
Status,106,9788832912,/g4t1,,fail
Status,107,9792531725,/g3t1_3,,running
Status,108,9792551468,/g3t1_3,,success
Status,109,9809355950,/g4t1,,fail
Status,110,9829069934,/g4t1,,success
Status,111,9849146600,/g4t1,,success
Status,112,9869282783,/g4t1,,success
Status,113,9880692734,/g3t1_2,,running
Status,114,9881063661,/g3t1_2,,success
Status,115,9881746875,/g3t1_1,,running
Status,116,9881792285,/g3t1_1,,success
Status,117,9889284836,/g4t1,,fail
Status,118,9892518282,/g3t1_3,,running
Status,119,9892652586,/g3t1_3,,success
Status,120,9909516632,/g4t1,,fail
Status,121,9929555897,/g4t1,,success
Status,122,9949680958,/g4t1,,success
Status,123,9969812788,/g4t1,,success
Status,124,9980634976,/g3t1_2,,running
Status,125,9980688129,/g3t1_2,,success
Status,126,9981604946,/g3t1_1,,running
Status,127,9981736473,/g3t1_1,,success
Status,128,9989821469,/g4t1,,fail
Status,129,9992655482,/g3t1_3,,running
Status,130,9992669967,/g3t1_3,,success
Status,131,10009949077,/g4t1,,fail
Status,132,10029941947,/g4t1,,success
Status,133,10050102582,/g4t1,,success
Status,134,10070193710,/g4t1,,success
Status,135,10081300807,/g3t1_2,,running
Status,136,10081361461,/g3t1_2,,success
Status,137,10082183697,/g3t1_1,,running
Status,138,10082430192,/g3t1_1,,success
Status,139,10090264345,/g4t1,,fail
Status,140,10092712068,/g3t1_3,,running
Status,141,10092815466,/g3t1_3,,success
Status,142,10110487920,/g4t1,,fail
Status,143,10130426809,/g4t1,,success
Status,144,10151089750,/g4t1,,success
Status,145,10171294628,/g4t1,,success
Status,146,10181428316,/g3t1_2,,running
Status,147,10181472163,/g3t1_2,,success
Status,148,10182097984,/g3t1_1,,running
Status,149,10182497269,/g3t1_1,,success
Status,150,10190909439,/g4t1,,fail
Status,151,10192758104,/g3t1_3,,running
Status,152,10192983529,/g3t1_3,,success
Status,153,10211176262,/g4t1,,fail
Status,154,10230996594,/g4t1,,success
Status,155,10251443723,/g4t1,,success
Status,156,10271565414,/g4t1,,success
Status,157,10281079132,/g3t1_2,,running
Status,158,10281106710,/g3t1_2,,success
Status,159,10282154835,/g3t1_1,,running
Status,160,10282282538,/g3t1_1,,success
Status,161,10291276025,/g4t1,,fail
Status,162,10292995511,/g3t1_3,,running
Status,163,10293015517,/g3t1_3,,success
Status,164,10311676311,/g4t1,,fail
Status,165,10331800213,/g4t1,,success
Status,166,10352205370,/g4t1,,success
Status,167,10372050296,/g4t1,,success
Status,168,10381147290,/g3t1_2,,running
Status,169,10381183124,/g3t1_2,,success
Status,170,10382231466,/g3t1_1,,running
Status,171,10382487072,/g3t1_1,,success
Status,172,10392047170,/g4t1,,fail
Status,173,10393041767,/g3t1_3,,running
Status,174,10393157842,/g3t1_3,,success
Status,175,10412277708,/g4t1,,fail
Status,176,10432426064,/g4t1,,success
Status,177,10452786552,/g4t1,,success
Status,178,10472608402,/g4t1,,success
Status,179,10481510921,/g3t1_2,,running
Status,180,10481545737,/g3t1_2,,success
Status,181,10482262346,/g3t1_1,,running
Status,182,10482340294,/g3t1_1,,success
Status,183,10492641773,/g4t1,,fail
Status,184,10493069508,/g3t1_3,,running
Status,185,10493185134,/g3t1_3,,success
Status,186,10512571229,/g4t1,,fail
Status,187,10532745674,/g4t1,,success
Status,188,10553134390,/g4t1,,success
Status,189,10572902890,/g4t1,,success
Status,190,10581500752,/g3t1_2,,running
Status,191,10581702651,/g3t1_2,,success
Status,192,10582260082,/g3t1_1,,running
Status,193,10582346229,/g3t1_1,,success
Status,194,10592918374,/g4t1,,fail
Status,195,10593232861,/g3t1_3,,running
Status,196,10593249912,/g3t1_3,,success
Status,197,10612971052,/g4t1,,fail
Status,198,10633423571,/g4t1,,success
Status,199,10654118008,/g4t1,,success
Status,200,10673855485,/g4t1,,success
Status,201,10681690175,/g3t1_2,,running
Status,202,10682291296,/g3t1_2,,success
Status,203,10682688366,/g3t1_1,,running
Status,204,10683169397,/g3t1_1,,success
Status,205,10693730063,/g3t1_3,,running
Status,206,10693799952,/g4t1,,fail
Status,207,10694178350,/g3t1_3,,success
Status,208,10713656694,/g4t1,,fail
Status,209,10733835564,/g4t1,,success
Status,210,10754332320,/g4t1,,success
Status,211,10773977279,/g4t1,,success
Status,212,10781830611,/g3t1_2,,running
Status,213,10782288400,/g3t1_2,,success
Status,214,10782686045,/g3t1_1,,running
Status,215,10782834317,/g3t1_1,,success
Status,216,10793611959,/g3t1_3,,running
Status,217,10793652311,/g3t1_3,,success
Status,218,10793888579,/g4t1,,fail
Status,219,10814108192,/g4t1,,success
Status,220,10834373235,/g4t1,,success
Status,221,10854684496,/g4t1,,success
Status,222,10874888302,/g4t1,,success
Status,223,10881858427,/g3t1_2,,running
Status,224,10882271285,/g3t1_2,,success
Status,225,10882982385,/g3t1_1,,running
Status,226,10883448851,/g3t1_1,,success
Status,227,10893885109,/g3t1_3,,running
Status,228,10894146956,/g3t1_3,,success
Status,229,10894712026,/g4t1,,fail
Status,230,10914965203,/g4t1,,success
Status,231,10935353722,/g4t1,,success
Status,232,10955105837,/g4t1,,success
Status,233,10975267894,/g4t1,,success
Status,234,10981929921,/g3t1_2,,running
Status,235,10982246798,/g3t1_2,,success
Status,236,10983040666,/g3t1_1,,running
Status,237,10983420286,/g3t1_1,,success
Status,238,10993925838,/g3t1_3,,running
Status,239,10993987130,/g3t1_3,,success
Status,240,10995305249,/g4t1,,fail
Status,241,11015493331,/g4t1,,success
Status,242,11036142623,/g4t1,,success
Status,243,11055943730,/g4t1,,success
Status,244,11076266984,/g4t1,,success
Status,245,11082359360,/g3t1_2,,running
Status,246,11083270025,/g3t1_2,,success
Status,247,11083337455,/g3t1_1,,running
Status,248,11083849066,/g3t1_1,,success
Status,249,11094295114,/g3t1_3,,running
Status,250,11094800545,/g3t1_3,,success
Status,251,11096107420,/g4t1,,fail
Status,252,11116448803,/g4t1,,success
Status,253,11136863417,/g4t1,,success
Status,254,11156775020,/g4t1,,success
Status,255,11176982309,/g4t1,,success
Status,256,11182480429,/g3t1_2,,running
Status,257,11183193474,/g3t1_2,,success
Status,258,11183465582,/g3t1_1,,running
Status,259,11183963581,/g3t1_1,,success
Status,260,11194643610,/g3t1_3,,running
Status,261,11195214294,/g3t1_3,,success
Status,262,11197079437,/g4t1,,fail
Status,263,11217545716,/g4t1,,success
Status,264,11237505053,/g4t1,,success
Status,265,11257451347,/g4t1,,success
Status,266,11277482918,/g4t1,,success
Status,267,11282720423,/g3t1_2,,running
Status,268,11283211270,/g3t1_2,,success
Status,269,11283397529,/g3t1_1,,running
Status,270,11284420434,/g3t1_1,,success
Status,271,11294490855,/g3t1_3,,running
Status,272,11295187205,/g3t1_3,,success
Status,273,11297283075,/g4t1,,fail
Status,274,11317541459,/g4t1,,success
Status,275,11338050655,/g4t1,,success
Status,276,11357912320,/g4t1,,success
Status,277,11377791320,/g4t1,,success
Status,278,11382590475,/g3t1_2,,running
Status,279,11383261514,/g3t1_2,,success
Status,280,11383762460,/g3t1_1,,running
Status,281,11384296444,/g3t1_1,,success
Status,282,11394851370,/g3t1_3,,running
Status,283,11395693565,/g3t1_3,,success
Status,284,11398020130,/g4t1,,fail
Status,285,11418300381,/g4t1,,success
Status,286,11438681197,/g4t1,,success
Status,287,11458879218,/g4t1,,success
Status,288,11478228548,/g4t1,,success
Status,289,11482863136,/g3t1_2,,running
Status,290,11482907531,/g3t1_2,,success
Status,291,11483369296,/g3t1_1,,running
Status,292,11483785690,/g3t1_1,,success
Status,293,11494505241,/g3t1_3,,running
Status,294,11494695624,/g3t1_3,,success
Status,295,11498118797,/g4t1,,fail
Status,296,11518916556,/g4t1,,success
Status,297,11538603053,/g4t1,,success
Status,298,11559288767,/g4t1,,success
Status,299,11579368850,/g4t1,,success
Status,300,11582919120,/g3t1_2,,running
Status,301,11583527584,/g3t1_2,,success
Status,302,11583680901,/g3t1_1,,running
Status,303,11584395294,/g3t1_1,,success
Status,304,11594836033,/g3t1_3,,running
Status,305,11595462207,/g3t1_3,,success
Status,306,11599193460,/g4t1,,fail
Status,307,11619411566,/g4t1,,success
Status,308,11639081716,/g4t1,,success
Status,309,11659057110,/g4t1,,success
Status,310,11679273143,/g4t1,,success
Status,311,11682639826,/g3t1_2,,running
Status,312,11682749166,/g3t1_2,,success
Status,313,11683505712,/g3t1_1,,running
Status,314,11683528187,/g3t1_1,,success
Status,315,11694608857,/g3t1_3,,running
Status,316,11694644121,/g3t1_3,,success
Status,317,11699227696,/g4t1,,fail
Status,318,11719746988,/g4t1,,success
Status,319,11739591368,/g4t1,,success
Status,320,11760219763,/g4t1,,success
Status,321,11779516390,/g4t1,,success
Status,322,11782738140,/g3t1_2,,running
Status,323,11782801076,/g3t1_2,,success
Status,324,11783904437,/g3t1_1,,running
Status,325,11783941614,/g3t1_1,,success
Status,326,11794581997,/g3t1_3,,running
Status,327,11794603238,/g3t1_3,,success
Status,328,11800059487,/g4t1,,fail
Status,329,11820489142,/g4t1,,success
Status,330,11840885839,/g4t1,,success
Status,331,11860636223,/g4t1,,success
Status,332,11880946125,/g4t1,,success
Status,333,11883274945,/g3t1_2,,running
Status,334,11883509010,/g3t1_2,,success
Status,335,11883995424,/g3t1_1,,running
Status,336,11884340759,/g3t1_1,,success
Status,337,11894899981,/g3t1_3,,running
Status,338,11895854284,/g3t1_3,,success
Status,339,11900903451,/g4t1,,fail
Status,340,11921277201,/g4t1,,success
Status,341,11941447818,/g4t1,,success
Status,342,11960725950,/g4t1,,success
Status,343,11980972558,/g4t1,,success
Status,344,11986212524,/g3t1_2,,running
Status,345,11986251860,/g3t1_2,,success
Status,346,11986429706,/g3t1_1,,running
Status,347,11986463310,/g3t1_1,,success
Status,348,11994981245,/g3t1_3,,running
Status,349,11995066241,/g3t1_3,,success
Status,350,12001399549,/g4t1,,fail
Status,351,12021152221,/g4t1,,success
Status,352,12041401313,/g4t1,,success
Status,353,12061379550,/g4t1,,success
Status,354,12081817392,/g4t1,,success
Status,355,12083366372,/g3t1_2,,running
Status,356,12083613284,/g3t1_2,,success
Status,357,12084017424,/g3t1_1,,running
Status,358,12084159081,/g3t1_1,,success
Status,359,12094809503,/g3t1_3,,running
Status,360,12095014513,/g3t1_3,,success
Status,361,12101340595,/g4t1,,fail
Status,362,12122064596,/g4t1,,success
Status,363,12142080297,/g4t1,,success
Status,364,12162371236,/g4t1,,success
Status,365,12182513961,/g4t1,,success
Status,366,12184538773,/g3t1_2,,running
Status,367,12184619951,/g3t1_1,,running
Status,368,12184704226,/g3t1_2,,success
Status,369,12184965984,/g3t1_1,,success
Status,370,12195360486,/g3t1_3,,running
Status,371,12196339041,/g3t1_3,,success
Status,372,12202415340,/g4t1,,fail
Status,373,12222726124,/g4t1,,success
Status,374,12243190733,/g4t1,,success
Status,375,12262964490,/g4t1,,success
Status,376,12282611516,/g4t1,,success
Status,377,12283505838,/g3t1_2,,running
Status,378,12283797891,/g3t1_2,,success
Status,379,12284060117,/g3t1_1,,running
Status,380,12284421011,/g3t1_1,,success
Status,381,12295281447,/g3t1_3,,running
Status,382,12295417139,/g3t1_3,,success
Status,383,12302511272,/g4t1,,fail
Status,384,12322767300,/g4t1,,success
Status,385,12342792910,/g4t1,,success
Status,386,12363034176,/g4t1,,success
Status,387,12383712071,/g4t1,,success
Status,388,12383767719,/g3t1_2,,running
Status,389,12384185884,/g3t1_2,,success
Status,390,12384271297,/g3t1_1,,running
Status,391,12384897427,/g3t1_1,,success
Status,392,12395237437,/g3t1_3,,running
Status,393,12395597838,/g3t1_3,,success
Status,394,12403505150,/g4t1,,fail
Status,395,12423929353,/g4t1,,success
Status,396,12443871090,/g4t1,,success
Status,397,12464083176,/g4t1,,success
Status,398,12484753031,/g3t1_2,,running
Status,399,12484837123,/g3t1_2,,success
Status,400,12484915985,/g3t1_1,,running
Status,401,12485167606,/g4t1,,success
Status,402,12485447248,/g3t1_1,,success
Status,403,12495475866,/g3t1_3,,running
Status,404,12496289690,/g3t1_3,,success
Status,405,12504402530,/g4t1,,fail
Status,406,12524441504,/g4t1,,success
Status,407,12544594045,/g4t1,,success
Status,408,12564795136,/g4t1,,success
Status,409,12584583351,/g3t1_2,,running
Status,410,12584953413,/g3t1_2,,success
Status,411,12585009938,/g4t1,,success
Status,412,12585071837,/g3t1_1,,running
Status,413,12585223056,/g3t1_1,,success
Status,414,12595566645,/g3t1_3,,running
Status,415,12595600572,/g3t1_3,,success
Status,416,12604441514,/g4t1,,fail
Status,417,12624531841,/g4t1,,success
Status,418,12644702122,/g4t1,,success
Status,419,12664757847,/g4t1,,success
Status,420,12683816991,/g3t1_2,,running
Status,421,12683837696,/g3t1_2,,success
Status,422,12684639967,/g3t1_1,,running
Status,423,12684774770,/g4t1,,fail
Status,424,12684846845,/g3t1_1,,success
Status,425,12695366240,/g3t1_3,,running
Status,426,12695394075,/g3t1_3,,success
Status,427,12705101193,/g4t1,,fail
Status,428,12725253490,/g4t1,,success
Status,429,12745820244,/g4t1,,success
Status,430,12765979870,/g4t1,,success
Status,431,12784186252,/g3t1_2,,running
Status,432,12784799384,/g3t1_2,,success
Status,433,12784889072,/g3t1_1,,running
Status,434,12785176276,/g3t1_1,,success
Status,435,12785532507,/g4t1,,success
Status,436,12795903461,/g3t1_3,,running
Status,437,12796690783,/g3t1_3,,success
Status,438,12806327157,/g4t1,,fail
Status,439,12826441404,/g4t1,,success
Status,440,12846565148,/g4t1,,success
Status,441,12866864881,/g4t1,,success
Status,442,12883983457,/g3t1_2,,running
Status,443,12884004484,/g3t1_2,,success
Status,444,12884492681,/g3t1_1,,running
Status,445,12884682652,/g3t1_1,,success
Status,446,12885755924,/g4t1,,fail
Status,447,12895478481,/g3t1_3,,running
Status,448,12895574161,/g3t1_3,,success
Status,449,12906071691,/g4t1,,success
Status,450,12926930354,/g4t1,,success
Status,451,12946818287,/g4t1,,success
Status,452,12967027416,/g4t1,,success
Status,453,12984598771,/g3t1_2,,running
Status,454,12985398577,/g3t1_2,,success
Status,455,12985443067,/g3t1_1,,running
Status,456,12985510120,/g3t1_1,,success
Status,457,12987020299,/g4t1,,fail
Status,458,12996435988,/g3t1_3,,running
Status,459,12996648279,/g3t1_3,,success
Status,460,13007271013,/g4t1,,fail
Status,461,13027049460,/g4t1,,success
Status,462,13047296446,/g4t1,,success
Status,463,13067991814,/g4t1,,success
Status,464,13085094083,/g3t1_2,,running
Status,465,13085203067,/g3t1_2,,success
Status,466,13085531523,/g3t1_1,,running
Status,467,13086189706,/g3t1_1,,success
Status,468,13087819564,/g4t1,,fail
Status,469,13096268307,/g3t1_3,,running
Status,470,13096939893,/g3t1_3,,success
Status,471,13107982777,/g4t1,,success
Status,472,13128357606,/g4t1,,success
Status,473,13148365001,/g4t1,,success
Status,474,13168608320,/g4t1,,success
Status,475,13184839475,/g3t1_2,,running
Status,476,13185043951,/g3t1_2,,success
Status,477,13185209230,/g3t1_1,,running
Status,478,13185848225,/g3t1_1,,success
Status,479,13188507825,/g4t1,,fail
Status,480,13196433810,/g3t1_3,,running
Status,481,13197064431,/g3t1_3,,success
Status,482,13208691675,/g4t1,,fail
Status,483,13229024741,/g4t1,,success
Status,484,13248971834,/g4t1,,success
Status,485,13269144357,/g4t1,,success
Status,486,13285055350,/g3t1_2,,running
Status,487,13285673823,/g3t1_2,,success
Status,488,13285724731,/g3t1_1,,running
Status,489,13286195398,/g3t1_1,,success
Status,490,13288996998,/g4t1,,fail
Status,491,13296653349,/g3t1_3,,running
Status,492,13297198278,/g3t1_3,,success
Status,493,13309323230,/g4t1,,success
Status,494,13329423741,/g4t1,,success
Status,495,13349620540,/g4t1,,success
Status,496,13369703041,/g4t1,,success
Status,497,13385017925,/g3t1_2,,running
Status,498,13385541146,/g3t1_2,,success
Status,499,13385607310,/g3t1_1,,running
Status,500,13386019114,/g3t1_1,,success
Status,501,13389643638,/g4t1,,fail
Status,502,13396846436,/g3t1_3,,running
Status,503,13397059740,/g3t1_3,,success
Status,504,13409624720,/g4t1,,fail
Status,505,13429818907,/g4t1,,success
Status,506,13450120441,/g4t1,,success
Status,507,13470096737,/g4t1,,success
Status,508,13485288559,/g3t1_2,,running
Status,509,13485696665,/g3t1_2,,success
Status,510,13485922869,/g3t1_1,,running
Status,511,13486525475,/g3t1_1,,success
Status,512,13490511691,/g4t1,,fail
Status,513,13496902868,/g3t1_3,,running
Status,514,13497055366,/g3t1_3,,success
Status,515,13510342436,/g4t1,,success
Status,516,13530616070,/g4t1,,success
Status,517,13550477449,/g4t1,,success
Status,518,13570796022,/g4t1,,success
Status,519,13585284900,/g3t1_2,,running
Status,520,13585502777,/g3t1_2,,success
Status,521,13585540260,/g3t1_1,,running
Status,522,13586079213,/g3t1_1,,success
Status,523,13590614234,/g4t1,,fail
Status,524,13596502219,/g3t1_3,,running
Status,525,13596658021,/g3t1_3,,success
Status,526,13610751411,/g4t1,,fail
Status,527,13631133265,/g4t1,,success
Status,528,13651267421,/g4t1,,success
Status,529,13671513940,/g4t1,,success
Status,530,13685426756,/g3t1_2,,running
Status,531,13685936712,/g3t1_2,,success
Status,532,13685993895,/g3t1_1,,running
Status,533,13686630927,/g3t1_1,,success
Status,534,13691426617,/g4t1,,fail
Status,535,13696900271,/g3t1_3,,running
Status,536,13697441012,/g3t1_3,,success
Status,537,13711763090,/g4t1,,success
Status,538,13731869131,/g4t1,,success
Status,539,13752308238,/g4t1,,success
Status,540,13772277469,/g4t1,,success
Status,541,13785417142,/g3t1_2,,running
Status,542,13786319156,/g3t1_2,,success
Status,543,13786381056,/g3t1_1,,running
Status,544,13786576987,/g3t1_1,,success
Status,545,13792007888,/g4t1,,fail
Status,546,13796872661,/g3t1_3,,running
Status,547,13797126298,/g3t1_3,,success
Status,548,13811520054,/g4t1,,fail
Status,549,13831710098,/g4t1,,success
Status,550,13851787867,/g4t1,,success
Status,551,13872245860,/g4t1,,success
Status,552,13885600932,/g3t1_2,,running
Status,553,13886170185,/g3t1_2,,success
Status,554,13886485965,/g3t1_1,,running
Status,555,13886923034,/g3t1_1,,success
Status,556,13892671724,/g4t1,,fail
Status,557,13897228292,/g3t1_3,,running
Status,558,13898086901,/g3t1_3,,success
Status,559,13912910604,/g4t1,,success
Status,560,13932931126,/g4t1,,success
Status,561,13953249582,/g4t1,,success
Status,562,13973514985,/g4t1,,success
Status,563,13985920830,/g3t1_2,,running
Status,564,13986297588,/g3t1_1,,running
Status,565,13986562136,/g3t1_2,,success
Status,566,13987094189,/g3t1_1,,success
Status,567,13993374895,/g4t1,,fail
Status,568,13997346642,/g3t1_3,,running
Status,569,13997387761,/g3t1_3,,success
Status,570,14012913316,/g4t1,,fail
Status,571,14032982336,/g4t1,,success
Status,572,14053184665,/g4t1,,success
Status,573,14073888708,/g4t1,,success
Status,574,14086018693,/g3t1_2,,running
Status,575,14086099471,/g3t1_2,,success
Status,576,14086387319,/g3t1_1,,running
Status,577,14086714149,/g3t1_1,,success
Status,578,14093668573,/g4t1,,fail
Status,579,14097457843,/g3t1_3,,running
Status,580,14097752952,/g3t1_3,,success
Status,581,14114034881,/g4t1,,success
Status,582,14134166525,/g4t1,,success
Status,583,14154277685,/g4t1,,success
Status,584,14174517907,/g4t1,,success
Status,585,14186090040,/g3t1_2,,running
Status,586,14186853989,/g3t1_1,,running
Status,587,14187032107,/g3t1_2,,success
Status,588,14187079922,/g3t1_1,,success
Status,589,14194550609,/g4t1,,fail
Status,590,14197543311,/g3t1_3,,running
Status,591,14198006519,/g3t1_3,,success
Status,592,14214231913,/g4t1,,fail
Status,593,14234736544,/g4t1,,success
Status,594,14254342327,/g4t1,,success
Status,595,14274468291,/g4t1,,success
Status,596,14285830385,/g3t1_2,,running
Status,597,14286144228,/g3t1_2,,success
Status,598,14286463535,/g3t1_1,,running
Status,599,14286536582,/g3t1_1,,success
Status,600,14294506364,/g4t1,,fail
Status,601,14297031114,/g3t1_3,,running
Status,602,14297127385,/g3t1_3,,success
Status,603,14314621777,/g4t1,,success
Status,604,14334745685,/g4t1,,success
Status,605,14354820843,/g4t1,,success
Status,606,14375389350,/g4t1,,success
Status,607,14387064024,/g3t1_2,,running
Status,608,14387135936,/g3t1_1,,running
Status,609,14387159728,/g3t1_2,,success
Status,610,14387220856,/g3t1_1,,success
Status,611,14395443910,/g4t1,,fail
Status,612,14397444136,/g3t1_3,,running
Status,613,14397715356,/g3t1_3,,success
Status,614,14415552401,/g4t1,,fail
Status,615,14435703476,/g4t1,,success
Status,616,14456008952,/g4t1,,success
Status,617,14475580181,/g4t1,,success
Status,618,14485813177,/g3t1_2,,running
Status,619,14485918660,/g3t1_2,,success
Status,620,14486275965,/g3t1_1,,running
Status,621,14486413557,/g3t1_1,,success
Status,622,14495493839,/g4t1,,fail
Status,623,14497582961,/g3t1_3,,running
Status,624,14497616276,/g3t1_3,,success
Status,625,14515696514,/g4t1,,success
Status,626,14535682303,/g4t1,,success
Status,627,14555739135,/g4t1,,success
Status,628,14576258299,/g4t1,,success
Status,629,14586111206,/g3t1_2,,running
Status,630,14586750155,/g3t1_2,,success
Status,631,14586812665,/g3t1_1,,running
Status,632,14587369536,/g3t1_1,,success
Status,633,14596355726,/g4t1,,fail
Status,634,14597651449,/g3t1_3,,running
Status,635,14598091778,/g3t1_3,,success
Status,636,14616624632,/g4t1,,fail
Status,637,14636666010,/g4t1,,success
Status,638,14657022168,/g4t1,,success
Status,639,14677155467,/g4t1,,success
Status,640,14686241827,/g3t1_2,,running
Status,641,14686828253,/g3t1_2,,success
Status,642,14686916212,/g3t1_1,,running
Status,643,14687005215,/g3t1_1,,success
Status,644,14696939384,/g4t1,,fail
Status,645,14698005856,/g3t1_3,,running
Status,646,14698402062,/g3t1_3,,success
Status,647,14717067519,/g4t1,,success
Status,648,14736797882,/g4t1,,success
Status,649,14756814998,/g4t1,,success
Status,650,14776947065,/g4t1,,success
Status,651,14786749567,/g3t1_2,,running
Status,652,14787024059,/g3t1_1,,running
Status,653,14788527406,/g3t1_2,,success
Status,654,14788558091,/g3t1_1,,success
Status,655,14797102936,/g4t1,,fail
Status,656,14797616007,/g3t1_3,,running
Status,657,14798009049,/g3t1_3,,success
Status,658,14817154216,/g4t1,,fail
Status,659,14837365855,/g4t1,,success
Status,660,14857425756,/g4t1,,success
Status,661,14877860588,/g4t1,,success
Status,662,14887235914,/g3t1_2,,running
Status,663,14887948507,/g3t1_1,,running
Status,664,14888128717,/g3t1_2,,success
Status,665,14888168392,/g3t1_1,,success
Status,666,14898332861,/g4t1,,fail
Status,667,14899376196,/g3t1_3,,running
Status,668,14899456892,/g3t1_3,,success
Status,669,14917967876,/g4t1,,success
Status,670,14937739275,/g4t1,,success
Status,671,14957916096,/g4t1,,success
Status,672,14978094176,/g4t1,,success
Status,673,14987263235,/g3t1_2,,running
Status,674,14987357505,/g3t1_2,,success
Status,675,14987373047,/g3t1_1,,running
Status,676,14987395142,/g3t1_1,,success
Status,677,14998710530,/g3t1_3,,running
Status,678,14998789101,/g4t1,,fail
Status,679,14999143806,/g3t1_3,,success
Status,680,15018862915,/g4t1,,fail
Status,681,15039161871,/g4t1,,success
Status,682,15059343982,/g4t1,,success
Status,683,15079282751,/g4t1,,success
Status,684,15087863933,/g3t1_2,,running
Status,685,15087944676,/g3t1_1,,running
Status,686,15088111599,/g3t1_2,,success
Status,687,15088136278,/g3t1_1,,success
Status,688,15098936879,/g3t1_3,,running
Status,689,15099317792,/g4t1,,fail
Status,690,15099375567,/g3t1_3,,success
Status,691,15119602963,/g4t1,,success
Status,692,15139942537,/g4t1,,success
Status,693,15160168451,/g4t1,,success
Status,694,15180246551,/g4t1,,success
Status,695,15187579246,/g3t1_2,,running
Status,696,15187704256,/g3t1_1,,running
Status,697,15187903836,/g3t1_2,,success
Status,698,15188355090,/g3t1_1,,success
Status,699,15198903205,/g3t1_3,,running
Status,700,15199100764,/g3t1_3,,success
Status,701,15200060106,/g4t1,,fail
Status,702,15220554925,/g4t1,,success
Status,703,15240945917,/g4t1,,success
Status,704,15260735447,/g4t1,,success
Status,705,15281016573,/g4t1,,success
Status,706,15288201675,/g3t1_2,,running
Status,707,15288314244,/g3t1_1,,running
Status,708,15288359925,/g3t1_2,,success
Status,709,15288935561,/g3t1_1,,success
Status,710,15298974019,/g3t1_3,,running
Status,711,15299332028,/g3t1_3,,success
Status,712,15300649889,/g4t1,,fail
Status,713,15321000887,/g4t1,,success
Status,714,15340423277,/g4t1,,success
Status,715,15360507001,/g4t1,,success
Status,716,15380719241,/g4t1,,success
Status,717,15387069955,/g3t1_2,,running
Status,718,15387200129,/g3t1_1,,running
Status,719,15387228805,/g3t1_2,,success
Status,720,15387350028,/g3t1_1,,success
Status,721,15398654158,/g3t1_3,,running
Status,722,15398689517,/g3t1_3,,success
Status,723,15400714453,/g4t1,,fail
Status,724,15421465984,/g4t1,,success
Status,725,15441520910,/g4t1,,success
Status,726,15461680574,/g4t1,,success
Status,727,15481787815,/g4t1,,success
Status,728,15487969718,/g3t1_2,,running
Status,729,15488074578,/g3t1_1,,running
Status,730,15488455227,/g3t1_2,,success
Status,731,15488875946,/g3t1_1,,success
Status,732,15499079940,/g3t1_3,,running
Status,733,15499474161,/g3t1_3,,success
Status,734,15501664403,/g4t1,,fail
Status,735,15522271041,/g4t1,,success
Status,736,15542302490,/g4t1,,success
Status,737,15562376198,/g4t1,,success
Status,738,15582550977,/g4t1,,success
Status,739,15588248210,/g3t1_2,,running
Status,740,15588467301,/g3t1_1,,running
Status,741,15588566492,/g3t1_2,,success
Status,742,15588587863,/g3t1_1,,success
Status,743,15599333059,/g3t1_3,,running
Status,744,15599804037,/g3t1_3,,success
Status,745,15602353688,/g4t1,,fail
Status,746,15622939428,/g4t1,,success
Status,747,15642984311,/g4t1,,success
Status,748,15663049002,/g4t1,,success
Status,749,15683373031,/g4t1,,success
Status,750,15688372297,/g3t1_2,,running
Status,751,15688469635,/g3t1_1,,running
Status,752,15688644238,/g3t1_2,,success
Status,753,15688692642,/g3t1_1,,success
Status,754,15699987117,/g3t1_3,,running
Status,755,15700130668,/g3t1_3,,success
Status,756,15703153842,/g4t1,,fail
Status,757,15723772148,/g4t1,,success
Status,758,15743886746,/g4t1,,success
Status,759,15763799498,/g4t1,,success
Status,760,15783538150,/g4t1,,success
Status,761,15788337680,/g3t1_2,,running
Status,762,15788423190,/g3t1_1,,running
Status,763,15788541427,/g3t1_2,,success
Status,764,15788575877,/g3t1_1,,success
Status,765,15799466557,/g3t1_3,,running
Status,766,15799915465,/g3t1_3,,success
Status,767,15803869898,/g4t1,,fail
Status,768,15824326774,/g4t1,,success
Status,769,15843770917,/g4t1,,success
Status,770,15863663362,/g4t1,,success
Status,771,15883869782,/g4t1,,success
Status,772,15887925797,/g3t1_2,,running
Status,773,15887970991,/g3t1_1,,running
Status,774,15888533879,/g3t1_2,,success
Status,775,15888573144,/g3t1_1,,success
Status,776,15899899924,/g3t1_3,,running
Status,777,15900123378,/g3t1_3,,success
Status,778,15905003733,/g4t1,,fail
Status,779,15924807408,/g4t1,,success
Status,780,15945096919,/g4t1,,success
Status,781,15965044276,/g4t1,,success
Status,782,15985248860,/g4t1,,success
Status,783,15988392070,/g3t1_2,,running
Status,784,15988788301,/g3t1_1,,running
Status,785,15989394147,/g3t1_2,,success
Status,786,15989932113,/g3t1_1,,success
Status,787,16000075365,/g3t1_3,,running
Status,788,16000227575,/g3t1_3,,success
Status,789,16004671121,/g4t1,,fail
Status,790,16024721290,/g4t1,,success
Status,791,16044898004,/g4t1,,success
Status,792,16064989761,/g4t1,,success
Status,793,16085004068,/g4t1,,success
Status,794,16088271257,/g3t1_1,,running
Status,795,16088296282,/g3t1_2,,running
Status,796,16088396170,/g3t1_2,,success
Status,797,16088406877,/g3t1_1,,success
Status,798,16099855591,/g3t1_3,,running
Status,799,16100212425,/g3t1_3,,success
Status,800,16105144190,/g4t1,,fail
Status,801,16125209777,/g4t1,,success
Status,802,16145387120,/g4t1,,success
Status,803,16166126112,/g4t1,,success
Status,804,16186290995,/g4t1,,success
Status,805,16188565477,/g3t1_2,,running
Status,806,16189102956,/g3t1_1,,running
Status,807,16189198560,/g3t1_2,,success
Status,808,16189229982,/g3t1_1,,success
Status,809,16200087857,/g3t1_3,,running
Status,810,16200398867,/g3t1_3,,success
Status,811,16206482866,/g4t1,,fail
Status,812,16226644266,/g4t1,,success
Status,813,16246728336,/g4t1,,success
Status,814,16266235439,/g4t1,,success
Status,815,16286218312,/g4t1,,success
Status,816,16288508239,/g3t1_1,,running
Status,817,16288533237,/g3t1_2,,running
Status,818,16288539917,/g3t1_1,,success
Status,819,16288546080,/g3t1_2,,success
Status,820,16299693095,/g3t1_3,,running
Status,821,16299715479,/g3t1_3,,success
Status,822,16306162279,/g4t1,,fail
Status,823,16326864995,/g4t1,,success
Status,824,16346454363,/g4t1,,success
Status,825,16367100375,/g4t1,,success
Status,826,16387254958,/g4t1,,success
Status,827,16388443172,/g3t1_1,,running
Status,828,16388466877,/g3t1_2,,running
Status,829,16388537355,/g3t1_1,,success
Status,830,16388555709,/g3t1_2,,success
Status,831,16399894659,/g3t1_3,,running
Status,832,16399920339,/g3t1_3,,success
Status,833,16406858353,/g4t1,,fail
Status,834,16427083767,/g4t1,,success
Status,835,16447928058,/g4t1,,success
Status,836,16467995344,/g4t1,,success
Status,837,16488059921,/g4t1,,success
Status,838,16489465158,/g3t1_1,,running
Status,839,16489518124,/g3t1_2,,running
Status,840,16489537924,/g3t1_2,,success
Status,841,16489554789,/g3t1_1,,success
Status,842,16500410012,/g3t1_3,,running
Status,843,16500955735,/g3t1_3,,success
Status,844,16507850681,/g4t1,,fail
Status,845,16528255997,/g4t1,,success
Status,846,16547714758,/g4t1,,success
Status,847,16567822740,/g4t1,,success
Status,848,16587803050,/g4t1,,success
Status,849,16588433916,/g3t1_1,,running
Status,850,16588451422,/g3t1_2,,running
Status,851,16588617899,/g3t1_1,,success
Status,852,16588642212,/g3t1_2,,success
Status,853,16600398812,/g3t1_3,,running
Status,854,16600505376,/g3t1_3,,success
Status,855,16608025540,/g4t1,,fail
Status,856,16628711737,/g4t1,,success
Status,857,16648831837,/g4t1,,success
Status,858,16669005712,/g4t1,,success
Status,859,16689404008,/g4t1,,success
Status,860,16689484753,/g3t1_1,,running
Status,861,16689532912,/g3t1_2,,running
Status,862,16690253811,/g3t1_1,,success
Status,863,16690656640,/g3t1_2,,success
Status,864,16700486959,/g3t1_3,,running
Status,865,16700887913,/g3t1_3,,success
Status,866,16709128429,/g4t1,,fail
Status,867,16729282379,/g4t1,,success
Status,868,16748721773,/g4t1,,success
Status,869,16768829528,/g4t1,,success
Status,870,16788829061,/g3t1_1,,running
Status,871,16788850945,/g3t1_2,,running
Status,872,16788914364,/g4t1,,success
Status,873,16788971596,/g3t1_2,,success
Status,874,16788991101,/g3t1_1,,success
Status,875,16800525060,/g3t1_3,,running
Status,876,16801018307,/g3t1_3,,success
Status,877,16808977202,/g4t1,,fail
Status,878,16829531003,/g4t1,,success
Status,879,16849970039,/g4t1,,success
Status,880,16870189112,/g4t1,,success
Status,881,16889647468,/g3t1_2,,running
Status,882,16889737372,/g3t1_1,,running
Status,883,16890059051,/g3t1_1,,success
Status,884,16890103183,/g3t1_2,,success
Status,885,16890172999,/g4t1,,success
Status,886,16901076093,/g3t1_3,,running
Status,887,16901147228,/g3t1_3,,success
Status,888,16910300779,/g4t1,,fail
Status,889,16930189481,/g4t1,,success
Status,890,16950549111,/g4t1,,success
Status,891,16970701343,/g4t1,,success
Status,892,16989837176,/g3t1_1,,running
Status,893,16989911691,/g3t1_2,,running
Status,894,16990180968,/g3t1_2,,success
Status,895,16990307750,/g3t1_1,,success
Status,896,16990513069,/g4t1,,fail
Status,897,17000869227,/g3t1_3,,running
Status,898,17001154848,/g3t1_3,,success
Status,899,17011053952,/g4t1,,fail
Status,900,17031317042,/g4t1,,success
Status,901,17051304467,/g4t1,,success
Status,902,17071685163,/g4t1,,success
Status,903,17089699471,/g3t1_1,,running
Status,904,17089752921,/g3t1_2,,running
Status,905,17090068800,/g3t1_2,,success
Status,906,17090131826,/g3t1_1,,success
Status,907,17091071283,/g4t1,,fail
Status,908,17101178126,/g3t1_3,,running
Status,909,17101468876,/g3t1_3,,success
Status,910,17110992778,/g4t1,,success
Status,911,17131171948,/g4t1,,success
Status,912,17151356637,/g4t1,,success
Status,913,17171900061,/g4t1,,success
Status,914,17189820895,/g3t1_1,,running
Status,915,17189899445,/g3t1_2,,running
Status,916,17190200823,/g3t1_2,,success
Status,917,17190459654,/g3t1_1,,success
Status,918,17191802967,/g4t1,,fail
Status,919,17201273874,/g3t1_3,,running
Status,920,17201879542,/g3t1_3,,success
Status,921,17212181732,/g4t1,,fail
Status,922,17232241043,/g4t1,,success
Status,923,17252348907,/g4t1,,success
Status,924,17272777958,/g4t1,,success
Status,925,17290073597,/g3t1_1,,running
Status,926,17290169024,/g3t1_2,,running
Status,927,17290416074,/g3t1_2,,success
Status,928,17290490321,/g3t1_1,,success
Status,929,17292577777,/g4t1,,fail
Status,930,17301396749,/g3t1_3,,running
Status,931,17301754310,/g3t1_3,,success
Status,932,17312841274,/g4t1,,success
Status,933,17332954270,/g4t1,,success
Status,934,17353027494,/g4t1,,success
Status,935,17373189022,/g4t1,,success
Status,936,17390508865,/g3t1_2,,running
Status,937,17390570187,/g3t1_1,,running
Status,938,17390591298,/g3t1_1,,success
Status,939,17390610146,/g3t1_2,,success
Status,940,17393149930,/g4t1,,fail
Status,941,17401819092,/g3t1_3,,running
Status,942,17402171468,/g3t1_3,,success
Status,943,17413397871,/g4t1,,fail
Status,944,17433613580,/g4t1,,success
Status,945,17453741700,/g4t1,,success
Status,946,17473880916,/g4t1,,success
Status,947,17490604910,/g3t1_1,,running
Status,948,17490709025,/g3t1_2,,running
Status,949,17490823079,/g3t1_2,,success
Status,950,17491160206,/g3t1_1,,success
Status,951,17493758811,/g4t1,,fail
Status,952,17501724504,/g3t1_3,,running
Status,953,17502369764,/g3t1_3,,success
Status,954,17513969990,/g4t1,,success
Status,955,17534280826,/g4t1,,success
Status,956,17554456893,/g4t1,,success
Status,957,17574643405,/g4t1,,success
Status,958,17590830972,/g3t1_1,,running
Status,959,17590913749,/g3t1_2,,running
Status,960,17590955032,/g3t1_1,,success
Status,961,17591222213,/g3t1_2,,success
Status,962,17594332168,/g4t1,,fail
Status,963,17601430887,/g3t1_3,,running
Status,964,17601980678,/g3t1_3,,success
Status,965,17614492692,/g4t1,,fail
Status,966,17634671916,/g4t1,,success
Status,967,17655004540,/g4t1,,success
Status,968,17675120790,/g4t1,,success
Status,969,17690708860,/g3t1_1,,running
Status,970,17690833487,/g3t1_2,,running
Status,971,17691283990,/g3t1_2,,success
Status,972,17691354588,/g3t1_1,,success
Status,973,17694831973,/g4t1,,fail
Status,974,17701883177,/g3t1_3,,running
Status,975,17702432372,/g3t1_3,,success
Status,976,17715003420,/g4t1,,success
Status,977,17734941526,/g4t1,,success
Status,978,17755191220,/g4t1,,success
Status,979,17775410999,/g4t1,,success
Status,980,17790827502,/g3t1_1,,running
Status,981,17790940268,/g3t1_2,,running
Status,982,17790993490,/g3t1_2,,success
Status,983,17791609620,/g3t1_1,,success
Status,984,17795572273,/g4t1,,fail
Status,985,17801598083,/g3t1_3,,running
Status,986,17802065800,/g3t1_3,,success
Status,987,17815727807,/g4t1,,fail
Status,988,17835699321,/g4t1,,success
Status,989,17855883322,/g4t1,,success
Status,990,17876083642,/g4t1,,success
Status,991,17890796277,/g3t1_1,,running
Status,992,17890847734,/g3t1_2,,running
Status,993,17891162281,/g3t1_2,,success
Status,994,17891203182,/g3t1_1,,success
Status,995,17896024703,/g4t1,,fail
Status,996,17901657507,/g3t1_3,,running
Status,997,17902087282,/g3t1_3,,success
Status,998,17916156548,/g4t1,,success
Status,999,17936200435,/g4t1,,success
Status,1000,17956503439,/g4t1,,success
Status,1001,17976900536,/g4t1,,success
Status,1002,17991333586,/g3t1_1,,running
Status,1003,17991417566,/g3t1_2,,running
Status,1004,17991559576,/g3t1_2,,success
Status,1005,17991775724,/g3t1_1,,success
Status,1006,17996994732,/g4t1,,fail
Status,1007,18002516910,/g3t1_3,,running
Status,1008,18002584743,/g3t1_3,,success
Status,1009,18016821788,/g4t1,,fail
Status,1010,18036981012,/g4t1,,success
Status,1011,18056860514,/g4t1,,success
Status,1012,18077104212,/g4t1,,success
Status,1013,18091236403,/g3t1_1,,running
Status,1014,18091325188,/g3t1_2,,running
Status,1015,18091612759,/g3t1_1,,success
Status,1016,18091917963,/g3t1_2,,success
Status,1017,18097483451,/g4t1,,fail
Status,1018,18102436649,/g3t1_3,,running
Status,1019,18103136598,/g3t1_3,,success
Status,1020,18117740271,/g4t1,,success
Status,1021,18137939193,/g4t1,,success
Status,1022,18157864686,/g4t1,,success
Status,1023,18178201923,/g4t1,,success
Status,1024,18191399130,/g3t1_1,,running
Status,1025,18191482521,/g3t1_2,,running
Status,1026,18191942733,/g3t1_2,,success
Status,1027,18192010405,/g3t1_1,,success
Status,1028,18198324490,/g4t1,,fail
Status,1029,18202468608,/g3t1_3,,running
Status,1030,18202848461,/g3t1_3,,success
Status,1031,18218417481,/g4t1,,fail
Status,1032,18238799489,/g4t1,,success
Status,1033,18258795912,/g4t1,,success
Status,1034,18278885463,/g4t1,,success
Status,1035,18291467354,/g3t1_1,,running
Status,1036,18291524264,/g3t1_2,,running
Status,1037,18291681431,/g3t1_1,,success
Status,1038,18292097520,/g3t1_2,,success
Status,1039,18298870988,/g4t1,,fail
Status,1040,18302689057,/g3t1_3,,running
Status,1041,18303368240,/g3t1_3,,success
Status,1042,18319085719,/g4t1,,success
Status,1043,18339159041,/g4t1,,success
Status,1044,18359405300,/g4t1,,success
Status,1045,18379556393,/g4t1,,success
Status,1046,18392097579,/g3t1_1,,running
Status,1047,18392157595,/g3t1_2,,running
Status,1048,18392177707,/g3t1_2,,success
Status,1049,18392194726,/g3t1_1,,success
Status,1050,18399607534,/g4t1,,fail
Status,1051,18402678112,/g3t1_3,,running
Status,1052,18403437018,/g3t1_3,,success
Status,1053,18419684898,/g4t1,,fail
Status,1054,18440157008,/g4t1,,success
Status,1055,18460299045,/g4t1,,success
Status,1056,18480400204,/g4t1,,success
Status,1057,18492058910,/g3t1_1,,running
Status,1058,18492133196,/g3t1_2,,running
Status,1059,18492165153,/g3t1_1,,success
Status,1060,18492801970,/g3t1_2,,success
Status,1061,18500396673,/g4t1,,fail
Status,1062,18502878138,/g3t1_3,,running
Status,1063,18503245051,/g3t1_3,,success
Status,1064,18520483779,/g4t1,,success
Status,1065,18540915703,/g4t1,,success
Status,1066,18560964180,/g4t1,,success
Status,1067,18580972245,/g4t1,,success
Status,1068,18591849409,/g3t1_1,,running
Status,1069,18592158085,/g3t1_2,,running
Status,1070,18592218690,/g3t1_1,,success
Status,1071,18592410622,/g3t1_2,,success
Status,1072,18600832289,/g4t1,,fail
Status,1073,18602613763,/g3t1_3,,running
Status,1074,18603408635,/g3t1_3,,success
Status,1075,18621115062,/g4t1,,fail
Status,1076,18641248870,/g4t1,,success
Status,1077,18661554345,/g4t1,,success
Status,1078,18681459130,/g4t1,,success
Status,1079,18692090217,/g3t1_1,,running
Status,1080,18692190034,/g3t1_2,,running
Status,1081,18692221633,/g3t1_1,,success
Status,1082,18692468736,/g3t1_2,,success
Status,1083,18701262244,/g4t1,,fail
Status,1084,18702645619,/g3t1_3,,running
Status,1085,18703018149,/g3t1_3,,success
Status,1086,18721617147,/g4t1,,success
Status,1087,18741854426,/g4t1,,success
Status,1088,18762123871,/g4t1,,success
Status,1089,18782142846,/g4t1,,success
Status,1090,18791991600,/g3t1_1,,running
Status,1091,18792067464,/g3t1_2,,running
Status,1092,18792590122,/g3t1_1,,success
Status,1093,18792650205,/g3t1_2,,success
Status,1094,18802177527,/g4t1,,fail
Status,1095,18803467787,/g3t1_3,,running
Status,1096,18803539958,/g3t1_3,,success
Status,1097,18822822786,/g4t1,,fail
Status,1098,18842373895,/g4t1,,success
Status,1099,18862707712,/g4t1,,success
Status,1100,18882967802,/g4t1,,success
Status,1101,18892722224,/g3t1_1,,running
Status,1102,18892779154,/g3t1_2,,running
Status,1103,18892886816,/g3t1_1,,success
Status,1104,18892938978,/g3t1_2,,success
Status,1105,18902912784,/g4t1,,fail
Status,1106,18902982922,/g3t1_3,,running
Status,1107,18903687470,/g3t1_3,,success
Status,1108,18923363252,/g4t1,,success
Status,1109,18943371756,/g4t1,,success
Status,1110,18963575668,/g4t1,,success
Status,1111,18983526594,/g4t1,,success
Status,1112,18992601939,/g3t1_1,,running
Status,1113,18992671278,/g3t1_2,,running
Status,1114,18992710458,/g3t1_2,,success
Status,1115,18992780344,/g3t1_1,,success
Status,1116,19003106816,/g3t1_3,,running
Status,1117,19003694106,/g4t1,,fail
Status,1118,19003760029,/g3t1_3,,success
Status,1119,19024005909,/g4t1,,fail
Status,1120,19043996112,/g4t1,,success
Status,1121,19063423983,/g4t1,,success
Status,1122,19083544872,/g4t1,,success
Status,1123,19091900402,/g3t1_1,,running
Status,1124,19091981305,/g3t1_2,,running
Status,1125,19092051260,/g3t1_1,,success
Status,1126,19092069531,/g3t1_2,,success
Status,1127,19102994577,/g3t1_3,,running
Status,1128,19103115719,/g3t1_3,,success
Status,1129,19103417822,/g4t1,,fail
Status,1130,19124342478,/g4t1,,success
Status,1131,19144576739,/g4t1,,success
Status,1132,19164699199,/g4t1,,success
Status,1133,19184751308,/g4t1,,success
Status,1134,19193025509,/g3t1_1,,running
Status,1135,19193208494,/g3t1_2,,running
Status,1136,19193322293,/g3t1_2,,success
Status,1137,19193348975,/g3t1_1,,success
Status,1138,19203784245,/g3t1_3,,running
Status,1139,19203855827,/g3t1_3,,success
Status,1140,19204657591,/g4t1,,fail
Status,1141,19224883991,/g4t1,,success
Status,1142,19245044063,/g4t1,,success
Status,1143,19265066452,/g4t1,,success
Status,1144,19285355751,/g4t1,,success
Status,1145,19293431134,/g3t1_1,,running
Status,1146,19293503973,/g3t1_2,,running
Status,1147,19293884614,/g3t1_2,,success
Status,1148,19293960251,/g3t1_1,,success
Status,1149,19304020166,/g3t1_3,,running
Status,1150,19304655651,/g3t1_3,,success
Status,1151,19305248084,/g4t1,,fail
Status,1152,19325641108,/g4t1,,success
Status,1153,19345125974,/g4t1,,success
Status,1154,19365261278,/g4t1,,success
Status,1155,19385573710,/g4t1,,success
Status,1156,19393099852,/g3t1_1,,running
Status,1157,19393155535,/g3t1_2,,running
Status,1158,19393233234,/g3t1_1,,success
Status,1159,19393264020,/g3t1_2,,success
Status,1160,19404067353,/g3t1_3,,running
Status,1161,19404422987,/g3t1_3,,success
Status,1162,19405799093,/g4t1,,fail
Status,1163,19426025087,/g4t1,,success
Status,1164,19446147539,/g4t1,,success
Status,1165,19466390369,/g4t1,,success
Status,1166,19486400274,/g4t1,,success
Status,1167,19493206841,/g3t1_1,,running
Status,1168,19493282913,/g3t1_2,,running
Status,1169,19493591444,/g3t1_2,,success
Status,1170,19493652029,/g3t1_1,,success
Status,1171,19504257442,/g3t1_3,,running
Status,1172,19504843319,/g3t1_3,,success
Status,1173,19506320081,/g4t1,,fail
Status,1174,19526571096,/g4t1,,success
Status,1175,19546631997,/g4t1,,success
Status,1176,19566876428,/g4t1,,success
Status,1177,19586964261,/g4t1,,success
Status,1178,19593405505,/g3t1_1,,running
Status,1179,19593468915,/g3t1_2,,running
Status,1180,19593502657,/g3t1_1,,success
Status,1181,19593526523,/g3t1_2,,success
Status,1182,19604515059,/g3t1_3,,running
Status,1183,19604593766,/g3t1_3,,success
Status,1184,19606860534,/g4t1,,fail
Status,1185,19626905518,/g4t1,,success
Status,1186,19646949401,/g4t1,,success
Status,1187,19667372468,/g4t1,,success
Status,1188,19687484272,/g4t1,,success
Status,1189,19693244034,/g3t1_1,,running
Status,1190,19693333059,/g3t1_2,,running
Status,1191,19693948389,/g3t1_1,,success
Status,1192,19694034981,/g3t1_2,,success
Status,1193,19704572441,/g3t1_3,,running
Status,1194,19705256276,/g3t1_3,,success
Status,1195,19707505487,/g4t1,,fail
Status,1196,19727897793,/g4t1,,success
Status,1197,19747790059,/g4t1,,success
Status,1198,19767993769,/g4t1,,success
Status,1199,19787385896,/g4t1,,success
Status,1200,19792693121,/g3t1_1,,running
Status,1201,19792907848,/g3t1_2,,running
Status,1202,19793345738,/g3t1_2,,success
Status,1203,19793509070,/g3t1_1,,success
Status,1204,19803902402,/g3t1_3,,running
Status,1205,19804043960,/g3t1_3,,success
Status,1206,19807149617,/g4t1,,fail
Status,1207,19827515472,/g4t1,,success
Status,1208,19848344203,/g4t1,,success
Status,1209,19868407717,/g4t1,,success
Status,1210,19888451869,/g4t1,,success
Status,1211,19893385021,/g3t1_1,,running
Status,1212,19893462504,/g3t1_2,,running
Status,1213,19893482705,/g3t1_1,,success
Status,1214,19893600624,/g3t1_2,,success
Status,1215,19904319533,/g3t1_3,,running
Status,1216,19904358896,/g3t1_3,,success
Status,1217,19908109220,/g4t1,,fail
Status,1218,19928092155,/g4t1,,success
Status,1219,19948109021,/g4t1,,success
Status,1220,19968223033,/g4t1,,success
Status,1221,19988230277,/g4t1,,success
Status,1222,19992685577,/g3t1_1,,running
Status,1223,19992756802,/g3t1_2,,running
Status,1224,19992779193,/g3t1_1,,success
Status,1225,19992945532,/g3t1_2,,success
Status,1226,20004120706,/g3t1_3,,running
Status,1227,20004223929,/g3t1_3,,success
Status,1228,20008595526,/g4t1,,fail
Status,1229,20028381228,/g4t1,,success
Status,1230,20048560246,/g4t1,,success
Status,1231,20068991373,/g4t1,,success
Status,1232,20089176203,/g4t1,,success
Status,1233,20093296913,/g3t1_1,,running
Status,1234,20093347027,/g3t1_2,,running
Status,1235,20093372412,/g3t1_2,,success
Status,1236,20093381082,/g3t1_1,,success
Status,1237,20104204491,/g3t1_3,,running
Status,1238,20104401840,/g3t1_3,,success
Status,1239,20108806327,/g4t1,,fail
Status,1240,20129000506,/g4t1,,success
Status,1241,20149155057,/g4t1,,success
Status,1242,20169613664,/g4t1,,success
Status,1243,20189565239,/g4t1,,success
Status,1244,20193322600,/g3t1_1,,running
Status,1245,20193352357,/g3t1_2,,running
Status,1246,20193386766,/g3t1_1,,success
Status,1247,20193396681,/g3t1_2,,success
Status,1248,20204699253,/g3t1_3,,running
Status,1249,20204738753,/g3t1_3,,success
Status,1250,20209750076,/g4t1,,fail
Status,1251,20230061618,/g4t1,,success
Status,1252,20250192485,/g4t1,,success
Status,1253,20270787765,/g4t1,,success
Status,1254,20290751383,/g4t1,,success
Status,1255,20293734078,/g3t1_1,,running
Status,1256,20293809565,/g3t1_2,,running
Status,1257,20294211364,/g3t1_1,,success
Status,1258,20294306859,/g3t1_2,,success
Status,1259,20305050268,/g3t1_3,,running
Status,1260,20305303483,/g3t1_3,,success
Status,1261,20310597621,/g4t1,,fail
Status,1262,20330800862,/g4t1,,success
Status,1263,20351121471,/g4t1,,success
Status,1264,20371419115,/g4t1,,success
Status,1265,20391029667,/g4t1,,success
Status,1266,20393818062,/g3t1_1,,running
Status,1267,20393930675,/g3t1_2,,running
Status,1268,20394347218,/g3t1_2,,success
Status,1269,20394458419,/g3t1_1,,success
Status,1270,20405067784,/g3t1_3,,running
Status,1271,20405381081,/g3t1_3,,success
Status,1272,20411378251,/g4t1,,fail
Status,1273,20431607432,/g4t1,,success
Status,1274,20451550278,/g4t1,,success
Status,1275,20471921072,/g4t1,,success
Status,1276,20491770157,/g4t1,,success
Status,1277,20493781955,/g3t1_1,,running
Status,1278,20494043804,/g3t1_2,,running
Status,1279,20494154393,/g3t1_1,,success
Status,1280,20494186513,/g3t1_2,,success
Status,1281,20505415072,/g3t1_3,,running
Status,1282,20505687315,/g3t1_3,,success
Status,1283,20511989236,/g4t1,,fail
Status,1284,20532200968,/g4t1,,success
Status,1285,20552179094,/g4t1,,success
Status,1286,20572629208,/g4t1,,success
Status,1287,20592589929,/g4t1,,success
Status,1288,20593987991,/g3t1_1,,running
Status,1289,20594374984,/g3t1_2,,running
Status,1290,20594430260,/g3t1_2,,success
Status,1291,20594451932,/g3t1_1,,success
Status,1292,20605327495,/g3t1_3,,running
Status,1293,20605551666,/g3t1_3,,success
Status,1294,20612582119,/g4t1,,fail
Status,1295,20632844497,/g4t1,,success
Status,1296,20653021018,/g4t1,,success
Status,1297,20673169468,/g4t1,,success
Status,1298,20693644558,/g4t1,,success
Status,1299,20694167728,/g3t1_2,,running
Status,1300,20694903125,/g3t1_1,,running
Status,1301,20695033527,/g3t1_1,,success
Status,1302,20695069045,/g3t1_2,,success
Status,1303,20705507134,/g3t1_3,,running
Status,1304,20705800777,/g3t1_3,,success
Status,1305,20713270076,/g4t1,,fail
Status,1306,20733661062,/g4t1,,success
Status,1307,20753705492,/g4t1,,success
Status,1308,20773901188,/g4t1,,success
Status,1309,20794476826,/g4t1,,success
Status,1310,20794538648,/g3t1_1,,running
Status,1311,20794558452,/g3t1_1,,success
Status,1312,20794579152,/g3t1_2,,running
Status,1313,20794776300,/g3t1_2,,success
Status,1314,20805437199,/g3t1_3,,running
Status,1315,20806005165,/g3t1_3,,success
Status,1316,20813983013,/g4t1,,fail
Status,1317,20834270105,/g4t1,,success
Status,1318,20854413812,/g4t1,,success
Status,1319,20874594737,/g4t1,,success
Status,1320,20894503022,/g3t1_1,,running
Status,1321,20894566804,/g3t1_2,,running
Status,1322,20894587429,/g4t1,,success
Status,1323,20895064619,/g3t1_1,,success
Status,1324,20895129043,/g3t1_2,,success
Status,1325,20905707227,/g3t1_3,,running
Status,1326,20905972484,/g3t1_3,,success
Status,1327,20914806581,/g4t1,,fail
Status,1328,20935092968,/g4t1,,success
Status,1329,20955179615,/g4t1,,success
Status,1330,20975284998,/g4t1,,success
Status,1331,20994551419,/g3t1_1,,running
Status,1332,20994987569,/g3t1_2,,running
Status,1333,20995057427,/g3t1_2,,success
Status,1334,20995311148,/g4t1,,success
Status,1335,20995338087,/g3t1_1,,success
Status,1336,21006276346,/g3t1_3,,running
Status,1337,21007171773,/g3t1_3,,success
Status,1338,21015107219,/g4t1,,fail
Status,1339,21035306476,/g4t1,,success
Status,1340,21055437242,/g4t1,,success
Status,1341,21076204727,/g4t1,,success
Status,1342,21094607638,/g3t1_1,,running
Status,1343,21094672268,/g3t1_2,,running
Status,1344,21094720277,/g3t1_2,,success
Status,1345,21094928932,/g3t1_1,,success
Status,1346,21095578036,/g4t1,,success
Status,1347,21106203238,/g3t1_3,,running
Status,1348,21106258819,/g3t1_3,,success
Status,1349,21115811378,/g4t1,,fail
Status,1350,21136177937,/g4t1,,success
Status,1351,21155814296,/g4t1,,success
Status,1352,21175947660,/g4t1,,success
Status,1353,21194403649,/g3t1_1,,running
Status,1354,21194441341,/g3t1_2,,running
Status,1355,21194481588,/g3t1_2,,success
Status,1356,21194492124,/g3t1_1,,success
Status,1357,21195928314,/g4t1,,fail
Status,1358,21205717760,/g3t1_3,,running
Status,1359,21205751923,/g3t1_3,,success
Status,1360,21216304537,/g4t1,,success
Status,1361,21236447104,/g4t1,,success
Status,1362,21256551462,/g4t1,,success
Status,1363,21276508500,/g4t1,,success
Status,1364,21294155029,/g3t1_1,,running
Status,1365,21294241134,/g3t1_2,,running
Status,1366,21294263776,/g3t1_1,,success
Status,1367,21294410875,/g3t1_2,,success
Status,1368,21296233209,/g4t1,,fail
Status,1369,21306281096,/g3t1_3,,running
Status,1370,21306320535,/g3t1_3,,success
Status,1371,21316684123,/g4t1,,fail
Status,1372,21336896564,/g4t1,,success
Status,1373,21356680844,/g4t1,,success
Status,1374,21376923702,/g4t1,,success
Status,1375,21395574946,/g3t1_2,,running
Status,1376,21395789822,/g3t1_2,,success
Status,1377,21395808720,/g3t1_1,,running
Status,1378,21395881523,/g3t1_1,,success
Status,1379,21396881089,/g4t1,,fail
Status,1380,21405873350,/g3t1_3,,running
Status,1381,21405971248,/g3t1_3,,success
Status,1382,21417523651,/g4t1,,success
Status,1383,21437837236,/g4t1,,success
Status,1384,21457443336,/g4t1,,success
Status,1385,21477411868,/g4t1,,success
Status,1386,21494465907,/g3t1_1,,running
Status,1387,21494512096,/g3t1_1,,success
Status,1388,21494541028,/g3t1_2,,running
Status,1389,21494550899,/g3t1_2,,success
Status,1390,21497755098,/g4t1,,fail
Status,1391,21505887242,/g3t1_3,,running
Status,1392,21506022735,/g3t1_3,,success
Status,1393,21517737338,/g4t1,,fail
Status,1394,21537730869,/g4t1,,success
Status,1395,21557839500,/g4t1,,success
Status,1396,21577787119,/g4t1,,success
Status,1397,21594545354,/g3t1_1,,running
Status,1398,21594565039,/g3t1_1,,success
Status,1399,21594588015,/g3t1_2,,running
Status,1400,21594593872,/g3t1_2,,success
Status,1401,21597831739,/g4t1,,fail
Status,1402,21605808462,/g3t1_3,,running
Status,1403,21605938168,/g3t1_3,,success
Status,1404,21618144136,/g4t1,,success
Status,1405,21638054327,/g4t1,,success
Status,1406,21658285398,/g4t1,,success
Status,1407,21678303686,/g4t1,,success
Status,1408,21694775022,/g3t1_1,,running
Status,1409,21694805555,/g3t1_2,,running
Status,1410,21694817688,/g3t1_1,,success
Status,1411,21694881411,/g3t1_2,,success
Status,1412,21698804371,/g4t1,,fail
Status,1413,21705956503,/g3t1_3,,running
Status,1414,21706329482,/g3t1_3,,success
Status,1415,21718955094,/g4t1,,fail
Status,1416,21738643390,/g4t1,,success
Status,1417,21759613434,/g4t1,,success
Status,1418,21778899294,/g4t1,,success
Status,1419,21795542479,/g3t1_2,,running
Status,1420,21795937468,/g3t1_2,,success
Status,1421,21795963419,/g3t1_1,,running
Status,1422,21795972753,/g3t1_1,,success
Status,1423,21798757268,/g4t1,,fail
Status,1424,21806406796,/g3t1_3,,running
Status,1425,21808658105,/g3t1_3,,success
Status,1426,21820039866,/g4t1,,success
Status,1427,21839146968,/g4t1,,success
Status,1428,21859388773,/g4t1,,success
Status,1429,21879357319,/g4t1,,success
Status,1430,21895555895,/g3t1_1,,running
Status,1431,21895590553,/g3t1_2,,running
Status,1432,21895732095,/g3t1_1,,success
Status,1433,21896398412,/g3t1_2,,success
Status,1434,21899772974,/g4t1,,fail
Status,1435,21906662083,/g3t1_3,,running
Status,1436,21906787146,/g3t1_3,,success
Status,1437,21920401062,/g4t1,,fail
Status,1438,21939507343,/g4t1,,success
Status,1439,21959669425,/g4t1,,success
Status,1440,21979740172,/g4t1,,success
Status,1441,21994823994,/g3t1_1,,running
Status,1442,21994848843,/g3t1_2,,running
Status,1443,21994997224,/g3t1_1,,success
Status,1444,21995164615,/g3t1_2,,success
Status,1445,22000521232,/g4t1,,fail
Status,1446,22006260124,/g3t1_3,,running
Status,1447,22006287710,/g3t1_3,,success
Status,1448,22019931283,/g4t1,,success
Status,1449,22040007865,/g4t1,,success
Status,1450,22060116264,/g4t1,,success
Status,1451,22080197219,/g4t1,,success
Status,1452,22095267128,/g3t1_2,,running
Status,1453,22095307308,/g3t1_1,,running
Status,1454,22095314697,/g3t1_2,,success
Status,1455,22095320483,/g3t1_1,,success
Status,1456,22100245592,/g4t1,,fail
Status,1457,22106544405,/g3t1_3,,running
Status,1458,22106570129,/g3t1_3,,success
Status,1459,22120373905,/g4t1,,fail
Status,1460,22140521303,/g4t1,,success
Status,1461,22160813613,/g4t1,,success
Status,1462,22181173304,/g4t1,,success
Status,1463,22195842952,/g3t1_1,,running
Status,1464,22195920385,/g3t1_2,,running
Status,1465,22196086928,/g3t1_1,,success
Status,1466,22196989503,/g3t1_2,,success
Status,1467,22201513377,/g4t1,,fail
Status,1468,22207076397,/g3t1_3,,running
Status,1469,22207455929,/g3t1_3,,success
Status,1470,22221598413,/g4t1,,success
Status,1471,22241550490,/g4t1,,success
Status,1472,22261909944,/g4t1,,success
Status,1473,22281970167,/g4t1,,success
Status,1474,22295892350,/g3t1_1,,running
Status,1475,22295961453,/g3t1_2,,running
Status,1476,22296051756,/g3t1_1,,success
Status,1477,22296079272,/g3t1_2,,success
Status,1478,22301861688,/g4t1,,fail
Status,1479,22306906510,/g3t1_3,,running
Status,1480,22307266417,/g3t1_3,,success
Status,1481,22322440625,/g4t1,,fail
Status,1482,22342100421,/g4t1,,success
Status,1483,22362419834,/g4t1,,success
Status,1484,22382647518,/g4t1,,success
Status,1485,22396145034,/g3t1_1,,running
Status,1486,22396253292,/g3t1_2,,running
Status,1487,22396285124,/g3t1_2,,success
Status,1488,22396348644,/g3t1_1,,success
Status,1489,22402418450,/g4t1,,fail
Status,1490,22406984876,/g3t1_3,,running
Status,1491,22407345712,/g3t1_3,,success
Status,1492,22423085541,/g4t1,,success
Status,1493,22442885659,/g4t1,,success
Status,1494,22463135502,/g4t1,,success
Status,1495,22483285274,/g4t1,,success
Status,1496,22496643029,/g3t1_1,,running
Status,1497,22496758387,/g3t1_2,,running
Status,1498,22496843413,/g3t1_2,,success
Status,1499,22496890680,/g3t1_1,,success
Status,1500,22503321346,/g4t1,,fail
Status,1501,22507225863,/g3t1_3,,running
Status,1502,22507781503,/g3t1_3,,success
Status,1503,22523364517,/g4t1,,fail
Status,1504,22543532278,/g4t1,,success
Status,1505,22563746704,/g4t1,,success
Status,1506,22583946717,/g4t1,,success
Status,1507,22596339099,/g3t1_2,,running
Status,1508,22596426671,/g3t1_1,,running
Status,1509,22596466921,/g3t1_2,,success
Status,1510,22596718922,/g3t1_1,,success
Status,1511,22604043754,/g4t1,,fail
Status,1512,22607398917,/g3t1_3,,running
Status,1513,22608194510,/g3t1_3,,success
Status,1514,22624314157,/g4t1,,success
Status,1515,22643432534,/g4t1,,success
Status,1516,22663580922,/g4t1,,success
Status,1517,22684261373,/g4t1,,success
Status,1518,22695739954,/g3t1_1,,running
Status,1519,22695768262,/g3t1_2,,running
Status,1520,22695847675,/g3t1_1,,success
Status,1521,22696032638,/g3t1_2,,success
Status,1522,22703701341,/g4t1,,fail
Status,1523,22706966546,/g3t1_3,,running
Status,1524,22707169550,/g3t1_3,,success
Status,1525,22723751095,/g4t1,,fail
Status,1526,22743963183,/g4t1,,success
Status,1527,22764034929,/g4t1,,success
Status,1528,22784102476,/g4t1,,success
Status,1529,22796155877,/g3t1_1,,running
Status,1530,22796357443,/g3t1_1,,success
Status,1531,22796925146,/g3t1_2,,running
Status,1532,22796968905,/g3t1_2,,success
Status,1533,22804242653,/g4t1,,fail
Status,1534,22807085538,/g3t1_3,,running
Status,1535,22807271513,/g3t1_3,,success
Status,1536,22824802808,/g4t1,,success
Status,1537,22844509118,/g4t1,,success
Status,1538,22864752857,/g4t1,,success
Status,1539,22884988136,/g4t1,,success
Status,1540,22895994527,/g3t1_1,,running
Status,1541,22896023290,/g3t1_2,,running
Status,1542,22896109332,/g3t1_2,,success
Status,1543,22896122452,/g3t1_1,,success
Status,1544,22904854763,/g4t1,,fail
