
Status,2,3451934967,/g4t1,,init
Status,4,8666029263,/g3t1_1,,init
Status,5,8671268634,/g3t1_1,,init
Status,6,8671288428,/g3t1_1,,running
Status,7,8672115759,/g3t1_1,,success
Status,8,8721555994,/g3t1_1,,running
Status,9,8722009846,/g3t1_1,,success
Status,10,8766212644,/g3t1_2,,init
Status,12,8771595930,/g3t1_1,,running
Status,13,8772023709,/g3t1_1,,success
Status,14,8772552211,/g3t1_2,,init
Status,15,8772564597,/g3t1_2,,running
Status,16,8773207558,/g3t1_2,,success
Status,17,8821717344,/g3t1_1,,running
Status,18,8822186677,/g3t1_1,,success
Status,19,8822703430,/g3t1_2,,running
Status,20,8823079949,/g3t1_2,,success
Status,21,8866809912,/g3t1_3,,init
Status,23,8871724852,/g3t1_1,,running
Status,24,8872148778,/g3t1_1,,success
Status,25,8872759379,/g3t1_2,,running
Status,26,8873230205,/g3t1_3,,init
Status,27,8873248176,/g3t1_3,,running
Status,28,8873296969,/g3t1_2,,success
Status,29,8873902099,/g3t1_3,,success
Status,33,8922132940,/g3t1_1,,running
Status,34,8922814230,/g3t1_1,,success
Status,35,8922931044,/g3t1_2,,running
Status,36,8923399476,/g3t1_3,,running
Status,37,8923530928,/g3t1_2,,success
Status,38,8924012398,/g3t1_3,,success
Status,39,8972630632,/g3t1_1,,running
Status,40,8973556204,/g3t1_2,,running
Status,41,8974168747,/g3t1_3,,running
Status,42,8975155856,/g3t1_1,,success
Status,43,8975897426,/g3t1_2,,success
Status,44,8977176578,/g3t1_3,,success
Status,45,9023040815,/g3t1_1,,running
Status,46,9023727028,/g3t1_2,,running
Status,47,9024406338,/g3t1_3,,running
Status,48,9025547418,/g3t1_1,,success
Status,49,9027406472,/g3t1_3,,success
Status,50,9027565385,/g3t1_2,,success
Status,51,9070948117,/g4t1,,success
Status,52,9072936005,/g3t1_1,,running
Status,53,9074053143,/g3t1_2,,running
Status,54,9074410175,/g3t1_3,,running
Status,55,9075449443,/g3t1_1,,success
Status,56,9076513297,/g3t1_2,,success
Status,57,9077460919,/g3t1_3,,success
Status,61,9123031007,/g3t1_1,,running
Status,62,9123554674,/g3t1_2,,running
Status,63,9124144577,/g3t1_3,,running
Status,64,9124194678,/g3t1_1,,success
Status,65,9125060769,/g3t1_2,,success
Status,66,9125733004,/g3t1_3,,success
Status,67,9170859079,/g4t1,,success
Status,68,9173291355,/g3t1_1,,running
Status,69,9174106838,/g3t1_2,,running
Status,70,9174554557,/g3t1_3,,running
Status,71,9177152719,/g3t1_1,,success
Status,72,9178184698,/g3t1_3,,success
Status,73,9178246792,/g3t1_2,,success
Status,74,9223632011,/g3t1_1,,running
Status,75,9224022218,/g3t1_2,,running
Status,76,9224505531,/g3t1_3,,running
Status,77,9226706615,/g3t1_1,,success
Status,78,9227985845,/g3t1_2,,success
Status,79,9228309393,/g3t1_3,,success
Status,80,9270971099,/g4t1,,success
Status,81,9273435400,/g3t1_1,,running
Status,82,9274263891,/g3t1_2,,running
Status,83,9274823832,/g3t1_3,,running
Status,84,9275764525,/g3t1_1,,success
Status,85,9277291692,/g3t1_3,,success
Status,86,9278405205,/g3t1_2,,success
Status,90,9323883384,/g3t1_1,,running
Status,91,9324303912,/g3t1_2,,running
Status,92,9325619295,/g3t1_3,,running
Status,93,9326172545,/g3t1_1,,success
Status,94,9327498937,/g3t1_3,,success
Status,95,9329443337,/g3t1_2,,success
Status,96,9370857651,/g4t1,,fail
Status,97,9373476286,/g3t1_1,,running
Status,98,9374105002,/g3t1_2,,running
Status,99,9374845971,/g3t1_3,,running
Status,100,9374895546,/g3t1_1,,success
Status,101,9375424282,/g3t1_2,,success
Status,102,9376254957,/g3t1_3,,success
Status,103,9424096483,/g3t1_1,,running
Status,104,9424552801,/g3t1_2,,running
Status,105,9425135589,/g3t1_3,,running
Status,106,9426138310,/g3t1_1,,success
Status,107,9427790005,/g3t1_2,,success
Status,108,9428712639,/g3t1_3,,success
Status,109,9471458280,/g4t1,,fail
Status,110,9474148577,/g3t1_1,,running
Status,111,9474600339,/g3t1_2,,running
Status,112,9475190685,/g3t1_3,,running
Status,113,9476163341,/g3t1_1,,success
Status,114,9477292948,/g3t1_2,,success
Status,115,9478733904,/g3t1_3,,success
Status,119,9524275594,/g3t1_1,,running
Status,120,9524678640,/g3t1_2,,running
Status,121,9525050604,/g3t1_3,,running
Status,122,9526631428,/g3t1_1,,success
Status,123,9528357243,/g3t1_3,,success
Status,124,9529363482,/g3t1_2,,success
Status,125,9571507284,/g4t1,,fail
Status,126,9574226241,/g3t1_1,,running
Status,127,9574685391,/g3t1_2,,running
Status,128,9575575099,/g3t1_3,,running
Status,129,9576456164,/g3t1_1,,success
Status,130,9578209855,/g3t1_3,,success
Status,131,9580247032,/g3t1_2,,success
Status,132,9624409620,/g3t1_1,,running
Status,133,9624918399,/g3t1_2,,running
Status,134,9625612792,/g3t1_3,,running
Status,135,9627016413,/g3t1_1,,success
Status,136,9628706044,/g3t1_3,,success
Status,137,9629065246,/g3t1_2,,success
Status,138,9671522548,/g4t1,,fail
Status,139,9674401699,/g3t1_1,,running
Status,140,9675301787,/g3t1_2,,running
Status,141,9675389658,/g3t1_3,,running
Status,142,9676689382,/g3t1_1,,success
Status,143,9678764334,/g3t1_2,,success
Status,144,9679164333,/g3t1_3,,success
Status,148,9724695804,/g3t1_1,,running
Status,149,9725122323,/g3t1_2,,running
Status,150,9725469163,/g3t1_3,,running
Status,151,9727135525,/g3t1_1,,success
Status,152,9728579338,/g3t1_3,,success
Status,153,9730045069,/g3t1_2,,success
Status,154,9771680934,/g4t1,,fail
Status,155,9774732357,/g3t1_1,,running
Status,156,9775211189,/g3t1_2,,running
Status,157,9775585779,/g3t1_3,,running
Status,158,9777684890,/g3t1_1,,success
Status,159,9778310444,/g3t1_2,,success
Status,160,9779468948,/g3t1_3,,success
Status,161,9824917677,/g3t1_1,,running
Status,162,9825278457,/g3t1_2,,running
Status,163,9825681724,/g3t1_3,,running
Status,164,9827246786,/g3t1_1,,success
Status,165,9829228966,/g3t1_3,,success
Status,166,9830628940,/g3t1_2,,success
Status,167,9871659353,/g4t1,,fail
Status,168,9874773936,/g3t1_1,,running
Status,169,9875325109,/g3t1_2,,running
Status,170,9875902151,/g3t1_3,,running
Status,171,9877170341,/g3t1_1,,success
Status,172,9878564778,/g3t1_3,,success
Status,173,9880041890,/g3t1_2,,success
Status,177,9925281678,/g3t1_1,,running
Status,178,9925602941,/g3t1_2,,running
Status,179,9925967955,/g3t1_3,,running
Status,180,9927262735,/g3t1_1,,success
Status,181,9929874470,/g3t1_2,,success
Status,182,9931004058,/g3t1_3,,success
Status,183,9971308034,/g4t1,,fail
Status,184,9974708363,/g3t1_1,,running
Status,185,9975306621,/g3t1_2,,running
Status,186,9975583253,/g3t1_3,,running
Status,187,9975617833,/g3t1_1,,success
Status,188,9976304910,/g3t1_2,,success
Status,189,9976790047,/g3t1_3,,success
Status,190,10025751617,/g3t1_1,,running
Status,191,10025860593,/g3t1_2,,running
Status,192,10026311268,/g3t1_3,,running
Status,193,10028867613,/g3t1_3,,success
Status,194,10028948613,/g3t1_1,,success
Status,195,10030448742,/g3t1_2,,success
Status,196,10071985930,/g4t1,,fail
Status,197,10075858973,/g3t1_1,,running
Status,198,10075930968,/g3t1_2,,running
Status,199,10076098352,/g3t1_3,,running
Status,200,10078596073,/g3t1_2,,success
Status,201,10080116552,/g3t1_3,,success
Status,202,10080802061,/g3t1_1,,success
Status,206,10125861407,/g3t1_1,,running
Status,207,10126033381,/g3t1_2,,running
Status,208,10126266440,/g3t1_3,,running
Status,209,10128268861,/g3t1_1,,success
Status,210,10129265831,/g3t1_2,,success
Status,211,10130473649,/g3t1_3,,success
Status,212,10172082964,/g4t1,,fail
Status,213,10175851815,/g3t1_1,,running
Status,214,10175984127,/g3t1_2,,running
Status,215,10176399024,/g3t1_3,,running
Status,216,10178305238,/g3t1_1,,success
Status,217,10179564382,/g3t1_2,,success
Status,218,10180430008,/g3t1_3,,success
Status,219,10226682625,/g3t1_1,,running
Status,220,10226757137,/g3t1_2,,running
Status,221,10226799674,/g3t1_3,,running
Status,222,10228475904,/g3t1_2,,success
Status,223,10229597107,/g3t1_3,,success
Status,224,10230911122,/g3t1_1,,success
Status,225,10272152737,/g4t1,,fail
Status,226,10276287361,/g3t1_1,,running
Status,227,10276370516,/g3t1_2,,running
Status,228,10276410850,/g3t1_3,,running
Status,229,10280300830,/g3t1_1,,success
Status,230,10280616226,/g3t1_2,,success
Status,231,10281196516,/g3t1_3,,success
Status,235,10326624158,/g3t1_1,,running
Status,236,10326739850,/g3t1_2,,running
Status,237,10326771183,/g3t1_3,,running
Status,238,10328711793,/g3t1_1,,success
Status,239,10329818195,/g3t1_2,,success
Status,240,10331068033,/g3t1_3,,success
Status,241,10372419913,/g4t1,,fail
Status,242,10376796027,/g3t1_1,,running
Status,243,10376879459,/g3t1_2,,running
Status,244,10376925188,/g3t1_3,,running
Status,245,10378928164,/g3t1_1,,success
Status,246,10380205001,/g3t1_3,,success
Status,247,10381296069,/g3t1_2,,success
Status,248,10427131281,/g3t1_1,,running
Status,249,10427203428,/g3t1_2,,running
Status,250,10427231121,/g3t1_3,,running
Status,251,10429155740,/g3t1_3,,success
Status,252,10430301460,/g3t1_1,,success
Status,253,10431451080,/g3t1_2,,success
Status,254,10472474840,/g4t1,,fail
Status,255,10477532142,/g3t1_1,,running
Status,256,10477637417,/g3t1_3,,running
Status,257,10477683869,/g3t1_2,,running
Status,258,10479330304,/g3t1_2,,success
Status,259,10481023020,/g3t1_1,,success
Status,260,10481901086,/g3t1_3,,success
Status,264,10527327911,/g3t1_1,,running
Status,265,10527392727,/g3t1_2,,running
Status,266,10527416469,/g3t1_3,,running
Status,267,10531109309,/g3t1_1,,success
Status,268,10531378131,/g3t1_2,,success
Status,269,10531428055,/g3t1_3,,success
Status,270,10572630214,/g4t1,,fail
Status,271,10577082734,/g3t1_1,,running
Status,272,10577169105,/g3t1_2,,running
Status,273,10577366658,/g3t1_3,,running
Status,274,10580584434,/g3t1_1,,success
Status,275,10582014679,/g3t1_2,,success
Status,276,10582087708,/g3t1_3,,success
Status,277,10627382697,/g3t1_1,,running
Status,278,10627478204,/g3t1_2,,running
Status,279,10627568275,/g3t1_3,,running
Status,280,10629665879,/g3t1_2,,success
Status,281,10630979970,/g3t1_1,,success
Status,282,10632285360,/g3t1_3,,success
Status,283,10672802061,/g4t1,,fail
Status,284,10677395542,/g3t1_1,,running
Status,285,10677479891,/g3t1_2,,running
Status,286,10677597332,/g3t1_3,,running
Status,287,10679790846,/g3t1_1,,success
Status,288,10681276921,/g3t1_2,,success
Status,289,10682798572,/g3t1_3,,success
Status,293,10727528521,/g3t1_1,,running
Status,294,10727670146,/g3t1_2,,running
Status,295,10727712340,/g3t1_3,,running
Status,296,10731127923,/g3t1_1,,success
Status,297,10732005214,/g3t1_2,,success
Status,298,10732490413,/g3t1_3,,success
Status,299,10772913807,/g4t1,,fail
Status,300,10777620852,/g3t1_1,,running
Status,301,10777757087,/g3t1_2,,running
Status,302,10777807435,/g3t1_3,,running
Status,303,10780147321,/g3t1_1,,success
Status,304,10782320931,/g3t1_3,,success
Status,305,10784137820,/g3t1_2,,success
Status,306,10827674712,/g3t1_1,,running
Status,307,10827749304,/g3t1_3,,running
Status,308,10827822190,/g3t1_2,,running
Status,309,10830900107,/g3t1_1,,success
Status,310,10830983449,/g3t1_3,,success
Status,311,10831870761,/g3t1_2,,success
Status,312,10872973590,/g4t1,,fail
Status,313,10877904679,/g3t1_1,,running
Status,314,10878057582,/g3t1_3,,running
Status,315,10878149591,/g3t1_2,,running
Status,316,10880596136,/g3t1_2,,success
Status,317,10880847309,/g3t1_1,,success
Status,318,10881890636,/g3t1_3,,success
Status,322,10928192529,/g3t1_1,,running
Status,323,10928293976,/g3t1_3,,running
Status,324,10928425533,/g3t1_2,,running
Status,325,10933095908,/g3t1_1,,success
Status,326,10933539920,/g3t1_3,,success
Status,327,10933741023,/g3t1_2,,success
Status,328,10973290235,/g4t1,,fail
Status,329,10978115352,/g3t1_1,,running
Status,330,10978199159,/g3t1_2,,running
Status,331,10978298909,/g3t1_3,,running
Status,332,10980367222,/g3t1_1,,success
Status,333,10982246690,/g3t1_2,,success
Status,334,10982966482,/g3t1_3,,success
Status,335,11028335675,/g3t1_1,,running
Status,336,11028406660,/g3t1_2,,running
Status,337,11028430481,/g3t1_3,,running
Status,338,11030543576,/g3t1_3,,success
Status,339,11032044059,/g3t1_2,,success
Status,340,11033191357,/g3t1_1,,success
Status,341,11073320391,/g4t1,,fail
Status,342,11078464388,/g3t1_1,,running
Status,343,11078537536,/g3t1_2,,running
Status,344,11078577605,/g3t1_3,,running
Status,345,11081013795,/g3t1_2,,success
Status,346,11083196862,/g3t1_3,,success
Status,347,11083434832,/g3t1_1,,success
Status,351,11128591052,/g3t1_1,,running
Status,352,11128679960,/g3t1_2,,running
Status,353,11128753965,/g3t1_3,,running
Status,354,11130570790,/g3t1_1,,success
Status,355,11131895094,/g3t1_3,,success
Status,356,11132820170,/g3t1_2,,success
Status,357,11173480711,/g4t1,,fail
Status,358,11178663961,/g3t1_1,,running
Status,359,11178743805,/g3t1_2,,running
Status,360,11178838658,/g3t1_3,,running
Status,361,11181738111,/g3t1_3,,success
Status,362,11184361334,/g3t1_1,,success
Status,363,11184452486,/g3t1_2,,success
Status,364,11228190207,/g3t1_1,,running
Status,365,11228219104,/g3t1_2,,running
Status,366,11228324137,/g3t1_3,,running
Status,367,11229097370,/g3t1_1,,success
Status,368,11229582209,/g3t1_3,,success
Status,369,11229871119,/g3t1_2,,success
Status,370,11273157579,/g4t1,,fail
Status,371,11278498379,/g3t1_2,,running
Status,372,11278550889,/g3t1_1,,running
Status,373,11278620644,/g3t1_3,,running
Status,374,11279937702,/g3t1_3,,success
Status,375,11281072859,/g3t1_2,,success
Status,376,11281269381,/g3t1_1,,success
Status,380,11329180344,/g3t1_3,,running
Status,381,11329249551,/g3t1_2,,running
Status,382,11329275939,/g3t1_1,,running
Status,383,11332671652,/g3t1_1,,success
Status,384,11333401417,/g3t1_2,,success
Status,385,11335530065,/g3t1_3,,success
Status,386,11373898505,/g4t1,,fail
Status,387,11378950551,/g3t1_1,,running
Status,388,11379028381,/g3t1_2,,running
Status,389,11379215298,/g3t1_3,,running
Status,390,11381369875,/g3t1_2,,success
Status,391,11384606998,/g3t1_1,,success
Status,392,11384720546,/g3t1_3,,success
Status,393,11429299509,/g3t1_1,,running
Status,394,11429376210,/g3t1_2,,running
Status,395,11429486170,/g3t1_3,,running
Status,396,11431876024,/g3t1_1,,success
Status,397,11432771878,/g3t1_3,,success
Status,398,11433901814,/g3t1_2,,success
Status,399,11474089577,/g4t1,,fail
Status,400,11479355072,/g3t1_1,,running
Status,401,11479443562,/g3t1_2,,running
Status,402,11479485328,/g3t1_3,,running
Status,403,11482718461,/g3t1_3,,success
Status,404,11483993389,/g3t1_1,,success
Status,405,11484062567,/g3t1_2,,success
Status,406,11529740104,/g3t1_2,,running
Status,407,11529813029,/g3t1_1,,running
Status,408,11529842238,/g3t1_3,,running
Status,409,11533744576,/g3t1_3,,success
Status,410,11533811201,/g3t1_2,,success
Status,411,11534204100,/g3t1_1,,success
Status,412,11574227837,/g4t1,,fail
Status,413,11579662260,/g3t1_1,,running
Status,414,11579731308,/g3t1_2,,running
Status,415,11579893497,/g3t1_3,,running
Status,416,11582775855,/g3t1_2,,success
Status,417,11583792906,/g3t1_3,,success
Status,418,11585049109,/g3t1_1,,success
Status,419,11629142593,/g3t1_1,,running
Status,420,11629163899,/g3t1_2,,running
Status,421,11629264615,/g3t1_3,,running
Status,422,11630372136,/g3t1_1,,success
Status,423,11630396221,/g3t1_2,,success
Status,424,11630638772,/g3t1_3,,success
Status,425,11674514156,/g4t1,,fail
Status,426,11679860132,/g3t1_1,,running
Status,427,11679930390,/g3t1_3,,running
Status,428,11680079716,/g3t1_2,,running
Status,429,11684541534,/g3t1_2,,success
Status,430,11684639140,/g3t1_1,,success
Status,431,11686649998,/g3t1_3,,success
Status,432,11730416551,/g3t1_2,,running
Status,433,11730488286,/g3t1_1,,running
Status,434,11730513777,/g3t1_3,,running
Status,435,11732616986,/g3t1_1,,success
Status,436,11733674819,/g3t1_3,,success
Status,437,11734860449,/g3t1_2,,success
Status,438,11774552849,/g4t1,,fail
Status,439,11780137423,/g3t1_1,,running
Status,440,11780246386,/g3t1_3,,running
Status,441,11780420251,/g3t1_2,,running
Status,442,11783978973,/g3t1_2,,success
Status,443,11786591967,/g3t1_3,,success
Status,444,11786656151,/g3t1_1,,success
Status,445,11830749419,/g3t1_3,,running
Status,446,11830896207,/g3t1_2,,running
Status,447,11830939939,/g3t1_1,,running
Status,448,11833032166,/g3t1_3,,success
Status,449,11834776204,/g3t1_2,,success
Status,450,11835894725,/g3t1_1,,success
Status,451,11874784374,/g4t1,,fail
Status,452,11880563745,/g3t1_1,,running
Status,453,11880629304,/g3t1_3,,running
Status,454,11880828870,/g3t1_2,,running
Status,455,11883931600,/g3t1_1,,success
Status,456,11885030771,/g3t1_2,,success
Status,457,11886089255,/g3t1_3,,success
Status,458,11931295130,/g3t1_2,,running
Status,459,11931366284,/g3t1_1,,running
Status,460,11931556794,/g3t1_3,,running
Status,461,11935198177,/g3t1_3,,success
Status,462,11935977230,/g3t1_2,,success
Status,463,11936045909,/g3t1_1,,success
Status,464,11974803868,/g4t1,,fail
Status,465,11981140354,/g3t1_3,,running
Status,466,11981322058,/g3t1_2,,running
Status,467,11981429884,/g3t1_1,,running
Status,468,11984055078,/g3t1_1,,success
Status,469,11985160139,/g3t1_3,,success
Status,470,11986686245,/g3t1_2,,success
Status,471,12031176203,/g3t1_3,,running
Status,472,12031265556,/g3t1_2,,running
Status,473,12031314797,/g3t1_1,,running
Status,474,12033086822,/g3t1_3,,success
Status,475,12034398458,/g3t1_1,,success
Status,476,12035637791,/g3t1_2,,success
Status,477,12075035984,/g4t1,,fail
Status,478,12081318732,/g3t1_1,,running
Status,479,12081470587,/g3t1_3,,running
Status,480,12081639186,/g3t1_2,,running
Status,481,12084368055,/g3t1_2,,success
Status,482,12087316882,/g3t1_1,,success
Status,483,12087391061,/g3t1_3,,success
Status,484,12131529548,/g3t1_3,,running
Status,485,12131621258,/g3t1_1,,running
Status,486,12131664671,/g3t1_2,,running
Status,487,12134752066,/g3t1_2,,success
Status,488,12136959653,/g3t1_1,,success
Status,489,12137087279,/g3t1_3,,success
Status,490,12175146100,/g4t1,,fail
Status,491,12181643306,/g3t1_3,,running
Status,492,12181718560,/g3t1_1,,running
Status,493,12181746308,/g3t1_2,,running
Status,494,12184306749,/g3t1_1,,success
Status,495,12185745314,/g3t1_2,,success
Status,496,12186754707,/g3t1_3,,success
Status,497,12231673738,/g3t1_2,,running
Status,498,12231832534,/g3t1_3,,running
Status,499,12231876622,/g3t1_1,,running
Status,500,12235471628,/g3t1_2,,success
Status,501,12236251988,/g3t1_1,,success
Status,502,12236326176,/g3t1_3,,success
Status,503,12275362268,/g4t1,,fail
Status,504,12282129877,/g3t1_3,,running
Status,505,12282216459,/g3t1_2,,running
Status,506,12282321441,/g3t1_1,,running
Status,507,12285124592,/g3t1_1,,success
Status,508,12286818649,/g3t1_2,,success
Status,509,12287193425,/g3t1_3,,success
Status,513,12332039727,/g3t1_2,,running
Status,514,12332128967,/g3t1_1,,running
Status,515,12332174952,/g3t1_3,,running
Status,516,12335212634,/g3t1_2,,success
Status,517,12335296138,/g3t1_1,,success
Status,518,12336131690,/g3t1_3,,success
Status,519,12375503676,/g4t1,,fail
Status,520,12382362972,/g3t1_1,,running
Status,521,12382469617,/g3t1_3,,running
Status,522,12382543184,/g3t1_2,,running
Status,523,12384829949,/g3t1_2,,success
Status,524,12386444871,/g3t1_3,,success
Status,525,12387525178,/g3t1_1,,success
Status,526,12432442970,/g3t1_2,,running
Status,527,12432534420,/g3t1_3,,running
Status,528,12432575250,/g3t1_1,,running
Status,529,12435182564,/g3t1_3,,success
Status,530,12436739604,/g3t1_2,,success
Status,531,12436796834,/g3t1_1,,success
Status,532,12475538875,/g4t1,,fail
Status,533,12482783033,/g3t1_3,,running
Status,534,12482857158,/g3t1_1,,running
Status,535,12482883029,/g3t1_2,,running
Status,536,12485286613,/g3t1_3,,success
Status,537,12486368525,/g3t1_1,,success
Status,538,12487503051,/g3t1_2,,success
Status,542,12532453637,/g3t1_1,,running
Status,543,12532526893,/g3t1_3,,running
Status,544,12532551021,/g3t1_2,,running
Status,545,12535577127,/g3t1_2,,success
Status,546,12535781509,/g3t1_3,,success
Status,547,12536775484,/g3t1_1,,success
Status,548,12575652322,/g4t1,,fail
Status,549,12583155692,/g3t1_3,,running
Status,550,12583229376,/g3t1_2,,running
Status,551,12583254993,/g3t1_1,,running
Status,552,12586133746,/g3t1_3,,success
Status,553,12587487156,/g3t1_1,,success
Status,554,12588239598,/g3t1_2,,success
Status,555,12632886913,/g3t1_3,,running
Status,556,12632961109,/g3t1_2,,running
Status,557,12632985428,/g3t1_1,,running
Status,558,12635174500,/g3t1_3,,success
Status,559,12635912308,/g3t1_1,,success
Status,560,12636857303,/g3t1_2,,success
Status,561,12675820535,/g4t1,,fail
Status,562,12683152729,/g3t1_3,,running
Status,563,12683231601,/g3t1_2,,running
Status,564,12683256626,/g3t1_1,,running
Status,565,12686629207,/g3t1_1,,success
Status,566,12687020382,/g3t1_2,,success
Status,567,12688073937,/g3t1_3,,success
Status,571,12733086162,/g3t1_3,,running
Status,572,12733151254,/g3t1_2,,running
Status,573,12733174776,/g3t1_1,,running
Status,574,12735876427,/g3t1_2,,success
Status,575,12737029582,/g3t1_3,,success
Status,576,12737276986,/g3t1_1,,success
Status,577,12776017693,/g4t1,,fail
Status,578,12783556317,/g3t1_3,,running
Status,579,12783680037,/g3t1_2,,running
Status,580,12783798604,/g3t1_1,,running
Status,581,12786823879,/g3t1_3,,success
Status,582,12788705604,/g3t1_1,,success
Status,583,12789001671,/g3t1_2,,success
Status,584,12833594998,/g3t1_1,,running
Status,585,12833665119,/g3t1_3,,running
Status,586,12833691625,/g3t1_2,,running
Status,587,12836078493,/g3t1_1,,success
Status,588,12837676467,/g3t1_2,,success
Status,589,12838134217,/g3t1_3,,success
Status,590,12876276190,/g4t1,,fail
Status,591,12884064776,/g3t1_1,,running
Status,592,12884138376,/g3t1_3,,running
Status,593,12884163471,/g3t1_2,,running
Status,594,12886168059,/g3t1_1,,success
Status,595,12887133443,/g3t1_3,,success
Status,596,12888352124,/g3t1_2,,success
Status,600,12933850076,/g3t1_1,,running
Status,601,12934026900,/g3t1_3,,running
Status,602,12934073440,/g3t1_2,,running
Status,603,12936118677,/g3t1_3,,success
Status,604,12937462106,/g3t1_1,,success
Status,605,12939042602,/g3t1_2,,success
Status,606,12976261673,/g4t1,,fail
Status,607,12984085498,/g3t1_2,,running
Status,608,12984187236,/g3t1_1,,running
Status,609,12984239128,/g3t1_3,,running
Status,610,12988107665,/g3t1_2,,success
Status,611,12988221819,/g3t1_1,,success
Status,612,12989471475,/g3t1_3,,success
Status,613,13034316852,/g3t1_2,,running
Status,614,13034388573,/g3t1_1,,running
Status,615,13034413403,/g3t1_3,,running
Status,616,13037333358,/g3t1_1,,success
Status,617,13038329837,/g3t1_2,,success
Status,618,13038766289,/g3t1_3,,success
Status,619,13076507237,/g4t1,,fail
Status,620,13084615517,/g3t1_1,,running
Status,621,13084684949,/g3t1_3,,running
Status,622,13084719782,/g3t1_2,,running
Status,623,13086956790,/g3t1_2,,success
Status,624,13088279009,/g3t1_3,,success
Status,625,13089056545,/g3t1_1,,success
Status,629,13134600058,/g3t1_2,,running
Status,630,13134683722,/g3t1_1,,running
Status,631,13134751291,/g3t1_3,,running
Status,632,13136596746,/g3t1_2,,success
Status,633,13138279846,/g3t1_3,,success
Status,634,13139757483,/g3t1_1,,success
Status,635,13176682837,/g4t1,,fail
Status,636,13184877069,/g3t1_2,,running
Status,637,13184947428,/g3t1_1,,running
Status,638,13184973518,/g3t1_3,,running
Status,639,13187652042,/g3t1_3,,success
Status,640,13188889042,/g3t1_1,,success
Status,641,13189752959,/g3t1_2,,success
Status,642,13235097884,/g3t1_2,,running
Status,643,13235191761,/g3t1_3,,running
Status,644,13235220422,/g3t1_1,,running
Status,645,13238227023,/g3t1_3,,success
Status,646,13239031574,/g3t1_1,,success
Status,647,13239382631,/g3t1_2,,success
Status,648,13276798051,/g4t1,,fail
Status,649,13285164564,/g3t1_3,,running
Status,650,13285249385,/g3t1_2,,running
Status,651,13285292754,/g3t1_1,,running
Status,652,13287406411,/g3t1_2,,success
Status,653,13289478552,/g3t1_3,,success
Status,654,13289807578,/g3t1_1,,success
Status,658,13334894074,/g3t1_3,,running
Status,659,13335030834,/g3t1_1,,running
Status,660,13335073032,/g3t1_2,,running
Status,661,13338237253,/g3t1_2,,success
Status,662,13338780625,/g3t1_1,,success
Status,663,13340546792,/g3t1_3,,success
Status,664,13376981636,/g4t1,,fail
Status,665,13385488787,/g3t1_2,,running
Status,666,13385562612,/g3t1_3,,running
Status,667,13385587254,/g3t1_1,,running
Status,668,13388173860,/g3t1_3,,success
Status,669,13388874254,/g3t1_2,,success
Status,670,13390762500,/g3t1_1,,success
Status,671,13435375570,/g3t1_2,,running
Status,672,13435447698,/g3t1_1,,running
Status,673,13435486945,/g3t1_3,,running
Status,674,13438804257,/g3t1_1,,success
Status,675,13440252422,/g3t1_3,,success
Status,676,13440317275,/g3t1_2,,success
Status,677,13477027908,/g4t1,,fail
Status,678,13485572462,/g3t1_3,,running
Status,679,13485659075,/g3t1_1,,running
Status,680,13485723879,/g3t1_2,,running
Status,681,13489147374,/g3t1_3,,success
Status,682,13489654251,/g3t1_1,,success
Status,683,13489718700,/g3t1_2,,success
Status,687,13535787468,/g3t1_3,,running
Status,688,13535940706,/g3t1_2,,running
Status,689,13535983157,/g3t1_1,,running
Status,690,13537659147,/g3t1_1,,success
Status,691,13539074297,/g3t1_3,,success
Status,692,13540185352,/g3t1_2,,success
Status,693,13577132111,/g4t1,,fail
Status,694,13585624435,/g3t1_3,,running
Status,695,13585690543,/g3t1_2,,running
Status,696,13585714651,/g3t1_1,,running
Status,697,13589389961,/g3t1_3,,success
Status,698,13590217623,/g3t1_2,,success
Status,699,13590546086,/g3t1_1,,success
Status,700,13636076424,/g3t1_3,,running
Status,701,13636166454,/g3t1_2,,running
Status,702,13636212899,/g3t1_1,,running
Status,703,13638097666,/g3t1_3,,success
Status,704,13639438691,/g3t1_2,,success
Status,705,13640379786,/g3t1_1,,success
Status,706,13677258402,/g4t1,,fail
Status,707,13685997060,/g3t1_1,,running
Status,708,13686140764,/g3t1_3,,running
Status,709,13686186461,/g3t1_2,,running
Status,710,13688504588,/g3t1_3,,success
Status,711,13690254118,/g3t1_2,,success
Status,712,13690795543,/g3t1_1,,success
Status,716,13736255475,/g3t1_1,,running
Status,717,13736323148,/g3t1_3,,running
Status,718,13736347308,/g3t1_2,,running
Status,719,13738090691,/g3t1_1,,success
Status,720,13740069088,/g3t1_2,,success
Status,721,13740376144,/g3t1_3,,success
Status,722,13777471750,/g4t1,,fail
Status,723,13786317529,/g3t1_2,,running
Status,724,13786392484,/g3t1_3,,running
Status,725,13786417687,/g3t1_1,,running
Status,726,13788155806,/g3t1_2,,success
Status,727,13789632465,/g3t1_3,,success
Status,728,13790562475,/g3t1_1,,success
Status,729,13836439590,/g3t1_1,,running
Status,730,13836518158,/g3t1_2,,running
Status,731,13836701617,/g3t1_3,,running
Status,732,13838889272,/g3t1_2,,success
Status,733,13840278669,/g3t1_3,,success
Status,734,13841202855,/g3t1_1,,success
Status,735,13876724500,/g4t1,,fail
Status,736,13885889568,/g3t1_1,,running
Status,737,13885947046,/g3t1_3,,running
Status,738,13885959439,/g3t1_2,,running
Status,739,13886722867,/g3t1_2,,success
Status,740,13887149578,/g3t1_3,,success
Status,741,13887517933,/g3t1_1,,success
Status,745,13936607177,/g3t1_2,,running
Status,746,13936751777,/g3t1_1,,running
Status,747,13936789641,/g3t1_3,,running
Status,748,13938715876,/g3t1_1,,success
Status,749,13940036440,/g3t1_3,,success
Status,750,13941016262,/g3t1_2,,success
Status,751,13977604256,/g4t1,,fail
Status,752,13986859536,/g3t1_3,,running
Status,753,13986997878,/g3t1_1,,running
Status,754,13987042240,/g3t1_2,,running
Status,755,13990509762,/g3t1_2,,success
Status,756,13990970858,/g3t1_1,,success
Status,757,13991060575,/g3t1_3,,success
Status,758,14037108177,/g3t1_3,,running
Status,759,14037180166,/g3t1_1,,running
Status,760,14037204933,/g3t1_2,,running
Status,761,14039230041,/g3t1_3,,success
Status,762,14040770291,/g3t1_1,,success
Status,763,14041326500,/g3t1_2,,success
Status,764,14077748904,/g4t1,,fail
Status,765,14087087280,/g3t1_2,,running
Status,766,14087159363,/g3t1_3,,running
Status,767,14087184912,/g3t1_1,,running
Status,768,14089911979,/g3t1_3,,success
Status,769,14091191153,/g3t1_2,,success
Status,770,14091533093,/g3t1_1,,success
Status,774,14137349411,/g3t1_1,,running
Status,775,14137425114,/g3t1_2,,running
Status,776,14137453444,/g3t1_3,,running
Status,777,14139669264,/g3t1_1,,success
Status,778,14141201747,/g3t1_2,,success
Status,779,14141877020,/g3t1_3,,success
Status,780,14177700645,/g4t1,,fail
Status,781,14187350264,/g3t1_1,,running
Status,782,14187461327,/g3t1_2,,running
Status,783,14187487227,/g3t1_3,,running
Status,784,14189800488,/g3t1_2,,success
Status,785,14192022125,/g3t1_1,,success
Status,786,14192323797,/g3t1_3,,success
Status,787,14237819701,/g3t1_1,,running
Status,788,14237893857,/g3t1_2,,running
Status,789,14238059577,/g3t1_3,,running
Status,790,14240033856,/g3t1_1,,success
Status,791,14241336243,/g3t1_2,,success
Status,792,14242193212,/g3t1_3,,success
Status,793,14277854242,/g4t1,,fail
Status,794,14287823902,/g3t1_1,,running
Status,795,14287911194,/g3t1_2,,running
Status,796,14287990433,/g3t1_3,,running
Status,797,14289527993,/g3t1_2,,success
Status,798,14291171886,/g3t1_3,,success
Status,799,14292166086,/g3t1_1,,success
Status,803,14338070424,/g3t1_3,,running
Status,804,14338274736,/g3t1_1,,running
Status,805,14338331212,/g3t1_2,,running
Status,806,14341145176,/g3t1_2,,success
Status,807,14342199268,/g3t1_3,,success
Status,808,14342283599,/g3t1_1,,success
Status,809,14378179107,/g4t1,,fail
Status,810,14388176643,/g3t1_3,,running
Status,811,14388264086,/g3t1_1,,running
Status,812,14388351392,/g3t1_2,,running
Status,813,14392524871,/g3t1_2,,success
Status,814,14392625818,/g3t1_3,,success
Status,815,14393212537,/g3t1_1,,success
Status,816,14438399913,/g3t1_3,,running
Status,817,14438483496,/g3t1_1,,running
Status,818,14438510679,/g3t1_2,,running
Status,819,14440608151,/g3t1_3,,success
Status,820,14441858045,/g3t1_1,,success
Status,821,14442987104,/g3t1_2,,success
Status,822,14478164053,/g4t1,,fail
Status,823,14488287418,/g3t1_2,,running
Status,824,14488367240,/g3t1_1,,running
Status,825,14488395824,/g3t1_3,,running
Status,826,14490306940,/g3t1_1,,success
Status,827,14491588210,/g3t1_3,,success
Status,828,14492601356,/g3t1_2,,success
Status,832,14538539537,/g3t1_3,,running
Status,833,14538609153,/g3t1_2,,running
Status,834,14538633594,/g3t1_1,,running
Status,835,14542310061,/g3t1_1,,success
Status,836,14542398564,/g3t1_2,,success
Status,837,14543024545,/g3t1_3,,success
Status,838,14578347153,/g4t1,,fail
Status,839,14588629956,/g3t1_3,,running
Status,840,14588788302,/g3t1_1,,running
Status,841,14588832145,/g3t1_2,,running
Status,842,14591575582,/g3t1_2,,success
Status,843,14592656064,/g3t1_1,,success
Status,844,14594608199,/g3t1_3,,success
Status,845,14639211788,/g3t1_1,,running
Status,846,14639285250,/g3t1_2,,running
Status,847,14639463033,/g3t1_3,,running
Status,848,14641996797,/g3t1_2,,success
Status,849,14642871917,/g3t1_1,,success
Status,850,14644016172,/g3t1_3,,success
Status,851,14678088980,/g4t1,,fail
Status,852,14688708672,/g3t1_1,,running
Status,853,14688764028,/g3t1_3,,running
Status,854,14688790106,/g3t1_2,,running
Status,855,14690346689,/g3t1_3,,success
Status,856,14691423320,/g3t1_1,,success
Status,857,14691490465,/g3t1_2,,success
Status,861,14738756695,/g3t1_1,,running
Status,862,14738804297,/g3t1_2,,running
Status,863,14738825545,/g3t1_3,,running
Status,864,14739913254,/g3t1_3,,success
Status,865,14740502462,/g3t1_1,,success
Status,866,14740919695,/g3t1_2,,success
Status,867,14778706254,/g4t1,,fail
Status,868,14789278015,/g3t1_3,,running
Status,869,14789349552,/g3t1_2,,running
Status,870,14789375918,/g3t1_1,,running
Status,871,14794967548,/g3t1_2,,success
Status,872,14795211423,/g3t1_3,,success
Status,873,14795327402,/g3t1_1,,success
Status,874,14838955749,/g3t1_1,,running
Status,875,14838992990,/g3t1_2,,running
Status,876,14839005820,/g3t1_3,,running
Status,877,14839979902,/g3t1_3,,success
Status,878,14840836383,/g3t1_1,,success
Status,879,14840862734,/g3t1_2,,success
Status,880,14878696177,/g4t1,,fail
Status,881,14889712759,/g3t1_2,,running
Status,882,14889860244,/g3t1_1,,running
Status,883,14889900415,/g3t1_3,,running
Status,884,14892723553,/g3t1_2,,success
Status,885,14893995445,/g3t1_3,,success
Status,886,14894548359,/g3t1_1,,success
Status,890,14939880757,/g3t1_2,,running
Status,891,14939950382,/g3t1_3,,running
Status,892,14939976571,/g3t1_1,,running
Status,893,14942110961,/g3t1_2,,success
Status,894,14943057157,/g3t1_3,,success
Status,895,14944156437,/g3t1_1,,success
Status,896,14978804158,/g4t1,,fail
Status,897,14990004799,/g3t1_1,,running
Status,898,14990095367,/g3t1_2,,running
Status,899,14990229733,/g3t1_3,,running
Status,900,14992389830,/g3t1_1,,success
Status,901,14994111946,/g3t1_3,,success
Status,902,14995373876,/g3t1_2,,success
Status,903,15040158162,/g3t1_3,,running
Status,904,15040267780,/g3t1_1,,running
Status,905,15040342363,/g3t1_2,,running
Status,906,15042654801,/g3t1_2,,success
Status,907,15043682607,/g3t1_1,,success
Status,908,15044501630,/g3t1_3,,success
Status,909,15079003122,/g4t1,,fail
Status,910,15090084566,/g3t1_1,,running
Status,911,15090180356,/g3t1_2,,running
Status,912,15090275289,/g3t1_3,,running
Status,913,15092364517,/g3t1_3,,success
Status,914,15094584993,/g3t1_2,,success
Status,915,15094662156,/g3t1_1,,success
Status,919,15140291772,/g3t1_2,,running
Status,920,15140361206,/g3t1_3,,running
Status,921,15140385599,/g3t1_1,,running
Status,922,15143695373,/g3t1_1,,success
Status,923,15144716272,/g3t1_2,,success
Status,924,15144772416,/g3t1_3,,success
Status,925,15179141875,/g4t1,,fail
Status,926,15190391960,/g3t1_2,,running
Status,927,15190462707,/g3t1_3,,running
Status,928,15190512455,/g3t1_1,,running
Status,929,15193268159,/g3t1_3,,success
Status,930,15193842861,/g3t1_2,,success
Status,931,15194960674,/g3t1_1,,success
Status,932,15240604037,/g3t1_1,,running
Status,933,15240675067,/g3t1_2,,running
Status,934,15240713948,/g3t1_3,,running
Status,935,15243427605,/g3t1_2,,success
Status,936,15245166897,/g3t1_1,,success
Status,937,15245516643,/g3t1_3,,success
Status,938,15278835927,/g4t1,,fail
Status,939,15290628407,/g3t1_2,,running
Status,940,15290713445,/g3t1_1,,running
Status,941,15290754568,/g3t1_3,,running
Status,942,15292725553,/g3t1_3,,success
Status,943,15293753101,/g3t1_2,,success
Status,944,15294614204,/g3t1_1,,success
Status,948,15340916671,/g3t1_2,,running
Status,949,15341064329,/g3t1_1,,running
Status,950,15341106193,/g3t1_3,,running
Status,951,15343328763,/g3t1_1,,success
Status,952,15344589965,/g3t1_3,,success
Status,953,15345441708,/g3t1_2,,success
Status,954,15379432326,/g4t1,,fail
Status,955,15390967371,/g3t1_1,,running
Status,956,15391035255,/g3t1_3,,running
Status,957,15391129100,/g3t1_2,,running
Status,958,15393824031,/g3t1_1,,success
Status,959,15395150282,/g3t1_3,,success
Status,960,15395230989,/g3t1_2,,success
Status,961,15441063622,/g3t1_1,,running
Status,962,15441133931,/g3t1_2,,running
Status,963,15441167744,/g3t1_3,,running
Status,964,15443414028,/g3t1_2,,success
Status,965,15444421251,/g3t1_3,,success
Status,966,15445658239,/g3t1_1,,success
Status,967,15479343643,/g4t1,,fail
Status,968,15491177436,/g3t1_3,,running
Status,969,15491244514,/g3t1_1,,running
Status,970,15491405223,/g3t1_2,,running
Status,971,15493180911,/g3t1_2,,success
Status,972,15494839414,/g3t1_1,,success
Status,973,15495685942,/g3t1_3,,success
Status,974,15541478583,/g3t1_2,,running
Status,975,15541549151,/g3t1_3,,running
Status,976,15541574052,/g3t1_1,,running
Status,977,15543506436,/g3t1_3,,success
Status,978,15545677149,/g3t1_2,,success
Status,979,15545736383,/g3t1_1,,success
Status,980,15579635348,/g4t1,,fail
Status,981,15591470259,/g3t1_3,,running
Status,982,15591539378,/g3t1_2,,running
Status,983,15591567077,/g3t1_1,,running
Status,984,15594747682,/g3t1_3,,success
Status,985,15595670667,/g3t1_1,,success
Status,986,15596094412,/g3t1_2,,success
Status,987,15641858325,/g3t1_1,,running
Status,988,15641969456,/g3t1_3,,running
Status,989,15641996033,/g3t1_2,,running
Status,990,15644860994,/g3t1_2,,success
Status,991,15644945638,/g3t1_1,,success
Status,992,15646501082,/g3t1_3,,success
Status,993,15679659282,/g4t1,,fail
Status,994,15691728056,/g3t1_3,,running
Status,995,15691801404,/g3t1_1,,running
Status,996,15691850168,/g3t1_2,,running
Status,997,15694208193,/g3t1_2,,success
Status,998,15695780664,/g3t1_3,,success
Status,999,15697098990,/g3t1_1,,success
Status,1000,15742305538,/g3t1_1,,running
Status,1001,15742445867,/g3t1_2,,running
Status,1002,15742529484,/g3t1_3,,running
Status,1003,15744609751,/g3t1_1,,success
Status,1004,15745789712,/g3t1_3,,success
Status,1005,15746803414,/g3t1_2,,success
Status,1006,15779787254,/g4t1,,fail
Status,1007,15793496319,/g3t1_3,,running
Status,1008,15793591721,/g3t1_1,,running
Status,1009,15793678486,/g3t1_2,,running
Status,1010,15795560154,/g3t1_3,,success
Status,1011,15797056423,/g3t1_1,,success
Status,1012,15798179904,/g3t1_2,,success
Status,1013,15842702653,/g3t1_3,,running
Status,1014,15842801923,/g3t1_1,,running
Status,1015,15843352649,/g3t1_2,,running
Status,1016,15844922101,/g3t1_3,,success
Status,1017,15846097644,/g3t1_2,,success
Status,1018,15847381377,/g3t1_1,,success
Status,1019,15879945578,/g4t1,,fail
Status,1020,15892663100,/g3t1_3,,running
Status,1021,15892756963,/g3t1_1,,running
Status,1022,15893349136,/g3t1_2,,running
Status,1023,15898367678,/g3t1_2,,success
Status,1024,15898449629,/g3t1_3,,success
Status,1025,15898529799,/g3t1_1,,success
Status,1026,15942970299,/g3t1_3,,running
Status,1027,15943064909,/g3t1_1,,running
Status,1028,15943580462,/g3t1_2,,running
Status,1029,15946173850,/g3t1_3,,success
Status,1030,15948033671,/g3t1_2,,success
Status,1031,15948386181,/g3t1_1,,success
Status,1032,15979846171,/g4t1,,fail
Status,1033,15992995407,/g3t1_3,,running
Status,1034,15993100563,/g3t1_1,,running
Status,1035,15993647471,/g3t1_2,,running
Status,1036,15995731325,/g3t1_1,,success
Status,1037,15997251900,/g3t1_2,,success
Status,1038,15997592681,/g3t1_3,,success
Status,1039,16042994533,/g3t1_3,,running
Status,1040,16043067677,/g3t1_1,,running
Status,1041,16043792126,/g3t1_2,,running
Status,1042,16047366048,/g3t1_1,,success
Status,1043,16047730114,/g3t1_3,,success
Status,1044,16047786734,/g3t1_2,,success
Status,1045,16080208060,/g4t1,,fail
Status,1046,16093497882,/g3t1_1,,running
Status,1047,16093635744,/g3t1_3,,running
Status,1048,16093826297,/g3t1_2,,running
Status,1049,16098527797,/g3t1_3,,success
Status,1050,16098615535,/g3t1_1,,success
Status,1051,16098692631,/g3t1_2,,success
Status,1052,16143720645,/g3t1_3,,running
Status,1053,16143813332,/g3t1_1,,running
Status,1054,16144191111,/g3t1_2,,running
Status,1055,16145865456,/g3t1_3,,success
Status,1056,16148010084,/g3t1_1,,success
Status,1057,16148362095,/g3t1_2,,success
Status,1058,16180283612,/g4t1,,fail
Status,1059,16193635779,/g3t1_1,,running
Status,1060,16193707694,/g3t1_3,,running
Status,1061,16194236379,/g3t1_2,,running
Status,1062,16196384140,/g3t1_2,,success
Status,1063,16197407407,/g3t1_3,,success
Status,1064,16198400117,/g3t1_1,,success
Status,1065,16243688432,/g3t1_3,,running
Status,1066,16243761912,/g3t1_1,,running
Status,1067,16244161321,/g3t1_2,,running
Status,1068,16245648951,/g3t1_3,,success
Status,1069,16247250717,/g3t1_2,,success
Status,1070,16248204400,/g3t1_1,,success
Status,1071,16280506681,/g4t1,,fail
Status,1072,16293773243,/g3t1_3,,running
Status,1073,16293874637,/g3t1_1,,running
Status,1074,16294409092,/g3t1_2,,running
Status,1075,16296797596,/g3t1_2,,success
Status,1076,16297820342,/g3t1_1,,success
Status,1077,16298393493,/g3t1_3,,success
Status,1081,16343807314,/g3t1_3,,running
Status,1082,16343902184,/g3t1_1,,running
Status,1083,16344313267,/g3t1_2,,running
Status,1084,16347004581,/g3t1_2,,success
Status,1085,16347903093,/g3t1_3,,success
Status,1086,16349158602,/g3t1_1,,success
Status,1087,16380669771,/g4t1,,fail
Status,1088,16394127980,/g3t1_3,,running
Status,1089,16394223692,/g3t1_1,,running
Status,1090,16394623101,/g3t1_2,,running
Status,1091,16396324143,/g3t1_3,,success
Status,1092,16397332011,/g3t1_2,,success
Status,1093,16398641988,/g3t1_1,,success
Status,1094,16444412660,/g3t1_3,,running
Status,1095,16444498945,/g3t1_1,,running
Status,1096,16444849618,/g3t1_2,,running
Status,1097,16447197085,/g3t1_3,,success
Status,1098,16448432785,/g3t1_2,,success
Status,1099,16449595295,/g3t1_1,,success
Status,1100,16480714709,/g4t1,,fail
Status,1101,16494237773,/g3t1_3,,running
Status,1102,16494328502,/g3t1_1,,running
Status,1103,16494708033,/g3t1_2,,running
Status,1104,16496695740,/g3t1_3,,success
Status,1105,16497884200,/g3t1_1,,success
Status,1106,16498822461,/g3t1_2,,success
Status,1110,16544319090,/g3t1_3,,running
Status,1111,16544415470,/g3t1_1,,running
Status,1112,16544843532,/g3t1_2,,running
Status,1113,16546890877,/g3t1_3,,success
Status,1114,16549043184,/g3t1_1,,success
Status,1115,16550137397,/g3t1_2,,success
Status,1116,16580916765,/g4t1,,fail
Status,1117,16594587688,/g3t1_3,,running
Status,1118,16594658263,/g3t1_1,,running
Status,1119,16594831059,/g3t1_2,,running
Status,1120,16596895376,/g3t1_3,,success
Status,1121,16599005735,/g3t1_2,,success
Status,1122,16600132257,/g3t1_1,,success
Status,1123,16644682694,/g3t1_3,,running
Status,1124,16644794497,/g3t1_1,,running
Status,1125,16645093821,/g3t1_2,,running
Status,1126,16647630642,/g3t1_3,,success
Status,1127,16648064084,/g3t1_1,,success
Status,1128,16649218013,/g3t1_2,,success
Status,1129,16681061693,/g4t1,,fail
Status,1130,16695561948,/g3t1_3,,running
Status,1131,16695671464,/g3t1_1,,running
Status,1132,16695775776,/g3t1_2,,running
Status,1133,16697533559,/g3t1_3,,success
Status,1134,16699962047,/g3t1_2,,success
Status,1135,16700314638,/g3t1_1,,success
Status,1139,16744908855,/g3t1_3,,running
Status,1140,16744997773,/g3t1_1,,running
Status,1141,16745744339,/g3t1_2,,running
Status,1142,16748347656,/g3t1_3,,success
Status,1143,16749265973,/g3t1_2,,success
Status,1144,16751141232,/g3t1_1,,success
Status,1145,16781131173,/g4t1,,fail
Status,1146,16795244810,/g3t1_1,,running
Status,1147,16795405167,/g3t1_3,,running
Status,1148,16795443720,/g3t1_2,,running
Status,1149,16797176007,/g3t1_3,,success
Status,1150,16799708866,/g3t1_2,,success
Status,1151,16800733048,/g3t1_1,,success
Status,1152,16845518103,/g3t1_1,,running
Status,1153,16845607121,/g3t1_3,,running
Status,1154,16845653976,/g3t1_2,,running
Status,1155,16850185239,/g3t1_3,,success
Status,1156,16850248704,/g3t1_1,,success
Status,1157,16850273194,/g3t1_2,,success
Status,1158,16881288957,/g4t1,,fail
Status,1159,16895418213,/g3t1_3,,running
Status,1160,16895575792,/g3t1_1,,running
Status,1161,16895618213,/g3t1_2,,running
Status,1162,16897574350,/g3t1_3,,success
Status,1163,16898925875,/g3t1_1,,success
Status,1164,16900168029,/g3t1_2,,success
Status,1168,16945554509,/g3t1_3,,running
Status,1169,16945633867,/g3t1_1,,running
Status,1170,16945779967,/g3t1_2,,running
Status,1171,16947596832,/g3t1_3,,success
Status,1172,16949522181,/g3t1_2,,success
Status,1173,16951069973,/g3t1_1,,success
Status,1174,16981281442,/g4t1,,fail
Status,1175,16995668611,/g3t1_3,,running
Status,1176,16995784473,/g3t1_1,,running
Status,1177,16995889117,/g3t1_2,,running
Status,1178,16998251497,/g3t1_2,,success
Status,1179,17000942587,/g3t1_1,,success
Status,1180,17001025997,/g3t1_3,,success
Status,1181,17046042974,/g3t1_1,,running
Status,1182,17046129914,/g3t1_3,,running
Status,1183,17046192060,/g3t1_2,,running
Status,1184,17048427597,/g3t1_3,,success
Status,1185,17049405098,/g3t1_2,,success
Status,1186,17050507781,/g3t1_1,,success
Status,1187,17081492081,/g4t1,,fail
Status,1188,17095945169,/g3t1_1,,running
Status,1189,17096018398,/g3t1_3,,running
Status,1190,17096198954,/g3t1_2,,running
Status,1191,17098076926,/g3t1_3,,success
Status,1192,17100788652,/g3t1_2,,success
Status,1193,17100850515,/g3t1_1,,success
Status,1197,17146246602,/g3t1_1,,running
Status,1198,17146343257,/g3t1_3,,running
Status,1199,17146391590,/g3t1_2,,running
Status,1200,17148161312,/g3t1_1,,success
Status,1201,17150908049,/g3t1_3,,success
Status,1202,17151326455,/g3t1_2,,success
Status,1203,17181503661,/g4t1,,fail
Status,1204,17196143413,/g3t1_1,,running
Status,1205,17196278863,/g3t1_3,,running
Status,1206,17196320807,/g3t1_2,,running
Status,1207,17199008470,/g3t1_2,,success
Status,1208,17200192720,/g3t1_3,,success
Status,1209,17201739233,/g3t1_1,,success
Status,1210,17246505274,/g3t1_1,,running
Status,1211,17246571694,/g3t1_3,,running
Status,1212,17246605954,/g3t1_2,,running
Status,1213,17248809488,/g3t1_2,,success
Status,1214,17249694991,/g3t1_3,,success
Status,1215,17250955943,/g3t1_1,,success
Status,1216,17281783603,/g4t1,,fail
Status,1217,17296375931,/g3t1_1,,running
Status,1218,17296472918,/g3t1_3,,running
Status,1219,17296570419,/g3t1_2,,running
Status,1220,17298728813,/g3t1_1,,success
Status,1221,17300270188,/g3t1_2,,success
Status,1222,17301830984,/g3t1_3,,success
Status,1226,17346627048,/g3t1_1,,running
Status,1227,17346703607,/g3t1_3,,running
Status,1228,17346732386,/g3t1_2,,running
Status,1229,17350557200,/g3t1_3,,success
Status,1230,17350655032,/g3t1_1,,success
Status,1231,17351161947,/g3t1_2,,success
Status,1232,17382205609,/g4t1,,fail
Status,1233,17396626614,/g3t1_3,,running
Status,1234,17396709785,/g3t1_1,,running
Status,1235,17396823150,/g3t1_2,,running
Status,1236,17398779999,/g3t1_3,,success
Status,1237,17400132389,/g3t1_1,,success
Status,1238,17400978852,/g3t1_2,,success
Status,1239,17446859536,/g3t1_1,,running
Status,1240,17446925512,/g3t1_3,,running
Status,1241,17447128203,/g3t1_2,,running
Status,1242,17449095623,/g3t1_2,,success
Status,1243,17450388620,/g3t1_3,,success
Status,1244,17451176345,/g3t1_1,,success
Status,1245,17482321274,/g4t1,,fail
Status,1246,17496966624,/g3t1_1,,running
Status,1247,17497115521,/g3t1_3,,running
Status,1248,17497158469,/g3t1_2,,running
Status,1249,17499211820,/g3t1_1,,success
Status,1250,17500696629,/g3t1_2,,success
Status,1251,17501888803,/g3t1_3,,success
Status,1255,17547119958,/g3t1_1,,running
Status,1256,17547211421,/g3t1_3,,running
Status,1257,17547311689,/g3t1_2,,running
Status,1258,17549115285,/g3t1_3,,success
Status,1259,17550548662,/g3t1_1,,success
Status,1260,17551613271,/g3t1_2,,success
Status,1261,17581909904,/g4t1,,fail
Status,1262,17597051889,/g3t1_1,,running
Status,1263,17597129400,/g3t1_3,,running
Status,1264,17597474270,/g3t1_2,,running
Status,1265,17599754290,/g3t1_3,,success
Status,1266,17601243063,/g3t1_2,,success
Status,1267,17602494036,/g3t1_1,,success
Status,1268,17646945489,/g3t1_1,,running
Status,1269,17646998898,/g3t1_3,,running
Status,1270,17647224578,/g3t1_2,,running
Status,1271,17648360843,/g3t1_1,,success
Status,1272,17649355651,/g3t1_3,,success
Status,1273,17649812627,/g3t1_2,,success
Status,1274,17682390135,/g4t1,,fail
Status,1275,17697372154,/g3t1_1,,running
Status,1276,17697448207,/g3t1_3,,running
Status,1277,17697865461,/g3t1_2,,running
Status,1278,17702355791,/g3t1_2,,success
Status,1279,17702430852,/g3t1_3,,success
Status,1280,17703354405,/g3t1_1,,success
Status,1284,17747047852,/g3t1_1,,running
Status,1285,17747111776,/g3t1_3,,running
Status,1286,17747565710,/g3t1_2,,running
Status,1287,17748577716,/g3t1_1,,success
Status,1288,17748697002,/g3t1_3,,success
Status,1289,17749138021,/g3t1_2,,success
Status,1290,17781560920,/g4t1,,fail
Status,1291,17797132642,/g3t1_1,,running
Status,1292,17797181161,/g3t1_3,,running
Status,1293,17797358671,/g3t1_2,,running
Status,1294,17797905830,/g3t1_1,,success
Status,1295,17798364036,/g3t1_2,,success
Status,1296,17798797349,/g3t1_3,,success
Status,1297,17847385970,/g3t1_1,,running
Status,1298,17847443704,/g3t1_3,,running
Status,1299,17847715866,/g3t1_2,,running
Status,1300,17849274357,/g3t1_1,,success
Status,1301,17850538523,/g3t1_2,,success
Status,1302,17851493457,/g3t1_3,,success
Status,1303,17882892918,/g4t1,,fail
Status,1304,17897888750,/g3t1_3,,running
Status,1305,17898025799,/g3t1_1,,running
Status,1306,17898212196,/g3t1_2,,running
Status,1307,17900516668,/g3t1_1,,success
Status,1308,17901859314,/g3t1_3,,success
Status,1309,17903080054,/g3t1_2,,success
Status,1313,17948064855,/g3t1_1,,running
Status,1314,17948134205,/g3t1_3,,running
Status,1315,17948159001,/g3t1_2,,running
Status,1316,17951106018,/g3t1_1,,success
Status,1317,17951945930,/g3t1_2,,success
Status,1318,17952474523,/g3t1_3,,success
Status,1319,17982743588,/g4t1,,fail
Status,1320,17998238988,/g3t1_1,,running
Status,1321,17998328402,/g3t1_3,,running
Status,1322,17998356415,/g3t1_2,,running
Status,1323,18001287714,/g3t1_1,,success
Status,1324,18003888720,/g3t1_2,,success
Status,1325,18004483114,/g3t1_3,,success
Status,1326,18048025390,/g3t1_1,,running
Status,1327,18048101714,/g3t1_3,,running
Status,1328,18048234765,/g3t1_2,,running
Status,1329,18050246616,/g3t1_2,,success
Status,1330,18051347904,/g3t1_1,,success
Status,1331,18052672205,/g3t1_3,,success
Status,1332,18082763376,/g4t1,,fail
Status,1333,18098774966,/g3t1_1,,running
Status,1334,18098856394,/g3t1_3,,running
Status,1335,18098889573,/g3t1_2,,running
Status,1336,18101143445,/g3t1_3,,success
Status,1337,18102439932,/g3t1_2,,success
Status,1338,18103244079,/g3t1_1,,success
Status,1342,18148622649,/g3t1_3,,running
Status,1343,18148692117,/g3t1_1,,running
Status,1344,18148715713,/g3t1_2,,running
Status,1345,18151036336,/g3t1_3,,success
Status,1346,18153071854,/g3t1_2,,success
Status,1347,18153503944,/g3t1_1,,success
Status,1348,18182952545,/g4t1,,fail
Status,1349,18199004593,/g3t1_1,,running
Status,1350,18199163504,/g3t1_3,,running
Status,1351,18199206233,/g3t1_2,,running
Status,1352,18201564029,/g3t1_1,,success
Status,1353,18203336205,/g3t1_3,,success
Status,1354,18204265901,/g3t1_2,,success
Status,1355,18248918849,/g3t1_1,,running
Status,1356,18248988822,/g3t1_3,,running
Status,1357,18249018089,/g3t1_2,,running
Status,1358,18251249344,/g3t1_3,,success
Status,1359,18252552144,/g3t1_1,,success
Status,1360,18253863160,/g3t1_2,,success
Status,1361,18283103309,/g4t1,,fail
Status,1362,18299192072,/g3t1_3,,running
Status,1363,18299280248,/g3t1_1,,running
Status,1364,18299312964,/g3t1_2,,running
Status,1365,18301554686,/g3t1_2,,success
Status,1366,18303158219,/g3t1_1,,success
Status,1367,18304366524,/g3t1_3,,success
Status,1371,18349112156,/g3t1_3,,running
Status,1372,18349282586,/g3t1_1,,running
Status,1373,18349326490,/g3t1_2,,running
Status,1374,18352001483,/g3t1_3,,success
Status,1375,18352553734,/g3t1_2,,success
Status,1376,18353713377,/g3t1_1,,success
Status,1377,18383163925,/g4t1,,fail
Status,1378,18399461311,/g3t1_3,,running
Status,1379,18399540866,/g3t1_2,,running
Status,1380,18399566186,/g3t1_1,,running
Status,1381,18404219165,/g3t1_2,,success
Status,1382,18404318394,/g3t1_1,,success
Status,1383,18404399616,/g3t1_3,,success
Status,1384,18449454032,/g3t1_3,,running
Status,1385,18449535159,/g3t1_2,,running
Status,1386,18449561160,/g3t1_1,,running
Status,1387,18451490988,/g3t1_3,,success
Status,1388,18453231238,/g3t1_2,,success
Status,1389,18453605221,/g3t1_1,,success
Status,1390,18483210675,/g4t1,,fail
Status,1391,18499750153,/g3t1_1,,running
Status,1392,18499817975,/g3t1_2,,running
Status,1393,18499842093,/g3t1_3,,running
Status,1394,18502211302,/g3t1_2,,success
Status,1395,18503727613,/g3t1_3,,success
Status,1396,18504110743,/g3t1_1,,success
Status,1400,18549770218,/g3t1_1,,running
Status,1401,18549849076,/g3t1_2,,running
Status,1402,18549943846,/g3t1_3,,running
Status,1403,18551528175,/g3t1_3,,success
Status,1404,18553192294,/g3t1_2,,success
Status,1405,18554012160,/g3t1_1,,success
Status,1406,18583354650,/g4t1,,fail
Status,1407,18600086680,/g3t1_1,,running
Status,1408,18600226860,/g3t1_2,,running
Status,1409,18600305075,/g3t1_3,,running
Status,1410,18602557158,/g3t1_2,,success
Status,1411,18604203133,/g3t1_3,,success
Status,1412,18604960581,/g3t1_1,,success
Status,1413,18650257751,/g3t1_1,,running
Status,1414,18650338264,/g3t1_2,,running
Status,1415,18650363281,/g3t1_3,,running
Status,1416,18653736941,/g3t1_3,,success
Status,1417,18653807303,/g3t1_1,,success
Status,1418,18655401358,/g3t1_2,,success
Status,1419,18683526901,/g4t1,,fail
Status,1420,18699868735,/g3t1_3,,running
Status,1421,18699914627,/g3t1_2,,running
Status,1422,18700038685,/g3t1_1,,running
Status,1423,18701234527,/g3t1_2,,success
Status,1424,18701810037,/g3t1_1,,success
Status,1425,18702755940,/g3t1_3,,success
Status,1429,18750673279,/g3t1_3,,running
Status,1430,18750754274,/g3t1_2,,running
Status,1431,18750778583,/g3t1_1,,running
Status,1432,18754702636,/g3t1_2,,success
Status,1433,18755120769,/g3t1_3,,success
Status,1434,18755892992,/g3t1_1,,success
Status,1435,18783861602,/g4t1,,fail
Status,1436,18800483735,/g3t1_2,,running
Status,1437,18800575421,/g3t1_1,,running
Status,1438,18800677307,/g3t1_3,,running
Status,1439,18803064893,/g3t1_3,,success
Status,1440,18804095321,/g3t1_2,,success
Status,1441,18805273189,/g3t1_1,,success
Status,1442,18850772421,/g3t1_1,,running
Status,1443,18850865323,/g3t1_3,,running
Status,1444,18851040933,/g3t1_2,,running
Status,1445,18852980735,/g3t1_3,,success
Status,1446,18854398630,/g3t1_1,,success
Status,1447,18855249360,/g3t1_2,,success
Status,1448,18883926640,/g4t1,,fail
Status,1449,18900883994,/g3t1_2,,running
Status,1450,18900968605,/g3t1_1,,running
Status,1451,18901005185,/g3t1_3,,running
Status,1452,18904522414,/g3t1_3,,success
Status,1453,18905309473,/g3t1_1,,success
Status,1454,18905544943,/g3t1_2,,success
Status,1458,18951375353,/g3t1_2,,running
Status,1459,18951459936,/g3t1_3,,running
Status,1460,18951695593,/g3t1_1,,running
Status,1461,18953614913,/g3t1_3,,success
Status,1462,18955753295,/g3t1_2,,success
Status,1463,18956097895,/g3t1_1,,success
Status,1464,18984045563,/g4t1,,fail
Status,1465,19001050958,/g3t1_1,,running
Status,1466,19001118844,/g3t1_3,,running
Status,1467,19001142452,/g3t1_2,,running
Status,1468,19002984894,/g3t1_1,,success
Status,1469,19004484882,/g3t1_3,,success
Status,1470,19006099666,/g3t1_2,,success
Status,1471,19051288694,/g3t1_1,,running
Status,1472,19051366445,/g3t1_2,,running
Status,1473,19051398403,/g3t1_3,,running
Status,1474,19054744179,/g3t1_1,,success
Status,1475,19055690143,/g3t1_2,,success
Status,1476,19055753278,/g3t1_3,,success
Status,1477,19084195127,/g4t1,,fail
Status,1478,19101319342,/g3t1_3,,running
Status,1479,19101452371,/g3t1_1,,running
Status,1480,19101496831,/g3t1_2,,running
Status,1481,19104774889,/g3t1_2,,success
Status,1482,19106056205,/g3t1_3,,success
Status,1486,19106730741,/g3t1_1,,success
Status,1487,19151699568,/g3t1_1,,running
Status,1488,19151777735,/g3t1_3,,running
Status,1489,19151802170,/g3t1_2,,running
Status,1490,19153769099,/g3t1_2,,success
Status,1491,19155122659,/g3t1_1,,success
Status,1492,19156371856,/g3t1_3,,success
Status,1493,19184377529,/g4t1,,fail
Status,1494,19201655567,/g3t1_1,,running
Status,1495,19201726179,/g3t1_3,,running
Status,1496,19201752528,/g3t1_2,,running
Status,1497,19204148455,/g3t1_2,,success
Status,1498,19205173574,/g3t1_3,,success
Status,1499,19206105240,/g3t1_1,,success
Status,1500,19251660168,/g3t1_1,,running
Status,1501,19251756789,/g3t1_3,,running
Status,1502,19251844085,/g3t1_2,,running
Status,1503,19255739518,/g3t1_1,,success
Status,1504,19256166154,/g3t1_3,,success
Status,1505,19256248320,/g3t1_2,,success
Status,1506,19284330300,/g4t1,,fail
Status,1507,19301745653,/g3t1_2,,running
Status,1508,19301833565,/g3t1_1,,running
Status,1509,19301906392,/g3t1_3,,running
Status,1510,19303812461,/g3t1_2,,success
Status,1511,19305072106,/g3t1_3,,success
Status,1513,19306834107,/g3t1_1,,success
Status,1516,19352030628,/g3t1_1,,running
Status,1517,19352105182,/g3t1_2,,running
Status,1518,19352144230,/g3t1_3,,running
Status,1519,19354119122,/g3t1_2,,success
Status,1520,19356270136,/g3t1_1,,success
Status,1521,19356331079,/g3t1_3,,success
Status,1522,19384574568,/g4t1,,fail
Status,1523,19402170995,/g3t1_2,,running
Status,1524,19402279547,/g3t1_1,,running
Status,1525,19402410271,/g3t1_3,,running
Status,1526,19405892372,/g3t1_2,,success
Status,1527,19406063612,/g3t1_1,,success
Status,1528,19406482646,/g3t1_3,,success
Status,1529,19452343288,/g3t1_2,,running
Status,1530,19452413782,/g3t1_1,,running
Status,1531,19452439376,/g3t1_3,,running
Status,1532,19454502818,/g3t1_2,,success
Status,1533,19455650646,/g3t1_1,,success
Status,1534,19456906131,/g3t1_3,,success
Status,1535,19484688941,/g4t1,,fail
Status,1536,19502249680,/g3t1_1,,running
Status,1537,19502333942,/g3t1_2,,running
Status,1538,19502374209,/g3t1_3,,running
Status,1539,19505210456,/g3t1_3,,success
Status,1540,19505651602,/g3t1_1,,success
Status,1541,19506951693,/g3t1_2,,success
Status,1542,19552516390,/g3t1_1,,running
Status,1543,19552588459,/g3t1_2,,running
Status,1544,19552616739,/g3t1_3,,running
Status,1545,19554348886,/g3t1_2,,success
Status,1546,19555545906,/g3t1_3,,success
Status,1547,19556673535,/g3t1_1,,success
Status,1548,19584809668,/g4t1,,fail
Status,1549,19602731427,/g3t1_2,,running
Status,1550,19602873498,/g3t1_1,,running
Status,1551,19602917404,/g3t1_3,,running
Status,1552,19604621753,/g3t1_1,,success
Status,1553,19606783739,/g3t1_3,,success
Status,1554,19607158922,/g3t1_2,,success
Status,1555,19652707373,/g3t1_1,,running
Status,1556,19652791442,/g3t1_2,,running
Status,1557,19652837740,/g3t1_3,,running
Status,1558,19655395812,/g3t1_2,,success
Status,1559,19656180479,/g3t1_3,,success
Status,1560,19657358957,/g3t1_1,,success
Status,1561,19685057399,/g4t1,,fail
Status,1562,19703017045,/g3t1_2,,running
Status,1563,19703162613,/g3t1_1,,running
Status,1564,19703206056,/g3t1_3,,running
Status,1565,19704978492,/g3t1_1,,success
Status,1566,19707035346,/g3t1_3,,success
Status,1567,19707098462,/g3t1_2,,success
Status,1568,19753155451,/g3t1_2,,running
Status,1569,19753223848,/g3t1_1,,running
Status,1570,19753249013,/g3t1_3,,running
Status,1571,19755220542,/g3t1_3,,success
Status,1572,19756630680,/g3t1_1,,success
Status,1573,19757666739,/g3t1_2,,success
Status,1574,19785263640,/g4t1,,fail
Status,1575,19803128831,/g3t1_2,,running
Status,1576,19803203843,/g3t1_3,,running
Status,1577,19803227718,/g3t1_1,,running
Status,1578,19805596192,/g3t1_3,,success
Status,1579,19806694823,/g3t1_2,,success
Status,1580,19807948871,/g3t1_1,,success
Status,1581,19853370614,/g3t1_1,,running
Status,1582,19853451014,/g3t1_3,,running
Status,1583,19853478071,/g3t1_2,,running
Status,1584,19855585362,/g3t1_3,,success
Status,1585,19856712659,/g3t1_1,,success
Status,1586,19858034077,/g3t1_2,,success
Status,1587,19885292960,/g4t1,,fail
Status,1588,19903550012,/g3t1_3,,running
Status,1589,19903622044,/g3t1_2,,running
Status,1590,19903806164,/g3t1_1,,running
Status,1591,19906900445,/g3t1_2,,success
Status,1592,19906984253,/g3t1_1,,success
Status,1593,19908385887,/g3t1_3,,success
Status,1594,19953712663,/g3t1_2,,running
Status,1595,19953776720,/g3t1_1,,running
Status,1596,19953857387,/g3t1_3,,running
Status,1597,19955971874,/g3t1_3,,success
Status,1598,19957316245,/g3t1_2,,success
Status,1599,19958986020,/g3t1_1,,success
Status,1600,19985450996,/g4t1,,fail
Status,1601,20003735387,/g3t1_3,,running
Status,1602,20003805204,/g3t1_2,,running
Status,1603,20003832183,/g3t1_1,,running
Status,1604,20005907793,/g3t1_3,,success
Status,1605,20006748393,/g3t1_1,,success
Status,1606,20008113768,/g3t1_2,,success
Status,1607,20053904447,/g3t1_2,,running
Status,1608,20054040850,/g3t1_1,,running
Status,1609,20054138231,/g3t1_3,,running
Status,1610,20058302590,/g3t1_3,,success
Status,1611,20058389720,/g3t1_2,,success
Status,1612,20058640439,/g3t1_1,,success
Status,1613,20085580905,/g4t1,,fail
Status,1614,20104023611,/g3t1_3,,running
Status,1615,20104094584,/g3t1_1,,running
Status,1616,20104135863,/g3t1_2,,running
Status,1617,20106085858,/g3t1_3,,success
Status,1618,20107526856,/g3t1_1,,success
Status,1619,20108628883,/g3t1_2,,success
Status,1620,20154466838,/g3t1_3,,running
Status,1621,20154546109,/g3t1_1,,running
Status,1622,20154628980,/g3t1_2,,running
Status,1623,20156863439,/g3t1_2,,success
Status,1624,20158374244,/g3t1_1,,success
Status,1625,20159336069,/g3t1_3,,success
Status,1626,20185764625,/g4t1,,fail
Status,1627,20204619006,/g3t1_3,,running
Status,1628,20204690979,/g3t1_2,,running
Status,1629,20204741848,/g3t1_1,,running
Status,1630,20207734431,/g3t1_2,,success
Status,1631,20208659008,/g3t1_3,,success
Status,1632,20210890640,/g3t1_1,,success
Status,1633,20254924103,/g3t1_1,,running
Status,1634,20254997031,/g3t1_2,,running
Status,1635,20255037125,/g3t1_3,,running
Status,1636,20257564448,/g3t1_3,,success
Status,1637,20258749324,/g3t1_1,,success
Status,1638,20259659373,/g3t1_2,,success
Status,1639,20285797117,/g4t1,,fail
Status,1640,20304883882,/g3t1_1,,running
Status,1641,20305042537,/g3t1_3,,running
Status,1642,20305086328,/g3t1_2,,running
Status,1645,20308297741,/g3t1_3,,success
Status,1646,20308442222,/g3t1_1,,success
Status,1648,20309438817,/g3t1_2,,success
