
Status,1,20614858814,g4t1,,init
Status,4,26216177101,g3t1_1,,init
Status,5,26240990621,g3t1_1,,init
Status,6,26241022295,g3t1_1,,running
Status,7,26242347447,g3t1_1,,success
Status,8,26418876825,g3t1_2,,init
Status,10,26430989480,g3t1_2,,init
Status,11,26431029920,g3t1_2,,running
Status,12,26432712203,g3t1_2,,success
Status,13,26628406352,g3t1_4,,init
Status,15,26630240161,g3t1_2,,running
Status,16,26630641012,g3t1_2,,success
Status,17,26639986691,g3t1_4,,init
Status,18,26640020597,g3t1_4,,running
Status,19,26642782274,g3t1_4,,success
Status,20,26830568731,g3t1_2,,running
Status,21,26831711086,g3t1_2,,success
Status,22,27030610150,g3t1_2,,running
Status,23,27031888179,g3t1_2,,success
Status,24,27230720195,g3t1_2,,running
Status,25,27232013207,g3t1_2,,success
Status,26,27430813244,g3t1_2,,running
Status,27,27432118308,g3t1_2,,success
Status,28,27629745741,g4t1,,success
Status,29,27630779698,g3t1_2,,running
Status,30,27632084995,g3t1_2,,success
Status,31,27640993650,g3t1_4,,running
Status,32,27646684541,g3t1_4,,success
Status,33,27831012707,g3t1_2,,running
Status,34,27832090676,g3t1_2,,success
Status,35,28031015749,g3t1_2,,running
Status,36,28032048997,g3t1_2,,success
Status,37,28231085079,g3t1_2,,running
Status,38,28232227437,g3t1_2,,success
Status,39,28431697575,g3t1_2,,running
Status,40,28433077077,g3t1_2,,success
Status,41,28630127714,g4t1,,success
Status,42,28631235039,g3t1_2,,running
Status,43,28632515934,g3t1_2,,success
Status,44,28640858989,g3t1_4,,running
Status,45,28647526384,g3t1_4,,success
Status,46,28831809516,g3t1_2,,running
Status,47,28833014299,g3t1_2,,success
Status,48,29032161151,g3t1_2,,running
Status,49,29033491943,g3t1_2,,success
Status,50,29232169743,g3t1_2,,running
Status,51,29233513885,g3t1_2,,success
Status,52,29432323213,g3t1_2,,running
Status,53,29433522149,g3t1_2,,success
Status,54,29630024734,g4t1,,success
Status,55,29631934434,g3t1_2,,running
Status,56,29633036905,g3t1_2,,success
Status,57,29640478180,g3t1_4,,running
Status,58,29650359595,g3t1_4,,success
Status,59,29832106289,g3t1_2,,running
Status,60,29833091785,g3t1_2,,success
Status,61,30031815844,g3t1_2,,running
Status,62,30032366306,g3t1_2,,success
Status,63,30233433986,g3t1_2,,running
Status,64,30234048070,g3t1_2,,success
Status,65,30432396745,g3t1_2,,running
Status,66,30432428997,g3t1_2,,success
Status,67,30629911543,g4t1,,success
Status,68,30631971500,g3t1_2,,running
Status,69,30632862731,g3t1_2,,success
Status,70,30640366263,g3t1_4,,running
Status,71,30643927755,g3t1_4,,success
Status,72,30832529722,g3t1_2,,running
Status,73,30832699894,g3t1_2,,success
Status,74,31032501015,g3t1_2,,running
Status,75,31033583732,g3t1_2,,success
Status,76,31232502097,g3t1_2,,running
Status,77,31233614540,g3t1_2,,success
Status,78,31241321463,g3t1_1,,running
Status,79,31242629964,g3t1_1,,success
Status,80,31432648039,g3t1_2,,running
Status,81,31433891951,g3t1_2,,success
Status,82,31630507786,g4t1,,success
Status,83,31632582580,g3t1_2,,running
Status,84,31633704772,g3t1_2,,success
Status,85,31641424327,g3t1_4,,running
Status,86,31652131792,g3t1_4,,success
Status,87,31833192079,g3t1_2,,running
Status,88,31834646702,g3t1_2,,success
Status,89,32033289950,g3t1_2,,running
Status,90,32034726344,g3t1_2,,success
Status,91,32233410866,g3t1_2,,running
Status,92,32234878474,g3t1_2,,success
Status,93,32433550578,g3t1_2,,running
Status,94,32434962072,g3t1_2,,success
Status,95,32630350747,g4t1,,success
Status,96,32633227669,g3t1_2,,running
Status,97,32634566829,g3t1_2,,success
Status,98,32642013639,g3t1_4,,running
Status,99,32649019076,g3t1_4,,success
Status,100,32833330493,g3t1_2,,running
Status,101,32834655395,g3t1_2,,success
Status,102,33033867806,g3t1_2,,running
Status,103,33035323621,g3t1_2,,success
Status,104,33234298791,g3t1_2,,running
Status,105,33235758007,g3t1_2,,success
Status,106,33433756023,g3t1_2,,running
Status,107,33435137657,g3t1_2,,success
Status,108,33630642021,g4t1,,success
Status,109,33634145067,g3t1_2,,running
Status,110,33635561178,g3t1_2,,success
Status,111,33640961810,g3t1_4,,running
Status,112,33649507920,g3t1_4,,success
Status,113,33833861660,g3t1_2,,running
Status,114,33835173449,g3t1_2,,success
Status,115,34034078113,g3t1_2,,running
Status,116,34035345675,g3t1_2,,success
Status,117,34234493693,g3t1_2,,running
Status,118,34235677826,g3t1_2,,success
Status,119,34434582419,g3t1_2,,running
Status,120,34436016585,g3t1_2,,success
Status,121,34630993136,g4t1,,success
Status,122,34634631239,g3t1_2,,running
Status,123,34636302341,g3t1_2,,success
Status,124,34641550140,g3t1_4,,running
Status,125,34651755872,g3t1_4,,success
Status,126,34834395026,g3t1_2,,running
Status,127,34835677578,g3t1_2,,success
Status,128,35034472410,g3t1_2,,running
Status,129,35035966939,g3t1_2,,success
Status,130,35234958042,g3t1_2,,running
Status,131,35236469724,g3t1_2,,success
Status,132,35435034337,g3t1_2,,running
Status,133,35436467597,g3t1_2,,success
Status,134,35630467436,g4t1,,success
Status,135,35634731890,g3t1_2,,running
Status,136,35635847364,g3t1_2,,success
Status,137,35641113966,g3t1_4,,running
Status,138,35648136245,g3t1_4,,success
Status,139,35834952008,g3t1_2,,running
Status,140,35836241005,g3t1_2,,success
Status,141,36035333254,g3t1_2,,running
Status,142,36036663404,g3t1_2,,success
Status,143,36235546750,g3t1_2,,running
Status,144,36237128967,g3t1_2,,success
Status,145,36241774876,g3t1_1,,running
Status,146,36243008938,g3t1_1,,success
Status,147,36436126899,g3t1_2,,running
Status,148,36436600084,g3t1_2,,success
Status,149,36631086729,g4t1,,success
Status,150,36635831532,g3t1_2,,running
Status,151,36637166774,g3t1_2,,success
Status,152,36641916377,g3t1_4,,running
Status,153,36647006955,g3t1_4,,success
Status,154,36835437481,g3t1_2,,running
Status,155,36837003269,g3t1_2,,success
Status,156,37035483695,g3t1_2,,running
Status,157,37036779327,g3t1_2,,success
Status,158,37236029233,g3t1_2,,running
Status,159,37237420999,g3t1_2,,success
Status,160,37436243834,g3t1_2,,running
Status,161,37437713842,g3t1_2,,success
Status,162,37631046996,g4t1,,success
Status,163,37636353899,g3t1_2,,running
Status,164,37637415106,g3t1_2,,success
Status,165,37641225095,g3t1_4,,running
Status,166,37648498088,g3t1_4,,success
Status,167,37836462387,g3t1_2,,running
Status,168,37837581479,g3t1_2,,success
Status,169,38036588842,g3t1_2,,running
Status,170,38038000360,g3t1_2,,success
Status,171,38236526854,g3t1_2,,running
Status,172,38237814702,g3t1_2,,success
Status,173,38436716996,g3t1_2,,running
Status,174,38438039018,g3t1_2,,success
Status,175,38631086356,g4t1,,success
Status,176,38636430703,g3t1_2,,running
Status,177,38637701900,g3t1_2,,success
Status,178,38641349747,g3t1_4,,running
Status,179,38649156824,g3t1_4,,success
Status,180,38837418924,g3t1_2,,running
Status,181,38837750165,g3t1_2,,success
Status,182,39037034181,g3t1_2,,running
Status,183,39038641830,g3t1_2,,success
Status,184,39237045319,g3t1_2,,running
Status,185,39238368754,g3t1_2,,success
Status,186,39436762557,g3t1_2,,running
Status,187,39437633763,g3t1_2,,success
Status,188,39630775587,g4t1,,success
Status,189,39637041049,g3t1_2,,running
Status,190,39638035523,g3t1_2,,success
Status,191,39641378448,g3t1_4,,running
Status,192,39649241568,g3t1_4,,success
Status,193,39837145011,g3t1_2,,running
Status,194,39838533449,g3t1_2,,success
Status,195,40037181161,g3t1_2,,running
Status,196,40038423967,g3t1_2,,success
Status,197,40237660082,g3t1_2,,running
Status,198,40239051360,g3t1_2,,success
Status,199,40437720661,g3t1_2,,running
Status,200,40439083782,g3t1_2,,success
Status,201,40631330924,g4t1,,success
Status,202,40637971381,g3t1_2,,running
Status,203,40639394231,g3t1_2,,success
Status,204,40641526569,g3t1_4,,running
Status,205,40648576446,g3t1_4,,success
Status,206,40837824344,g3t1_2,,running
Status,207,40839102903,g3t1_2,,success
Status,208,41038136419,g3t1_2,,running
Status,209,41039398796,g3t1_2,,success
Status,210,41238155585,g3t1_2,,running
Status,211,41239679574,g3t1_2,,success
Status,212,41242424983,g3t1_1,,running
Status,213,41242628550,g3t1_1,,success
Status,214,41438196546,g3t1_2,,running
Status,215,41439355906,g3t1_2,,success
Status,216,41631652386,g4t1,,success
Status,217,41638301466,g3t1_2,,running
Status,218,41639556342,g3t1_2,,success
Status,219,41641536461,g3t1_4,,running
Status,220,41648949934,g3t1_4,,success
Status,221,41838585157,g3t1_2,,running
Status,222,41839920473,g3t1_2,,success
Status,223,42038624429,g3t1_2,,running
Status,224,42039914347,g3t1_2,,success
Status,225,42238778152,g3t1_2,,running
Status,226,42240044391,g3t1_2,,success
Status,227,42438896973,g3t1_2,,running
Status,228,42440195128,g3t1_2,,success
Status,229,42631421410,g4t1,,success
Status,230,42638893537,g3t1_2,,running
Status,231,42640111085,g3t1_2,,success
Status,232,42641684030,g3t1_4,,running
Status,233,42649168989,g3t1_4,,success
Status,234,42839144111,g3t1_2,,running
Status,235,42840572189,g3t1_2,,success
Status,236,43039216357,g3t1_2,,running
Status,237,43040660438,g3t1_2,,success
Status,238,43239289374,g3t1_2,,running
Status,239,43240663006,g3t1_2,,success
Status,240,43439317192,g3t1_2,,running
Status,241,43440736655,g3t1_2,,success
Status,242,43631833130,g4t1,,success
Status,243,43639741416,g3t1_2,,running
Status,244,43641038321,g3t1_2,,success
Status,245,43641784093,g3t1_4,,running
Status,246,43649173957,g3t1_4,,success
Status,247,43839811851,g3t1_2,,running
Status,248,43841041273,g3t1_2,,success
Status,249,44039856397,g3t1_2,,running
Status,250,44041122753,g3t1_2,,success
Status,251,44239997950,g3t1_2,,running
Status,252,44241349094,g3t1_2,,success
Status,253,44440188911,g3t1_2,,running
Status,254,44441343259,g3t1_2,,success
Status,255,44631914233,g4t1,,success
Status,256,44640214645,g3t1_2,,running
Status,257,44642516359,g3t1_2,,success
Status,258,44642582556,g3t1_4,,running
Status,259,44651321989,g3t1_4,,success
Status,260,44840231541,g3t1_2,,running
Status,261,44841694693,g3t1_2,,success
Status,262,45040412932,g3t1_2,,running
Status,263,45041874048,g3t1_2,,success
Status,264,45240602099,g3t1_2,,running
Status,265,45241940741,g3t1_2,,success
Status,266,45440584968,g3t1_2,,running
Status,267,45442013775,g3t1_2,,success
Status,268,45631655314,g4t1,,success
Status,269,45640373108,g3t1_2,,running
Status,270,45641604207,g3t1_2,,success
Status,271,45643117762,g3t1_4,,running
Status,272,45651363285,g3t1_4,,success
Status,273,45840536737,g3t1_2,,running
Status,274,45841521334,g3t1_2,,success
Status,275,46040822433,g3t1_2,,running
Status,276,46042324312,g3t1_2,,success
Status,277,46241105616,g3t1_2,,running
Status,278,46241900681,g3t1_1,,running
Status,279,46242798960,g3t1_1,,success
Status,280,46243368904,g3t1_2,,success
Status,281,46441065384,g3t1_2,,running
Status,282,46442399546,g3t1_2,,success
Status,283,46632107986,g4t1,,success
Status,284,46641202450,g3t1_2,,running
Status,285,46642634378,g3t1_4,,running
Status,286,46642698944,g3t1_2,,success
Status,287,46648523094,g3t1_4,,success
Status,288,46841054627,g3t1_2,,running
Status,289,46842183782,g3t1_2,,success
Status,290,47041490470,g3t1_2,,running
Status,291,47042761236,g3t1_2,,success
Status,292,47241617052,g3t1_2,,running
Status,293,47242902337,g3t1_2,,success
Status,294,47441373148,g3t1_2,,running
Status,295,47442553930,g3t1_2,,success
Status,296,47631757469,g4t1,,success
Status,297,47641290727,g3t1_2,,running
Status,298,47642639299,g3t1_4,,running
Status,299,47642699542,g3t1_2,,success
Status,300,47650286942,g3t1_4,,success
Status,301,47841534474,g3t1_2,,running
Status,302,47843070087,g3t1_2,,success
Status,303,48041588626,g3t1_2,,running
Status,304,48042963922,g3t1_2,,success
Status,305,48242132484,g3t1_2,,running
Status,306,48243629849,g3t1_2,,success
Status,307,48442053273,g3t1_2,,running
Status,308,48443170429,g3t1_2,,success
Status,309,48632620358,g4t1,,success
Status,310,48642487549,g3t1_2,,running
Status,311,48643061178,g3t1_4,,running
Status,312,48644433283,g3t1_2,,success
Status,313,48650944845,g3t1_4,,success
Status,314,48842275490,g3t1_2,,running
Status,315,48843433002,g3t1_2,,success
Status,316,49042303544,g3t1_2,,running
Status,317,49043397605,g3t1_2,,success
Status,318,49242653043,g3t1_2,,running
Status,319,49244169562,g3t1_2,,success
Status,320,49442510692,g3t1_2,,running
Status,321,49442732716,g3t1_2,,success
Status,322,49632084124,g4t1,,success
Status,323,49642512174,g3t1_2,,running
Status,324,49643487658,g3t1_4,,running
Status,325,49645196985,g3t1_2,,success
Status,326,49651453764,g3t1_4,,success
Status,327,49842287571,g3t1_2,,running
Status,328,49842906779,g3t1_2,,success
Status,329,50042590680,g3t1_2,,running
Status,330,50043955834,g3t1_2,,success
Status,331,50242340611,g3t1_2,,running
Status,332,50242922930,g3t1_2,,success
Status,333,50442448781,g3t1_2,,running
Status,334,50443149609,g3t1_2,,success
Status,335,50631761839,g4t1,,success
Status,336,50643397269,g3t1_2,,running
Status,337,50643442710,g3t1_4,,running
Status,338,50643455045,g3t1_2,,success
Status,339,50646637489,g3t1_4,,success
Status,340,50842705524,g3t1_2,,running
Status,341,50843734821,g3t1_2,,success
Status,342,51042818617,g3t1_2,,running
Status,343,51043799429,g3t1_2,,success
Status,344,51241748902,g3t1_1,,running
Status,345,51243009735,g3t1_2,,running
Status,346,51243075020,g3t1_1,,success
Status,347,51244113840,g3t1_2,,success
Status,348,51443687449,g3t1_2,,running
Status,349,51444217745,g3t1_2,,success
Status,350,51632455315,g4t1,,success
Status,351,51643416601,g3t1_2,,running
Status,352,51643482220,g3t1_4,,running
Status,353,51645879210,g3t1_2,,success
Status,354,51653791084,g3t1_4,,success
Status,355,51843126934,g3t1_2,,running
Status,356,51843739292,g3t1_2,,success
Status,357,52043419421,g3t1_2,,running
Status,358,52044563890,g3t1_2,,success
Status,359,52244439621,g3t1_2,,running
Status,360,52244748787,g3t1_2,,success
Status,361,52443483093,g3t1_2,,running
Status,362,52444763743,g3t1_2,,success
Status,363,52632414249,g4t1,,success
Status,364,52643643619,g3t1_4,,running
Status,365,52644162508,g3t1_2,,running
Status,366,52646188147,g3t1_2,,success
Status,367,52651703660,g3t1_4,,success
Status,368,52843678496,g3t1_2,,running
Status,369,52844229025,g3t1_2,,success
Status,370,53043829261,g3t1_2,,running
Status,371,53044484912,g3t1_2,,success
Status,372,53244160506,g3t1_2,,running
Status,373,53245533700,g3t1_2,,success
Status,374,53444356987,g3t1_2,,running
Status,375,53445415878,g3t1_2,,success
Status,376,53632510517,g4t1,,success
Status,377,53643379004,g3t1_4,,running
Status,378,53644662795,g3t1_2,,running
Status,379,53646022122,g3t1_2,,success
Status,380,53650920199,g3t1_4,,success
Status,381,53844604205,g3t1_2,,running
Status,382,53845970971,g3t1_2,,success
Status,383,54044990475,g3t1_2,,running
Status,384,54046283865,g3t1_2,,success
Status,385,54244672961,g3t1_2,,running
Status,386,54245898444,g3t1_2,,success
Status,387,54445326612,g3t1_2,,running
Status,388,54445484840,g3t1_2,,success
Status,389,54632137925,g4t1,,success
Status,390,54643362289,g3t1_4,,running
