
Status,1,20689247565,/g4t1,,init
Status,3,25699847926,/g3t1_2,,init
Status,5,25716869870,/g3t1_2,,init
Status,6,25716904910,/g3t1_2,,running
Status,7,25718119072,/g3t1_2,,success
Status,8,25917064110,/g3t1_2,,running
Status,9,25917339004,/g3t1_2,,success
Status,10,26117211327,/g3t1_2,,running
Status,11,26117440766,/g3t1_2,,success
Status,12,26317343748,/g3t1_2,,running
Status,13,26317369920,/g3t1_2,,success
Status,14,26517324942,/g3t1_2,,running
Status,15,26517575908,/g3t1_2,,success
Status,16,26712710193,/g4t1,,success
Status,17,26717382505,/g3t1_2,,running
Status,18,26717636883,/g3t1_2,,success
Status,19,26917537275,/g3t1_2,,running
Status,20,26917655713,/g3t1_2,,success
Status,21,27117642931,/g3t1_2,,running
Status,22,27117985222,/g3t1_2,,success
Status,23,27317802044,/g3t1_2,,running
Status,24,27318043571,/g3t1_2,,success
Status,25,27517793394,/g3t1_2,,running
Status,26,27518053427,/g3t1_2,,success
Status,27,27712775850,/g4t1,,success
Status,28,27717890470,/g3t1_2,,running
Status,29,27718323619,/g3t1_2,,success
Status,30,27918017782,/g3t1_2,,running
Status,31,27918260761,/g3t1_2,,success
Status,32,28118063047,/g3t1_2,,running
Status,33,28118304610,/g3t1_2,,success
Status,34,28318164580,/g3t1_2,,running
Status,35,28318444057,/g3t1_2,,success
Status,36,28518404816,/g3t1_2,,running
Status,37,28518434873,/g3t1_2,,success
Status,38,28712943695,/g4t1,,success
Status,39,28718249731,/g3t1_2,,running
Status,40,28718562467,/g3t1_2,,success
Status,41,28918415207,/g3t1_2,,running
Status,42,28918582160,/g3t1_2,,success
Status,43,29118777337,/g3t1_2,,running
Status,44,29119473928,/g3t1_2,,success
Status,45,29318538162,/g3t1_2,,running
Status,46,29319043277,/g3t1_2,,success
Status,47,29518636183,/g3t1_2,,running
Status,48,29518779869,/g3t1_2,,success
Status,49,29713020760,/g4t1,,success
Status,50,29718739764,/g3t1_2,,running
Status,51,29718920524,/g3t1_2,,success
Status,52,29918827237,/g3t1_2,,running
Status,53,29919082027,/g3t1_2,,success
Status,54,30118881442,/g3t1_2,,running
Status,55,30119067301,/g3t1_2,,success
Status,56,30319014062,/g3t1_2,,running
Status,57,30319179397,/g3t1_2,,success
Status,58,30519040694,/g3t1_2,,running
Status,59,30519170186,/g3t1_2,,success
Status,60,30713190748,/g4t1,,success
Status,61,30719087020,/g3t1_2,,running
Status,62,30719267362,/g3t1_2,,success
Status,63,30919351575,/g3t1_2,,running
Status,64,30919404692,/g3t1_2,,success
Status,65,31119428030,/g3t1_2,,running
Status,66,31119451923,/g3t1_2,,success
Status,67,31319436614,/g3t1_2,,running
Status,68,31319461579,/g3t1_2,,success
Status,69,31519722897,/g3t1_2,,running
Status,70,31519748243,/g3t1_2,,success
Status,71,31713232692,/g4t1,,success
Status,72,31719581270,/g3t1_2,,running
Status,73,31719716811,/g3t1_2,,success
Status,74,31919773525,/g3t1_2,,running
Status,75,31919796168,/g3t1_2,,success
Status,76,32120466382,/g3t1_2,,running
Status,77,32120548842,/g3t1_2,,success
Status,78,32320499736,/g3t1_2,,running
Status,79,32320565387,/g3t1_2,,success
Status,80,32520496364,/g3t1_2,,running
Status,81,32520556315,/g3t1_2,,success
Status,82,32713191893,/g4t1,,success
Status,83,32720054942,/g3t1_2,,running
Status,84,32720194583,/g3t1_2,,success
Status,85,32920286594,/g3t1_2,,running
Status,86,32920684029,/g3t1_2,,success
Status,87,33120204594,/g3t1_2,,running
Status,88,33120437413,/g3t1_2,,success
Status,89,33320364921,/g3t1_2,,running
Status,90,33320395601,/g3t1_2,,success
Status,91,33520451156,/g3t1_2,,running
Status,92,33520481526,/g3t1_2,,success
Status,93,33713466515,/g4t1,,success
Status,94,33720535724,/g3t1_2,,running
Status,95,33720640815,/g3t1_2,,success
Status,96,33920579721,/g3t1_2,,running
Status,97,33920832330,/g3t1_2,,success
Status,98,34120644241,/g3t1_2,,running
Status,99,34120767264,/g3t1_2,,success
Status,100,34320835894,/g3t1_2,,running
Status,101,34320876476,/g3t1_2,,success
Status,102,34520767405,/g3t1_2,,running
Status,103,34521253119,/g3t1_2,,success
Status,104,34713909847,/g4t1,,success
Status,105,34721198512,/g3t1_2,,running
Status,106,34721330353,/g3t1_2,,success
Status,107,34921085637,/g3t1_2,,running
Status,108,34921401881,/g3t1_2,,success
Status,109,35121155545,/g3t1_2,,running
Status,110,35121518071,/g3t1_2,,success
Status,111,35321906653,/g3t1_2,,running
Status,112,35321983580,/g3t1_2,,success
Status,113,35521348003,/g3t1_2,,running
Status,114,35521776088,/g3t1_2,,success
Status,115,35713594703,/g4t1,,success
Status,116,35721559934,/g3t1_2,,running
Status,117,35721582151,/g3t1_2,,success
Status,118,35921454079,/g3t1_2,,running
Status,119,35921622283,/g3t1_2,,success
Status,120,36121696837,/g3t1_2,,running
Status,121,36121726396,/g3t1_2,,success
Status,122,36322261519,/g3t1_2,,running
Status,123,36322565174,/g3t1_2,,success
Status,124,36522668920,/g3t1_2,,running
Status,125,36523680764,/g3t1_2,,success
Status,126,36713578503,/g4t1,,success
Status,127,36723042662,/g3t1_2,,running
Status,128,36723109549,/g3t1_2,,success
Status,129,36922787849,/g3t1_2,,running
Status,130,36923008827,/g3t1_2,,success
Status,131,37122117925,/g3t1_2,,running
Status,132,37122173192,/g3t1_2,,success
Status,133,37322179108,/g3t1_2,,running
Status,134,37322371013,/g3t1_2,,success
Status,135,37522405135,/g3t1_2,,running
Status,136,37522920180,/g3t1_2,,success
Status,137,37713683289,/g4t1,,success
Status,138,37722706348,/g3t1_2,,running
Status,139,37723703247,/g3t1_2,,success
Status,140,37922445928,/g3t1_2,,running
Status,141,37922546336,/g3t1_2,,success
Status,142,38122780341,/g3t1_2,,running
Status,143,38123486551,/g3t1_2,,success
Status,144,38322514781,/g3t1_2,,running
Status,145,38322644953,/g3t1_2,,success
Status,146,38523488757,/g3t1_2,,running
Status,147,38523851681,/g3t1_2,,success
Status,148,38713815071,/g4t1,,success
Status,149,38723373103,/g3t1_2,,running
Status,150,38723454891,/g3t1_2,,success
Status,151,38924271800,/g3t1_2,,running
Status,152,38924532238,/g3t1_2,,success
Status,153,39123027507,/g3t1_2,,running
Status,154,39123072970,/g3t1_2,,success
Status,155,39323196212,/g3t1_2,,running
Status,156,39323637801,/g3t1_2,,success
Status,157,39524499664,/g3t1_2,,running
Status,158,39525268343,/g3t1_2,,success
Status,159,39713897342,/g4t1,,success
Status,160,39724292553,/g3t1_2,,running
Status,161,39724353507,/g3t1_2,,success
Status,162,39924537578,/g3t1_2,,running
Status,163,39924574713,/g3t1_2,,success
Status,164,40124355545,/g3t1_2,,running
Status,165,40124491722,/g3t1_2,,success
Status,166,40323624821,/g3t1_2,,running
Status,167,40323674842,/g3t1_2,,success
Status,168,40523964986,/g3t1_2,,running
Status,169,40524799310,/g3t1_2,,success
Status,170,40713995528,/g4t1,,success
Status,171,40723822792,/g3t1_2,,running
Status,172,40723847467,/g3t1_2,,success
Status,173,40923834710,/g3t1_2,,running
Status,174,40923944137,/g3t1_2,,success
Status,175,41123902413,/g3t1_2,,running
Status,176,41124125987,/g3t1_2,,success
Status,177,41324073168,/g3t1_2,,running
Status,178,41324693518,/g3t1_2,,success
Status,179,41524042389,/g3t1_2,,running
Status,180,41524238090,/g3t1_2,,success
Status,181,41714461563,/g4t1,,success
Status,182,41724542946,/g3t1_2,,running
Status,183,41725508406,/g3t1_2,,success
Status,184,41924306756,/g3t1_2,,running
Status,185,41924580861,/g3t1_2,,success
Status,186,42124344920,/g3t1_2,,running
Status,187,42124530689,/g3t1_2,,success
Status,188,42324485152,/g3t1_2,,running
Status,189,42324551002,/g3t1_2,,success
Status,190,42524880310,/g3t1_2,,running
Status,191,42524991641,/g3t1_2,,success
Status,192,42714199925,/g4t1,,success
Status,193,42724678086,/g3t1_2,,running
Status,194,42724969681,/g3t1_2,,success
Status,195,42924810664,/g3t1_2,,running
Status,196,42925083983,/g3t1_2,,success
Status,197,43124800032,/g3t1_2,,running
Status,198,43124925755,/g3t1_2,,success
Status,199,43324886667,/g3t1_2,,running
Status,200,43325115298,/g3t1_2,,success
Status,201,43525157692,/g3t1_2,,running
Status,202,43525872893,/g3t1_2,,success
Status,203,43714331947,/g4t1,,success
Status,204,43725077063,/g3t1_2,,running
Status,205,43725306020,/g3t1_2,,success
Status,206,43925152319,/g3t1_2,,running
Status,207,43925265381,/g3t1_2,,success
Status,208,44125227687,/g3t1_2,,running
Status,209,44125435306,/g3t1_2,,success
Status,210,44325302532,/g3t1_2,,running
Status,211,44325646266,/g3t1_2,,success
Status,212,44526002204,/g3t1_2,,running
Status,213,44526543730,/g3t1_2,,success
Status,214,44714422748,/g4t1,,success
Status,215,44725453338,/g3t1_2,,running
Status,216,44725972588,/g3t1_2,,success
Status,217,44925499225,/g3t1_2,,running
Status,218,44925671105,/g3t1_2,,success
Status,219,45125524519,/g3t1_2,,running
Status,220,45125766965,/g3t1_2,,success
Status,221,45325599103,/g3t1_2,,running
Status,222,45325826211,/g3t1_2,,success
Status,223,45525721833,/g3t1_2,,running
Status,224,45526075796,/g3t1_2,,success
Status,225,45714525289,/g4t1,,success
Status,226,45725790134,/g3t1_2,,running
Status,227,45726153907,/g3t1_2,,success
Status,228,45925838867,/g3t1_2,,running
Status,229,45926039880,/g3t1_2,,success
Status,230,46126058956,/g3t1_2,,running
Status,231,46126082341,/g3t1_2,,success
Status,232,46326091997,/g3t1_2,,running
Status,233,46326138879,/g3t1_2,,success
Status,234,46526122128,/g3t1_2,,running
Status,235,46526293292,/g3t1_2,,success
Status,236,46714644775,/g4t1,,success
Status,237,46726201160,/g3t1_2,,running
Status,238,46726516144,/g3t1_2,,success
Status,239,46926290925,/g3t1_2,,running
Status,240,46926408829,/g3t1_2,,success
Status,241,47126463034,/g3t1_2,,running
Status,242,47126837150,/g3t1_2,,success
Status,243,47326610061,/g3t1_2,,running
Status,244,47327054028,/g3t1_2,,success
Status,245,47526477759,/g3t1_2,,running
Status,246,47526629322,/g3t1_2,,success
Status,247,47714635321,/g4t1,,success
Status,248,47726587331,/g3t1_2,,running
Status,249,47726820458,/g3t1_2,,success
Status,250,47926651494,/g3t1_2,,running
Status,251,47927070507,/g3t1_2,,success
Status,252,48126949451,/g3t1_2,,running
Status,253,48127390739,/g3t1_2,,success
Status,254,48327056748,/g3t1_2,,running
Status,255,48327441126,/g3t1_2,,success
Status,256,48526961308,/g3t1_2,,running
Status,257,48527167031,/g3t1_2,,success
Status,258,48714774721,/g4t1,,success
Status,259,48726931401,/g3t1_2,,running
Status,260,48727175730,/g3t1_2,,success
Status,261,48927020130,/g3t1_2,,running
Status,262,48927134757,/g3t1_2,,success
Status,263,49127054419,/g3t1_2,,running
Status,264,49127332094,/g3t1_2,,success
Status,265,49327385477,/g3t1_2,,running
Status,266,49327770844,/g3t1_2,,success
Status,267,49527256329,/g3t1_2,,running
Status,268,49527481640,/g3t1_2,,success
Status,269,49715005928,/g4t1,,success
Status,270,49727609235,/g3t1_2,,running
Status,271,49728171852,/g3t1_2,,success
Status,272,49927528829,/g3t1_2,,running
Status,273,49927550595,/g3t1_2,,success
Status,274,50127478089,/g3t1_2,,running
Status,275,50127593975,/g3t1_2,,success
Status,276,50327682499,/g3t1_2,,running
Status,277,50328084695,/g3t1_2,,success
Status,278,50527847925,/g3t1_2,,running
Status,279,50528378045,/g3t1_2,,success
Status,280,50714865921,/g4t1,,success
Status,281,50727828305,/g3t1_2,,running
Status,282,50728038060,/g3t1_2,,success
Status,283,50927916927,/g3t1_2,,running
Status,284,50928102672,/g3t1_2,,success
Status,285,51127961970,/g3t1_2,,running
Status,286,51128104824,/g3t1_2,,success
Status,287,51327997652,/g3t1_2,,running
Status,288,51328236992,/g3t1_2,,success
Status,289,51528359499,/g3t1_2,,running
Status,290,51528566262,/g3t1_2,,success
Status,291,51714971723,/g4t1,,success
Status,292,51728241204,/g3t1_2,,running
Status,293,51728274169,/g3t1_2,,success
Status,294,51928324581,/g3t1_2,,running
Status,295,51928713578,/g3t1_2,,success
Status,296,52128710405,/g3t1_2,,running
Status,297,52128755589,/g3t1_2,,success
Status,298,52329122421,/g3t1_2,,running
Status,299,52329685661,/g3t1_2,,success
Status,300,52528615046,/g3t1_2,,running
Status,301,52529017322,/g3t1_2,,success
Status,302,52715024625,/g4t1,,success
Status,303,52728656922,/g3t1_2,,running
Status,304,52728920674,/g3t1_2,,success
Status,305,52928786120,/g3t1_2,,running
Status,306,52929084215,/g3t1_2,,success
Status,307,53128872747,/g3t1_2,,running
Status,308,53129098274,/g3t1_2,,success
Status,309,53331216005,/g3t1_2,,running
Status,310,53331803116,/g3t1_2,,success
Status,311,53529049687,/g3t1_2,,running
Status,312,53529289379,/g3t1_2,,success
Status,313,53715103035,/g4t1,,success
Status,314,53729166113,/g3t1_2,,running
Status,315,53729318177,/g3t1_2,,success
Status,316,53929250676,/g3t1_2,,running
Status,317,53929465946,/g3t1_2,,success
Status,318,54129305693,/g3t1_2,,running
Status,319,54129541552,/g3t1_2,,success
Status,320,54330805384,/g3t1_2,,running
Status,321,54331510251,/g3t1_2,,success
Status,322,54529562052,/g3t1_2,,running
Status,323,54529588633,/g3t1_2,,success
Status,324,54715360114,/g4t1,,success
Status,325,54729683754,/g3t1_2,,running
Status,326,54729706386,/g3t1_2,,success
Status,327,54930096570,/g3t1_2,,running
Status,328,54930330949,/g3t1_2,,success
Status,330,55129779714,/g3t1_2,,running
Status,331,55130031046,/g3t1_2,,success
Status,333,55330494738,/g3t1_2,,running
Status,334,55330514801,/g3t1_2,,success
Status,336,55530201933,/g3t1_2,,running
Status,337,55530304442,/g3t1_2,,success
Status,339,55715665772,/g4t1,,success
Status,340,55730308005,/g3t1_2,,running
Status,341,55730514867,/g3t1_2,,success
Status,343,55930111816,/g3t1_2,,running
Status,344,55931699729,/g3t1_2,,success
Status,346,56130200080,/g3t1_2,,running
Status,347,56131356086,/g3t1_2,,success
Status,349,56331143963,/g3t1_2,,running
Status,350,56331992993,/g3t1_2,,success
Status,352,56530504252,/g3t1_2,,running
Status,353,56530533162,/g3t1_2,,success
Status,355,56715554891,/g4t1,,success
Status,356,56730715657,/g3t1_2,,running
Status,357,56730761567,/g3t1_2,,success
Status,359,56930790605,/g3t1_2,,running
Status,360,56930819321,/g3t1_2,,success
Status,362,57130809698,/g3t1_2,,running
Status,363,57130913555,/g3t1_2,,success
Status,365,57331562530,/g3t1_2,,running
Status,366,57331772948,/g3t1_2,,success
Status,368,57530969923,/g3t1_2,,running
Status,369,57531335671,/g3t1_2,,success
Status,371,57715699673,/g4t1,,success
Status,372,57731186054,/g3t1_2,,running
Status,373,57731391428,/g3t1_2,,success
Status,375,57931209309,/g3t1_2,,running
Status,376,57931376441,/g3t1_2,,success
Status,378,58131406632,/g3t1_2,,running
Status,379,58131440663,/g3t1_2,,success
Status,381,58331868657,/g3t1_2,,running
Status,382,58331985822,/g3t1_2,,success
Status,384,58531460459,/g3t1_2,,running
Status,385,58531709117,/g3t1_2,,success
Status,387,58715690531,/g4t1,,success
Status,388,58731555276,/g3t1_2,,running
Status,389,58731827165,/g3t1_2,,success
Status,391,58931623358,/g3t1_2,,running
Status,392,58932122424,/g3t1_2,,success
Status,394,59131733957,/g3t1_2,,running
Status,395,59131942014,/g3t1_2,,success
Status,397,59332076409,/g3t1_2,,running
Status,398,59332109179,/g3t1_2,,success
Status,400,59531921658,/g3t1_2,,running
Status,401,59532015332,/g3t1_2,,success
Status,403,59715809917,/g4t1,,success
Status,404,59731950132,/g3t1_2,,running
Status,405,59732180126,/g3t1_2,,success
Status,407,59932045582,/g3t1_2,,running
Status,408,59932339564,/g3t1_2,,success
Status,410,60132076443,/g3t1_2,,running
Status,411,60132174793,/g3t1_2,,success
Status,413,60333115530,/g3t1_2,,running
Status,414,60333207806,/g3t1_2,,success
Status,416,60532352791,/g3t1_2,,running
Status,417,60532385541,/g3t1_2,,success
Status,419,60715815052,/g4t1,,success
Status,420,60733903695,/g3t1_2,,running
Status,421,60733928144,/g3t1_2,,success
Status,423,60932512748,/g3t1_2,,running
Status,424,60932561557,/g3t1_2,,success
Status,426,61132459676,/g3t1_2,,running
Status,427,61132786816,/g3t1_2,,success
Status,429,61333055754,/g3t1_2,,running
Status,430,61333091682,/g3t1_2,,success
Status,432,61532749771,/g3t1_2,,running
Status,433,61532915623,/g3t1_2,,success
Status,435,61715903204,/g4t1,,success
Status,436,61732783574,/g3t1_2,,running
Status,437,61733075517,/g3t1_2,,success
Status,439,61932979301,/g3t1_2,,running
Status,440,61933540859,/g3t1_2,,success
Status,442,62133054403,/g3t1_2,,running
Status,443,62133956821,/g3t1_2,,success
Status,445,62333082876,/g3t1_2,,running
Status,446,62333317150,/g3t1_2,,success
Status,448,62533100551,/g3t1_2,,running
Status,449,62533237253,/g3t1_2,,success
Status,451,62715977612,/g4t1,,success
Status,452,62733192357,/g3t1_2,,running
Status,453,62733234911,/g3t1_2,,success
Status,455,62933308859,/g3t1_2,,running
Status,456,62933702121,/g3t1_2,,success
Status,458,63133368185,/g3t1_2,,running
Status,459,63133573120,/g3t1_2,,success
Status,461,63333481242,/g3t1_2,,running
Status,462,63333650110,/g3t1_2,,success
Status,464,63533477833,/g3t1_2,,running
Status,465,63533748732,/g3t1_2,,success
Status,467,63716111006,/g4t1,,success
Status,468,63733541677,/g3t1_2,,running
Status,469,63733767222,/g3t1_2,,success
Status,471,63933704248,/g3t1_2,,running
Status,472,63933917047,/g3t1_2,,success
Status,474,64133799373,/g3t1_2,,running
Status,475,64134075962,/g3t1_2,,success
Status,477,64333807188,/g3t1_2,,running
Status,478,64333905332,/g3t1_2,,success
Status,480,64533923743,/g3t1_2,,running
Status,481,64534144886,/g3t1_2,,success
Status,483,64716120129,/g4t1,,success
Status,484,64733965378,/g3t1_2,,running
Status,485,64734265366,/g3t1_2,,success
Status,487,64934048155,/g3t1_2,,running
Status,488,64934215230,/g3t1_2,,success
Status,490,65134089322,/g3t1_2,,running
Status,491,65134211605,/g3t1_2,,success
Status,493,65334244037,/g3t1_2,,running
Status,494,65334269552,/g3t1_2,,success
Status,496,65534297484,/g3t1_2,,running
Status,497,65534351714,/g3t1_2,,success
Status,499,65716372946,/g4t1,,success
Status,500,65734398712,/g3t1_2,,running
Status,501,65734604302,/g3t1_2,,success
Status,503,65934513223,/g3t1_2,,running
Status,504,65934620076,/g3t1_2,,success
Status,506,66134594367,/g3t1_2,,running
Status,507,66134678603,/g3t1_2,,success
Status,509,66334642773,/g3t1_2,,running
Status,510,66334697111,/g3t1_2,,success
Status,512,66534807232,/g3t1_2,,running
Status,513,66534856500,/g3t1_2,,success
Status,515,66716393131,/g4t1,,success
Status,516,66734843932,/g3t1_2,,running
Status,517,66734932228,/g3t1_2,,success
Status,519,66934940379,/g3t1_2,,running
Status,520,66934963964,/g3t1_2,,success
Status,522,67134956166,/g3t1_2,,running
Status,523,67135008733,/g3t1_2,,success
Status,525,67334988388,/g3t1_2,,running
Status,526,67335145326,/g3t1_2,,success
Status,528,67535210597,/g3t1_2,,running
Status,529,67535238957,/g3t1_2,,success
Status,531,67716451587,/g4t1,,success
Status,532,67735255554,/g3t1_2,,running
Status,533,67735277299,/g3t1_2,,success
Status,535,67935247160,/g3t1_2,,running
Status,536,67935421601,/g3t1_2,,success
Status,538,68135397395,/g3t1_2,,running
Status,539,68135421632,/g3t1_2,,success
Status,541,68335418864,/g3t1_2,,running
Status,542,68335620031,/g3t1_2,,success
Status,544,68535531588,/g3t1_2,,running
Status,545,68535638798,/g3t1_2,,success
Status,547,68716517823,/g4t1,,success
Status,548,68735647299,/g3t1_2,,running
Status,549,68735773607,/g3t1_2,,success
Status,551,68935705430,/g3t1_2,,running
Status,552,68935836244,/g3t1_2,,success
Status,554,69136507571,/g3t1_2,,running
Status,555,69136742012,/g3t1_2,,success
Status,557,69337192541,/g3t1_2,,running
Status,558,69337433412,/g3t1_2,,success
Status,560,69536140161,/g3t1_2,,running
Status,561,69536407247,/g3t1_2,,success
Status,563,69716563106,/g4t1,,success
Status,564,69736171433,/g3t1_2,,running
Status,565,69736294181,/g3t1_2,,success
Status,567,69936218600,/g3t1_2,,running
Status,568,69936330718,/g3t1_2,,success
Status,570,70136283649,/g3t1_2,,running
