
Status,1,20722706389,g4t1,,init
Status,3,25833823348,g3t1_4,,init
Status,5,25845235611,g3t1_4,,init
Status,6,25845280212,g3t1_4,,running
Status,7,25848393041,g3t1_4,,success
Status,8,26845924206,g3t1_4,,running
Status,9,26852943794,g3t1_4,,success
Status,10,27845659927,g3t1_4,,running
Status,11,27853122725,g3t1_4,,success
Status,12,28847393169,g3t1_4,,running
Status,13,28852822419,g3t1_4,,success
Status,14,29846089539,g3t1_4,,running
Status,15,29848869979,g3t1_4,,success
Status,16,30846326761,g3t1_4,,running
Status,17,30852256708,g3t1_4,,success
Status,18,31846479357,g3t1_4,,running
Status,19,31852266594,g3t1_4,,success
Status,20,32846208400,g3t1_4,,running
Status,21,32853499604,g3t1_4,,success
Status,22,33846646597,g3t1_4,,running
Status,23,33853910468,g3t1_4,,success
Status,24,34846726958,g3t1_4,,running
Status,25,34856147830,g3t1_4,,success
Status,26,35847080509,g3t1_4,,running
Status,27,35853291978,g3t1_4,,success
Status,28,36846551315,g3t1_4,,running
Status,29,36849310701,g3t1_4,,success
Status,30,37846649063,g3t1_4,,running
Status,31,37854711153,g3t1_4,,success
Status,32,38847637287,g3t1_4,,running
Status,33,38853780492,g3t1_4,,success
Status,34,39846905497,g3t1_4,,running
Status,35,39855337645,g3t1_4,,success
Status,36,40847405241,g3t1_4,,running
Status,37,40854023149,g3t1_4,,success
Status,38,41847077835,g3t1_4,,running
Status,39,41854673862,g3t1_4,,success
Status,40,42847257671,g3t1_4,,running
Status,41,42853820468,g3t1_4,,success
Status,42,43847666228,g3t1_4,,running
Status,43,43855621878,g3t1_4,,success
Status,44,44847463762,g3t1_4,,running
Status,45,44856931206,g3t1_4,,success
Status,46,45848700490,g3t1_4,,running
Status,47,45854318307,g3t1_4,,success
Status,48,46847592929,g3t1_4,,running
Status,49,46854070701,g3t1_4,,success
Status,50,47848665807,g3t1_4,,running
Status,51,47854933721,g3t1_4,,success
Status,52,48847798429,g3t1_4,,running
Status,53,48854961420,g3t1_4,,success
Status,54,49847841929,g3t1_4,,running
Status,55,49856889028,g3t1_4,,success
Status,56,50848840001,g3t1_4,,running
Status,57,50854700193,g3t1_4,,success
Status,58,51847663033,g3t1_4,,running
Status,59,51849946140,g3t1_4,,success
Status,60,52848573412,g3t1_4,,running
Status,61,52856485770,g3t1_4,,success
Status,62,53848192329,g3t1_4,,running
Status,63,53855563217,g3t1_4,,success
Status,64,54849533253,g3t1_4,,running
Status,65,54859966252,g3t1_4,,success
Status,69,55848893411,g3t1_4,,running
Status,70,55856175065,g3t1_4,,success
Status,76,56848886829,g3t1_4,,running
Status,77,56855603016,g3t1_4,,success
Status,83,57848768797,g3t1_4,,running
Status,84,57855482600,g3t1_4,,success
Status,90,58848686656,g3t1_4,,running
Status,91,58853884064,g3t1_4,,success
Status,97,59848852895,g3t1_4,,running
Status,98,59855575327,g3t1_4,,success
Status,104,60849055222,g3t1_4,,running
Status,105,60856303902,g3t1_4,,success
Status,111,61850346251,g3t1_4,,running
Status,112,61860028918,g3t1_4,,success
Status,118,62849418556,g3t1_4,,running
Status,119,62853175477,g3t1_4,,success
Status,125,63849337534,g3t1_4,,running
Status,126,63851840526,g3t1_4,,success
Status,132,64850202291,g3t1_4,,running
Status,133,64855808876,g3t1_4,,success
Status,139,65849300544,g3t1_4,,running
Status,140,65854995471,g3t1_4,,success
Status,146,66849588590,g3t1_4,,running
Status,147,66857934032,g3t1_4,,success
Status,153,67849593460,g3t1_4,,running
Status,154,67856715490,g3t1_4,,success
Status,160,68849494946,g3t1_4,,running
Status,161,68853620631,g3t1_4,,success
Status,167,69850289137,g3t1_4,,running
Status,168,69857559522,g3t1_4,,success
Status,174,70850434918,g3t1_4,,running
Status,175,70857226181,g3t1_4,,success
Status,181,71850654024,g3t1_4,,running
Status,182,71858368227,g3t1_4,,success
Status,188,72850936194,g3t1_4,,running
Status,189,72855690137,g3t1_4,,success
Status,195,73850185705,g3t1_4,,running
Status,196,73855792837,g3t1_4,,success
Status,202,74851221843,g3t1_4,,running
Status,203,74857316317,g3t1_4,,success
Status,209,75851206222,g3t1_4,,running
Status,210,75856801628,g3t1_4,,success
Status,216,76850640063,g3t1_4,,running
Status,217,76854238318,g3t1_4,,success
Status,223,77850290053,g3t1_4,,running
Status,224,77854571813,g3t1_4,,success
Status,230,78850660448,g3t1_4,,running
Status,231,78857144343,g3t1_4,,success
Status,237,79850774359,g3t1_4,,running
Status,238,79857644114,g3t1_4,,success
Status,244,80850778256,g3t1_4,,running
Status,245,80857374457,g3t1_4,,success
Status,251,81850776946,g3t1_4,,running
Status,252,81861967176,g3t1_4,,success
Status,258,82851386835,g3t1_4,,running
Status,259,82860875080,g3t1_4,,success
Status,265,83851471819,g3t1_4,,running
Status,266,83858358984,g3t1_4,,success
Status,272,84851373380,g3t1_4,,running
Status,273,84853460997,g3t1_4,,success
Status,279,85852359430,g3t1_4,,running
Status,280,85858943908,g3t1_4,,success
Status,286,86851188127,g3t1_4,,running
Status,287,86854247850,g3t1_4,,success
Status,293,87852374607,g3t1_4,,running
Status,294,87858235711,g3t1_4,,success
Status,300,88851660311,g3t1_4,,running
Status,301,88854409512,g3t1_4,,success
Status,307,89852855482,g3t1_4,,running
Status,308,89858332231,g3t1_4,,success
Status,314,90852882858,g3t1_4,,running
Status,315,90859283746,g3t1_4,,success
Status,321,91852043528,g3t1_4,,running
Status,322,91861277793,g3t1_4,,success
Status,328,92851537803,g3t1_4,,running
Status,329,92854376051,g3t1_4,,success
Status,335,93853339133,g3t1_4,,running
Status,336,93858877059,g3t1_4,,success
Status,342,94852961888,g3t1_4,,running
Status,343,94858612206,g3t1_4,,success
Status,349,95851993043,g3t1_4,,running
Status,350,95855041227,g3t1_4,,success
Status,356,96852348216,g3t1_4,,running
Status,357,96859157570,g3t1_4,,success
Status,363,97852322445,g3t1_4,,running
Status,364,97858811602,g3t1_4,,success
Status,370,98853161685,g3t1_4,,running
Status,371,98859065107,g3t1_4,,success
Status,377,99852413996,g3t1_4,,running
Status,378,99856375714,g3t1_4,,success
Status,384,100854163545,g3t1_4,,running
Status,385,100860264125,g3t1_4,,success
Status,391,101852850506,g3t1_4,,running
Status,392,101862538490,g3t1_4,,success
Status,398,102853310934,g3t1_4,,running
Status,399,102859975863,g3t1_4,,success
Status,405,103853004187,g3t1_4,,running
Status,406,103859989215,g3t1_4,,success
Status,412,104853025713,g3t1_4,,running
Status,413,104860100404,g3t1_4,,success
Status,419,105853175444,g3t1_4,,running
Status,420,105860081560,g3t1_4,,success
Status,426,106853201291,g3t1_4,,running
Status,427,106862787121,g3t1_4,,success
Status,433,107853956398,g3t1_4,,running
Status,434,107862795693,g3t1_4,,success
Status,440,108853345006,g3t1_4,,running
Status,441,108860267269,g3t1_4,,success
Status,447,109853345743,g3t1_4,,running
Status,448,109858681348,g3t1_4,,success
Status,454,110853659926,g3t1_4,,running
Status,455,110856021678,g3t1_4,,success
Status,461,111853587908,g3t1_4,,running
Status,462,111860410299,g3t1_4,,success
Status,468,112854125154,g3t1_4,,running
Status,469,112861248870,g3t1_4,,success
Status,475,113854157970,g3t1_4,,running
Status,476,113860515913,g3t1_4,,success
