
Status,2,20746025941,/g4t1,,init
Status,3,25655586197,/g3t1_1,,init
Status,5,25663175954,/g3t1_1,,init
Status,6,25663198140,/g3t1_1,,running
Status,7,25663696558,/g3t1_1,,success
Status,8,30663375390,/g3t1_1,,running
Status,9,30663439956,/g3t1_1,,success
Status,10,30756677465,/g4t1,,success
Status,11,35664328250,/g3t1_1,,running
Status,12,35664729608,/g3t1_1,,success
Status,13,35757505396,/g4t1,,success
Status,14,36758355919,/g4t1,,success
Status,15,40663699013,/g3t1_1,,running
Status,16,40663727990,/g3t1_1,,success
Status,17,40758477365,/g4t1,,success
Status,18,41758477932,/g4t1,,success
Status,19,42759880549,/g4t1,,success
Status,20,45664536706,/g3t1_1,,running
Status,21,45665047455,/g3t1_1,,success
Status,22,45759347900,/g4t1,,success
Status,23,46760729548,/g4t1,,success
Status,24,47759589167,/g4t1,,success
Status,25,48760890758,/g4t1,,success
Status,26,50664600122,/g3t1_1,,running
Status,27,50664677939,/g3t1_1,,success
Status,28,50760424826,/g4t1,,success
Status,29,51761492286,/g4t1,,success
Status,30,52761547288,/g4t1,,success
Status,31,53760869021,/g4t1,,success
Status,32,54761877897,/g4t1,,success
Status,36,55664822222,/g3t1_1,,running
Status,37,55665288085,/g3t1_1,,success
Status,38,55762262256,/g4t1,,success
Status,44,56762280675,/g4t1,,success
Status,50,57761646451,/g4t1,,success
Status,56,58762816275,/g4t1,,success
Status,62,59763185411,/g4t1,,success
Status,68,60664751159,/g3t1_1,,running
Status,69,60665519869,/g3t1_1,,success
Status,70,60763191712,/g4t1,,success
Status,76,61762431312,/g4t1,,success
Status,82,62763287485,/g4t1,,success
Status,88,63762828892,/g4t1,,success
Status,94,64763646454,/g4t1,,success
Status,100,65665127611,/g3t1_1,,running
Status,101,65665830768,/g3t1_1,,fail
Status,103,65764064794,/g4t1,,success
Status,109,66764273290,/g4t1,,success
Status,130,70665271384,/g3t1_1,,running
Status,131,70665751559,/g3t1_1,,success
Status,132,70764892615,/g4t1,,success
Status,138,71764966874,/g4t1,,success
Status,144,72765172742,/g4t1,,success
Status,150,73765473118,/g4t1,,success
Status,156,74765468805,/g4t1,,success
Status,162,75665348589,/g3t1_1,,running
Status,163,75665795375,/g3t1_1,,success
Status,164,75765756865,/g4t1,,success
Status,170,76765888859,/g4t1,,success
Status,176,77765798123,/g4t1,,success
Status,182,78766217597,/g4t1,,success
Status,188,79766555568,/g4t1,,success
Status,194,80665456934,/g3t1_1,,running
Status,195,80665907453,/g3t1_1,,success
Status,196,80766461007,/g4t1,,success
Status,202,81766827431,/g4t1,,success
Status,208,82767134758,/g4t1,,success
Status,214,83767259008,/g4t1,,success
Status,220,84767560930,/g4t1,,success
Status,226,85665676573,/g3t1_1,,running
Status,227,85666335332,/g3t1_1,,success
Status,228,85767413036,/g4t1,,success
Status,234,86767968157,/g4t1,,success
Status,240,87768150192,/g4t1,,success
Status,246,88768522285,/g4t1,,success
Status,252,89768696489,/g4t1,,success
Status,258,90666042827,/g3t1_1,,running
Status,259,90666952922,/g3t1_1,,success
Status,260,90768862649,/g4t1,,success
Status,266,91769061183,/g4t1,,success
Status,272,92769111138,/g4t1,,success
Status,278,93769449681,/g4t1,,success
Status,284,94769940143,/g4t1,,success
Status,290,95666132029,/g3t1_1,,running
Status,291,95666646171,/g3t1_1,,success
Status,293,95769901736,/g4t1,,success
Status,300,96770047811,/g4t1,,success
Status,306,97770255469,/g4t1,,success
Status,312,98770553310,/g4t1,,success
Status,318,99770782794,/g4t1,,success
Status,324,100666446413,/g3t1_1,,running
Status,325,100667066702,/g3t1_1,,fail
Status,327,100770724273,/g4t1,,success
Status,333,101771237435,/g4t1,,success
Status,339,102771556626,/g4t1,,success
Status,345,103771584537,/g4t1,,success
Status,351,104771973715,/g4t1,,success
Status,357,105666437015,/g3t1_1,,running
Status,358,105666935373,/g3t1_1,,success
Status,359,105772212993,/g4t1,,success
Status,365,106772345283,/g4t1,,success
Status,371,107772663320,/g4t1,,success
Status,377,108772863216,/g4t1,,success
Status,383,109773060060,/g4t1,,success
Status,388,110666906161,/g3t1_1,,running
Status,389,110667515301,/g3t1_1,,success
Status,391,110773297302,/g4t1,,success
Status,397,111773207225,/g4t1,,success
Status,403,112773617276,/g4t1,,success
Status,409,113773796610,/g4t1,,success
Status,415,114773807272,/g4t1,,success
Status,420,115667236067,/g3t1_1,,running
Status,421,115667658093,/g3t1_1,,success
Status,423,115774028447,/g4t1,,success
Status,429,116774287970,/g4t1,,success
Status,435,117774295697,/g4t1,,success
Status,441,118774770218,/g4t1,,success
Status,447,119775004511,/g4t1,,success
Status,452,120667835491,/g3t1_1,,running
Status,453,120668256615,/g3t1_1,,success
Status,455,120775223591,/g4t1,,success
Status,461,121775565838,/g4t1,,success
Status,467,122775790801,/g4t1,,success
Status,473,123775903115,/g4t1,,success
Status,479,124776102346,/g4t1,,success
Status,484,125667706432,/g3t1_1,,running
Status,485,125668339659,/g3t1_1,,success
Status,487,125776564586,/g4t1,,success
Status,493,126776744191,/g4t1,,success
Status,499,127776833076,/g4t1,,success
Status,505,128777228291,/g4t1,,success
Status,511,129776901721,/g4t1,,success
Status,516,130667981386,/g3t1_1,,running
Status,517,130668374373,/g3t1_1,,fail
Status,520,130777497457,/g4t1,,success
Status,526,131777646572,/g4t1,,success
Status,532,132777335414,/g4t1,,success
Status,538,133777256212,/g4t1,,success
Status,544,134778095435,/g4t1,,success
Status,549,135668215703,/g3t1_1,,running
Status,550,135668707151,/g3t1_1,,success
Status,552,135778241029,/g4t1,,success
Status,558,136778684984,/g4t1,,success
Status,564,137778850471,/g4t1,,success
Status,570,138779247227,/g4t1,,success
Status,576,139779018785,/g4t1,,success
Status,581,140668572733,/g3t1_1,,running
Status,582,140669218270,/g3t1_1,,success
Status,584,140779195749,/g4t1,,success
Status,590,141779747960,/g4t1,,success
Status,596,142779837354,/g4t1,,success
Status,602,143780211917,/g4t1,,success
Status,608,144780200490,/g4t1,,success
Status,613,145668602554,/g3t1_1,,running
Status,614,145669650248,/g3t1_1,,success
Status,616,145780486980,/g4t1,,success
Status,622,146780489124,/g4t1,,success
Status,628,147780560301,/g4t1,,success
Status,634,148780981038,/g4t1,,success
Status,640,149780797523,/g4t1,,success
Status,645,150668958594,/g3t1_1,,running
Status,646,150669560955,/g3t1_1,,success
Status,648,150780787273,/g4t1,,success
Status,654,151780879375,/g4t1,,success
Status,660,152781424248,/g4t1,,success
Status,666,153781183397,/g4t1,,success
Status,672,154781771425,/g4t1,,success
Status,677,155669199686,/g3t1_1,,running
Status,678,155670217656,/g3t1_1,,success
Status,680,155782006410,/g4t1,,success
Status,686,156781895527,/g4t1,,success
Status,692,157782415828,/g4t1,,success
Status,698,158782576986,/g4t1,,success
Status,704,159782414921,/g4t1,,success
Status,709,160669351695,/g3t1_1,,running
Status,710,160669991067,/g3t1_1,,success
Status,713,160783019604,/g4t1,,success
Status,720,161782868777,/g4t1,,success
Status,727,162783457265,/g4t1,,success
Status,734,163783556168,/g4t1,,success
Status,740,164783581420,/g4t1,,success
Status,745,165669602408,/g3t1_1,,running
Status,746,165669697880,/g3t1_1,,fail
Status,749,165783912861,/g4t1,,success
Status,755,166783790236,/g4t1,,success
Status,761,167783993946,/g4t1,,success
Status,767,168784219924,/g4t1,,success
Status,773,169784486198,/g4t1,,success
Status,778,170669747493,/g3t1_1,,running
Status,779,170670076580,/g3t1_1,,fail
Status,781,170784481231,/g4t1,,success
Status,787,171784293710,/g4t1,,success
Status,793,172784758641,/g4t1,,success
Status,799,173784953687,/g4t1,,success
Status,805,174785132671,/g4t1,,success
Status,810,175670034477,/g3t1_1,,running
Status,811,175670123732,/g3t1_1,,fail
Status,813,175785227092,/g4t1,,success
Status,819,176785378973,/g4t1,,success
Status,825,177785538282,/g4t1,,success
Status,831,178785636334,/g4t1,,success
Status,837,179785684504,/g4t1,,success
Status,842,180670464223,/g3t1_1,,running
Status,843,180670552753,/g3t1_1,,fail
Status,845,180786001260,/g4t1,,success
Status,851,181786044291,/g4t1,,success
Status,857,182786039364,/g4t1,,success
Status,863,183786591776,/g4t1,,success
Status,873,185671206811,/g3t1_1,,running
Status,874,185671331400,/g3t1_1,,fail
Status,900,190671069128,/g3t1_1,,running
Status,901,190671266112,/g3t1_1,,fail
Status,927,195671355376,/g3t1_1,,running
Status,928,195671436950,/g3t1_1,,fail
Status,955,200671304633,/g3t1_1,,running
Status,956,200671786319,/g3t1_1,,success
Status,958,200788566036,/g4t1,,success
Status,964,201788451498,/g4t1,,success
Status,970,202788461027,/g4t1,,success
Status,976,203788719693,/g4t1,,success
Status,982,204788780836,/g4t1,,success
Status,987,205671481500,/g3t1_1,,running
Status,988,205672294880,/g3t1_1,,success
Status,990,205789081758,/g4t1,,success
Status,996,206789075228,/g4t1,,success
Status,1002,207789076411,/g4t1,,success
Status,1008,208789422356,/g4t1,,success
Status,1014,209789475475,/g4t1,,success
Status,1019,210671745479,/g3t1_1,,running
Status,1020,210672348868,/g3t1_1,,success
Status,1022,210789706898,/g4t1,,success
Status,1028,211789699492,/g4t1,,success
Status,1034,212789695911,/g4t1,,success
Status,1040,213789816144,/g4t1,,success
Status,1046,214790033876,/g4t1,,success
Status,1051,215671431744,/g3t1_1,,running
Status,1052,215671849695,/g3t1_1,,success
Status,1054,215790278152,/g4t1,,success
Status,1060,216790286523,/g4t1,,success
Status,1066,217790625394,/g4t1,,success
Status,1072,218790418400,/g4t1,,success
Status,1078,219790490796,/g4t1,,success
Status,1083,220671916722,/g3t1_1,,running
Status,1084,220672522722,/g3t1_1,,success
Status,1086,220790838254,/g4t1,,success
Status,1092,221790977497,/g4t1,,success
Status,1098,222791346296,/g4t1,,success
Status,1103,223791338970,/g4t1,,success
Status,1109,224791376061,/g4t1,,success
Status,1115,225672177486,/g3t1_1,,running
Status,1116,225672758145,/g3t1_1,,success
Status,1118,225791393803,/g4t1,,success
Status,1125,226791779105,/g4t1,,success
Status,1132,227791922258,/g4t1,,success
Status,1139,228791923688,/g4t1,,success
Status,1145,229792253017,/g4t1,,success
Status,1151,230672202658,/g3t1_1,,running
Status,1152,230672277271,/g3t1_1,,fail
Status,1154,230792427118,/g4t1,,success
Status,1160,231792706927,/g4t1,,success
Status,1166,232792732038,/g4t1,,success
Status,1172,233792818459,/g4t1,,success
Status,1178,234792835970,/g4t1,,success
Status,1184,235671697593,/g3t1_1,,running
Status,1185,235672023776,/g3t1_1,,fail
Status,1186,235793476839,/g4t1,,success
Status,1192,236793303781,/g4t1,,success
Status,1198,237793514491,/g4t1,,success
Status,1204,238793706565,/g4t1,,success
Status,1210,239794090922,/g4t1,,success
Status,1216,240672370535,/g3t1_1,,running
Status,1217,240672440750,/g3t1_1,,fail
Status,1218,240794332728,/g4t1,,success
Status,1224,241794400912,/g4t1,,success
Status,1230,242794467947,/g4t1,,success
Status,1236,243794559825,/g4t1,,success
Status,1242,244794914907,/g4t1,,success
Status,1248,245672421029,/g3t1_1,,running
Status,1249,245672917063,/g3t1_1,,fail
Status,1250,245795020977,/g4t1,,success
Status,1256,246795455595,/g4t1,,success
Status,1262,247795864219,/g4t1,,success
Status,1268,248796075614,/g4t1,,success
Status,1274,249796360056,/g4t1,,success
Status,1280,250672558314,/g3t1_1,,running
Status,1281,250672633392,/g3t1_1,,fail
Status,1282,250796634723,/g4t1,,success
Status,1288,251796613145,/g4t1,,success
Status,1294,252796843817,/g4t1,,success
Status,1300,253797108388,/g4t1,,success
Status,1306,254797527819,/g4t1,,success
Status,1312,255672587784,/g3t1_1,,running
Status,1313,255672842962,/g3t1_1,,fail
Status,1339,260672560503,/g3t1_1,,running
Status,1340,260672615538,/g3t1_1,,fail
Status,1367,265673144558,/g3t1_1,,running
Status,1368,265673748161,/g3t1_1,,success
Status,1369,265800278838,/g4t1,,success
Status,1375,266800441916,/g4t1,,success
Status,1381,267800488976,/g4t1,,success
Status,1387,268800735467,/g4t1,,success
Status,1393,269800907757,/g4t1,,success
Status,1399,270672959906,/g3t1_1,,running
Status,1400,270673476851,/g3t1_1,,success
Status,1401,270801221911,/g4t1,,success
Status,1407,271801308182,/g4t1,,success
Status,1413,272801529541,/g4t1,,success
Status,1419,273801733201,/g4t1,,success
Status,1425,274802158874,/g4t1,,success
Status,1431,275673075854,/g3t1_1,,running
Status,1432,275673391690,/g3t1_1,,success
Status,1433,275802419153,/g4t1,,success
Status,1439,276802631831,/g4t1,,success
Status,1445,277802613919,/g4t1,,success
Status,1451,278802985129,/g4t1,,success
Status,1457,279803033359,/g4t1,,success
Status,1463,280673337246,/g3t1_1,,running
Status,1464,280673859025,/g3t1_1,,success
Status,1465,280803640631,/g4t1,,success
Status,1471,281803590324,/g4t1,,success
Status,1477,282803984720,/g4t1,,success
Status,1483,283804232516,/g4t1,,success
Status,1489,284804496990,/g4t1,,success
Status,1495,285673705984,/g3t1_1,,running
Status,1496,285673987264,/g3t1_1,,success
Status,1497,285804526342,/g4t1,,success
Status,1503,286804912101,/g4t1,,success
Status,1509,287805011455,/g4t1,,success
Status,1515,288805075063,/g4t1,,success
Status,1521,289805440552,/g4t1,,success
Status,1527,290673826943,/g3t1_1,,running
Status,1528,290674351936,/g3t1_1,,success
Status,1530,290805515363,/g4t1,,success
Status,1537,291805538592,/g4t1,,success
Status,1544,292805846674,/g4t1,,success
Status,1551,293806103458,/g4t1,,success
Status,1557,294806336301,/g4t1,,success
Status,1563,295673959491,/g3t1_1,,running
Status,1564,295674297899,/g3t1_1,,fail
Status,1566,295806703934,/g4t1,,success
Status,1572,296806946782,/g4t1,,success
Status,1578,297807258405,/g4t1,,success
Status,1584,298807518383,/g4t1,,success
Status,1590,299807774700,/g4t1,,success
Status,1596,300674516869,/g3t1_1,,running
Status,1597,300674626019,/g3t1_1,,fail
Status,1598,300807948520,/g4t1,,success
Status,1604,301808250082,/g4t1,,success
Status,1610,302808673012,/g4t1,,success
Status,1616,303808699013,/g4t1,,success
Status,1622,304808862154,/g4t1,,success
Status,1628,305674725212,/g3t1_1,,running
Status,1629,305675248310,/g3t1_1,,fail
Status,1630,305808953702,/g4t1,,success
Status,1636,306809176796,/g4t1,,success
Status,1642,307809389898,/g4t1,,success
Status,1648,308809499721,/g4t1,,success
Status,1654,309808949464,/g4t1,,success
Status,1659,310674693664,/g3t1_1,,running
Status,1660,310674781267,/g3t1_1,,fail
Status,1662,310809842601,/g4t1,,success
Status,1668,311809043080,/g4t1,,success
Status,1674,312810187199,/g4t1,,success
Status,1680,313810348198,/g4t1,,success
Status,1686,314810577411,/g4t1,,success
Status,1691,315675179518,/g3t1_1,,running
Status,1692,315675470368,/g3t1_1,,fail
Status,1694,315810789040,/g4t1,,success
Status,1700,316811296104,/g4t1,,success
Status,1706,317811566460,/g4t1,,success
Status,1712,318811783788,/g4t1,,success
Status,1718,319812002594,/g4t1,,success
Status,1723,320675666899,/g3t1_1,,running
Status,1724,320675760434,/g3t1_1,,fail
Status,1726,320812142430,/g4t1,,success
Status,1732,321812551138,/g4t1,,success
Status,1738,322812670099,/g4t1,,success
Status,1744,323812702712,/g4t1,,success
Status,1750,324812747085,/g4t1,,success
Status,1755,325675797570,/g3t1_1,,running
Status,1756,325675890373,/g3t1_1,,fail
Status,1759,325812930810,/g4t1,,success
Status,1784,330675681355,/g3t1_1,,running
Status,1785,330676582677,/g3t1_1,,success
Status,1787,330814086446,/g4t1,,success
Status,1793,331814314570,/g4t1,,success
Status,1799,332814509755,/g4t1,,success
Status,1805,333814641489,/g4t1,,success
Status,1811,334815338060,/g4t1,,success
Status,1816,335676412006,/g3t1_1,,running
Status,1817,335676505535,/g3t1_1,,success
Status,1819,335815376829,/g4t1,,success
Status,1825,336815605544,/g4t1,,success
Status,1831,337815758384,/g4t1,,success
Status,1837,338816099002,/g4t1,,success
Status,1843,339816311330,/g4t1,,success
Status,1848,340676739003,/g3t1_1,,running
Status,1849,340676821400,/g3t1_1,,success
Status,1851,340816593142,/g4t1,,success
Status,1857,341816857891,/g4t1,,success
Status,1863,342816734816,/g4t1,,success
Status,1869,343816940697,/g4t1,,success
Status,1875,344817282603,/g4t1,,success
Status,1880,345676704276,/g3t1_1,,running
Status,1881,345677270045,/g3t1_1,,success
Status,1883,345817305771,/g4t1,,success
Status,1889,346817458306,/g4t1,,success
Status,1895,347817775882,/g4t1,,success
Status,1901,348817978901,/g4t1,,success
Status,1907,349818148219,/g4t1,,success
Status,1912,350677306749,/g3t1_1,,running
Status,1913,350677784594,/g3t1_1,,success
Status,1915,350818753507,/g4t1,,success
Status,1921,351818723720,/g4t1,,success
Status,1927,352818963580,/g4t1,,success
Status,1933,353819207258,/g4t1,,success
Status,1939,354819578709,/g4t1,,success
Status,1944,355677495151,/g3t1_1,,running
Status,1945,355677585058,/g3t1_1,,success
Status,1948,355820278649,/g4t1,,success
Status,1955,356820185405,/g4t1,,success
Status,1962,357820288628,/g4t1,,success
Status,1969,358820558242,/g4t1,,success
Status,1975,359820770193,/g4t1,,success
Status,1980,360677338106,/g3t1_1,,running
Status,1981,360677432834,/g3t1_1,,fail
Status,1984,360820809855,/g4t1,,success
Status,1990,361821055427,/g4t1,,success
Status,1996,362821234713,/g4t1,,success
Status,2002,363821434427,/g4t1,,success
Status,2008,364821225253,/g4t1,,success
Status,2013,365677563612,/g3t1_1,,running
Status,2014,365677832386,/g3t1_1,,fail
Status,2016,365821313315,/g4t1,,success
Status,2022,366822190267,/g4t1,,success
Status,2028,367822284481,/g4t1,,success
Status,2034,368822529292,/g4t1,,success
Status,2040,369822863835,/g4t1,,success
Status,2045,370677879043,/g3t1_1,,running
Status,2046,370677962095,/g3t1_1,,fail
Status,2048,370822784903,/g4t1,,success
Status,2054,371822468382,/g4t1,,success
Status,2060,372823514126,/g4t1,,success
Status,2066,373823742112,/g4t1,,success
Status,2072,374824053320,/g4t1,,success
Status,2077,375678075995,/g3t1_1,,running
Status,2078,375678165831,/g3t1_1,,fail
Status,2080,375823449802,/g4t1,,success
Status,2086,376824677094,/g4t1,,success
Status,2092,377823789470,/g4t1,,success
Status,2098,378824143820,/g4t1,,success
Status,2104,379824586256,/g4t1,,success
Status,2109,380677586004,/g3t1_1,,running
Status,2110,380677629898,/g3t1_1,,fail
Status,2112,380824053527,/g4t1,,success
Status,2118,381824769067,/g4t1,,success
Status,2124,382824913532,/g4t1,,success
Status,2130,383825167604,/g4t1,,success
Status,2136,384825118746,/g4t1,,success
Status,2141,385678347280,/g3t1_1,,running
Status,2142,385678758804,/g3t1_1,,fail
Status,2144,385824859396,/g4t1,,success
Status,2150,386825405246,/g4t1,,success
Status,2156,387824888084,/g4t1,,success
Status,2162,388824833241,/g4t1,,success
Status,2168,389826045040,/g4t1,,success
Status,2173,390678698896,/g3t1_1,,running
Status,2174,390678768978,/g3t1_1,,fail
Status,2177,390826307649,/g4t1,,success
Status,2183,391826421653,/g4t1,,success
Status,2189,392826781482,/g4t1,,success
Status,2195,393826997201,/g4t1,,success
Status,2201,394827295185,/g4t1,,success
Status,2206,395679150737,/g3t1_1,,running
Status,2207,395679728237,/g3t1_1,,success
Status,2209,395827634521,/g4t1,,success
Status,2215,396827848375,/g4t1,,success
Status,2221,397828010595,/g4t1,,success
Status,2227,398828333370,/g4t1,,success
Status,2233,399828501635,/g4t1,,success
Status,2238,400678954171,/g3t1_1,,running
Status,2239,400679455582,/g3t1_1,,success
Status,2241,400828711624,/g4t1,,success
Status,2247,401828891161,/g4t1,,success
Status,2253,402829107657,/g4t1,,success
Status,2259,403829280652,/g4t1,,success
Status,2265,404829558516,/g4t1,,success
Status,2270,405679274940,/g3t1_1,,running
Status,2271,405679884432,/g3t1_1,,success
Status,2273,405829861126,/g4t1,,success
Status,2279,406829927527,/g4t1,,success
Status,2285,407830149823,/g4t1,,success
Status,2291,408830505533,/g4t1,,success
Status,2297,409830745752,/g4t1,,success
Status,2302,410679778307,/g3t1_1,,running
Status,2303,410680351992,/g3t1_1,,success
Status,2305,410831165307,/g4t1,,success
Status,2311,411831249412,/g4t1,,success
Status,2317,412831691805,/g4t1,,success
Status,2323,413831954162,/g4t1,,success
Status,2329,414832010009,/g4t1,,success
Status,2334,415679904548,/g3t1_1,,running
Status,2335,415681351161,/g3t1_1,,success
Status,2337,415832314191,/g4t1,,success
Status,2343,416832534954,/g4t1,,success
Status,2349,417832791405,/g4t1,,success
Status,2355,418833003750,/g4t1,,success
Status,2361,419833377653,/g4t1,,success
Status,2366,420680156435,/g3t1_1,,running
Status,2367,420680515175,/g3t1_1,,success
Status,2370,420833521968,/g4t1,,success
Status,2377,421833782708,/g4t1,,success
Status,2384,422834010803,/g4t1,,success
Status,2391,423833996431,/g4t1,,success
Status,2397,424834320639,/g4t1,,success
Status,2402,425680700039,/g3t1_1,,running
Status,2403,425680781394,/g3t1_1,,fail
Status,2406,425834590279,/g4t1,,success
Status,2412,426834915836,/g4t1,,success
Status,2418,427835221681,/g4t1,,success
Status,2424,428835505921,/g4t1,,success
Status,2430,429835679546,/g4t1,,success
Status,2435,430680398231,/g3t1_1,,running
Status,2436,430680449945,/g3t1_1,,fail
Status,2438,430835942663,/g4t1,,success
Status,2444,431835677358,/g4t1,,success
Status,2450,432836580688,/g4t1,,success
Status,2456,433836598301,/g4t1,,success
Status,2462,434836681257,/g4t1,,success
Status,2467,435680573892,/g3t1_1,,running
Status,2468,435680638093,/g3t1_1,,fail
Status,2470,435836767832,/g4t1,,success
Status,2476,436836979038,/g4t1,,success
Status,2482,437837293427,/g4t1,,success
Status,2488,438837489257,/g4t1,,success
Status,2494,439837924626,/g4t1,,success
Status,2499,440680945223,/g3t1_1,,running
Status,2500,440681209914,/g3t1_1,,fail
Status,2502,440838141209,/g4t1,,success
Status,2508,441838223530,/g4t1,,success
Status,2514,442838391563,/g4t1,,success
Status,2520,443838615607,/g4t1,,success
Status,2526,444838901001,/g4t1,,success
Status,2531,445680904998,/g3t1_1,,running
Status,2532,445681218033,/g3t1_1,,fail
Status,2534,445839462013,/g4t1,,success
Status,2540,446839744595,/g4t1,,success
Status,2546,447840007634,/g4t1,,success
Status,2552,448840321296,/g4t1,,success
Status,2558,449840242502,/g4t1,,success
Status,2563,450681192352,/g3t1_1,,running
Status,2564,450681650493,/g3t1_1,,fail
Status,2566,450840449878,/g4t1,,success
Status,2571,451840511974,/g4t1,,success
Status,2577,452840653019,/g4t1,,success
Status,2583,453840754300,/g4t1,,success
Status,2589,454841123079,/g4t1,,success
Status,2595,455681158435,/g3t1_1,,running
Status,2596,455681206087,/g3t1_1,,fail
Status,2598,455841283234,/g4t1,,success
Status,2604,456840937181,/g4t1,,success
Status,2610,457841922632,/g4t1,,success
Status,2616,458842014677,/g4t1,,success
Status,2622,459842319929,/g4t1,,success
Status,2628,460681801735,/g3t1_1,,running
Status,2629,460682335133,/g3t1_1,,success
Status,2630,460842579249,/g4t1,,success
Status,2636,461842719056,/g4t1,,success
Status,2642,462842962296,/g4t1,,success
Status,2648,463843465529,/g4t1,,success
Status,2654,464843752988,/g4t1,,success
Status,2660,465682142414,/g3t1_1,,running
Status,2661,465682383876,/g3t1_1,,success
Status,2662,465844195463,/g4t1,,success
Status,2668,466844299960,/g4t1,,success
Status,2674,467844410177,/g4t1,,success
Status,2680,468844541230,/g4t1,,success
Status,2686,469844548326,/g4t1,,success
Status,2692,470682328440,/g3t1_1,,running
Status,2693,470682756355,/g3t1_1,,success
Status,2694,470844825865,/g4t1,,success
Status,2700,471845341403,/g4t1,,success
Status,2706,472845429382,/g4t1,,success
Status,2712,473845582352,/g4t1,,success
Status,2718,474845954065,/g4t1,,success
Status,2724,475682449504,/g3t1_1,,running
Status,2725,475682902967,/g3t1_1,,success
Status,2726,475846281128,/g4t1,,success
Status,2732,476846488665,/g4t1,,success
Status,2738,477847060990,/g4t1,,success
Status,2744,478847278392,/g4t1,,success
Status,2750,479847694552,/g4t1,,success
Status,2756,480682861469,/g3t1_1,,running
Status,2757,480683358705,/g3t1_1,,success
Status,2758,480847901687,/g4t1,,success
Status,2764,481848235602,/g4t1,,success
Status,2770,482848491792,/g4t1,,success
Status,2776,483848529645,/g4t1,,success
Status,2782,484848642144,/g4t1,,success
Status,2788,485683317205,/g3t1_1,,running
Status,2789,485683552166,/g3t1_1,,success
Status,2791,485849126210,/g4t1,,success
Status,2798,486849280605,/g4t1,,success
Status,2805,487849563202,/g4t1,,success
Status,2812,488849863372,/g4t1,,success
Status,2818,489850174443,/g4t1,,success
Status,2823,490683430161,/g3t1_1,,running
Status,2824,490683493983,/g3t1_1,,fail
Status,2827,490850116130,/g4t1,,success
Status,2833,491850051127,/g4t1,,success
Status,2839,492851037112,/g4t1,,success
Status,2845,493850987560,/g4t1,,success
Status,2851,494851257594,/g4t1,,success
Status,2856,495683530160,/g3t1_1,,running
Status,2857,495683593896,/g3t1_1,,fail
Status,2859,495851893971,/g4t1,,success
Status,2865,496852000975,/g4t1,,success
Status,2871,497852323249,/g4t1,,success
Status,2877,498852664555,/g4t1,,success
Status,2883,499852732400,/g4t1,,success
Status,2888,500683939957,/g3t1_1,,running
Status,2889,500684006317,/g3t1_1,,fail
Status,2891,500853186406,/g4t1,,success
Status,2897,501853061117,/g4t1,,success
Status,2903,502853260825,/g4t1,,success
Status,2909,503853719092,/g4t1,,success
Status,2915,504853988410,/g4t1,,success
Status,2920,505684046359,/g3t1_1,,running
Status,2921,505684334952,/g3t1_1,,fail
Status,2923,505854334574,/g4t1,,success
Status,2929,506854679443,/g4t1,,success
Status,2935,507854867956,/g4t1,,success
Status,2941,508855245462,/g4t1,,success
Status,2947,509855782079,/g4t1,,success
Status,2952,510684222625,/g3t1_1,,running
Status,2953,510684597629,/g3t1_1,,fail
Status,2955,510855926007,/g4t1,,success
Status,2961,511856252983,/g4t1,,success
Status,2967,512856422430,/g4t1,,success
Status,2973,513856592810,/g4t1,,success
Status,2979,514856727905,/g4t1,,success
Status,2984,515685256629,/g3t1_1,,running
Status,2985,515685320307,/g3t1_1,,fail
Status,2987,515857099692,/g4t1,,success
Status,2993,516857134479,/g4t1,,success
Status,2999,517857205851,/g4t1,,success
Status,3005,518857836918,/g4t1,,success
Status,3011,519858063320,/g4t1,,success
Status,3016,520684536003,/g3t1_1,,running
Status,3017,520684595482,/g3t1_1,,fail
Status,3020,520858295828,/g4t1,,success
Status,3026,521858583896,/g4t1,,success
Status,3032,522858930647,/g4t1,,success
Status,3038,523859632095,/g4t1,,success
Status,3044,524859796805,/g4t1,,success
Status,3049,525684349829,/g3t1_1,,running
Status,3050,525684757500,/g3t1_1,,success
Status,3052,525859901768,/g4t1,,success
Status,3058,526860056149,/g4t1,,success
Status,3064,527860417032,/g4t1,,success
Status,3070,528860714773,/g4t1,,success
Status,3076,529860906349,/g4t1,,success
Status,3081,530685138569,/g3t1_1,,running
Status,3082,530685490667,/g3t1_1,,success
Status,3084,530861104375,/g4t1,,success
Status,3090,531861520636,/g4t1,,success
Status,3096,532861716738,/g4t1,,success
Status,3102,533862143406,/g4t1,,success
Status,3108,534862430079,/g4t1,,success
Status,3113,535684890120,/g3t1_1,,running
Status,3114,535685067154,/g3t1_1,,success
Status,3116,535862738102,/g4t1,,success
Status,3122,536862881412,/g4t1,,success
Status,3128,537863385337,/g4t1,,success
Status,3134,538863671519,/g4t1,,success
Status,3140,539863890352,/g4t1,,success
Status,3145,540685025711,/g3t1_1,,running
Status,3146,540685527210,/g3t1_1,,success
Status,3148,540864235092,/g4t1,,success
Status,3154,541864306303,/g4t1,,success
Status,3160,542864623106,/g4t1,,success
Status,3166,543864697300,/g4t1,,success
Status,3172,544864677335,/g4t1,,success
Status,3177,545685676659,/g3t1_1,,running
Status,3178,545686119681,/g3t1_1,,success
Status,3180,545865003693,/g4t1,,success
Status,3186,546865151371,/g4t1,,success
Status,3192,547865211248,/g4t1,,success
Status,3198,548865540163,/g4t1,,success
Status,3204,549865825623,/g4t1,,success
Status,3209,550685329288,/g3t1_1,,running
Status,3210,550685619692,/g3t1_1,,success
Status,3213,550866223111,/g4t1,,success
Status,3220,551866136877,/g4t1,,success
Status,3227,552866805825,/g4t1,,success
Status,3234,553867018803,/g4t1,,success
Status,3240,554867495968,/g4t1,,success
Status,3245,555686223024,/g3t1_1,,running
Status,3246,555686287135,/g3t1_1,,fail
Status,3249,555867844540,/g4t1,,success
Status,3255,556868183810,/g4t1,,success
Status,3261,557868375418,/g4t1,,success
Status,3267,558868458488,/g4t1,,success
Status,3273,559868886560,/g4t1,,success
Status,3278,560686591735,/g3t1_1,,running
Status,3279,560686679977,/g3t1_1,,fail
Status,3281,560868958295,/g4t1,,success
Status,3287,561869089880,/g4t1,,success
Status,3293,562869287111,/g4t1,,success
Status,3299,563869623545,/g4t1,,success
Status,3305,564869883033,/g4t1,,success
Status,3310,565686809026,/g3t1_1,,running
Status,3311,565686878910,/g3t1_1,,fail
Status,3313,565870243673,/g4t1,,success
Status,3319,566870533127,/g4t1,,success
Status,3325,567871163243,/g4t1,,success
Status,3331,568871032200,/g4t1,,success
Status,3337,569871586248,/g4t1,,success
Status,3342,570686691596,/g3t1_1,,running
Status,3343,570686863476,/g3t1_1,,fail
Status,3345,570871752741,/g4t1,,success
Status,3351,571871799602,/g4t1,,success
Status,3357,572872204556,/g4t1,,success
Status,3363,573872536455,/g4t1,,success
Status,3369,574872627848,/g4t1,,success
Status,3374,575687116601,/g3t1_1,,running
Status,3375,575687181133,/g3t1_1,,fail
Status,3377,575872700582,/g4t1,,success
Status,3383,576872753239,/g4t1,,success
Status,3389,577873070415,/g4t1,,success
Status,3395,578873133065,/g4t1,,success
Status,3401,579873325366,/g4t1,,success
Status,3406,580687306105,/g3t1_1,,running
Status,3407,580687368466,/g3t1_1,,fail
Status,3409,580873735789,/g4t1,,success
Status,3415,581873983851,/g4t1,,success
Status,3421,582874201316,/g4t1,,success
Status,3427,583874194665,/g4t1,,success
Status,3433,584874739026,/g4t1,,success
Status,3438,585687315274,/g3t1_1,,running
Status,3439,585687697438,/g3t1_1,,fail
Status,3442,585875015275,/g4t1,,success
Status,3448,586875320593,/g4t1,,success
Status,3454,587875639445,/g4t1,,success
Status,3460,588876054643,/g4t1,,success
Status,3466,589876097961,/g4t1,,success
Status,3471,590687616572,/g3t1_1,,running
Status,3472,590687926968,/g3t1_1,,success
Status,3474,590876522450,/g4t1,,success
Status,3480,591876759774,/g4t1,,success
Status,3486,592877060167,/g4t1,,success
Status,3492,593877255186,/g4t1,,success
Status,3498,594877358538,/g4t1,,success
Status,3503,595687531958,/g3t1_1,,running
Status,3504,595687927914,/g3t1_1,,success
Status,3506,595878039603,/g4t1,,success
Status,3512,596877976267,/g4t1,,success
Status,3518,597878286485,/g4t1,,success
Status,3524,598878612385,/g4t1,,success
Status,3530,599878903509,/g4t1,,success
Status,3535,600688076915,/g3t1_1,,running
Status,3536,600688360731,/g3t1_1,,success
Status,3538,600879298165,/g4t1,,success
Status,3544,601879659524,/g4t1,,success
Status,3550,602880024028,/g4t1,,success
Status,3556,603880247146,/g4t1,,success
Status,3562,604880499259,/g4t1,,success
Status,3567,605688180625,/g3t1_1,,running
Status,3568,605688659929,/g3t1_1,,success
Status,3570,605880671578,/g4t1,,success
Status,3576,606880960413,/g4t1,,success
Status,3582,607881228507,/g4t1,,success
Status,3588,608881416062,/g4t1,,success
Status,3594,609881636324,/g4t1,,success
Status,3599,610688906384,/g3t1_1,,running
Status,3600,610688977742,/g3t1_1,,success
Status,3602,610881835073,/g4t1,,success
Status,3608,611882177187,/g4t1,,success
Status,3614,612882407817,/g4t1,,success
Status,3620,613882735890,/g4t1,,success
Status,3626,614883178511,/g4t1,,success
Status,3631,615688674457,/g3t1_1,,running
Status,3632,615688736620,/g3t1_1,,success
Status,3635,615883158120,/g4t1,,success
Status,3642,616883478856,/g4t1,,success
Status,3649,617883645435,/g4t1,,success
Status,3656,618884116302,/g4t1,,success
Status,3662,619884422691,/g4t1,,success
Status,3667,620688335633,/g3t1_1,,running
Status,3668,620688364067,/g3t1_1,,fail
Status,3671,620884576095,/g4t1,,success
Status,3677,621884754847,/g4t1,,success
Status,3683,622884967365,/g4t1,,success
Status,3689,623885076419,/g4t1,,success
Status,3695,624885245180,/g4t1,,success
Status,3700,625688361566,/g3t1_1,,running
Status,3701,625688386339,/g3t1_1,,fail
Status,3703,625885348164,/g4t1,,success
Status,3709,626885713679,/g4t1,,success
Status,3715,627886041770,/g4t1,,success
Status,3721,628885968067,/g4t1,,success
Status,3727,629886391714,/g4t1,,success
Status,3732,630688532969,/g3t1_1,,running
Status,3733,630688560164,/g3t1_1,,fail
Status,3735,630886571200,/g4t1,,success
Status,3741,631886851942,/g4t1,,success
Status,3747,632887240019,/g4t1,,success
Status,3753,633887566014,/g4t1,,success
Status,3759,634887736167,/g4t1,,success
Status,3764,635689000308,/g3t1_1,,running
Status,3765,635689330560,/g3t1_1,,fail
Status,3767,635888127799,/g4t1,,success
Status,3773,636888493476,/g4t1,,success
Status,3779,637888427074,/g4t1,,success
Status,3785,638888490629,/g4t1,,success
Status,3791,639889097139,/g4t1,,success
Status,3795,640688856961,/g3t1_1,,running
Status,3796,640688893129,/g3t1_1,,fail
Status,3798,640889255598,/g4t1,,success
Status,3804,641889636727,/g4t1,,success
Status,3810,642889935356,/g4t1,,success
Status,3816,643890280918,/g4t1,,success
Status,3822,644890725080,/g4t1,,success
Status,3827,645689510802,/g3t1_1,,running
Status,3828,645689573956,/g3t1_1,,fail
Status,3830,645890918382,/g4t1,,success
Status,3836,646891337338,/g4t1,,success
Status,3842,647891683558,/g4t1,,success
Status,3848,648891841725,/g4t1,,success
Status,3854,649892129125,/g4t1,,success
Status,3859,650689082525,/g3t1_1,,running
Status,3860,650689112786,/g3t1_1,,fail
Status,3863,650892329495,/g4t1,,success
Status,3869,651892554823,/g4t1,,success
Status,3875,652892862997,/g4t1,,success
Status,3881,653893189910,/g4t1,,success
Status,3887,654893502158,/g4t1,,success
Status,3892,655689073260,/g3t1_1,,running
Status,3893,655689202685,/g3t1_1,,success
Status,3895,655893783244,/g4t1,,success
Status,3901,656893876844,/g4t1,,success
Status,3907,657894191104,/g4t1,,success
Status,3913,658894518397,/g4t1,,success
Status,3919,659894862845,/g4t1,,success
Status,3924,660689309717,/g3t1_1,,running
Status,3925,660689421953,/g3t1_1,,success
Status,3927,660895297305,/g4t1,,success
Status,3933,661895543298,/g4t1,,success
Status,3939,662895862615,/g4t1,,success
Status,3945,663896315412,/g4t1,,success
Status,3951,664896472087,/g4t1,,success
Status,3956,665690274768,/g3t1_1,,running
Status,3957,665690378232,/g3t1_1,,success
Status,3959,665896859970,/g4t1,,success
Status,3965,666897034458,/g4t1,,success
Status,3971,667897292666,/g4t1,,success
Status,3977,668897717749,/g4t1,,success
Status,3983,669898107206,/g4t1,,success
Status,3988,670690389008,/g3t1_1,,running
Status,3989,670690855282,/g3t1_1,,success
Status,3991,670898438221,/g4t1,,success
Status,3997,671898613477,/g4t1,,success
Status,4003,672898582055,/g4t1,,success
Status,4009,673899311560,/g4t1,,success
Status,4015,674899565495,/g4t1,,success
Status,4020,675690154951,/g3t1_1,,running
Status,4021,675690927925,/g3t1_1,,success
Status,4023,675899721409,/g4t1,,success
Status,4029,676900005248,/g4t1,,success
Status,4035,677900375032,/g4t1,,success
Status,4041,678900431701,/g4t1,,success
Status,4047,679900667025,/g4t1,,success
Status,4052,680690719750,/g3t1_1,,running
Status,4053,680691611977,/g3t1_1,,success
Status,4056,680900822038,/g4t1,,success
Status,4063,681901041346,/g4t1,,success
Status,4070,682901342630,/g4t1,,success
Status,4077,683901454263,/g4t1,,success
Status,4083,684901701253,/g4t1,,success
Status,4088,685690808131,/g3t1_1,,running
Status,4089,685690876705,/g3t1_1,,fail
Status,4092,685902005551,/g4t1,,success
Status,4098,686902265060,/g4t1,,success
Status,4104,687902567525,/g4t1,,success
Status,4110,688902853209,/g4t1,,success
Status,4116,689903291278,/g4t1,,success
Status,4121,690690881517,/g3t1_1,,running
Status,4122,690691405826,/g3t1_1,,fail
Status,4124,690903524577,/g4t1,,success
Status,4130,691903790648,/g4t1,,success
Status,4136,692904202945,/g4t1,,success
Status,4142,693904483876,/g4t1,,success
Status,4148,694904802019,/g4t1,,success
Status,4153,695691291026,/g3t1_1,,running
Status,4154,695691435391,/g3t1_1,,fail
Status,4156,695905198547,/g4t1,,success
Status,4162,696905519670,/g4t1,,success
Status,4168,697905868721,/g4t1,,success
Status,4174,698906193748,/g4t1,,success
Status,4180,699906453431,/g4t1,,success
Status,4185,700691483337,/g3t1_1,,running
Status,4186,700691548681,/g3t1_1,,fail
Status,4188,700906843689,/g4t1,,success
Status,4194,701906832292,/g4t1,,success
Status,4200,702907488746,/g4t1,,success
Status,4206,703907815528,/g4t1,,success
Status,4212,704908095701,/g4t1,,success
Status,4217,705691643444,/g3t1_1,,running
Status,4218,705691719374,/g3t1_1,,fail
Status,4220,705908464967,/g4t1,,success
Status,4226,706908607059,/g4t1,,success
Status,4232,707909110510,/g4t1,,success
Status,4238,708909463616,/g4t1,,success
Status,4244,709909709307,/g4t1,,success
Status,4249,710691786432,/g3t1_1,,running
Status,4250,710692138142,/g3t1_1,,fail
Status,4252,710910018120,/g4t1,,success
Status,4258,711910757778,/g4t1,,success
Status,4264,712910955578,/g4t1,,success
Status,4270,713911204347,/g4t1,,success
Status,4276,714911537285,/g4t1,,success
Status,4281,715692064072,/g3t1_1,,running
Status,4282,715692135307,/g3t1_1,,fail
Status,4285,715911910466,/g4t1,,success
Status,4291,716912296493,/g4t1,,success
Status,4297,717912353971,/g4t1,,success
Status,4303,718912764480,/g4t1,,success
Status,4309,719912616739,/g4t1,,success
Status,4314,720692447334,/g3t1_1,,running
Status,4315,720692521246,/g3t1_1,,fail
Status,4317,720913116961,/g4t1,,success
Status,4323,721913300304,/g4t1,,success
Status,4329,722913687529,/g4t1,,success
Status,4335,723914026157,/g4t1,,success
Status,4341,724914324712,/g4t1,,success
Status,4346,725692692752,/g3t1_1,,running
Status,4347,725693122527,/g3t1_1,,success
Status,4349,725914582369,/g4t1,,success
Status,4355,726914770389,/g4t1,,success
Status,4361,727915197046,/g4t1,,success
Status,4367,728915487082,/g4t1,,success
Status,4373,729915693762,/g4t1,,success
Status,4378,730692939055,/g3t1_1,,running
Status,4379,730693569545,/g3t1_1,,success
Status,4381,730915570020,/g4t1,,success
Status,4387,731916142561,/g4t1,,success
Status,4393,732916355427,/g4t1,,success
Status,4399,733916559216,/g4t1,,success
Status,4405,734916781475,/g4t1,,success
Status,4410,735693177622,/g3t1_1,,running
Status,4411,735693890696,/g3t1_1,,success
Status,4413,735916724395,/g4t1,,success
Status,4419,736917118646,/g4t1,,success
Status,4425,737917290467,/g4t1,,success
Status,4431,738918098877,/g4t1,,success
Status,4437,739918208433,/g4t1,,success
Status,4442,740693618694,/g3t1_1,,running
Status,4443,740694299084,/g3t1_1,,success
Status,4445,740918534234,/g4t1,,success
Status,4451,741918772812,/g4t1,,success
Status,4457,742919208117,/g4t1,,success
Status,4463,743919530722,/g4t1,,success
Status,4469,744919855326,/g4t1,,success
Status,4474,745693861884,/g3t1_1,,running
Status,4475,745694296717,/g3t1_1,,success
Status,4478,745920280006,/g4t1,,success
Status,4485,746920468021,/g4t1,,success
Status,4492,747920729315,/g4t1,,success
Status,4499,748920977390,/g4t1,,success
Status,4505,749921175530,/g4t1,,success
Status,4510,750694225571,/g3t1_1,,running
Status,4511,750694504111,/g3t1_1,,fail
Status,4514,750921466399,/g4t1,,success
Status,4520,751921743371,/g4t1,,success
Status,4526,752921817782,/g4t1,,success
Status,4532,753921970465,/g4t1,,success
Status,4538,754922149782,/g4t1,,success
Status,4543,755694504529,/g3t1_1,,running
Status,4544,755694569249,/g3t1_1,,fail
Status,4546,755922453011,/g4t1,,success
Status,4552,756922655769,/g4t1,,success
Status,4558,757922960146,/g4t1,,success
Status,4564,758923367012,/g4t1,,success
Status,4570,759923606300,/g4t1,,success
Status,4575,760694913038,/g3t1_1,,running
Status,4576,760695491106,/g3t1_1,,fail
Status,4578,760923913621,/g4t1,,success
Status,4584,761924306194,/g4t1,,success
Status,4590,762924468785,/g4t1,,success
Status,4596,763924433482,/g4t1,,success
Status,4602,764924589971,/g4t1,,success
Status,4607,765695157257,/g3t1_1,,running
Status,4608,765695628600,/g3t1_1,,fail
Status,4610,765925049104,/g4t1,,success
Status,4616,766925217036,/g4t1,,success
Status,4622,767925449378,/g4t1,,success
Status,4628,768925744002,/g4t1,,success
Status,4634,769925900733,/g4t1,,success
Status,4639,770695628438,/g3t1_1,,running
Status,4640,770695701456,/g3t1_1,,fail
Status,4642,770926256582,/g4t1,,success
Status,4648,771926517723,/g4t1,,success
Status,4654,772926422743,/g4t1,,success
Status,4660,773927001295,/g4t1,,success
Status,4666,774927264518,/g4t1,,success
Status,4671,775695910438,/g3t1_1,,running
Status,4672,775696225048,/g3t1_1,,fail
Status,4674,775927709717,/g4t1,,success
Status,4680,776928018231,/g4t1,,success
Status,4686,777928280218,/g4t1,,success
Status,4692,778928550809,/g4t1,,success
Status,4698,779928877089,/g4t1,,success
Status,4703,780696341434,/g3t1_1,,running
Status,4704,780696413758,/g3t1_1,,fail
Status,4707,780929055782,/g4t1,,success
Status,4713,781928351007,/g4t1,,success
Status,4719,782928500353,/g4t1,,success
Status,4725,783929349809,/g4t1,,success
Status,4731,784929762115,/g4t1,,success
Status,4736,785695508338,/g3t1_1,,running
Status,4737,785695594527,/g3t1_1,,success
Status,4739,785928915049,/g4t1,,success
Status,4745,786928929072,/g4t1,,success
Status,4751,787929755601,/g4t1,,success
Status,4757,788929531709,/g4t1,,success
Status,4763,789929384171,/g4t1,,success
Status,4768,790696051634,/g3t1_1,,running
Status,4769,790696558106,/g3t1_1,,success
Status,4771,790929418427,/g4t1,,success
Status,4777,791930160101,/g4t1,,success
Status,4783,792929625218,/g4t1,,success
Status,4789,793930534417,/g4t1,,success
Status,4795,794930295250,/g4t1,,success
Status,4800,795696766039,/g3t1_1,,running
Status,4801,795697556714,/g3t1_1,,success
Status,4803,795930893183,/g4t1,,success
Status,4809,796930904501,/g4t1,,success
Status,4815,797930346128,/g4t1,,success
Status,4821,798931166655,/g4t1,,success
Status,4827,799931380215,/g4t1,,success
Status,4832,800696975731,/g3t1_1,,running
Status,4833,800697068830,/g3t1_1,,fail
Status,4835,800931611325,/g4t1,,success
Status,4841,801930882321,/g4t1,,success
Status,4847,802931928605,/g4t1,,success
Status,4853,803932154071,/g4t1,,success
Status,4859,804931951768,/g4t1,,success
Status,4864,805697022744,/g3t1_1,,running
Status,4865,805697917192,/g3t1_1,,fail
Status,4867,805931866224,/g4t1,,success
Status,4873,806931914605,/g4t1,,success
Status,4879,807932391898,/g4t1,,success
Status,4885,808931791548,/g4t1,,success
