
Status,2,20648065999,g4t1,,init
Status,4,26262828611,g3t1_1,,init
Status,5,26285965423,g3t1_1,,init
Status,6,26285989280,g3t1_1,,running
Status,7,26287359387,g3t1_1,,success
Status,9,26567846831,g3t1_2,,init
Status,10,26574599563,g3t1_2,,init
Status,11,26574929606,g3t1_2,,running
Status,12,26575659477,g3t1_2,,success
Status,13,26774659031,g3t1_2,,running
Status,14,26775069747,g3t1_2,,success
Status,16,26869516113,g3t1_4,,init
Status,17,26882372872,g3t1_4,,init
Status,18,26882429629,g3t1_4,,running
Status,19,26885274369,g3t1_4,,success
Status,20,26975184517,g3t1_2,,running
Status,21,26976411064,g3t1_2,,success
Status,22,27176126737,g3t1_2,,running
Status,23,27176317739,g3t1_2,,success
Status,24,27376214051,g3t1_2,,running
Status,25,27376505560,g3t1_2,,success
Status,26,27575387919,g3t1_2,,running
Status,27,27576477164,g3t1_2,,success
Status,28,27664876738,g4t1,,success
Status,29,27775441174,g3t1_2,,running
Status,30,27776745159,g3t1_2,,success
Status,31,27882769230,g3t1_4,,running
Status,32,27888890768,g3t1_4,,success
Status,33,27975620388,g3t1_2,,running
Status,34,27977643161,g3t1_2,,success
Status,35,28175645865,g3t1_2,,running
Status,36,28176725428,g3t1_2,,success
Status,37,28375721818,g3t1_2,,running
Status,38,28376789383,g3t1_2,,success
Status,39,28575827440,g3t1_2,,running
Status,40,28576965731,g3t1_2,,success
Status,41,28664932413,g4t1,,success
Status,42,28775931037,g3t1_2,,running
Status,43,28777077103,g3t1_2,,success
Status,44,28882920994,g3t1_4,,running
Status,45,28889704047,g3t1_4,,success
Status,46,28975948329,g3t1_2,,running
Status,47,28977425111,g3t1_2,,success
Status,48,29176124042,g3t1_2,,running
Status,49,29177264766,g3t1_2,,success
Status,50,29376217927,g3t1_2,,running
Status,51,29377340679,g3t1_2,,success
Status,52,29576685758,g3t1_2,,running
Status,53,29577989458,g3t1_2,,success
Status,54,29665327240,g4t1,,success
Status,55,29776361201,g3t1_2,,running
Status,56,29777458324,g3t1_2,,success
Status,57,29882962108,g3t1_4,,running
Status,58,29895044730,g3t1_4,,success
Status,59,29976104485,g3t1_2,,running
Status,60,29976670818,g3t1_2,,success
Status,61,30176203630,g3t1_2,,running
Status,62,30176757223,g3t1_2,,success
Status,63,30376657497,g3t1_2,,running
Status,64,30376682846,g3t1_2,,success
Status,65,30576878382,g3t1_2,,running
Status,66,30576907370,g3t1_2,,success
Status,67,30664643663,g4t1,,success
Status,68,30776731125,g3t1_2,,running
Status,69,30776879064,g3t1_2,,success
Status,70,30883402335,g3t1_4,,running
Status,71,30887054092,g3t1_4,,success
Status,72,30976585720,g3t1_2,,running
Status,73,30988296579,g3t1_2,,success
Status,74,31176835320,g3t1_2,,running
Status,75,31180144948,g3t1_2,,success
Status,76,31286277375,g3t1_1,,running
Status,77,31289059171,g3t1_1,,success
Status,78,31377068096,g3t1_2,,running
Status,79,31379630020,g3t1_2,,success
Status,80,31576976341,g3t1_2,,running
Status,81,31579716461,g3t1_2,,success
Status,82,31665275272,g4t1,,success
Status,83,31777144508,g3t1_2,,running
Status,84,31780128212,g3t1_2,,success
Status,85,31883119396,g3t1_4,,running
Status,86,31893089646,g3t1_4,,success
Status,87,31978046699,g3t1_2,,running
Status,88,31979644609,g3t1_2,,success
Status,89,32178209645,g3t1_2,,running
Status,90,32179941984,g3t1_2,,success
Status,91,32377331644,g3t1_2,,running
Status,92,32379804229,g3t1_2,,success
Status,93,32577420693,g3t1_2,,running
Status,94,32579957346,g3t1_2,,success
Status,95,32665261338,g4t1,,success
Status,96,32777530463,g3t1_2,,running
Status,97,32780424941,g3t1_2,,success
Status,98,32883191279,g3t1_4,,running
Status,99,32892778192,g3t1_4,,success
Status,100,32977677896,g3t1_2,,running
Status,101,32980165529,g3t1_2,,success
Status,102,33177784872,g3t1_2,,running
Status,103,33180498264,g3t1_2,,success
Status,104,33377764238,g3t1_2,,running
Status,105,33380422423,g3t1_2,,success
Status,106,33577917527,g3t1_2,,running
Status,107,33580555138,g3t1_2,,success
Status,108,33665351946,g4t1,,success
Status,109,33778029348,g3t1_2,,running
Status,110,33780789344,g3t1_2,,success
Status,111,33883328250,g3t1_4,,running
Status,112,33891102366,g3t1_4,,success
Status,113,33978052165,g3t1_2,,running
Status,114,33980520538,g3t1_2,,success
Status,115,34178168444,g3t1_2,,running
Status,116,34180742128,g3t1_2,,success
Status,117,34378287265,g3t1_2,,running
Status,118,34381036039,g3t1_2,,success
Status,119,34578263134,g3t1_2,,running
Status,120,34580881152,g3t1_2,,success
Status,121,34665606321,g4t1,,success
Status,122,34778417884,g3t1_2,,running
Status,123,34781101010,g3t1_2,,success
Status,124,34883414241,g3t1_4,,running
Status,125,34894250895,g3t1_4,,success
Status,126,34978515753,g3t1_2,,running
Status,127,34981065185,g3t1_2,,success
Status,128,35178624975,g3t1_2,,running
Status,129,35181207607,g3t1_2,,success
Status,130,35378705724,g3t1_2,,running
Status,131,35381387063,g3t1_2,,success
Status,132,35578865729,g3t1_2,,running
Status,133,35581629136,g3t1_2,,success
Status,134,35665594570,g4t1,,success
Status,135,35778899747,g3t1_2,,running
Status,136,35781602706,g3t1_2,,success
Status,137,35883479564,g3t1_4,,running
Status,138,35892383608,g3t1_4,,success
Status,139,35978968827,g3t1_2,,running
Status,140,35981608887,g3t1_2,,success
Status,141,36179075452,g3t1_2,,running
Status,142,36181545321,g3t1_2,,success
Status,143,36286821861,g3t1_1,,running
Status,144,36289618628,g3t1_1,,success
Status,145,36379413646,g3t1_2,,running
Status,146,36382087874,g3t1_2,,success
Status,147,36579190487,g3t1_2,,running
Status,148,36581796248,g3t1_2,,success
Status,149,36665641620,g4t1,,success
Status,150,36779342700,g3t1_2,,running
Status,151,36782116026,g3t1_2,,success
Status,152,36883446008,g3t1_4,,running
Status,153,36892882362,g3t1_4,,success
Status,154,36979411201,g3t1_2,,running
Status,155,36982096736,g3t1_2,,success
Status,156,37179527257,g3t1_2,,running
Status,157,37182075870,g3t1_2,,success
Status,158,37379633802,g3t1_2,,running
Status,159,37382355754,g3t1_2,,success
Status,160,37579665724,g3t1_2,,running
Status,161,37582242189,g3t1_2,,success
Status,162,37665667975,g4t1,,success
Status,163,37779784028,g3t1_2,,running
Status,164,37782370770,g3t1_2,,success
Status,165,37883611726,g3t1_4,,running
Status,166,37892692289,g3t1_4,,success
Status,167,37979777556,g3t1_2,,running
Status,168,37982500831,g3t1_2,,success
Status,169,38179943871,g3t1_2,,running
Status,170,38182566982,g3t1_2,,success
Status,171,38380041611,g3t1_2,,running
Status,172,38382692974,g3t1_2,,success
Status,173,38580029603,g3t1_2,,running
Status,174,38582598641,g3t1_2,,success
Status,175,38665849670,g4t1,,success
Status,176,38780086885,g3t1_2,,running
Status,177,38782859871,g3t1_2,,success
Status,178,38883671151,g3t1_4,,running
Status,179,38893168357,g3t1_4,,success
Status,180,38980191602,g3t1_2,,running
Status,181,38982613277,g3t1_2,,success
Status,182,39180304434,g3t1_2,,running
Status,183,39182919597,g3t1_2,,success
Status,184,39381241792,g3t1_2,,running
Status,185,39382949361,g3t1_2,,success
Status,186,39580300746,g3t1_2,,running
Status,187,39582070219,g3t1_2,,success
Status,188,39665528934,g4t1,,success
Status,189,39780258528,g3t1_2,,running
Status,190,39781397848,g3t1_2,,success
Status,191,39883653199,g3t1_4,,running
Status,192,39895209281,g3t1_4,,success
Status,193,39980613895,g3t1_2,,running
Status,194,39983645340,g3t1_2,,success
Status,195,40180753962,g3t1_2,,running
Status,196,40183313842,g3t1_2,,success
Status,197,40381600399,g3t1_2,,running
Status,198,40383338304,g3t1_2,,success
Status,199,40580972416,g3t1_2,,running
Status,200,40583522940,g3t1_2,,success
Status,201,40665980350,g4t1,,success
Status,202,40780977990,g3t1_2,,running
Status,203,40783641548,g3t1_2,,success
Status,204,40884816309,g3t1_4,,running
Status,205,40893049203,g3t1_4,,success
Status,206,40981112217,g3t1_2,,running
Status,207,40984097812,g3t1_2,,success
Status,208,41181172522,g3t1_2,,running
Status,209,41183801012,g3t1_2,,success
Status,210,41286535116,g3t1_1,,running
Status,211,41289321441,g3t1_1,,success
Status,212,41381242485,g3t1_2,,running
Status,213,41384010045,g3t1_2,,success
Status,214,41581429901,g3t1_2,,running
Status,215,41584142638,g3t1_2,,success
Status,216,41666123704,g4t1,,success
Status,217,41782254860,g3t1_2,,running
Status,218,41784178642,g3t1_2,,success
Status,219,41884026429,g3t1_4,,running
Status,220,41893766461,g3t1_4,,success
Status,221,41981550635,g3t1_2,,running
Status,222,41984100832,g3t1_2,,success
Status,223,42181594253,g3t1_2,,running
Status,224,42184392414,g3t1_2,,success
Status,225,42381665386,g3t1_2,,running
Status,226,42384266263,g3t1_2,,success
Status,227,42581844973,g3t1_2,,running
Status,228,42584395093,g3t1_2,,success
Status,229,42665704757,g4t1,,success
Status,230,42782755125,g3t1_2,,running
Status,231,42784488159,g3t1_2,,success
Status,232,42883992423,g3t1_4,,running
Status,233,42893223005,g3t1_4,,success
Status,234,42981970438,g3t1_2,,running
Status,235,42984689643,g3t1_2,,success
Status,236,43182018170,g3t1_2,,running
Status,237,43184697859,g3t1_2,,success
Status,238,43382215900,g3t1_2,,running
Status,239,43385077589,g3t1_2,,success
Status,240,43582176187,g3t1_2,,running
Status,241,43584865523,g3t1_2,,success
Status,242,43666246013,g4t1,,success
Status,243,43782342961,g3t1_2,,running
Status,244,43785269106,g3t1_2,,success
Status,245,43884048341,g3t1_4,,running
Status,246,43893379192,g3t1_4,,success
Status,247,43982489429,g3t1_2,,running
Status,248,43985112772,g3t1_2,,success
Status,249,44182583341,g3t1_2,,running
Status,250,44185152923,g3t1_2,,success
Status,251,44382581966,g3t1_2,,running
Status,252,44385217169,g3t1_2,,success
Status,253,44582673455,g3t1_2,,running
Status,254,44585233458,g3t1_2,,success
Status,255,44666247743,g4t1,,success
Status,256,44782858945,g3t1_2,,running
Status,257,44785669695,g3t1_2,,success
Status,258,44884233752,g3t1_4,,running
Status,259,44895931767,g3t1_4,,success
Status,260,44982875361,g3t1_2,,running
Status,261,44985483705,g3t1_2,,success
Status,262,45182938928,g3t1_2,,running
Status,263,45185586061,g3t1_2,,success
Status,264,45383003791,g3t1_2,,running
Status,265,45385705591,g3t1_2,,success
Status,266,45583219337,g3t1_2,,running
Status,267,45585791108,g3t1_2,,success
Status,268,45666382585,g4t1,,success
Status,269,45783267964,g3t1_2,,running
Status,270,45785842049,g3t1_2,,success
Status,271,45884224332,g3t1_4,,running
Status,272,45893673993,g3t1_4,,success
Status,273,45983267988,g3t1_2,,running
Status,274,45985745538,g3t1_2,,success
Status,275,46183378914,g3t1_2,,running
Status,276,46186069142,g3t1_2,,success
Status,277,46286746296,g3t1_1,,running
Status,278,46289492294,g3t1_1,,success
Status,279,46383525391,g3t1_2,,running
Status,280,46386081014,g3t1_2,,success
Status,281,46583549224,g3t1_2,,running
Status,282,46586120172,g3t1_2,,success
Status,283,46666462810,g4t1,,success
Status,284,46783719037,g3t1_2,,running
Status,285,46786501672,g3t1_2,,success
Status,286,46884454084,g3t1_4,,running
Status,287,46893651533,g3t1_4,,success
Status,288,46983752669,g3t1_2,,running
Status,289,46986187949,g3t1_2,,success
Status,290,47183836739,g3t1_2,,running
Status,291,47186425225,g3t1_2,,success
Status,292,47383909624,g3t1_2,,running
Status,293,47386482496,g3t1_2,,success
Status,294,47584026376,g3t1_2,,running
Status,295,47586616284,g3t1_2,,success
Status,296,47666578967,g4t1,,success
Status,297,47784135400,g3t1_2,,running
Status,298,47786773372,g3t1_2,,success
Status,299,47885252354,g3t1_4,,running
Status,300,47894148207,g3t1_4,,success
Status,301,47984184252,g3t1_2,,running
Status,302,47986667834,g3t1_2,,success
Status,303,48184259713,g3t1_2,,running
Status,304,48186699530,g3t1_2,,success
Status,305,48384358172,g3t1_2,,running
Status,306,48387269654,g3t1_2,,success
Status,307,48584442647,g3t1_2,,running
Status,308,48586965448,g3t1_2,,success
Status,309,48666652244,g4t1,,success
Status,310,48784598328,g3t1_2,,running
Status,311,48787238582,g3t1_2,,success
Status,312,48884576710,g3t1_4,,running
Status,313,48893864562,g3t1_4,,success
Status,314,48984602981,g3t1_2,,running
Status,315,48987218679,g3t1_2,,success
Status,316,49184620222,g3t1_2,,running
Status,317,49187269674,g3t1_2,,success
Status,318,49384703553,g3t1_2,,running
Status,319,49387247917,g3t1_2,,success
Status,320,49584845706,g3t1_2,,running
Status,321,49587507523,g3t1_2,,success
Status,322,49666697313,g4t1,,success
Status,323,49785067585,g3t1_2,,running
Status,324,49787842211,g3t1_2,,success
Status,325,49884532106,g3t1_4,,running
Status,326,49895852838,g3t1_4,,success
Status,327,49984960953,g3t1_2,,running
Status,328,49987469699,g3t1_2,,success
Status,329,50185035053,g3t1_2,,running
Status,330,50187733200,g3t1_2,,success
Status,331,50385214077,g3t1_2,,running
Status,332,50387908806,g3t1_2,,success
Status,333,50585290552,g3t1_2,,running
Status,334,50587944134,g3t1_2,,success
Status,335,50666835462,g4t1,,success
Status,336,50785381107,g3t1_2,,running
Status,337,50788118615,g3t1_2,,success
Status,338,50884642388,g3t1_4,,running
Status,339,50893974339,g3t1_4,,success
Status,340,50985407078,g3t1_2,,running
Status,341,50987789431,g3t1_2,,success
Status,342,51185537135,g3t1_2,,running
Status,343,51188275264,g3t1_2,,success
Status,344,51286756364,g3t1_1,,running
Status,345,51289509718,g3t1_1,,success
Status,346,51385445602,g3t1_2,,running
Status,347,51386640882,g3t1_2,,success
Status,348,51585632560,g3t1_2,,running
Status,349,51588329929,g3t1_2,,success
Status,350,51666993266,g4t1,,success
Status,351,51785762996,g3t1_2,,running
Status,352,51788439894,g3t1_2,,success
Status,353,51884733169,g3t1_4,,running
Status,354,51893121346,g3t1_4,,success
Status,355,51985823954,g3t1_2,,running
Status,356,51988284587,g3t1_2,,success
Status,357,52185910694,g3t1_2,,running
Status,358,52188643540,g3t1_2,,success
Status,359,52385977116,g3t1_2,,running
Status,360,52388771711,g3t1_2,,success
Status,361,52586067407,g3t1_2,,running
Status,362,52588778370,g3t1_2,,success
Status,363,52667207326,g4t1,,success
Status,364,52786283117,g3t1_2,,running
Status,365,52789180662,g3t1_2,,success
Status,366,52884897958,g3t1_4,,running
Status,367,52894421344,g3t1_4,,success
Status,368,52986270935,g3t1_2,,running
Status,369,52988273588,g3t1_2,,success
Status,370,53186354266,g3t1_2,,running
Status,371,53188916769,g3t1_2,,success
Status,372,53386463816,g3t1_2,,running
Status,373,53389106155,g3t1_2,,success
Status,374,53586519681,g3t1_2,,running
Status,375,53589115734,g3t1_2,,success
Status,376,53667222743,g4t1,,success
Status,377,53786605035,g3t1_2,,running
Status,378,53789158825,g3t1_2,,success
Status,379,53884889924,g3t1_4,,running
Status,380,53894038036,g3t1_4,,success
Status,381,53986792153,g3t1_2,,running
Status,382,53989321225,g3t1_2,,success
Status,383,54186874716,g3t1_2,,running
Status,384,54189416692,g3t1_2,,success
Status,385,54386875086,g3t1_2,,running
Status,386,54389387450,g3t1_2,,success
Status,387,54586688818,g3t1_2,,running
Status,388,54588130410,g3t1_2,,success
Status,389,54666672407,g4t1,,success
Status,390,54786987918,g3t1_2,,running
Status,391,54789729288,g3t1_2,,success
Status,392,54884965638,g3t1_4,,running
Status,393,54896006393,g3t1_4,,success
Status,394,54988078693,g3t1_2,,running
Status,395,54990005017,g3t1_2,,success
Status,396,55187293313,g3t1_2,,running
Status,397,55190055357,g3t1_2,,success
Status,398,55388173841,g3t1_2,,running
Status,399,55389928001,g3t1_2,,success
Status,400,55587873263,g3t1_2,,running
Status,401,55588754617,g3t1_2,,success
Status,402,55667182231,g4t1,,success
Status,403,55787539261,g3t1_2,,running
Status,404,55790250104,g3t1_2,,success
Status,405,55885155657,g3t1_4,,running
Status,406,55895369422,g3t1_4,,success
Status,407,55988128098,g3t1_2,,running
Status,408,55988811013,g3t1_2,,success
Status,409,56187503542,g3t1_2,,running
Status,410,56189499097,g3t1_2,,success
Status,411,56288006808,g3t1_1,,running
Status,412,56289690239,g3t1_1,,success
Status,413,56387674302,g3t1_2,,running
Status,414,56390550000,g3t1_2,,success
Status,416,56588665968,g3t1_2,,running
Status,417,56590363601,g3t1_2,,success
Status,418,56667299797,g4t1,,success
Status,420,56787983375,g3t1_2,,running
Status,421,56788711779,g3t1_2,,success
Status,422,56885318327,g3t1_4,,running
Status,423,56897197725,g3t1_4,,success
Status,425,56988051827,g3t1_2,,running
Status,426,56991067737,g3t1_2,,success
Status,428,57188080146,g3t1_2,,running
Status,429,57190712362,g3t1_2,,success
Status,431,57388951672,g3t1_2,,running
Status,432,57390700255,g3t1_2,,success
Status,434,57588250951,g3t1_2,,running
Status,435,57590884379,g3t1_2,,success
Status,436,57667483615,g4t1,,success
Status,438,57788842556,g3t1_2,,running
Status,439,57789724963,g3t1_2,,success
Status,441,57794972423,g4t1,,status
Status,442,57885096980,g3t1_4,,running
Status,443,57892303355,g3t1_4,,success
Status,445,57988078135,g3t1_2,,running
Status,446,57989309767,g3t1_2,,success
Status,448,58188167561,g3t1_2,,running
Status,449,58189342973,g3t1_2,,success
Status,451,58388671591,g3t1_2,,running
Status,452,58391222687,g3t1_2,,success
Status,454,58588729014,g3t1_2,,running
Status,455,58591474189,g3t1_2,,success
Status,457,58789646512,g3t1_2,,running
Status,458,58791438354,g3t1_2,,success
Status,459,58885016912,g3t1_4,,running
Status,460,58888759387,g3t1_4,,success
Status,462,58988519207,g3t1_2,,running
Status,463,58989400194,g3t1_2,,success
Status,465,59188503017,g3t1_2,,running
Status,466,59189374220,g3t1_2,,success
Status,468,59388989803,g3t1_2,,running
Status,469,59390929876,g3t1_2,,success
Status,470,59588599657,g3t1_2,,running
Status,471,59589372038,g3t1_2,,success
Status,472,59788968266,g3t1_2,,running
Status,473,59790438827,g3t1_2,,success
Status,474,59885436480,g3t1_4,,running
Status,475,59891277016,g3t1_4,,success
Status,476,59989255261,g3t1_2,,running
Status,477,59991057547,g3t1_2,,success
Status,478,60189295923,g3t1_2,,running
Status,479,60191126082,g3t1_2,,success
