
Status,2,20806443773,g4t1,,init
Status,4,26323817451,g3t1_1,,init
Status,5,26348665356,g3t1_1,,init
Status,6,26349436311,g3t1_1,,running
Status,7,26352656679,g3t1_1,,success
Status,8,26422446249,g3t1_2,,init
Status,10,26430378108,g3t1_2,,init
Status,11,26430415375,g3t1_2,,running
Status,12,26431232376,g3t1_2,,success
Status,13,26630414783,g3t1_2,,running
Status,14,26630962761,g3t1_2,,success
Status,15,26830534876,g3t1_2,,running
Status,16,26831098764,g3t1_2,,success
Status,18,26835624468,g3t1_4,,init
Status,19,26847890999,g3t1_4,,init
Status,20,26848041936,g3t1_4,,running
Status,21,26850666956,g3t1_4,,success
Status,22,27030819139,g3t1_2,,running
Status,23,27032149644,g3t1_2,,success
Status,24,27230704707,g3t1_2,,running
Status,25,27231408849,g3t1_2,,success
Status,26,27430728650,g3t1_2,,running
Status,27,27431362521,g3t1_2,,success
Status,28,27631154732,g3t1_2,,running
Status,29,27631721871,g3t1_2,,success
Status,30,27824750432,g4t1,,success
Status,31,27831150488,g3t1_2,,running
Status,32,27832505689,g3t1_2,,success
Status,33,27847985702,g3t1_4,,running
Status,34,27855462999,g3t1_4,,success
Status,35,28031324468,g3t1_2,,running
Status,36,28032603442,g3t1_2,,success
Status,37,28231441828,g3t1_2,,running
Status,38,28232855916,g3t1_2,,success
Status,39,28431478788,g3t1_2,,running
Status,40,28432702835,g3t1_2,,success
Status,41,28631784136,g3t1_2,,running
Status,42,28632896001,g3t1_2,,success
Status,43,28824756824,g4t1,,success
Status,44,28831530656,g3t1_2,,running
Status,45,28832654005,g3t1_2,,success
Status,46,28848055188,g3t1_4,,running
Status,47,28854669360,g3t1_4,,success
Status,48,29031814703,g3t1_2,,running
Status,49,29033334295,g3t1_2,,success
Status,50,29232765147,g3t1_2,,running
Status,51,29233055623,g3t1_2,,success
Status,52,29431992452,g3t1_2,,running
Status,53,29433232732,g3t1_2,,success
Status,54,29631823098,g3t1_2,,running
Status,55,29632649900,g3t1_2,,success
Status,56,29824634827,g4t1,,success
Status,57,29831774931,g3t1_2,,running
Status,58,29832400644,g3t1_2,,success
Status,59,29847938799,g3t1_4,,running
Status,60,29851728569,g3t1_4,,success
Status,61,30032576277,g3t1_2,,running
Status,62,30033224588,g3t1_2,,success
Status,63,30232818209,g3t1_2,,running
Status,64,30233556307,g3t1_2,,success
Status,65,30432072446,g3t1_2,,running
Status,66,30432679213,g3t1_2,,success
Status,67,30632322807,g3t1_2,,running
Status,68,30632954574,g3t1_2,,success
Status,69,30824476928,g4t1,,success
Status,70,30832188071,g3t1_2,,running
Status,71,30832686280,g3t1_2,,success
Status,72,30848527671,g3t1_4,,running
Status,73,30851104109,g3t1_4,,success
Status,74,31032316964,g3t1_2,,running
Status,75,31032929867,g3t1_2,,success
Status,76,31232371548,g3t1_2,,running
Status,77,31233113212,g3t1_2,,success
Status,78,31348753275,g3t1_1,,running
Status,79,31349241039,g3t1_1,,success
Status,80,31432819719,g3t1_2,,running
Status,81,31433750063,g3t1_2,,success
Status,82,31632883494,g3t1_2,,running
Status,83,31633023592,g3t1_2,,success
Status,84,31824536144,g4t1,,success
Status,85,31832834633,g3t1_2,,running
Status,86,31833717765,g3t1_2,,success
Status,87,31848202529,g3t1_4,,running
Status,88,31852622182,g3t1_4,,success
Status,89,32032771215,g3t1_2,,running
Status,90,32033533342,g3t1_2,,success
Status,91,32232807999,g3t1_2,,running
Status,92,32233786155,g3t1_2,,success
Status,93,32433434629,g3t1_2,,running
Status,94,32433468541,g3t1_2,,success
Status,95,32633027399,g3t1_2,,running
Status,96,32634076857,g3t1_2,,success
Status,97,32824625406,g4t1,,success
Status,98,32833591621,g3t1_2,,running
Status,99,32833617040,g3t1_2,,success
Status,100,32849127080,g3t1_4,,running
Status,101,32857175531,g3t1_4,,success
Status,102,33033291813,g3t1_2,,running
Status,103,33034460163,g3t1_2,,success
Status,104,33233526346,g3t1_2,,running
Status,105,33233564187,g3t1_2,,success
Status,106,33433208057,g3t1_2,,running
Status,107,33433803541,g3t1_2,,success
Status,108,33633722269,g3t1_2,,running
Status,109,33633798378,g3t1_2,,success
Status,110,33824776927,g4t1,,success
Status,111,33833570807,g3t1_2,,running
Status,112,33834352831,g3t1_2,,success
Status,113,33848393800,g3t1_4,,running
Status,114,33857161620,g3t1_4,,success
Status,115,34034388655,g3t1_2,,running
Status,116,34034636502,g3t1_2,,success
Status,117,34233576096,g3t1_2,,running
Status,118,34234432526,g3t1_2,,success
Status,119,34434416773,g3t1_2,,running
Status,120,34434452411,g3t1_2,,success
Status,121,34634240277,g3t1_2,,running
Status,122,34634275639,g3t1_2,,success
Status,123,34824777759,g4t1,,success
Status,124,34834535257,g3t1_2,,running
Status,125,34834561502,g3t1_2,,success
Status,126,34848491976,g3t1_4,,running
Status,127,34851137753,g3t1_4,,success
Status,128,35033958334,g3t1_2,,running
Status,129,35035154341,g3t1_2,,success
Status,130,35234060092,g3t1_2,,running
Status,131,35235559756,g3t1_2,,success
Status,132,35434415889,g3t1_2,,running
Status,133,35434450671,g3t1_2,,success
Status,134,35634939041,g3t1_2,,running
Status,135,35634976939,g3t1_2,,success
Status,136,35824891835,g4t1,,success
Status,137,35834179204,g3t1_2,,running
Status,138,35835005216,g3t1_2,,success
Status,139,35849571981,g3t1_4,,running
Status,140,35852836971,g3t1_4,,success
Status,141,36034274731,g3t1_2,,running
Status,142,36034958919,g3t1_2,,success
Status,143,36234280830,g3t1_2,,running
Status,144,36236002754,g3t1_2,,success
Status,145,36349258109,g3t1_1,,running
Status,146,36350498022,g3t1_1,,success
Status,147,36434968527,g3t1_2,,running
Status,148,36435202989,g3t1_2,,success
Status,149,36634593222,g3t1_2,,running
Status,150,36635758508,g3t1_2,,success
Status,151,36824985455,g4t1,,success
Status,152,36834622069,g3t1_2,,running
Status,153,36835558913,g3t1_2,,success
Status,154,36848639270,g3t1_4,,running
Status,155,36852912198,g3t1_4,,success
Status,156,37034641231,g3t1_2,,running
Status,157,37035504238,g3t1_2,,success
Status,158,37234503852,g3t1_2,,running
Status,159,37235078957,g3t1_2,,success
Status,160,37435176316,g3t1_2,,running
Status,161,37435205865,g3t1_2,,success
Status,162,37635127580,g3t1_2,,running
Status,163,37635154675,g3t1_2,,success
Status,164,37825405057,g4t1,,success
Status,165,37834709534,g3t1_2,,running
Status,166,37835545485,g3t1_2,,success
Status,167,37848583854,g3t1_4,,running
Status,168,37853378769,g3t1_4,,success
Status,169,38034914697,g3t1_2,,running
Status,170,38035850964,g3t1_2,,success
Status,171,38234868785,g3t1_2,,running
Status,172,38235457052,g3t1_2,,success
Status,173,38435414412,g3t1_2,,running
Status,174,38436365957,g3t1_2,,success
Status,175,38635159440,g3t1_2,,running
Status,176,38635802696,g3t1_2,,success
Status,177,38825404577,g4t1,,success
Status,178,38835500597,g3t1_2,,running
Status,179,38837003111,g3t1_2,,success
Status,180,38849347300,g3t1_4,,running
Status,181,38853778129,g3t1_4,,success
Status,182,39035309940,g3t1_2,,running
Status,183,39035844015,g3t1_2,,success
Status,184,39235718304,g3t1_2,,running
Status,185,39237085746,g3t1_2,,success
Status,186,39435398008,g3t1_2,,running
Status,187,39435996531,g3t1_2,,success
Status,188,39635448974,g3t1_2,,running
Status,189,39635949688,g3t1_2,,success
Status,190,39825622599,g4t1,,success
Status,191,39835536529,g3t1_2,,running
Status,192,39836164615,g3t1_2,,success
Status,193,39848742906,g3t1_4,,running
Status,194,39853153458,g3t1_4,,success
Status,195,40036022698,g3t1_2,,running
Status,196,40036121390,g3t1_2,,success
Status,197,40236094645,g3t1_2,,running
Status,198,40236293402,g3t1_2,,success
Status,199,40435750809,g3t1_2,,running
Status,200,40436257044,g3t1_2,,success
Status,201,40635963819,g3t1_2,,running
Status,202,40636735980,g3t1_2,,success
Status,203,40825567064,g4t1,,success
Status,204,40836017553,g3t1_2,,running
Status,205,40837058591,g3t1_2,,success
Status,206,40849640107,g3t1_4,,running
Status,207,40854375333,g3t1_4,,success
Status,208,41035969212,g3t1_2,,running
Status,209,41036690634,g3t1_2,,success
Status,210,41236046631,g3t1_2,,running
Status,211,41236689550,g3t1_2,,success
Status,212,41348874475,g3t1_1,,running
Status,213,41349463618,g3t1_1,,success
Status,214,41436494716,g3t1_2,,running
Status,215,41436668597,g3t1_2,,success
Status,216,41636220879,g3t1_2,,running
Status,217,41636734769,g3t1_2,,success
Status,218,41825887651,g4t1,,success
Status,219,41836496418,g3t1_2,,running
Status,220,41838108811,g3t1_2,,success
Status,221,41849763310,g3t1_4,,running
Status,222,41853580454,g3t1_4,,success
Status,223,42036623251,g3t1_2,,running
Status,224,42037942476,g3t1_2,,success
Status,225,42236418995,g3t1_2,,running
Status,226,42237008195,g3t1_2,,success
Status,227,42436751352,g3t1_2,,running
Status,228,42437942313,g3t1_2,,success
Status,229,42637387053,g3t1_2,,running
Status,230,42638973279,g3t1_2,,success
Status,231,42825345053,g4t1,,success
Status,232,42836620238,g3t1_2,,running
Status,233,42837331502,g3t1_2,,success
Status,234,42848791948,g3t1_4,,running
Status,235,42851864082,g3t1_4,,success
Status,236,43036977601,g3t1_2,,running
Status,237,43037972014,g3t1_2,,success
Status,238,43237177957,g3t1_2,,running
Status,239,43238617768,g3t1_2,,success
Status,240,43436920598,g3t1_2,,running
Status,241,43437345580,g3t1_2,,success
Status,242,43637348939,g3t1_2,,running
Status,243,43637513079,g3t1_2,,success
Status,244,43826398363,g4t1,,success
Status,245,43837895593,g3t1_2,,running
Status,246,43838980862,g3t1_2,,success
Status,247,43849162182,g3t1_4,,running
Status,248,43854865294,g3t1_4,,success
Status,249,44037593242,g3t1_2,,running
Status,250,44038798843,g3t1_2,,success
Status,251,44237570222,g3t1_2,,running
Status,252,44238848919,g3t1_2,,success
Status,253,44438143777,g3t1_2,,running
Status,254,44439699104,g3t1_2,,success
Status,255,44638139723,g3t1_2,,running
Status,256,44639931138,g3t1_2,,success
Status,257,44826523549,g4t1,,success
Status,258,44838415770,g3t1_2,,running
Status,259,44839681778,g3t1_2,,success
Status,260,44849273966,g3t1_4,,running
Status,261,44853269885,g3t1_4,,success
Status,262,45037742363,g3t1_2,,running
Status,263,45038251539,g3t1_2,,success
Status,264,45238867833,g3t1_2,,running
Status,265,45239276210,g3t1_2,,success
Status,266,45438606940,g3t1_2,,running
Status,267,45439850948,g3t1_2,,success
Status,268,45638799328,g3t1_2,,running
Status,269,45639955444,g3t1_2,,success
Status,270,45825763791,g4t1,,success
Status,271,45838452242,g3t1_2,,running
Status,272,45839323579,g3t1_2,,success
Status,273,45849134142,g3t1_4,,running
Status,274,45852136824,g3t1_4,,success
Status,275,46038112122,g3t1_2,,running
Status,276,46038613298,g3t1_2,,success
Status,277,46238583408,g3t1_2,,running
Status,278,46240017627,g3t1_2,,success
Status,279,46349669608,g3t1_1,,running
Status,280,46350938299,g3t1_1,,success
Status,281,46438551668,g3t1_2,,running
Status,282,46439404350,g3t1_2,,success
Status,283,46638329640,g3t1_2,,running
Status,284,46638816411,g3t1_2,,success
Status,285,46826265729,g4t1,,success
Status,286,46838737788,g3t1_2,,running
Status,287,46840026881,g3t1_2,,success
Status,288,46849533268,g3t1_4,,running
Status,289,46853692551,g3t1_4,,success
Status,290,47038773125,g3t1_2,,running
Status,291,47039995950,g3t1_2,,success
Status,292,47238649851,g3t1_2,,running
Status,293,47239296326,g3t1_2,,success
Status,294,47438591198,g3t1_2,,running
Status,295,47439126425,g3t1_2,,success
Status,296,47639169170,g3t1_2,,running
Status,297,47640601070,g3t1_2,,success
Status,298,47826571131,g4t1,,success
Status,299,47839190089,g3t1_2,,running
Status,300,47840242359,g3t1_2,,success
Status,301,47849674036,g3t1_4,,running
Status,302,47857025489,g3t1_4,,success
Status,303,48039252853,g3t1_2,,running
Status,304,48040571621,g3t1_2,,success
Status,305,48239393227,g3t1_2,,running
Status,306,48240611958,g3t1_2,,success
Status,307,48439459827,g3t1_2,,running
Status,308,48440812036,g3t1_2,,success
Status,309,48639911836,g3t1_2,,running
Status,310,48641199509,g3t1_2,,success
Status,311,48826518587,g4t1,,success
Status,312,48839952029,g3t1_2,,running
Status,313,48841120623,g3t1_2,,success
Status,314,48849604471,g3t1_4,,running
Status,315,48857894587,g3t1_4,,success
Status,316,49039765902,g3t1_2,,running
Status,317,49040736765,g3t1_2,,success
Status,318,49240211561,g3t1_2,,running
Status,319,49241358823,g3t1_2,,success
Status,320,49439584517,g3t1_2,,running
Status,321,49440231893,g3t1_2,,success
Status,322,49639667071,g3t1_2,,running
Status,323,49640286446,g3t1_2,,success
Status,324,49826125726,g4t1,,success
Status,325,49839796913,g3t1_2,,running
Status,326,49840329952,g3t1_2,,success
Status,327,49849437443,g3t1_4,,running
Status,328,49853288071,g3t1_4,,success
Status,329,50040350357,g3t1_2,,running
Status,330,50040655585,g3t1_2,,success
Status,331,50240202915,g3t1_2,,running
Status,332,50240267578,g3t1_2,,success
Status,333,50440358767,g3t1_2,,running
Status,334,50440398793,g3t1_2,,success
Status,335,50639970388,g3t1_2,,running
Status,336,50640512696,g3t1_2,,success
Status,337,50826261133,g4t1,,success
Status,338,50840148896,g3t1_2,,running
Status,339,50840700366,g3t1_2,,success
Status,340,50849453066,g3t1_4,,running
Status,341,50852720533,g3t1_4,,success
Status,342,51040113375,g3t1_2,,running
Status,343,51040615277,g3t1_2,,success
Status,344,51240181799,g3t1_2,,running
Status,345,51240708007,g3t1_2,,success
Status,346,51349510525,g3t1_1,,running
Status,347,51349582570,g3t1_1,,success
Status,348,51440698571,g3t1_2,,running
Status,349,51440767007,g3t1_2,,success
Status,350,51640772441,g3t1_2,,running
Status,351,51640793923,g3t1_2,,success
Status,352,51826234809,g4t1,,success
Status,353,51840775055,g3t1_2,,running
Status,354,51840939847,g3t1_2,,success
Status,355,51849877192,g3t1_4,,running
Status,356,51853552681,g3t1_4,,success
Status,357,52040488841,g3t1_2,,running
Status,358,52040997697,g3t1_2,,success
Status,359,52240545533,g3t1_2,,running
Status,360,52241140890,g3t1_2,,success
Status,361,52440984963,g3t1_2,,running
Status,362,52441124855,g3t1_2,,success
Status,363,52640755166,g3t1_2,,running
Status,364,52641642523,g3t1_2,,success
Status,365,52826855086,g4t1,,success
Status,366,52841061871,g3t1_2,,running
Status,367,52842427853,g3t1_2,,success
Status,368,52849951454,g3t1_4,,running
Status,369,52853271591,g3t1_4,,success
Status,370,53041279974,g3t1_2,,running
Status,371,53042541172,g3t1_2,,success
Status,372,53241593827,g3t1_2,,running
Status,373,53242917860,g3t1_2,,success
Status,374,53441900153,g3t1_2,,running
Status,375,53443284222,g3t1_2,,success
Status,376,53641402720,g3t1_2,,running
Status,377,53642110602,g3t1_2,,success
Status,378,53826244176,g4t1,,success
Status,379,53841801544,g3t1_2,,running
Status,380,53842323541,g3t1_2,,success
Status,381,53849777290,g3t1_4,,running
Status,382,53853767912,g3t1_4,,success
Status,383,54042004565,g3t1_2,,running
Status,384,54042146978,g3t1_2,,success
Status,385,54241887045,g3t1_2,,running
Status,386,54241953184,g3t1_2,,success
Status,387,54441829684,g3t1_2,,running
Status,388,54442887671,g3t1_2,,success
Status,389,54641908617,g3t1_2,,running
Status,390,54642089251,g3t1_2,,success
Status,391,54826328857,g4t1,,success
Status,392,54841661409,g3t1_2,,running
Status,393,54842220659,g3t1_2,,success
Status,394,54849960381,g3t1_4,,running
Status,395,54853739221,g3t1_4,,success
Status,396,55041800738,g3t1_2,,running
Status,397,55042425139,g3t1_2,,success
Status,398,55242085675,g3t1_2,,running
Status,399,55243374559,g3t1_2,,success
Status,400,55442544357,g3t1_2,,running
Status,401,55443904308,g3t1_2,,success
Status,402,55641980054,g3t1_2,,running
Status,403,55642513803,g3t1_2,,success
Status,404,55826511288,g4t1,,success
Status,405,55842980886,g3t1_2,,running
Status,406,55843166877,g3t1_2,,success
Status,407,55849951155,g3t1_4,,running
Status,408,55853048793,g3t1_4,,success
Status,409,56042442225,g3t1_2,,running
Status,410,56043685275,g3t1_2,,success
Status,411,56242879708,g3t1_2,,running
Status,412,56244265220,g3t1_2,,success
Status,413,56349866608,g3t1_1,,running
Status,414,56351100440,g3t1_1,,success
Status,415,56442606017,g3t1_2,,running
Status,416,56443053352,g3t1_2,,success
Status,418,56642407831,g3t1_2,,running
Status,419,56642889309,g3t1_2,,success
Status,421,56826582891,g4t1,,success
Status,422,56842496581,g3t1_2,,running
Status,423,56843033282,g3t1_2,,success
Status,424,56849919049,g3t1_4,,running
Status,425,56852664490,g3t1_4,,success
Status,427,57042477753,g3t1_2,,running
Status,428,57043007933,g3t1_2,,success
Status,430,57242663034,g3t1_2,,running
Status,431,57243143947,g3t1_2,,success
Status,433,57443450360,g3t1_2,,running
Status,434,57444310128,g3t1_2,,success
Status,436,57643590563,g3t1_2,,running
Status,437,57644580840,g3t1_2,,success
Status,439,57827144895,g4t1,,success
Status,440,57843358613,g3t1_2,,running
Status,441,57844494479,g3t1_2,,success
Status,442,57850316110,g3t1_4,,running
Status,443,57856795179,g3t1_4,,success
Status,445,58043410890,g3t1_2,,running
Status,446,58044857901,g3t1_2,,success
Status,448,58243925238,g3t1_2,,running
Status,449,58245392749,g3t1_2,,success
Status,451,58443960309,g3t1_2,,running
Status,452,58445247612,g3t1_2,,success
Status,454,58644049009,g3t1_2,,running
Status,455,58645395713,g3t1_2,,success
Status,457,58827505849,g4t1,,success
Status,458,58844016717,g3t1_2,,running
Status,459,58845206269,g3t1_2,,success
Status,460,58850446771,g3t1_4,,running
Status,461,58859251206,g3t1_4,,success
Status,463,59044874653,g3t1_2,,running
Status,464,59045837565,g3t1_2,,success
Status,466,59244290607,g3t1_2,,running
Status,467,59244374829,g3t1_2,,success
Status,469,59444171963,g3t1_2,,running
Status,470,59445203152,g3t1_2,,success
Status,472,59644753682,g3t1_2,,running
Status,473,59646022239,g3t1_2,,success
Status,475,59827472357,g4t1,,success
Status,476,59844468379,g3t1_2,,running
Status,477,59845725244,g3t1_2,,success
Status,478,59850434468,g3t1_4,,running
Status,479,59855656738,g3t1_4,,success
Status,481,60044443396,g3t1_2,,running
Status,482,60045582584,g3t1_2,,success
Status,484,60244639598,g3t1_2,,running
Status,485,60246032995,g3t1_2,,success
Status,487,60444368574,g3t1_2,,running
Status,488,60444948161,g3t1_2,,success
Status,490,60644849116,g3t1_2,,running
Status,491,60644872076,g3t1_2,,success
Status,493,60827381602,g4t1,,success
Status,494,60844854539,g3t1_2,,running
Status,495,60846310301,g3t1_2,,success
Status,496,60850573633,g3t1_4,,running
Status,497,60856335305,g3t1_4,,success
Status,499,61045343573,g3t1_2,,running
Status,500,61045449610,g3t1_2,,success
Status,502,61245562781,g3t1_2,,running
Status,503,61245602485,g3t1_2,,success
Status,505,61350050309,g3t1_1,,running
Status,506,61351467356,g3t1_1,,success
Status,507,61444817567,g3t1_2,,running
Status,508,61445421630,g3t1_2,,success
Status,510,61644794784,g3t1_2,,running
Status,511,61645279962,g3t1_2,,success
Status,513,61827005624,g4t1,,success
Status,514,61845042922,g3t1_2,,running
Status,515,61845729778,g3t1_2,,success
Status,516,61850329852,g3t1_4,,running
Status,517,61852571555,g3t1_4,,success
Status,519,62045445364,g3t1_2,,running
Status,520,62046711275,g3t1_2,,success
Status,522,62245353949,g3t1_2,,running
Status,523,62246725245,g3t1_2,,success
Status,525,62445934216,g3t1_2,,running
Status,526,62447220700,g3t1_2,,success
Status,528,62645722498,g3t1_2,,running
Status,529,62646952017,g3t1_2,,success
Status,531,62827324576,g4t1,,success
Status,532,62845849034,g3t1_2,,running
Status,533,62846274179,g3t1_2,,success
Status,534,62850642163,g3t1_4,,running
Status,535,62856951091,g3t1_4,,success
Status,537,63046023732,g3t1_2,,running
Status,538,63046815371,g3t1_2,,success
Status,540,63245580962,g3t1_2,,running
Status,541,63246098499,g3t1_2,,success
Status,543,63445604619,g3t1_2,,running
Status,544,63446154107,g3t1_2,,success
Status,546,63646974979,g3t1_2,,running
Status,547,63647366556,g3t1_2,,success
Status,549,63827641455,g4t1,,success
Status,550,63846264688,g3t1_2,,running
Status,551,63847548846,g3t1_2,,success
Status,552,63850527253,g3t1_4,,running
Status,553,63856297795,g3t1_4,,success
Status,555,64047311612,g3t1_2,,running
Status,556,64047383244,g3t1_2,,success
Status,558,64247532073,g3t1_2,,running
Status,559,64247776503,g3t1_2,,success
Status,561,64446055697,g3t1_2,,running
Status,562,64446623650,g3t1_2,,success
Status,564,64647550664,g3t1_2,,running
Status,565,64648150980,g3t1_2,,success
Status,567,64828096199,g4t1,,success
Status,568,64846826850,g3t1_2,,running
Status,569,64848416467,g3t1_2,,success
Status,570,64850821172,g3t1_4,,running
Status,571,64857864411,g3t1_4,,success
Status,573,65046706873,g3t1_2,,running
Status,574,65048171985,g3t1_2,,success
Status,576,65246726068,g3t1_2,,running
Status,577,65248199807,g3t1_2,,success
Status,579,65447457835,g3t1_2,,running
Status,580,65448842716,g3t1_2,,success
Status,582,65647396422,g3t1_2,,running
Status,583,65648853910,g3t1_2,,success
Status,585,65828215740,g4t1,,success
Status,586,65847089561,g3t1_2,,running
Status,587,65848468948,g3t1_2,,success
Status,588,65850902544,g3t1_4,,running
Status,589,65857092545,g3t1_4,,success
Status,591,66047124710,g3t1_2,,running
Status,592,66048449899,g3t1_2,,success
Status,594,66247782445,g3t1_2,,running
Status,595,66249133600,g3t1_2,,success
Status,597,66350036911,g3t1_1,,running
Status,598,66351379074,g3t1_1,,success
Status,599,66447056585,g3t1_2,,running
Status,600,66447656558,g3t1_2,,success
Status,602,66648474103,g3t1_2,,running
Status,603,66648745481,g3t1_2,,success
Status,605,66827902294,g4t1,,success
Status,606,66847697693,g3t1_2,,running
Status,607,66848913551,g3t1_2,,success
Status,608,66850917367,g3t1_4,,running
Status,609,66857481841,g3t1_4,,success
Status,611,67047621810,g3t1_2,,running
Status,612,67048829633,g3t1_2,,success
Status,614,67247665938,g3t1_2,,running
Status,615,67249045100,g3t1_2,,success
Status,617,67447459207,g3t1_2,,running
Status,618,67448071644,g3t1_2,,success
Status,620,67649053192,g3t1_2,,running
Status,621,67649577653,g3t1_2,,success
Status,623,67828530601,g4t1,,success
Status,624,67848102285,g3t1_2,,running
Status,625,67849525820,g3t1_2,,success
Status,626,67850987577,g3t1_4,,running
Status,627,67855307806,g3t1_4,,success
Status,629,68049263372,g3t1_2,,running
Status,630,68049616496,g3t1_2,,success
Status,632,68248670191,g3t1_2,,running
Status,633,68250025257,g3t1_2,,success
Status,635,68448714757,g3t1_2,,running
Status,636,68450030508,g3t1_2,,success
Status,638,68648920976,g3t1_2,,running
Status,639,68650264931,g3t1_2,,success
Status,641,68828376756,g4t1,,success
Status,642,68848781372,g3t1_2,,running
Status,643,68850087495,g3t1_2,,success
Status,644,68851379628,g3t1_4,,running
Status,645,68859256825,g3t1_4,,success
Status,647,69048601704,g3t1_2,,running
Status,648,69050025339,g3t1_2,,success
Status,650,69249616565,g3t1_2,,running
Status,651,69249931258,g3t1_2,,success
Status,653,69449633633,g3t1_2,,running
Status,654,69449973275,g3t1_2,,success
Status,656,69648857119,g3t1_2,,running
Status,657,69650158119,g3t1_2,,success
Status,659,69828648275,g4t1,,success
Status,660,69849135499,g3t1_2,,running
Status,661,69850207572,g3t1_2,,success
Status,662,69851154572,g3t1_4,,running
Status,663,69856497394,g3t1_4,,success
Status,665,70049051583,g3t1_2,,running
Status,666,70050289394,g3t1_2,,success
Status,668,70249579882,g3t1_2,,running
Status,669,70250808061,g3t1_2,,success
Status,671,70448848363,g3t1_2,,running
Status,672,70449435054,g3t1_2,,success
Status,674,70650392611,g3t1_2,,running
Status,675,70650441916,g3t1_2,,success
Status,677,70828794570,g4t1,,success
Status,678,70849886216,g3t1_2,,running
Status,679,70851251048,g3t1_2,,success
Status,680,70851301669,g3t1_4,,running
Status,681,70857221905,g3t1_4,,success
Status,683,71049573657,g3t1_2,,running
Status,684,71050290229,g3t1_2,,success
Status,686,71249497396,g3t1_2,,running
Status,687,71250625532,g3t1_2,,success
Status,689,71349863660,g3t1_1,,running
Status,690,71351163561,g3t1_1,,success
Status,691,71449285188,g3t1_2,,running
Status,692,71449927214,g3t1_2,,success
Status,694,71649348195,g3t1_2,,running
Status,695,71649849336,g3t1_2,,success
Status,697,71828114842,g4t1,,success
Status,698,71849473479,g3t1_2,,running
Status,699,71849874971,g3t1_2,,success
Status,700,71851044769,g3t1_4,,running
Status,701,71853259101,g3t1_4,,success
Status,703,72049825674,g3t1_2,,running
Status,704,72051137934,g3t1_2,,success
Status,706,72250912799,g3t1_2,,running
Status,707,72251242576,g3t1_2,,success
Status,709,72450089436,g3t1_2,,running
Status,710,72451308257,g3t1_2,,success
Status,712,72651199843,g3t1_2,,running
Status,713,72651526611,g3t1_2,,success
Status,715,72828408594,g4t1,,success
Status,716,72850296192,g3t1_2,,running
Status,717,72851513525,g3t1_2,,success
Status,718,72851567993,g3t1_4,,running
Status,719,72858093672,g3t1_4,,success
Status,721,73050327057,g3t1_2,,running
Status,722,73051506967,g3t1_2,,success
Status,724,73251006121,g3t1_2,,running
Status,725,73251725177,g3t1_2,,success
Status,727,73450932994,g3t1_2,,running
Status,728,73452236738,g3t1_2,,success
Status,730,73650999817,g3t1_2,,running
Status,731,73652341684,g3t1_2,,success
Status,733,73829315768,g4t1,,success
Status,734,73850731996,g3t1_2,,running
Status,735,73851570496,g3t1_4,,running
Status,736,73852209032,g3t1_2,,success
Status,737,73859167580,g3t1_4,,success
Status,739,74050858960,g3t1_2,,running
Status,740,74052306382,g3t1_2,,success
Status,742,74251173610,g3t1_2,,running
Status,743,74252148306,g3t1_2,,success
Status,745,74451598018,g3t1_2,,running
Status,746,74452890225,g3t1_2,,success
Status,748,74651663722,g3t1_2,,running
Status,749,74652948780,g3t1_2,,success
Status,751,74828386298,g4t1,,success
Status,752,74851376541,g3t1_2,,running
Status,753,74851531963,g3t1_4,,running
Status,754,74852373097,g3t1_2,,success
Status,755,74857322409,g3t1_4,,success
Status,757,75051459714,g3t1_2,,running
Status,758,75052786984,g3t1_2,,success
Status,760,75252134037,g3t1_2,,running
Status,761,75253443333,g3t1_2,,success
Status,763,75452934122,g3t1_2,,running
Status,764,75453223811,g3t1_2,,success
Status,766,75653112912,g3t1_2,,running
Status,767,75653556510,g3t1_2,,success
Status,769,75829220897,g4t1,,success
Status,770,75852098155,g3t1_2,,running
Status,771,75852199803,g3t1_4,,running
Status,772,75853583921,g3t1_2,,success
Status,773,75862764976,g3t1_4,,success
Status,775,76052049587,g3t1_2,,running
Status,776,76053385768,g3t1_2,,success
Status,778,76252950110,g3t1_2,,running
Status,779,76253415520,g3t1_2,,success
Status,780,76349637273,g3t1_1,,running
Status,781,76350270848,g3t1_1,,success
Status,783,76451862161,g3t1_2,,running
Status,784,76452420077,g3t1_2,,success
Status,786,76652949158,g3t1_2,,running
Status,787,76654260720,g3t1_2,,success
Status,789,76829301053,g4t1,,success
Status,790,76852315348,g3t1_4,,running
Status,791,76852495793,g3t1_2,,running
Status,792,76854519132,g3t1_2,,success
Status,793,76859798000,g3t1_4,,success
Status,795,77052966632,g3t1_2,,running
Status,796,77054217867,g3t1_2,,success
Status,798,77252918602,g3t1_2,,running
Status,799,77254462463,g3t1_2,,success
Status,801,77453883697,g3t1_2,,running
Status,802,77454532049,g3t1_2,,success
Status,804,77653220734,g3t1_2,,running
Status,805,77654641760,g3t1_2,,success
Status,807,77829411387,g4t1,,success
Status,808,77852175431,g3t1_4,,running
Status,809,77853045410,g3t1_2,,running
Status,810,77854873974,g3t1_2,,success
Status,811,77860026532,g3t1_4,,success
Status,813,78053042193,g3t1_2,,running
Status,814,78054612421,g3t1_2,,success
Status,816,78253119127,g3t1_2,,running
Status,817,78254480584,g3t1_2,,success
Status,819,78454554684,g3t1_2,,running
Status,820,78454873269,g3t1_2,,success
Status,822,78653725354,g3t1_2,,running
Status,823,78654999989,g3t1_2,,success
Status,825,78829741919,g4t1,,success
Status,826,78852181856,g3t1_4,,running
Status,827,78853141200,g3t1_2,,running
Status,828,78854370255,g3t1_2,,success
Status,829,78859412487,g3t1_4,,success
Status,831,79053144788,g3t1_2,,running
Status,832,79053780366,g3t1_2,,success
Status,834,79253255284,g3t1_2,,running
Status,835,79253785719,g3t1_2,,success
Status,837,79453440588,g3t1_2,,running
Status,838,79453956530,g3t1_2,,success
Status,840,79653597572,g3t1_2,,running
Status,841,79654563082,g3t1_2,,success
Status,843,79829044550,g4t1,,success
Status,844,79852185773,g3t1_4,,running
Status,845,79853763933,g3t1_2,,running
Status,846,79855096333,g3t1_2,,success
Status,847,79859006722,g3t1_4,,success
Status,849,80053940930,g3t1_2,,running
Status,850,80055281016,g3t1_2,,success
Status,852,80254055979,g3t1_2,,running
Status,853,80255387015,g3t1_2,,success
Status,855,80454821984,g3t1_2,,running
Status,856,80456222102,g3t1_2,,success
Status,858,80655005150,g3t1_2,,running
Status,859,80656107996,g3t1_2,,success
Status,861,80829794970,g4t1,,success
Status,862,80852305878,g3t1_4,,running
Status,863,80854221838,g3t1_2,,running
Status,864,80856063564,g3t1_2,,success
Status,865,80863092535,g3t1_4,,success
Status,867,81054409085,g3t1_2,,running
Status,868,81055749758,g3t1_2,,success
Status,870,81254362485,g3t1_2,,running
Status,871,81255879782,g3t1_2,,success
Status,872,81350573063,g3t1_1,,running
Status,873,81352043563,g3t1_1,,success
Status,875,81454993125,g3t1_2,,running
Status,876,81456380712,g3t1_2,,success
Status,878,81654938436,g3t1_2,,running
Status,879,81656491044,g3t1_2,,success
Status,881,81830037867,g4t1,,success
Status,882,81852539954,g3t1_4,,running
Status,883,81854768993,g3t1_2,,running
Status,884,81856689561,g3t1_2,,success
Status,885,81861391743,g3t1_4,,success
Status,887,82054857200,g3t1_2,,running
Status,888,82056301469,g3t1_2,,success
Status,890,82255071070,g3t1_2,,running
Status,891,82256487816,g3t1_2,,success
Status,893,82455853010,g3t1_2,,running
Status,894,82456999648,g3t1_2,,success
Status,896,82655750603,g3t1_2,,running
Status,897,82656996179,g3t1_2,,success
Status,899,82830045234,g4t1,,success
Status,900,82852473621,g3t1_4,,running
Status,901,82855192755,g3t1_2,,running
Status,902,82857043692,g3t1_2,,success
Status,903,82861163692,g3t1_4,,success
Status,905,83055449118,g3t1_2,,running
Status,906,83056822627,g3t1_2,,success
Status,908,83255513015,g3t1_2,,running
Status,909,83256852145,g3t1_2,,success
Status,911,83455678906,g3t1_2,,running
Status,912,83456957636,g3t1_2,,success
Status,914,83656809195,g3t1_2,,running
Status,915,83656896634,g3t1_2,,success
Status,917,83829906544,g4t1,,success
Status,918,83852892715,g3t1_4,,running
Status,919,83855713031,g3t1_2,,running
Status,920,83857735242,g3t1_2,,success
Status,921,83861020232,g3t1_4,,success
Status,923,84055799893,g3t1_2,,running
Status,924,84057013219,g3t1_2,,success
Status,926,84256417187,g3t1_2,,running
Status,927,84257764062,g3t1_2,,success
Status,929,84456003198,g3t1_2,,running
Status,930,84457504943,g3t1_2,,success
Status,932,84656018925,g3t1_2,,running
Status,933,84657340092,g3t1_2,,success
Status,935,84830189174,g4t1,,success
Status,936,84852724658,g3t1_4,,running
Status,937,84856702341,g3t1_2,,running
Status,938,84859150994,g3t1_2,,success
Status,939,84861666935,g3t1_4,,success
Status,941,85056274643,g3t1_2,,running
Status,942,85057485594,g3t1_2,,success
Status,944,85257501534,g3t1_2,,running
Status,945,85258208857,g3t1_2,,success
Status,947,85457006518,g3t1_2,,running
Status,948,85458205294,g3t1_2,,success
Status,950,85656599214,g3t1_2,,running
Status,951,85658005249,g3t1_2,,success
Status,953,85830368066,g4t1,,success
Status,954,85852883594,g3t1_4,,running
Status,955,85856730680,g3t1_2,,running
Status,956,85858448779,g3t1_2,,success
Status,957,85862057458,g3t1_4,,success
Status,959,86056774472,g3t1_2,,running
Status,960,86058087539,g3t1_2,,success
Status,962,86256835916,g3t1_2,,running
Status,963,86258141992,g3t1_2,,success
Status,964,86350149396,g3t1_1,,running
Status,965,86351431330,g3t1_1,,success
Status,967,86457381340,g3t1_2,,running
Status,968,86458743350,g3t1_2,,success
Status,970,86657578472,g3t1_2,,running
Status,971,86658933202,g3t1_2,,success
Status,973,86830230542,g4t1,,success
Status,974,86852875678,g3t1_4,,running
Status,975,86857384138,g3t1_2,,running
Status,976,86858521224,g3t1_2,,success
Status,977,86861292672,g3t1_4,,success
Status,979,87057370105,g3t1_2,,running
Status,980,87058540005,g3t1_2,,success
Status,982,87257895737,g3t1_2,,running
Status,983,87259199481,g3t1_2,,success
Status,985,87458006250,g3t1_2,,running
Status,986,87459459940,g3t1_2,,success
Status,988,87658316491,g3t1_2,,running
Status,989,87659656845,g3t1_2,,success
Status,991,87830544971,g4t1,,success
Status,992,87853158090,g3t1_4,,running
Status,993,87857574137,g3t1_2,,running
Status,994,87859162009,g3t1_2,,success
Status,995,87861729406,g3t1_4,,success
Status,997,88057730318,g3t1_2,,running
Status,998,88059098458,g3t1_2,,success
Status,1000,88258324490,g3t1_2,,running
Status,1001,88259796427,g3t1_2,,success
Status,1003,88458419516,g3t1_2,,running
Status,1004,88460054137,g3t1_2,,success
Status,1006,88658385499,g3t1_2,,running
Status,1007,88659796104,g3t1_2,,success
Status,1009,88830905990,g4t1,,success
Status,1010,88852925546,g3t1_4,,running
Status,1011,88858248508,g3t1_2,,running
Status,1012,88859393221,g3t1_4,,success
Status,1013,88859676450,g3t1_2,,success
Status,1015,89058865106,g3t1_2,,running
Status,1016,89059406338,g3t1_2,,success
Status,1018,89258349002,g3t1_2,,running
Status,1019,89259636071,g3t1_2,,success
Status,1021,89458371652,g3t1_2,,running
Status,1022,89459644739,g3t1_2,,success
Status,1024,89659103903,g3t1_2,,running
Status,1025,89660380010,g3t1_2,,success
Status,1027,89830736579,g4t1,,success
Status,1028,89853196168,g3t1_4,,running
Status,1029,89858700645,g3t1_2,,running
Status,1030,89860699122,g3t1_2,,success
Status,1031,89864031704,g3t1_4,,success
Status,1033,90058706259,g3t1_2,,running
Status,1034,90059910735,g3t1_2,,success
Status,1036,90259263577,g3t1_2,,running
Status,1037,90260527297,g3t1_2,,success
Status,1039,90459540350,g3t1_2,,running
Status,1040,90460794581,g3t1_2,,success
Status,1042,90659444979,g3t1_2,,running
Status,1043,90660589071,g3t1_2,,success
Status,1045,90831127415,g4t1,,success
Status,1046,90853343896,g3t1_4,,running
Status,1047,90859174536,g3t1_2,,running
Status,1048,90862277966,g3t1_2,,success
Status,1049,90863901621,g3t1_4,,success
Status,1051,91059749657,g3t1_2,,running
Status,1052,91061088964,g3t1_2,,success
Status,1054,91259837745,g3t1_2,,running
Status,1055,91261370056,g3t1_2,,success
Status,1056,91351466886,g3t1_1,,running
Status,1057,91352001276,g3t1_1,,success
Status,1059,91459972633,g3t1_2,,running
Status,1060,91461255586,g3t1_2,,success
Status,1062,91661262220,g3t1_2,,running
Status,1063,91661316175,g3t1_2,,success
Status,1065,91831114038,g4t1,,success
Status,1066,91853333780,g3t1_4,,running
Status,1067,91859494802,g3t1_2,,running
Status,1068,91861811308,g3t1_4,,success
Status,1069,91862779936,g3t1_2,,success
Status,1071,92059758511,g3t1_2,,running
Status,1072,92060906482,g3t1_2,,success
Status,1074,92260281100,g3t1_2,,running
Status,1075,92261551662,g3t1_2,,success
Status,1077,92460157963,g3t1_2,,running
Status,1078,92461573500,g3t1_2,,success
Status,1080,92661596958,g3t1_2,,running
Status,1081,92661654643,g3t1_2,,success
Status,1083,92831568652,g4t1,,success
Status,1084,92853352720,g3t1_4,,running
Status,1085,92859950126,g3t1_2,,running
Status,1086,92861268726,g3t1_4,,success
Status,1087,92861507380,g3t1_2,,success
Status,1089,93060205811,g3t1_2,,running
Status,1090,93061419337,g3t1_2,,success
Status,1092,93260256608,g3t1_2,,running
Status,1093,93261610535,g3t1_2,,success
Status,1095,93460656503,g3t1_2,,running
Status,1096,93461930135,g3t1_2,,success
Status,1098,93660841982,g3t1_2,,running
Status,1099,93662337914,g3t1_2,,success
Status,1101,93831379995,g4t1,,success
Status,1102,93853435652,g3t1_4,,running
Status,1103,93860625216,g3t1_2,,running
Status,1104,93860690948,g3t1_4,,success
Status,1105,93861783738,g3t1_2,,success
Status,1107,94061131863,g3t1_2,,running
Status,1108,94062552124,g3t1_2,,success
Status,1110,94261229659,g3t1_2,,running
Status,1111,94262738625,g3t1_2,,success
Status,1113,94461194171,g3t1_2,,running
Status,1114,94462588831,g3t1_2,,success
Status,1116,94661369795,g3t1_2,,running
Status,1117,94662726782,g3t1_2,,success
Status,1119,94831352199,g4t1,,success
Status,1120,94853987937,g3t1_4,,running
Status,1121,94861460576,g3t1_2,,running
Status,1122,94861533514,g3t1_4,,success
Status,1123,94862388136,g3t1_2,,success
Status,1125,95061694651,g3t1_2,,running
Status,1126,95062977655,g3t1_2,,success
Status,1128,95262743360,g3t1_2,,running
Status,1129,95263137756,g3t1_2,,success
Status,1131,95461883367,g3t1_2,,running
Status,1132,95463507359,g3t1_2,,success
Status,1134,95662122700,g3t1_2,,running
Status,1135,95663482852,g3t1_2,,success
Status,1137,95831623240,g4t1,,success
Status,1138,95853756229,g3t1_4,,running
Status,1139,95861630189,g3t1_2,,running
Status,1140,95862927405,g3t1_4,,success
Status,1141,95863129100,g3t1_2,,success
Status,1143,96061868262,g3t1_2,,running
Status,1144,96063248288,g3t1_2,,success
Status,1146,96262322493,g3t1_2,,running
Status,1147,96263981575,g3t1_2,,success
Status,1148,96350788551,g3t1_1,,running
Status,1149,96352198756,g3t1_1,,success
Status,1151,96462436169,g3t1_2,,running
Status,1152,96463967866,g3t1_2,,success
Status,1154,96662527665,g3t1_2,,running
Status,1155,96664099419,g3t1_2,,success
Status,1157,96831747368,g4t1,,success
Status,1158,96853650422,g3t1_4,,running
Status,1159,96861175424,g3t1_4,,success
Status,1160,96862175198,g3t1_2,,running
Status,1161,96862988604,g3t1_2,,success
Status,1163,97062391624,g3t1_2,,running
Status,1164,97063666914,g3t1_2,,success
Status,1166,97262479392,g3t1_2,,running
Status,1167,97263956385,g3t1_2,,success
Status,1169,97462547445,g3t1_2,,running
Status,1170,97463962337,g3t1_2,,success
Status,1172,97663180571,g3t1_2,,running
Status,1173,97664565365,g3t1_2,,success
Status,1175,97831747536,g4t1,,success
Status,1176,97853898117,g3t1_4,,running
Status,1177,97862257629,g3t1_4,,success
Status,1178,97862827054,g3t1_2,,running
Status,1179,97863805342,g3t1_2,,success
Status,1181,98062981772,g3t1_2,,running
Status,1182,98064311170,g3t1_2,,success
Status,1184,98263549570,g3t1_2,,running
Status,1185,98265009157,g3t1_2,,success
Status,1187,98463530813,g3t1_2,,running
Status,1188,98464873705,g3t1_2,,success
Status,1190,98663747760,g3t1_2,,running
Status,1191,98664983309,g3t1_2,,success
Status,1193,98832063205,g4t1,,success
Status,1194,98853989355,g3t1_4,,running
Status,1195,98861079841,g3t1_4,,success
Status,1196,98863441730,g3t1_2,,running
Status,1197,98864387628,g3t1_2,,success
Status,1199,99063534858,g3t1_2,,running
Status,1200,99064859139,g3t1_2,,success
Status,1202,99263987660,g3t1_2,,running
Status,1203,99265295666,g3t1_2,,success
Status,1205,99464040889,g3t1_2,,running
Status,1206,99465332599,g3t1_2,,success
Status,1208,99664238065,g3t1_2,,running
Status,1209,99665648149,g3t1_2,,success
Status,1211,99831754078,g4t1,,success
Status,1212,99853992923,g3t1_4,,running
Status,1213,99861855202,g3t1_4,,success
Status,1214,99863888673,g3t1_2,,running
Status,1215,99864999578,g3t1_2,,success
Status,1217,100064965109,g3t1_2,,running
Status,1218,100065254010,g3t1_2,,success
Status,1220,100265104249,g3t1_2,,running
Status,1221,100265519500,g3t1_2,,success
Status,1223,100464688099,g3t1_2,,running
Status,1224,100466197959,g3t1_2,,success
Status,1226,100665636386,g3t1_2,,running
Status,1227,100665891558,g3t1_2,,success
Status,1229,100832121170,g4t1,,success
Status,1230,100854655474,g3t1_4,,running
Status,1231,100861899846,g3t1_4,,success
Status,1232,100864177775,g3t1_2,,running
Status,1233,100865060634,g3t1_2,,success
Status,1235,101064477866,g3t1_2,,running
Status,1236,101065964199,g3t1_2,,success
Status,1238,101264532070,g3t1_2,,running
Status,1239,101265904279,g3t1_2,,success
Status,1240,101350874477,g3t1_1,,running
Status,1241,101352267797,g3t1_1,,success
Status,1243,101465117211,g3t1_2,,running
Status,1244,101466729972,g3t1_2,,success
Status,1246,101665150188,g3t1_2,,running
Status,1247,101666641507,g3t1_2,,success
Status,1249,101832298175,g4t1,,success
Status,1250,101854529506,g3t1_4,,running
Status,1251,101861736061,g3t1_4,,success
Status,1252,101864656249,g3t1_2,,running
Status,1253,101865569472,g3t1_2,,success
Status,1255,102065077882,g3t1_2,,running
Status,1256,102066246045,g3t1_2,,success
Status,1258,102265104965,g3t1_2,,running
Status,1259,102266420616,g3t1_2,,success
Status,1261,102465584627,g3t1_2,,running
Status,1262,102466931275,g3t1_2,,success
Status,1264,102665614243,g3t1_2,,running
Status,1265,102666835771,g3t1_2,,success
Status,1267,102832337197,g4t1,,success
Status,1268,102854373242,g3t1_4,,running
Status,1269,102861757193,g3t1_4,,success
Status,1270,102865494551,g3t1_2,,running
Status,1271,102866641335,g3t1_2,,success
Status,1273,103065556560,g3t1_2,,running
Status,1274,103066866150,g3t1_2,,success
Status,1276,103265635173,g3t1_2,,running
Status,1277,103267130638,g3t1_2,,success
Status,1279,103466173916,g3t1_2,,running
Status,1280,103467525261,g3t1_2,,success
Status,1282,103666126955,g3t1_2,,running
Status,1283,103667488677,g3t1_2,,success
Status,1285,103832296589,g4t1,,success
Status,1286,103855443204,g3t1_4,,running
Status,1287,103862300930,g3t1_4,,success
Status,1288,103865864173,g3t1_2,,running
Status,1289,103866837625,g3t1_2,,success
Status,1291,104065970775,g3t1_2,,running
Status,1292,104067227192,g3t1_2,,success
Status,1294,104266423613,g3t1_2,,running
Status,1295,104267777768,g3t1_2,,success
Status,1297,104466620715,g3t1_2,,running
Status,1298,104467993565,g3t1_2,,success
Status,1300,104666712890,g3t1_2,,running
Status,1301,104668139655,g3t1_2,,success
Status,1303,104832539315,g4t1,,success
Status,1304,104855455759,g3t1_4,,running
Status,1305,104863612451,g3t1_4,,success
Status,1306,104866244637,g3t1_2,,running
Status,1307,104866845741,g3t1_2,,success
Status,1309,105066482195,g3t1_2,,running
Status,1310,105067827873,g3t1_2,,success
Status,1312,105267206331,g3t1_2,,running
Status,1313,105268550268,g3t1_2,,success
Status,1315,105467375926,g3t1_2,,running
Status,1316,105468813166,g3t1_2,,success
Status,1318,105667538260,g3t1_2,,running
Status,1319,105668501141,g3t1_2,,success
Status,1321,105832694507,g4t1,,success
Status,1322,105854771950,g3t1_4,,running
Status,1323,105864225965,g3t1_4,,success
Status,1324,105866693555,g3t1_2,,running
Status,1325,105867524728,g3t1_2,,success
Status,1327,106067260839,g3t1_2,,running
Status,1328,106068765752,g3t1_2,,success
Status,1330,106267161807,g3t1_2,,running
Status,1331,106268442665,g3t1_2,,success
Status,1332,106350633824,g3t1_1,,running
Status,1333,106351883572,g3t1_1,,success
Status,1335,106467599993,g3t1_2,,running
Status,1336,106468607558,g3t1_2,,success
Status,1338,106667306969,g3t1_2,,running
Status,1339,106668548609,g3t1_2,,success
Status,1341,106832264970,g4t1,,success
Status,1342,106854796850,g3t1_4,,running
Status,1343,106860279114,g3t1_4,,success
Status,1344,106867237228,g3t1_2,,running
Status,1345,106868197277,g3t1_2,,success
Status,1347,107067694498,g3t1_2,,running
Status,1348,107069011742,g3t1_2,,success
Status,1350,107267619226,g3t1_2,,running
Status,1351,107268957879,g3t1_2,,success
Status,1353,107467743810,g3t1_2,,running
Status,1354,107469161748,g3t1_2,,success
Status,1356,107667773093,g3t1_2,,running
Status,1357,107669312170,g3t1_2,,success
Status,1359,107832489975,g4t1,,success
Status,1360,107854833867,g3t1_4,,running
Status,1361,107862121905,g3t1_4,,success
Status,1362,107867762106,g3t1_2,,running
Status,1363,107868785901,g3t1_2,,success
Status,1365,108067896837,g3t1_2,,running
Status,1366,108069228778,g3t1_2,,success
Status,1368,108267719611,g3t1_2,,running
Status,1369,108268247987,g3t1_2,,success
Status,1371,108467678846,g3t1_2,,running
Status,1372,108468179543,g3t1_2,,success
Status,1374,108668673152,g3t1_2,,running
Status,1375,108670053663,g3t1_2,,success
Status,1377,108833077285,g4t1,,success
Status,1378,108855080106,g3t1_4,,running
Status,1379,108860303229,g3t1_4,,success
Status,1380,108868239643,g3t1_2,,running
Status,1381,108869230937,g3t1_2,,success
Status,1383,109068383556,g3t1_2,,running
Status,1384,109069425861,g3t1_2,,success
Status,1386,109269652771,g3t1_2,,running
Status,1387,109270478027,g3t1_2,,success
Status,1389,109468964691,g3t1_2,,running
Status,1390,109470569667,g3t1_2,,success
Status,1392,109669030789,g3t1_2,,running
Status,1393,109670635338,g3t1_2,,success
Status,1395,109833045430,g4t1,,success
Status,1396,109854940252,g3t1_4,,running
Status,1397,109859509118,g3t1_4,,success
Status,1398,109868992673,g3t1_2,,running
Status,1399,109869993538,g3t1_2,,success
Status,1401,110069267383,g3t1_2,,running
Status,1402,110070702707,g3t1_2,,success
Status,1404,110269397964,g3t1_2,,running
Status,1405,110270641688,g3t1_2,,success
Status,1407,110469422645,g3t1_2,,running
Status,1408,110470506999,g3t1_2,,success
Status,1410,110669724247,g3t1_2,,running
Status,1411,110671234415,g3t1_2,,success
Status,1413,110833263782,g4t1,,success
Status,1414,110855073306,g3t1_4,,running
Status,1415,110862292647,g3t1_4,,success
Status,1416,110869708441,g3t1_2,,running
Status,1417,110870834389,g3t1_2,,success
Status,1419,111069551363,g3t1_2,,running
Status,1420,111070813004,g3t1_2,,success
Status,1422,111269632890,g3t1_2,,running
Status,1423,111270886480,g3t1_2,,success
Status,1424,111351136748,g3t1_1,,running
Status,1425,111352546261,g3t1_1,,success
Status,1427,111470115264,g3t1_2,,running
Status,1428,111471511050,g3t1_2,,success
Status,1430,111670160058,g3t1_2,,running
Status,1431,111671495817,g3t1_2,,success
Status,1433,111833474851,g4t1,,success
Status,1434,111855360305,g3t1_4,,running
Status,1435,111862363936,g3t1_4,,success
Status,1436,111870024092,g3t1_2,,running
Status,1437,111870959575,g3t1_2,,success
Status,1439,112071231764,g3t1_2,,running
Status,1440,112071327283,g3t1_2,,success
Status,1442,112270611938,g3t1_2,,running
Status,1443,112271987324,g3t1_2,,success
Status,1445,112470669170,g3t1_2,,running
Status,1446,112472098451,g3t1_2,,success
Status,1448,112670782826,g3t1_2,,running
Status,1449,112672054925,g3t1_2,,success
Status,1451,112833064980,g4t1,,success
Status,1452,112855950630,g3t1_4,,running
Status,1453,112860282786,g3t1_4,,success
Status,1454,112870553050,g3t1_2,,running
Status,1455,112871299049,g3t1_2,,success
Status,1457,113070455675,g3t1_2,,running
Status,1458,113071095576,g3t1_2,,success
Status,1460,113270868256,g3t1_2,,running
Status,1461,113272290652,g3t1_2,,success
Status,1463,113470919577,g3t1_2,,running
Status,1464,113472347132,g3t1_2,,success
Status,1466,113670898228,g3t1_2,,running
Status,1467,113672248554,g3t1_2,,success
Status,1469,113833332716,g4t1,,success
Status,1470,113855568511,g3t1_4,,running
Status,1471,113866553928,g3t1_4,,success
Status,1472,113870676055,g3t1_2,,running
Status,1473,113871134708,g3t1_2,,success
Status,1475,114071239017,g3t1_2,,running
Status,1476,114072628131,g3t1_2,,success
Status,1478,114272125000,g3t1_2,,running
Status,1479,114273249675,g3t1_2,,success
Status,1481,114471387042,g3t1_2,,running
Status,1482,114472654905,g3t1_2,,success
Status,1484,114672376624,g3t1_2,,running
Status,1485,114672682240,g3t1_2,,success
Status,1487,114833317990,g4t1,,success
Status,1488,114855257582,g3t1_4,,running
Status,1489,114857709010,g3t1_4,,success
Status,1490,114871146621,g3t1_2,,running
Status,1491,114871663851,g3t1_2,,success
Status,1493,115071534357,g3t1_2,,running
Status,1494,115072515783,g3t1_2,,success
Status,1496,115272009937,g3t1_2,,running
Status,1497,115272599047,g3t1_2,,success
Status,1499,115471800871,g3t1_2,,running
Status,1500,115471822649,g3t1_2,,success
Status,1502,115672961951,g3t1_2,,running
Status,1503,115673132991,g3t1_2,,success
Status,1505,115833786906,g4t1,,success
Status,1506,115855719146,g3t1_4,,running
Status,1507,115865695636,g3t1_4,,success
Status,1508,115872223743,g3t1_2,,running
Status,1509,115872613653,g3t1_2,,success
Status,1511,116071979696,g3t1_2,,running
Status,1512,116073147345,g3t1_2,,success
Status,1514,116272234529,g3t1_2,,running
Status,1515,116272356812,g3t1_2,,success
Status,1516,116350745392,g3t1_1,,running
Status,1517,116352048529,g3t1_1,,success
Status,1519,116471742378,g3t1_2,,running
Status,1520,116472310836,g3t1_2,,success
Status,1522,116672127450,g3t1_2,,running
Status,1523,116673470055,g3t1_2,,success
Status,1525,116833095892,g4t1,,success
Status,1526,116855455966,g3t1_4,,running
Status,1527,116860198021,g3t1_4,,success
Status,1528,116871902858,g3t1_2,,running
Status,1529,116872667971,g3t1_2,,success
Status,1531,117072340922,g3t1_2,,running
Status,1532,117073772806,g3t1_2,,success
Status,1534,117272485795,g3t1_2,,running
Status,1535,117273753874,g3t1_2,,success
Status,1537,117473661244,g3t1_2,,running
Status,1538,117473736811,g3t1_2,,success
Status,1540,117672573826,g3t1_2,,running
Status,1541,117673744273,g3t1_2,,success
Status,1543,117833609184,g4t1,,success
Status,1544,117855456588,g3t1_4,,running
Status,1545,117862318211,g3t1_4,,success
Status,1546,117872522788,g3t1_2,,running
Status,1547,117873323452,g3t1_2,,success
Status,1549,118072705595,g3t1_2,,running
Status,1550,118074160785,g3t1_2,,success
Status,1552,118272857314,g3t1_2,,running
Status,1553,118274230411,g3t1_2,,success
Status,1555,118473127414,g3t1_2,,running
Status,1556,118474416144,g3t1_2,,success
Status,1558,118673038722,g3t1_2,,running
Status,1559,118674300835,g3t1_2,,success
Status,1561,118833786901,g4t1,,success
Status,1562,118855637723,g3t1_4,,running
Status,1563,118860079496,g3t1_4,,success
Status,1564,118873020796,g3t1_2,,running
Status,1565,118873967613,g3t1_2,,success
Status,1567,119074050204,g3t1_2,,running
Status,1568,119074328134,g3t1_2,,success
Status,1570,119274484420,g3t1_2,,running
Status,1571,119274803286,g3t1_2,,success
Status,1573,119473672032,g3t1_2,,running
Status,1574,119473723580,g3t1_2,,success
Status,1576,119673064626,g3t1_2,,running
Status,1577,119673734388,g3t1_2,,success
Status,1579,119833713754,g4t1,,success
Status,1580,119855535534,g3t1_4,,running
Status,1581,119858575652,g3t1_4,,success
Status,1582,119873170869,g3t1_2,,running
Status,1583,119873792707,g3t1_2,,success
Status,1585,120073288532,g3t1_2,,running
Status,1586,120073974384,g3t1_2,,success
Status,1588,120274662621,g3t1_2,,running
Status,1589,120274935124,g3t1_2,,success
Status,1591,120474274139,g3t1_2,,running
Status,1592,120474881535,g3t1_2,,success
Status,1594,120674336656,g3t1_2,,running
Status,1595,120674722424,g3t1_2,,success
Status,1597,120833598208,g4t1,,success
Status,1598,120855722775,g3t1_4,,running
Status,1599,120860746140,g3t1_4,,success
Status,1600,120873768057,g3t1_2,,running
Status,1601,120874324362,g3t1_2,,success
Status,1603,121073781125,g3t1_2,,running
Status,1604,121074304914,g3t1_2,,success
Status,1606,121274313844,g3t1_2,,running
Status,1607,121275322374,g3t1_2,,success
Status,1608,121350617329,g3t1_1,,running
Status,1609,121351147493,g3t1_1,,success
Status,1611,121474522856,g3t1_2,,running
Status,1612,121474937908,g3t1_2,,success
Status,1614,121675218719,g3t1_2,,running
Status,1615,121675860954,g3t1_2,,success
Status,1617,121833680652,g4t1,,success
Status,1618,121855775042,g3t1_4,,running
Status,1619,121859260886,g3t1_4,,success
Status,1620,121874049643,g3t1_2,,running
Status,1621,121874729645,g3t1_2,,success
Status,1623,122074700313,g3t1_2,,running
Status,1624,122074777666,g3t1_2,,success
Status,1626,122274347559,g3t1_2,,running
Status,1627,122275336002,g3t1_2,,success
Status,1629,122474853506,g3t1_2,,running
Status,1630,122475261830,g3t1_2,,success
Status,1632,122674367329,g3t1_2,,running
Status,1633,122675063503,g3t1_2,,success
Status,1635,122833739046,g4t1,,success
Status,1636,122855843778,g3t1_4,,running
Status,1637,122860836676,g3t1_4,,success
Status,1638,122874433673,g3t1_2,,running
Status,1639,122875156686,g3t1_2,,success
Status,1641,123075408173,g3t1_2,,running
Status,1642,123075443980,g3t1_2,,success
Status,1644,123275284943,g3t1_2,,running
Status,1645,123275867229,g3t1_2,,success
Status,1647,123475180776,g3t1_2,,running
Status,1648,123475831668,g3t1_2,,success
Status,1650,123675289021,g3t1_2,,running
Status,1651,123675814164,g3t1_2,,success
Status,1653,123833621982,g4t1,,success
Status,1654,123855939471,g3t1_4,,running
Status,1655,123859750420,g3t1_4,,success
Status,1656,123874716147,g3t1_2,,running
Status,1657,123875352143,g3t1_2,,success
Status,1659,124074773735,g3t1_2,,running
Status,1660,124075349120,g3t1_2,,success
Status,1662,124275470780,g3t1_2,,running
Status,1663,124276432880,g3t1_2,,success
Status,1665,124474916660,g3t1_2,,running
Status,1666,124475539499,g3t1_2,,success
Status,1668,124675946138,g3t1_2,,running
Status,1669,124677195100,g3t1_2,,success
Status,1671,124834490296,g4t1,,success
Status,1672,124856598369,g3t1_4,,running
Status,1673,124861388163,g3t1_4,,success
Status,1674,124875588185,g3t1_2,,running
Status,1675,124876632862,g3t1_2,,success
Status,1677,125075967945,g3t1_2,,running
Status,1678,125077320582,g3t1_2,,success
Status,1680,125275372101,g3t1_2,,running
Status,1681,125275857552,g3t1_2,,success
Status,1683,125475763522,g3t1_2,,running
Status,1684,125477098196,g3t1_2,,success
Status,1686,125676172217,g3t1_2,,running
Status,1687,125677517291,g3t1_2,,success
Status,1689,125834411848,g4t1,,success
Status,1690,125856751523,g3t1_4,,running
Status,1691,125863259937,g3t1_4,,success
Status,1692,125875961111,g3t1_2,,running
Status,1693,125876629369,g3t1_2,,success
Status,1695,126075913504,g3t1_2,,running
Status,1696,126077173947,g3t1_2,,success
Status,1698,126276020647,g3t1_2,,running
Status,1699,126277356904,g3t1_2,,success
Status,1700,126350944631,g3t1_1,,running
Status,1701,126352154760,g3t1_1,,success
Status,1703,126476327467,g3t1_2,,running
Status,1704,126477832256,g3t1_2,,success
Status,1706,126676261643,g3t1_2,,running
Status,1707,126677502043,g3t1_2,,success
Status,1709,126834875415,g4t1,,success
Status,1710,126856479332,g3t1_4,,running
Status,1711,126864261652,g3t1_4,,success
Status,1712,126876245294,g3t1_2,,running
Status,1713,126877261114,g3t1_2,,success
Status,1715,127076477323,g3t1_2,,running
Status,1716,127077699411,g3t1_2,,success
Status,1718,127277231334,g3t1_2,,running
Status,1719,127277862698,g3t1_2,,success
Status,1721,127476193796,g3t1_2,,running
Status,1722,127476762417,g3t1_2,,success
Status,1724,127676257692,g3t1_2,,running
Status,1725,127676751835,g3t1_2,,success
Status,1727,127834010829,g4t1,,success
Status,1728,127856348653,g3t1_4,,running
Status,1729,127861687053,g3t1_4,,success
Status,1730,127876633989,g3t1_2,,running
Status,1731,127877721220,g3t1_2,,success
Status,1733,128076432569,g3t1_2,,running
Status,1734,128076972339,g3t1_2,,success
Status,1736,128276537237,g3t1_2,,running
Status,1737,128277089758,g3t1_2,,success
Status,1739,128476969211,g3t1_2,,running
Status,1740,128478316841,g3t1_2,,success
Status,1742,128677033690,g3t1_2,,running
Status,1743,128678229866,g3t1_2,,success
Status,1745,128834152009,g4t1,,success
Status,1746,128856275497,g3t1_4,,running
Status,1747,128861088742,g3t1_4,,success
Status,1748,128876942930,g3t1_2,,running
Status,1749,128877747352,g3t1_2,,success
Status,1751,129077164991,g3t1_2,,running
Status,1752,129078463954,g3t1_2,,success
Status,1754,129277471708,g3t1_2,,running
Status,1755,129277804890,g3t1_2,,success
Status,1757,129478547633,g3t1_2,,running
Status,1758,129478620703,g3t1_2,,success
Status,1760,129678346510,g3t1_2,,running
Status,1761,129678384331,g3t1_2,,success
Status,1763,129834598894,g4t1,,success
Status,1764,129856889717,g3t1_4,,running
Status,1765,129864812085,g3t1_4,,success
Status,1766,129877894128,g3t1_2,,running
Status,1767,129877959287,g3t1_2,,success
Status,1769,130077252534,g3t1_2,,running
Status,1770,130078443184,g3t1_2,,success
Status,1772,130278373546,g3t1_2,,running
Status,1773,130278612540,g3t1_2,,success
Status,1775,130477894013,g3t1_2,,running
Status,1776,130478012204,g3t1_2,,success
Status,1778,130677409912,g3t1_2,,running
Status,1779,130677952662,g3t1_2,,success
Status,1781,130834647998,g4t1,,success
Status,1782,130856435013,g3t1_4,,running
Status,1783,130860014474,g3t1_4,,success
Status,1784,130878303928,g3t1_2,,running
Status,1785,130878605389,g3t1_2,,success
Status,1787,131078675630,g3t1_2,,running
Status,1788,131078718953,g3t1_2,,success
Status,1790,131277877834,g3t1_2,,running
Status,1791,131279084511,g3t1_2,,success
Status,1792,131350841977,g3t1_1,,running
Status,1793,131351606442,g3t1_1,,success
Status,1795,131477909573,g3t1_2,,running
Status,1796,131478867884,g3t1_2,,success
Status,1798,131678204239,g3t1_2,,running
Status,1799,131679102991,g3t1_2,,success
Status,1801,131834747303,g4t1,,success
Status,1802,131856572104,g3t1_4,,running
Status,1803,131860314677,g3t1_4,,success
Status,1804,131878455655,g3t1_2,,running
Status,1805,131879567646,g3t1_2,,success
Status,1807,132078418619,g3t1_2,,running
Status,1808,132078605629,g3t1_2,,success
Status,1810,132278029559,g3t1_2,,running
Status,1811,132278871884,g3t1_2,,success
Status,1813,132478449957,g3t1_2,,running
Status,1814,132478628532,g3t1_2,,success
Status,1816,132678356104,g3t1_2,,running
Status,1817,132679723856,g3t1_2,,success
Status,1819,132834416140,g4t1,,success
Status,1820,132856669803,g3t1_4,,running
Status,1821,132862204486,g3t1_4,,success
Status,1822,132878663998,g3t1_2,,running
Status,1823,132879474985,g3t1_2,,success
Status,1825,133078664676,g3t1_2,,running
Status,1826,133080085997,g3t1_2,,success
Status,1828,133279098358,g3t1_2,,running
Status,1829,133280400685,g3t1_2,,success
Status,1831,133478729453,g3t1_2,,running
Status,1832,133479749053,g3t1_2,,success
Status,1834,133678930078,g3t1_2,,running
Status,1835,133680231663,g3t1_2,,success
Status,1837,133835141785,g4t1,,success
Status,1838,133857057848,g3t1_4,,running
Status,1839,133862790609,g3t1_4,,success
Status,1840,133878928516,g3t1_2,,running
Status,1841,133879909882,g3t1_2,,success
Status,1843,134079010481,g3t1_2,,running
Status,1844,134080157142,g3t1_2,,success
Status,1846,134279499975,g3t1_2,,running
Status,1847,134280727990,g3t1_2,,success
Status,1849,134479575959,g3t1_2,,running
Status,1850,134480885903,g3t1_2,,success
Status,1852,134679699103,g3t1_2,,running
Status,1853,134681038104,g3t1_2,,success
Status,1855,134835233022,g4t1,,success
Status,1856,134857268372,g3t1_4,,running
Status,1857,134864984112,g3t1_4,,success
Status,1858,134879387301,g3t1_2,,running
Status,1859,134880485258,g3t1_2,,success
Status,1861,135079482714,g3t1_2,,running
Status,1862,135080744740,g3t1_2,,success
Status,1864,135279593106,g3t1_2,,running
Status,1865,135280929838,g3t1_2,,success
Status,1867,135479845473,g3t1_2,,running
Status,1868,135481009123,g3t1_2,,success
Status,1870,135681139140,g3t1_2,,running
Status,1871,135681311690,g3t1_2,,success
Status,1873,135835203211,g4t1,,success
Status,1874,135857275495,g3t1_4,,running
Status,1875,135864719880,g3t1_4,,success
Status,1876,135879861375,g3t1_2,,running
Status,1877,135880927798,g3t1_2,,success
Status,1879,136080010654,g3t1_2,,running
Status,1880,136081128273,g3t1_2,,success
Status,1882,136280457899,g3t1_2,,running
Status,1883,136281733011,g3t1_2,,success
Status,1884,136351572925,g3t1_1,,running
Status,1885,136353079762,g3t1_1,,success
Status,1887,136480502532,g3t1_2,,running
Status,1888,136481638399,g3t1_2,,success
Status,1890,136680577945,g3t1_2,,running
Status,1891,136681795460,g3t1_2,,success
Status,1893,136835378923,g4t1,,success
Status,1894,136857321306,g3t1_4,,running
Status,1895,136865644372,g3t1_4,,success
Status,1896,136880730810,g3t1_2,,running
Status,1897,136882094609,g3t1_2,,success
Status,1899,137080603701,g3t1_2,,running
Status,1900,137081801521,g3t1_2,,success
Status,1902,137280970701,g3t1_2,,running
Status,1903,137282243231,g3t1_2,,success
Status,1905,137481087524,g3t1_2,,running
Status,1906,137482375149,g3t1_2,,success
Status,1908,137681196420,g3t1_2,,running
Status,1909,137682453331,g3t1_2,,success
Status,1911,137835316632,g4t1,,success
Status,1912,137857539692,g3t1_4,,running
Status,1913,137865470083,g3t1_4,,success
Status,1914,137881141877,g3t1_2,,running
Status,1915,137882272591,g3t1_2,,success
Status,1917,138081015805,g3t1_2,,running
Status,1918,138082397268,g3t1_2,,success
Status,1920,138281485124,g3t1_2,,running
Status,1921,138282809627,g3t1_2,,success
Status,1923,138481607804,g3t1_2,,running
Status,1924,138482940199,g3t1_2,,success
Status,1926,138681659246,g3t1_2,,running
Status,1927,138682849175,g3t1_2,,success
Status,1929,138835545716,g4t1,,success
Status,1930,138857488713,g3t1_4,,running
Status,1931,138865777020,g3t1_4,,success
Status,1932,138881319916,g3t1_2,,running
