
Status,2,3487445305,/g4t1,,init
Status,3,8599277871,/g3t1_1,,init
Status,5,8608700525,/g3t1_1,,init
Status,6,8608714315,/g3t1_1,,running
Status,7,8609244660,/g3t1_1,,success
Status,8,8708873410,/g3t1_1,,running
Status,9,8708890966,/g3t1_1,,success
Status,11,8803358136,/g3t1_3,,init
Status,12,8803379088,/g3t1_2,,init
Status,14,8808891814,/g3t1_1,,running
Status,15,8808963921,/g3t1_1,,success
Status,16,8814150455,/g3t1_3,,init
Status,17,8814161684,/g3t1_3,,running
Status,18,8814800782,/g3t1_3,,success
Status,19,8814974548,/g3t1_2,,init
Status,20,8814984709,/g3t1_2,,running
Status,21,8815520991,/g3t1_2,,success
Status,22,8909996736,/g3t1_1,,running
Status,23,8910067521,/g3t1_1,,success
Status,24,8914602133,/g4t1,,success
Status,25,8915049630,/g3t1_3,,running
Status,26,8915931849,/g3t1_3,,success
Status,27,8915990533,/g3t1_2,,running
Status,28,8916507759,/g3t1_2,,success
Status,29,9009890688,/g3t1_1,,running
Status,30,9010221656,/g3t1_1,,success
Status,31,9015380385,/g3t1_3,,running
Status,32,9015505369,/g4t1,,success
Status,33,9016494445,/g3t1_2,,running
Status,34,9017015615,/g3t1_3,,success
Status,35,9017106263,/g3t1_2,,success
Status,36,9035524747,/g4t1,,success
Status,37,9110252660,/g3t1_1,,running
Status,38,9110818109,/g3t1_1,,success
Status,39,9115307334,/g3t1_3,,running
Status,40,9115692482,/g3t1_3,,success
Status,41,9116042511,/g4t1,,success
Status,42,9116124862,/g3t1_2,,running
Status,43,9117014304,/g3t1_2,,success
Status,44,9136339062,/g4t1,,success
Status,45,9156538147,/g4t1,,success
Status,46,9176511774,/g4t1,,success
Status,47,9196742574,/g4t1,,success
Status,48,9210242050,/g3t1_1,,running
Status,49,9210836314,/g3t1_1,,success
Status,50,9215441885,/g3t1_3,,running
Status,51,9216644167,/g3t1_3,,success
Status,52,9216855127,/g3t1_2,,running
Status,53,9217439106,/g4t1,,success
Status,54,9217506114,/g3t1_2,,success
Status,55,9237058743,/g4t1,,success
Status,56,9256990109,/g4t1,,success
Status,57,9276991049,/g4t1,,success
Status,58,9297310035,/g4t1,,success
Status,59,9310462461,/g3t1_1,,running
Status,60,9310870853,/g3t1_1,,success
Status,61,9315495808,/g3t1_3,,running
Status,62,9316399355,/g3t1_3,,success
Status,63,9316490810,/g3t1_2,,running
Status,64,9317075218,/g3t1_2,,success
Status,65,9317321979,/g4t1,,fail
Status,66,9337546334,/g4t1,,success
Status,67,9357920705,/g4t1,,success
Status,68,9377903331,/g4t1,,success
Status,69,9398010995,/g4t1,,success
Status,70,9411280342,/g3t1_1,,running
Status,71,9411331833,/g3t1_1,,success
Status,72,9415813616,/g3t1_3,,running
Status,73,9417106264,/g3t1_3,,success
Status,74,9417189019,/g3t1_2,,running
Status,75,9417302999,/g3t1_2,,success
Status,76,9418038179,/g4t1,,fail
Status,77,9438348714,/g4t1,,success
Status,78,9458676175,/g4t1,,success
Status,79,9478617893,/g4t1,,success
Status,80,9498692803,/g4t1,,success
Status,81,9510823432,/g3t1_1,,running
Status,82,9511275384,/g3t1_1,,success
Status,83,9515924839,/g3t1_3,,running
Status,84,9515997261,/g3t1_3,,success
Status,85,9516698780,/g3t1_2,,running
Status,86,9517193681,/g3t1_2,,success
Status,87,9518672360,/g4t1,,fail
Status,88,9538734857,/g4t1,,success
Status,89,9559144240,/g4t1,,success
Status,90,9579213199,/g4t1,,success
Status,91,9599244050,/g4t1,,success
Status,92,9610737889,/g3t1_1,,running
Status,93,9611434600,/g3t1_1,,success
Status,94,9616149222,/g3t1_3,,running
Status,95,9616761607,/g3t1_3,,success
Status,96,9616899072,/g3t1_2,,running
Status,97,9617960812,/g3t1_2,,success
Status,98,9619246383,/g4t1,,fail
Status,99,9639566152,/g4t1,,success
Status,100,9659252178,/g4t1,,success
Status,101,9679235997,/g4t1,,success
Status,102,9699339894,/g4t1,,success
Status,103,9710329756,/g3t1_1,,running
Status,104,9710353378,/g3t1_1,,success
Status,105,9715690427,/g3t1_3,,running
Status,106,9715746335,/g3t1_3,,success
Status,107,9716698526,/g3t1_2,,running
Status,108,9716727074,/g3t1_2,,success
Status,109,9719462302,/g4t1,,fail
Status,110,9740131917,/g4t1,,success
Status,111,9760582273,/g4t1,,success
Status,112,9780576855,/g4t1,,success
Status,113,9800858657,/g4t1,,success
Status,114,9811000307,/g3t1_1,,running
Status,115,9811402844,/g3t1_1,,success
Status,116,9816004342,/g3t1_3,,running
Status,117,9816574270,/g3t1_3,,success
Status,118,9817002770,/g3t1_2,,running
Status,119,9817452365,/g3t1_2,,success
Status,120,9820356742,/g4t1,,fail
Status,121,9841176989,/g4t1,,success
Status,122,9861213092,/g4t1,,success
Status,123,9881335717,/g4t1,,success
Status,124,9901505363,/g4t1,,success
Status,125,9910965917,/g3t1_1,,running
Status,126,9911901310,/g3t1_1,,success
Status,127,9916313078,/g3t1_3,,running
Status,128,9916705363,/g3t1_3,,success
Status,129,9917079272,/g3t1_2,,running
Status,130,9917709858,/g3t1_2,,success
Status,131,9921292934,/g4t1,,fail
Status,132,9941883249,/g4t1,,success
Status,133,9961766543,/g4t1,,success
Status,134,9981853171,/g4t1,,success
Status,135,10002006546,/g4t1,,success
Status,136,10011177761,/g3t1_1,,running
Status,137,10011502674,/g3t1_1,,success
Status,138,10016237589,/g3t1_3,,running
Status,139,10016951373,/g3t1_3,,success
Status,140,10017056192,/g3t1_2,,running
Status,141,10017751153,/g3t1_2,,success
Status,142,10021942593,/g4t1,,fail
Status,143,10042139581,/g4t1,,success
Status,144,10062340512,/g4t1,,success
Status,145,10082397991,/g4t1,,success
Status,146,10102562109,/g4t1,,success
Status,147,10111793313,/g3t1_1,,running
Status,148,10112176607,/g3t1_1,,success
Status,149,10116521817,/g3t1_3,,running
Status,150,10117327852,/g3t1_3,,success
Status,151,10117378037,/g3t1_2,,running
Status,152,10117751322,/g3t1_2,,success
Status,153,10122185446,/g4t1,,fail
Status,154,10142758273,/g4t1,,success
Status,155,10162933006,/g4t1,,success
Status,156,10183048433,/g4t1,,success
Status,157,10203215674,/g4t1,,success
Status,158,10211495784,/g3t1_1,,running
Status,159,10211766334,/g3t1_1,,success
Status,160,10216694174,/g3t1_3,,running
Status,161,10217516919,/g3t1_3,,success
Status,162,10217613989,/g3t1_2,,running
Status,163,10218152485,/g3t1_2,,success
Status,164,10223521645,/g4t1,,fail
Status,165,10243795093,/g4t1,,success
Status,166,10263723397,/g4t1,,success
Status,167,10283699665,/g4t1,,success
Status,168,10303880428,/g4t1,,success
Status,169,10311632146,/g3t1_1,,running
Status,170,10312002189,/g3t1_1,,success
Status,171,10316541405,/g3t1_3,,running
Status,172,10316828809,/g3t1_3,,success
Status,173,10317666061,/g3t1_2,,running
Status,174,10318320803,/g3t1_2,,success
Status,175,10324101268,/g4t1,,fail
Status,176,10344341344,/g4t1,,success
Status,177,10364543558,/g4t1,,success
Status,178,10384661819,/g4t1,,success
Status,179,10404984314,/g4t1,,success
Status,180,10411990961,/g3t1_1,,running
Status,181,10412084077,/g3t1_1,,success
Status,182,10417850824,/g3t1_3,,running
Status,183,10417930737,/g3t1_3,,success
Status,184,10418048641,/g3t1_2,,running
Status,185,10418071906,/g3t1_2,,success
Status,186,10424993061,/g4t1,,fail
Status,187,10444973386,/g4t1,,success
Status,188,10465283517,/g4t1,,success
Status,189,10485366279,/g4t1,,success
Status,190,10505644621,/g4t1,,success
Status,191,10512037222,/g3t1_1,,running
Status,192,10512324422,/g3t1_1,,success
Status,193,10517025395,/g3t1_3,,running
Status,194,10517443041,/g3t1_3,,success
Status,195,10517543203,/g3t1_2,,running
Status,196,10518046908,/g3t1_2,,success
Status,197,10525406672,/g4t1,,fail
Status,198,10545726253,/g4t1,,success
Status,199,10565811379,/g4t1,,success
Status,200,10585942149,/g4t1,,success
Status,201,10605995810,/g4t1,,success
Status,202,10612091116,/g3t1_1,,running
Status,203,10612569180,/g3t1_1,,success
Status,204,10617119118,/g3t1_3,,running
Status,205,10617731507,/g3t1_3,,success
Status,206,10617790307,/g3t1_2,,running
Status,207,10618223403,/g3t1_2,,success
Status,208,10626128254,/g4t1,,fail
Status,209,10646179257,/g4t1,,success
Status,210,10666409795,/g4t1,,success
Status,211,10686000366,/g4t1,,success
Status,212,10706187277,/g4t1,,success
Status,213,10711796954,/g3t1_1,,running
Status,214,10711932480,/g3t1_1,,success
Status,215,10716925846,/g3t1_3,,running
Status,216,10717222830,/g3t1_3,,success
Status,217,10717564600,/g3t1_2,,running
Status,218,10717825849,/g3t1_2,,success
Status,219,10726374869,/g4t1,,fail
Status,220,10746442972,/g4t1,,success
Status,221,10766968686,/g4t1,,success
Status,222,10787079262,/g4t1,,success
Status,223,10807154256,/g4t1,,success
Status,224,10812145192,/g3t1_1,,running
Status,225,10812851692,/g3t1_1,,success
Status,226,10817232858,/g3t1_3,,running
Status,227,10817881414,/g3t1_3,,success
Status,228,10818128036,/g3t1_2,,running
Status,229,10818590474,/g3t1_2,,success
Status,230,10827064700,/g4t1,,fail
Status,231,10847474124,/g4t1,,success
Status,232,10867649708,/g4t1,,success
Status,233,10887784499,/g4t1,,success
Status,234,10907883357,/g4t1,,success
Status,235,10912568431,/g3t1_1,,running
Status,236,10912884203,/g3t1_1,,success
Status,237,10917370306,/g3t1_3,,running
Status,238,10917864265,/g3t1_3,,success
Status,239,10918068756,/g3t1_2,,running
Status,240,10918284827,/g3t1_2,,success
Status,241,10928042138,/g4t1,,fail
Status,242,10947982225,/g4t1,,success
Status,243,10968104868,/g4t1,,success
Status,244,10988234308,/g4t1,,success
Status,245,11008816049,/g4t1,,success
Status,246,11012529478,/g3t1_1,,running
Status,247,11012724729,/g3t1_1,,success
Status,248,11017454611,/g3t1_3,,running
Status,249,11017989436,/g3t1_3,,success
Status,250,11018164634,/g3t1_2,,running
Status,251,11018407408,/g3t1_2,,success
Status,252,11028518438,/g4t1,,fail
Status,253,11048803670,/g4t1,,success
Status,254,11068868541,/g4t1,,success
Status,255,11089097899,/g4t1,,success
Status,256,11109169876,/g4t1,,success
Status,257,11112551391,/g3t1_1,,running
Status,258,11112934611,/g3t1_1,,success
Status,259,11117582517,/g3t1_3,,running
Status,260,11118576630,/g3t1_2,,running
Status,261,11118651328,/g3t1_3,,success
Status,262,11118881777,/g3t1_2,,success
Status,263,11129356084,/g4t1,,fail
Status,264,11149635949,/g4t1,,success
Status,265,11169501032,/g4t1,,success
Status,266,11189752593,/g4t1,,success
Status,267,11209786497,/g4t1,,success
Status,268,11212985595,/g3t1_1,,running
Status,269,11213313575,/g3t1_1,,success
Status,270,11217921725,/g3t1_3,,running
Status,271,11218528149,/g3t1_3,,success
Status,272,11218601032,/g3t1_2,,running
Status,273,11219050803,/g3t1_2,,success
Status,274,11229786022,/g4t1,,fail
Status,275,11250025936,/g4t1,,success
Status,276,11270042120,/g4t1,,success
Status,277,11290233804,/g4t1,,success
Status,278,11310260004,/g4t1,,success
Status,279,11312983195,/g3t1_1,,running
Status,280,11313271543,/g3t1_1,,success
Status,281,11317747663,/g3t1_3,,running
Status,282,11318209426,/g3t1_3,,success
Status,283,11318891807,/g3t1_2,,running
Status,284,11318994763,/g3t1_2,,success
Status,285,11330255522,/g4t1,,fail
Status,286,11350533582,/g4t1,,success
Status,287,11370718581,/g4t1,,success
Status,288,11390933040,/g4t1,,success
Status,289,11410889395,/g4t1,,success
Status,290,11412960213,/g3t1_1,,running
Status,291,11413407424,/g3t1_1,,success
Status,292,11417923580,/g3t1_3,,running
Status,293,11418668588,/g3t1_3,,success
Status,294,11418744389,/g3t1_2,,running
Status,295,11419470366,/g3t1_2,,success
Status,296,11431170614,/g4t1,,fail
Status,297,11451189676,/g4t1,,success
Status,298,11470900600,/g4t1,,success
Status,299,11490865182,/g4t1,,success
Status,300,11511004739,/g4t1,,success
Status,301,11512533677,/g3t1_1,,running
Status,302,11512684582,/g3t1_1,,success
Status,303,11517571510,/g3t1_3,,running
Status,304,11517802992,/g3t1_3,,success
Status,305,11518220879,/g3t1_2,,running
Status,306,11518351396,/g3t1_2,,success
Status,307,11531543949,/g4t1,,fail
Status,308,11552039677,/g4t1,,success
Status,309,11572164926,/g4t1,,success
Status,310,11592333640,/g4t1,,success
Status,311,11612342270,/g4t1,,success
Status,312,11613209441,/g3t1_1,,running
Status,313,11613702169,/g3t1_1,,success
Status,314,11618907532,/g3t1_3,,running
Status,315,11619130347,/g3t1_2,,running
Status,316,11619180810,/g3t1_3,,success
Status,317,11619564197,/g3t1_2,,success
Status,318,11632344894,/g4t1,,fail
Status,319,11652506143,/g4t1,,success
Status,320,11672228633,/g4t1,,success
Status,321,11692348372,/g4t1,,success
Status,322,11712322817,/g4t1,,success
Status,323,11712814796,/g3t1_1,,running
Status,324,11713199090,/g3t1_1,,success
Status,325,11718027541,/g3t1_3,,running
Status,326,11718568737,/g3t1_3,,success
Status,327,11718621016,/g3t1_2,,running
Status,328,11718924035,/g3t1_2,,success
Status,329,11733098106,/g4t1,,fail
Status,330,11753238623,/g4t1,,success
Status,331,11773485429,/g4t1,,success
Status,332,11793425253,/g4t1,,success
Status,333,11813511259,/g3t1_1,,running
Status,334,11813660302,/g4t1,,success
Status,335,11813753088,/g3t1_1,,success
Status,336,11819201112,/g3t1_3,,running
Status,337,11819352138,/g3t1_2,,running
Status,338,11819425128,/g3t1_3,,success
Status,339,11819587169,/g3t1_2,,success
Status,340,11833641867,/g4t1,,fail
Status,341,11853854688,/g4t1,,success
Status,342,11873827987,/g4t1,,success
Status,343,11894089744,/g4t1,,success
Status,344,11913376025,/g3t1_1,,running
Status,345,11913744225,/g3t1_1,,success
Status,346,11913792173,/g4t1,,success
Status,347,11918390446,/g3t1_3,,running
Status,348,11919200285,/g3t1_3,,success
Status,349,11919267370,/g3t1_2,,running
Status,350,11920225056,/g3t1_2,,success
Status,351,11934353700,/g4t1,,fail
Status,352,11954428749,/g4t1,,success
Status,353,11974588199,/g4t1,,success
Status,354,11994695682,/g4t1,,success
Status,355,12013570317,/g3t1_1,,running
Status,356,12014099936,/g3t1_1,,success
Status,357,12014226604,/g4t1,,fail
Status,358,12018921890,/g3t1_3,,running
Status,359,12019099912,/g3t1_3,,success
Status,360,12019157297,/g3t1_2,,running
Status,361,12019418540,/g3t1_2,,success
Status,362,12034781890,/g4t1,,fail
Status,363,12054981145,/g4t1,,success
Status,364,12075177382,/g4t1,,success
Status,365,12095343637,/g4t1,,success
Status,366,12113731226,/g3t1_1,,running
Status,367,12114007249,/g3t1_1,,success
Status,368,12115031270,/g4t1,,success
Status,369,12119582848,/g3t1_3,,running
Status,370,12119687039,/g3t1_2,,running
Status,371,12119719813,/g3t1_2,,success
Status,372,12119788577,/g3t1_3,,success
Status,373,12135501175,/g4t1,,fail
Status,374,12155535440,/g4t1,,success
Status,375,12175557193,/g4t1,,success
Status,376,12195871469,/g4t1,,success
Status,377,12214030782,/g3t1_1,,running
Status,378,12214302465,/g3t1_1,,success
Status,379,12215836265,/g4t1,,fail
Status,380,12219344674,/g3t1_3,,running
Status,381,12220257459,/g3t1_3,,success
Status,382,12220320627,/g3t1_2,,running
Status,383,12220474316,/g3t1_2,,success
Status,384,12236154166,/g4t1,,fail
Status,385,12256220101,/g4t1,,success
Status,386,12276545074,/g4t1,,success
Status,387,12296429970,/g4t1,,success
Status,388,12314084750,/g3t1_1,,running
Status,389,12314146201,/g3t1_1,,success
Status,390,12316517740,/g4t1,,success
Status,391,12319191964,/g3t1_3,,running
Status,392,12319566572,/g3t1_2,,running
Status,393,12319636161,/g3t1_3,,success
Status,394,12320048423,/g3t1_2,,success
Status,395,12336536355,/g4t1,,fail
Status,396,12356499836,/g4t1,,success
Status,397,12377054047,/g4t1,,success
Status,398,12397289431,/g4t1,,success
Status,399,12414120954,/g3t1_1,,running
Status,400,12414496442,/g3t1_1,,success
Status,401,12417325858,/g4t1,,fail
Status,402,12419925387,/g3t1_3,,running
Status,403,12419989800,/g3t1_2,,running
Status,404,12420081401,/g3t1_2,,success
Status,405,12420116787,/g3t1_3,,success
Status,406,12437667089,/g4t1,,fail
Status,407,12457626456,/g4t1,,success
Status,408,12477731243,/g4t1,,success
Status,409,12497860025,/g4t1,,success
Status,410,12514190251,/g3t1_1,,running
Status,411,12514519921,/g3t1_1,,success
Status,412,12517747588,/g4t1,,success
Status,413,12519571230,/g3t1_3,,running
Status,414,12519809838,/g3t1_2,,running
Status,415,12519866788,/g3t1_3,,success
Status,416,12520179571,/g3t1_2,,success
Status,417,12537925336,/g4t1,,fail
Status,418,12558336225,/g4t1,,success
Status,419,12578388789,/g4t1,,success
Status,420,12598469823,/g4t1,,success
Status,421,12614341938,/g3t1_1,,running
Status,422,12614961372,/g3t1_1,,success
Status,423,12618472653,/g4t1,,fail
Status,424,12619565661,/g3t1_3,,running
Status,425,12619696977,/g3t1_2,,running
Status,426,12619953256,/g3t1_3,,success
Status,427,12620282986,/g3t1_2,,success
Status,428,12638768257,/g4t1,,fail
Status,429,12658189164,/g4t1,,success
Status,430,12678261770,/g4t1,,success
Status,431,12698384747,/g4t1,,success
Status,432,12714320256,/g3t1_1,,running
Status,433,12714367697,/g3t1_1,,success
Status,434,12718637027,/g4t1,,success
Status,435,12719144417,/g3t1_3,,running
Status,436,12719989925,/g3t1_2,,running
Status,437,12720032724,/g3t1_2,,success
Status,438,12720093878,/g3t1_3,,success
Status,439,12739303449,/g4t1,,fail
Status,440,12759172211,/g4t1,,success
Status,441,12779540638,/g4t1,,success
Status,442,12799822544,/g4t1,,success
Status,443,12815062684,/g3t1_1,,running
Status,444,12815126195,/g3t1_1,,success
Status,445,12819936486,/g3t1_3,,running
Status,446,12820013333,/g4t1,,fail
Status,447,12820145917,/g3t1_2,,running
Status,448,12820469814,/g3t1_3,,success
Status,449,12820667424,/g3t1_2,,success
Status,450,12840062558,/g4t1,,fail
Status,451,12860272269,/g4t1,,success
Status,452,12880709582,/g4t1,,success
Status,453,12900603135,/g4t1,,success
Status,454,12915008281,/g3t1_1,,running
Status,455,12915374276,/g3t1_1,,success
Status,456,12919607787,/g3t1_3,,running
Status,457,12920086816,/g3t1_3,,success
Status,458,12920196813,/g3t1_2,,running
Status,459,12920603841,/g4t1,,success
Status,460,12921012372,/g3t1_2,,success
Status,461,12941238455,/g4t1,,fail
Status,462,12960701364,/g4t1,,success
Status,463,12981012939,/g4t1,,success
Status,464,13001342659,/g4t1,,success
Status,465,13015050433,/g3t1_1,,running
Status,466,13015375354,/g3t1_1,,success
Status,467,13019914096,/g3t1_3,,running
Status,468,13019970354,/g3t1_3,,success
Status,469,13019989765,/g3t1_2,,running
Status,470,13020228359,/g3t1_2,,success
Status,471,13020917605,/g4t1,,fail
Status,472,13041573047,/g4t1,,success
Status,473,13061548949,/g4t1,,success
Status,474,13081770762,/g4t1,,success
Status,475,13101897625,/g4t1,,success
Status,476,13117437670,/g3t1_1,,running
Status,477,13117526457,/g3t1_1,,success
Status,478,13120750617,/g3t1_3,,running
Status,479,13120944941,/g3t1_2,,running
Status,480,13120989876,/g3t1_3,,success
Status,481,13121781221,/g4t1,,fail
Status,482,13121949870,/g3t1_2,,success
Status,483,13142254098,/g4t1,,fail
Status,484,13162240534,/g4t1,,success
Status,485,13182239322,/g4t1,,success
Status,486,13202461176,/g4t1,,success
Status,487,13215272773,/g3t1_1,,running
Status,488,13215614758,/g3t1_1,,success
Status,489,13220282655,/g3t1_3,,running
Status,490,13220343042,/g3t1_2,,running
Status,491,13220463006,/g3t1_3,,success
Status,492,13220994423,/g3t1_2,,success
Status,493,13222273330,/g4t1,,fail
Status,494,13241931555,/g4t1,,success
Status,495,13262021480,/g4t1,,success
Status,496,13282111866,/g4t1,,success
Status,497,13302903071,/g4t1,,success
Status,498,13315295938,/g3t1_1,,running
Status,499,13315623304,/g3t1_1,,success
Status,500,13320457871,/g3t1_3,,running
Status,501,13320518400,/g3t1_2,,running
Status,502,13320845718,/g3t1_3,,success
Status,503,13320902776,/g3t1_2,,success
Status,504,13322907180,/g4t1,,fail
Status,505,13343224924,/g4t1,,success
Status,506,13363427453,/g4t1,,success
Status,507,13383663665,/g4t1,,success
Status,508,13403868638,/g4t1,,success
Status,509,13415456701,/g3t1_1,,running
Status,510,13415908576,/g3t1_1,,success
Status,511,13420951025,/g3t1_3,,running
Status,512,13421028945,/g3t1_2,,running
Status,513,13421228647,/g3t1_2,,success
Status,514,13421259046,/g3t1_3,,success
Status,515,13424170256,/g4t1,,fail
Status,516,13444052861,/g4t1,,success
Status,517,13464325511,/g4t1,,success
Status,518,13484353313,/g4t1,,success
Status,519,13504645897,/g4t1,,success
Status,520,13516189478,/g3t1_1,,running
Status,521,13516480236,/g3t1_1,,success
Status,522,13521102526,/g3t1_3,,running
Status,523,13521242907,/g3t1_2,,running
Status,524,13521337203,/g3t1_3,,success
Status,525,13521662794,/g3t1_2,,success
Status,526,13524577319,/g4t1,,fail
Status,527,13544852080,/g4t1,,success
Status,528,13565127008,/g4t1,,success
Status,529,13585170654,/g4t1,,success
Status,530,13605056746,/g4t1,,success
Status,531,13615758349,/g3t1_1,,running
Status,532,13616560407,/g3t1_1,,success
Status,533,13621010197,/g3t1_3,,running
Status,534,13621238920,/g3t1_2,,running
Status,535,13621343376,/g3t1_2,,success
Status,536,13621557267,/g3t1_3,,success
Status,537,13625487626,/g4t1,,fail
Status,538,13645499603,/g4t1,,success
Status,539,13665218907,/g4t1,,success
Status,540,13685776597,/g4t1,,success
Status,541,13705533407,/g4t1,,success
Status,542,13715795431,/g3t1_1,,running
Status,543,13716227371,/g3t1_1,,success
Status,544,13720740364,/g3t1_3,,running
Status,545,13721067659,/g3t1_2,,running
Status,546,13721116235,/g3t1_3,,success
Status,547,13721265613,/g3t1_2,,success
Status,548,13725905830,/g4t1,,fail
Status,549,13745949023,/g4t1,,success
Status,550,13766128126,/g4t1,,success
Status,551,13786301495,/g4t1,,success
Status,552,13806396910,/g4t1,,success
Status,553,13816318786,/g3t1_1,,running
Status,554,13816465625,/g3t1_1,,success
Status,555,13820964430,/g3t1_3,,running
Status,556,13821046723,/g3t1_2,,running
Status,557,13821549293,/g3t1_3,,success
Status,558,13821632877,/g3t1_2,,success
Status,559,13826437527,/g4t1,,fail
Status,560,13846659278,/g4t1,,success
Status,561,13866763040,/g4t1,,success
Status,562,13886857040,/g4t1,,success
Status,563,13906953954,/g4t1,,success
Status,564,13916169059,/g3t1_1,,running
Status,565,13916692788,/g3t1_1,,success
Status,566,13921200460,/g3t1_3,,running
Status,567,13921412867,/g3t1_2,,running
Status,568,13921475066,/g3t1_3,,success
Status,569,13921542053,/g3t1_2,,success
Status,570,13926938194,/g4t1,,fail
Status,571,13947278554,/g4t1,,success
Status,572,13967371055,/g4t1,,success
Status,573,13987454991,/g4t1,,success
Status,574,14007764210,/g4t1,,success
Status,575,14016304322,/g3t1_1,,running
Status,576,14016585419,/g3t1_1,,success
Status,577,14021229534,/g3t1_3,,running
Status,578,14021341874,/g3t1_2,,running
Status,579,14021636218,/g3t1_3,,success
Status,580,14022143188,/g3t1_2,,success
Status,581,14027585017,/g4t1,,fail
Status,582,14047889671,/g4t1,,success
Status,583,14067678635,/g4t1,,success
Status,584,14088352065,/g4t1,,success
Status,585,14108284403,/g4t1,,success
Status,586,14116635277,/g3t1_1,,running
Status,587,14116834660,/g3t1_1,,success
Status,588,14121343233,/g3t1_3,,running
Status,589,14121803127,/g3t1_2,,running
Status,590,14121889295,/g3t1_3,,success
Status,591,14121921320,/g3t1_2,,success
Status,592,14128257201,/g4t1,,fail
Status,593,14148600612,/g4t1,,success
Status,594,14168666806,/g4t1,,success
Status,595,14189152169,/g4t1,,success
Status,596,14209248445,/g4t1,,success
Status,597,14216563448,/g3t1_1,,running
Status,598,14217172852,/g3t1_1,,success
Status,599,14221493653,/g3t1_3,,running
Status,600,14221676301,/g3t1_2,,running
Status,601,14222056995,/g3t1_3,,success
Status,602,14222122807,/g3t1_2,,success
Status,603,14229108572,/g4t1,,fail
Status,604,14249386575,/g4t1,,success
Status,605,14269560170,/g4t1,,success
Status,606,14289534895,/g4t1,,success
Status,607,14309735812,/g4t1,,success
Status,608,14316714108,/g3t1_1,,running
Status,609,14317437267,/g3t1_1,,success
Status,610,14321538629,/g3t1_3,,running
Status,611,14321673651,/g3t1_2,,running
Status,612,14322034146,/g3t1_3,,success
Status,613,14322111409,/g3t1_2,,success
Status,614,14329628608,/g4t1,,fail
Status,615,14350028013,/g4t1,,success
Status,616,14370212317,/g4t1,,success
Status,617,14390354228,/g4t1,,success
Status,618,14410387574,/g4t1,,success
Status,619,14416846023,/g3t1_1,,running
Status,620,14417211788,/g3t1_1,,success
Status,621,14421847709,/g3t1_3,,running
Status,622,14421896903,/g3t1_2,,running
Status,623,14421918815,/g3t1_3,,success
Status,624,14421937661,/g3t1_2,,success
Status,625,14430325805,/g4t1,,fail
Status,626,14450586445,/g4t1,,success
Status,627,14470780514,/g4t1,,success
Status,628,14490571049,/g4t1,,success
Status,629,14510877752,/g4t1,,success
Status,630,14516910041,/g3t1_1,,running
Status,631,14517457339,/g3t1_1,,success
Status,632,14522029256,/g3t1_3,,running
Status,633,14522199091,/g3t1_2,,running
Status,634,14522226704,/g3t1_3,,success
Status,635,14522307464,/g3t1_2,,success
Status,636,14531110787,/g4t1,,fail
Status,637,14551282310,/g4t1,,success
Status,638,14571329135,/g4t1,,success
Status,639,14591503456,/g4t1,,success
Status,640,14611716062,/g4t1,,success
Status,641,14617223141,/g3t1_1,,running
Status,642,14617460556,/g3t1_1,,success
Status,643,14622648647,/g3t1_3,,running
Status,644,14622722417,/g3t1_2,,running
Status,645,14622757222,/g3t1_2,,success
Status,646,14622944333,/g3t1_3,,success
Status,647,14631780631,/g4t1,,fail
Status,648,14652056330,/g4t1,,success
Status,649,14671790205,/g4t1,,success
Status,650,14691795156,/g4t1,,success
Status,651,14712256935,/g4t1,,success
Status,652,14717069969,/g3t1_1,,running
Status,653,14717378897,/g3t1_1,,success
Status,654,14722079833,/g3t1_3,,running
Status,655,14722310778,/g3t1_2,,running
Status,656,14722759251,/g3t1_3,,success
Status,657,14722814209,/g3t1_2,,success
Status,658,14732427957,/g4t1,,fail
Status,659,14752519086,/g4t1,,success
Status,660,14772667168,/g4t1,,success
Status,661,14793082791,/g4t1,,success
Status,662,14813108930,/g4t1,,success
Status,663,14817299207,/g3t1_1,,running
Status,664,14817521856,/g3t1_1,,success
Status,665,14822184175,/g3t1_3,,running
Status,666,14822285423,/g3t1_2,,running
Status,667,14822704566,/g3t1_3,,success
Status,668,14822762049,/g3t1_2,,success
Status,669,14832910269,/g4t1,,fail
Status,670,14853228304,/g4t1,,success
Status,671,14873280810,/g4t1,,success
Status,672,14893367376,/g4t1,,success
Status,673,14913859065,/g4t1,,success
Status,674,14917483567,/g3t1_1,,running
Status,675,14917916719,/g3t1_1,,success
Status,676,14922886083,/g3t1_2,,running
Status,677,14922953055,/g3t1_3,,running
Status,678,14923184100,/g3t1_3,,success
Status,679,14923224528,/g3t1_2,,success
Status,680,14933800505,/g4t1,,fail
Status,681,14953924591,/g4t1,,success
Status,682,14974427426,/g4t1,,success
Status,683,14994321616,/g4t1,,success
Status,684,15014416446,/g4t1,,success
Status,685,15017669197,/g3t1_1,,running
Status,686,15018382409,/g3t1_1,,success
Status,687,15022838501,/g3t1_3,,running
Status,688,15022912719,/g3t1_2,,running
Status,689,15022943765,/g3t1_3,,success
Status,690,15023504952,/g3t1_2,,success
Status,691,15034442179,/g4t1,,fail
Status,692,15054341184,/g4t1,,success
Status,693,15075083955,/g4t1,,success
Status,694,15094964020,/g4t1,,success
Status,695,15115237467,/g4t1,,success
Status,696,15117638961,/g3t1_1,,running
Status,697,15118169694,/g3t1_1,,success
Status,698,15122985091,/g3t1_3,,running
Status,699,15123073896,/g3t1_2,,running
Status,700,15123274760,/g3t1_3,,success
Status,701,15123295644,/g3t1_2,,success
Status,702,15135373651,/g4t1,,fail
Status,703,15155463414,/g4t1,,success
Status,704,15175572816,/g4t1,,success
Status,705,15195658082,/g4t1,,success
Status,706,15216007431,/g4t1,,success
Status,707,15217729289,/g3t1_1,,running
Status,708,15218243735,/g3t1_1,,success
Status,709,15222963974,/g3t1_3,,running
Status,710,15223049707,/g3t1_2,,running
Status,711,15223297555,/g3t1_3,,success
Status,712,15223376384,/g3t1_2,,success
Status,713,15236039653,/g4t1,,fail
Status,714,15256188403,/g4t1,,success
Status,715,15276088019,/g4t1,,success
Status,716,15296618782,/g4t1,,success
Status,717,15316660512,/g4t1,,success
Status,718,15317742890,/g3t1_1,,running
Status,719,15318353564,/g3t1_1,,success
Status,720,15323638285,/g3t1_3,,running
Status,721,15323693963,/g3t1_2,,running
Status,722,15323723046,/g3t1_2,,success
Status,723,15323793443,/g3t1_3,,success
Status,724,15336633461,/g4t1,,fail
Status,725,15357021472,/g4t1,,success
Status,726,15377147501,/g4t1,,success
Status,727,15397354944,/g4t1,,success
Status,728,15417487782,/g4t1,,success
Status,729,15417955674,/g3t1_1,,running
Status,730,15419002359,/g3t1_1,,success
Status,731,15423419564,/g3t1_3,,running
Status,732,15423483555,/g3t1_2,,running
Status,733,15423688249,/g3t1_2,,success
Status,734,15423753646,/g3t1_3,,success
Status,735,15437510659,/g4t1,,fail
Status,736,15457562418,/g4t1,,success
Status,737,15477734936,/g4t1,,success
Status,738,15497806536,/g4t1,,success
Status,739,15517868669,/g4t1,,success
Status,740,15517962796,/g3t1_1,,running
Status,741,15518439143,/g3t1_1,,success
Status,742,15523713015,/g3t1_2,,running
Status,743,15523780217,/g3t1_3,,running
Status,744,15523849831,/g3t1_2,,success
Status,745,15523867146,/g3t1_3,,success
Status,746,15538043645,/g4t1,,fail
Status,747,15558466819,/g4t1,,success
Status,748,15578405918,/g4t1,,success
Status,749,15598441406,/g4t1,,success
Status,750,15618594045,/g3t1_1,,running
Status,751,15618778071,/g4t1,,success
Status,752,15619030296,/g3t1_1,,success
Status,753,15623178058,/g3t1_2,,running
Status,754,15623259304,/g3t1_3,,running
Status,755,15623666791,/g3t1_2,,success
Status,756,15623736198,/g3t1_3,,success
Status,757,15638849908,/g4t1,,fail
Status,758,15659120551,/g4t1,,success
Status,759,15678618500,/g4t1,,success
Status,760,15699055401,/g4t1,,success
Status,761,15718498345,/g3t1_1,,running
Status,762,15719164558,/g3t1_1,,success
Status,763,15719217905,/g4t1,,success
Status,764,15723267504,/g3t1_2,,running
Status,765,15723336750,/g3t1_3,,running
Status,766,15723622267,/g3t1_3,,success
Status,767,15723925853,/g3t1_2,,success
Status,768,15739363247,/g4t1,,fail
Status,769,15759801602,/g4t1,,success
Status,770,15779608330,/g4t1,,success
Status,771,15799550648,/g4t1,,success
Status,772,15818646788,/g3t1_1,,running
Status,773,15819238698,/g3t1_1,,success
Status,774,15819505803,/g4t1,,success
Status,775,15823582013,/g3t1_3,,running
Status,776,15823643954,/g3t1_2,,running
Status,777,15823911061,/g3t1_3,,success
Status,778,15823958637,/g3t1_2,,success
Status,779,15839862468,/g4t1,,fail
Status,780,15860137751,/g4t1,,success
Status,781,15880306980,/g4t1,,success
Status,782,15900334351,/g4t1,,success
Status,783,15918858161,/g3t1_1,,running
Status,784,15919183947,/g3t1_1,,success
Status,785,15920770319,/g4t1,,fail
Status,786,15923712252,/g3t1_2,,running
Status,787,15923783273,/g3t1_3,,running
Status,788,15923994074,/g3t1_2,,success
Status,789,15924025487,/g3t1_3,,success
Status,790,15940758308,/g4t1,,fail
Status,791,15960718115,/g4t1,,success
Status,792,15980820769,/g4t1,,success
Status,793,16001072659,/g4t1,,success
Status,794,16019076102,/g3t1_1,,running
Status,795,16019140831,/g3t1_1,,success
Status,796,16020793198,/g4t1,,success
Status,797,16024092343,/g3t1_3,,running
Status,798,16024157867,/g3t1_3,,success
Status,799,16024213273,/g3t1_2,,running
Status,800,16024231214,/g3t1_2,,success
Status,801,16041319710,/g4t1,,fail
Status,802,16061336779,/g4t1,,success
Status,803,16081664613,/g4t1,,success
Status,804,16101784157,/g4t1,,success
Status,805,16118908073,/g3t1_1,,running
Status,806,16119194577,/g3t1_1,,success
Status,807,16121800226,/g4t1,,fail
Status,808,16124164767,/g3t1_3,,running
Status,809,16124296838,/g3t1_2,,running
Status,810,16124816068,/g3t1_2,,success
Status,811,16124878507,/g3t1_3,,success
Status,812,16141991959,/g4t1,,fail
Status,813,16161852135,/g4t1,,success
Status,814,16182221350,/g4t1,,success
Status,815,16202357619,/g4t1,,success
Status,816,16219421695,/g3t1_1,,running
Status,817,16219489409,/g3t1_1,,success
Status,818,16222293357,/g4t1,,success
Status,819,16223578337,/g3t1_3,,running
Status,820,16224104892,/g3t1_2,,running
Status,821,16224166407,/g3t1_3,,success
Status,822,16224264441,/g3t1_2,,success
Status,823,16242589675,/g4t1,,fail
Status,824,16262672927,/g4t1,,success
Status,825,16282810094,/g4t1,,success
Status,826,16303080073,/g4t1,,success
Status,827,16319045361,/g3t1_1,,running
Status,828,16319655827,/g3t1_1,,success
Status,829,16322941090,/g4t1,,fail
Status,830,16324155235,/g3t1_3,,running
Status,831,16324223550,/g3t1_2,,running
Status,832,16324292203,/g3t1_3,,success
Status,833,16324765994,/g3t1_2,,success
Status,834,16343352328,/g4t1,,fail
Status,835,16363566859,/g4t1,,success
Status,836,16383727372,/g4t1,,success
Status,837,16404165231,/g4t1,,success
Status,838,16419573937,/g3t1_1,,running
Status,839,16419654150,/g3t1_1,,success
Status,840,16424880715,/g3t1_3,,running
Status,841,16424949973,/g4t1,,success
Status,842,16424998092,/g3t1_2,,running
Status,843,16425302226,/g3t1_2,,success
Status,844,16425376312,/g3t1_3,,success
Status,845,16443971506,/g4t1,,fail
Status,846,16464527738,/g4t1,,success
Status,847,16484165184,/g4t1,,success
Status,848,16504676834,/g4t1,,success
Status,849,16519394486,/g3t1_1,,running
Status,850,16519625591,/g3t1_1,,success
Status,851,16524877374,/g3t1_3,,running
Status,852,16524947066,/g3t1_2,,running
Status,853,16525022112,/g4t1,,fail
Status,854,16525043029,/g3t1_2,,success
Status,855,16525445148,/g3t1_3,,success
Status,856,16545078366,/g4t1,,fail
Status,857,16565282052,/g4t1,,success
Status,858,16585292640,/g4t1,,success
Status,859,16605608006,/g4t1,,success
Status,860,16619483856,/g3t1_1,,running
Status,861,16619724977,/g3t1_1,,success
Status,862,16624776080,/g3t1_2,,running
Status,863,16624867855,/g3t1_3,,running
Status,864,16624901194,/g3t1_2,,success
Status,865,16625141348,/g3t1_3,,success
Status,866,16625629463,/g4t1,,fail
Status,867,16645981729,/g4t1,,success
Status,868,16666043677,/g4t1,,success
Status,869,16686246217,/g4t1,,success
Status,870,16706466049,/g4t1,,success
Status,871,16720061627,/g3t1_1,,running
Status,872,16720136823,/g3t1_1,,success
Status,873,16724858851,/g3t1_2,,running
Status,874,16724958819,/g3t1_3,,running
Status,875,16725620421,/g3t1_2,,success
Status,876,16726041146,/g3t1_3,,success
Status,877,16726194314,/g4t1,,fail
Status,878,16746564839,/g4t1,,success
Status,879,16766685245,/g4t1,,success
Status,880,16786782916,/g4t1,,success
Status,881,16806935344,/g4t1,,success
Status,882,16819718800,/g3t1_1,,running
Status,883,16820224533,/g3t1_1,,success
Status,884,16824855228,/g3t1_2,,running
Status,885,16824943895,/g3t1_3,,running
Status,886,16825508405,/g3t1_3,,success
Status,887,16825571235,/g3t1_2,,success
Status,888,16826882656,/g4t1,,fail
Status,889,16846904437,/g4t1,,success
Status,890,16867325544,/g4t1,,success
Status,891,16887489293,/g4t1,,success
Status,892,16907644014,/g4t1,,success
Status,893,16919695038,/g3t1_1,,running
Status,894,16920244708,/g3t1_1,,success
Status,895,16925147556,/g3t1_2,,running
Status,896,16925221332,/g3t1_3,,running
Status,897,16925314469,/g3t1_3,,success
Status,898,16925413512,/g3t1_2,,success
Status,899,16927481431,/g4t1,,fail
Status,900,16947676315,/g4t1,,success
Status,901,16967948799,/g4t1,,success
Status,902,16987944889,/g4t1,,success
Status,903,17008170890,/g4t1,,success
Status,904,17019833968,/g3t1_1,,running
Status,905,17020097535,/g3t1_1,,success
Status,906,17025580810,/g3t1_2,,running
Status,907,17025652657,/g3t1_3,,running
Status,908,17025679558,/g3t1_3,,success
Status,909,17025769408,/g3t1_2,,success
Status,910,17028008550,/g4t1,,fail
Status,911,17048630725,/g4t1,,success
Status,912,17068525310,/g4t1,,success
Status,913,17088715540,/g4t1,,success
Status,914,17108944882,/g4t1,,success
Status,915,17119996903,/g3t1_1,,running
Status,916,17120960051,/g3t1_1,,success
Status,917,17125692549,/g3t1_2,,running
Status,918,17125785829,/g3t1_3,,running
Status,919,17126199711,/g3t1_3,,success
Status,920,17126257530,/g3t1_2,,success
Status,921,17128349340,/g4t1,,fail
Status,922,17148999240,/g4t1,,success
Status,923,17168861993,/g4t1,,success
Status,924,17189294438,/g4t1,,success
Status,925,17209447462,/g4t1,,success
Status,926,17220468633,/g3t1_1,,running
Status,927,17220984045,/g3t1_1,,success
Status,928,17225342257,/g3t1_2,,running
Status,929,17225417395,/g3t1_3,,running
Status,930,17225849425,/g3t1_2,,success
Status,931,17225909364,/g3t1_3,,success
Status,932,17229161933,/g4t1,,fail
Status,933,17249707284,/g4t1,,success
Status,934,17269735384,/g4t1,,success
Status,935,17289834154,/g4t1,,success
Status,936,17309994315,/g4t1,,success
Status,937,17320304211,/g3t1_1,,running
Status,938,17320610116,/g3t1_1,,success
Status,939,17325463521,/g3t1_2,,running
Status,940,17325537882,/g3t1_3,,running
Status,941,17325829500,/g3t1_2,,success
Status,942,17325885638,/g3t1_3,,success
Status,943,17329773620,/g4t1,,fail
Status,944,17350226510,/g4t1,,success
Status,945,17370159032,/g4t1,,success
Status,946,17390538176,/g4t1,,success
Status,947,17410714784,/g4t1,,success
Status,948,17420311692,/g3t1_1,,running
Status,949,17420679304,/g3t1_1,,success
Status,950,17425897040,/g3t1_2,,running
Status,951,17425969482,/g3t1_3,,running
Status,952,17426048095,/g3t1_3,,success
Status,953,17426073062,/g3t1_2,,success
Status,954,17430585392,/g4t1,,fail
Status,955,17451078005,/g4t1,,success
Status,956,17471072495,/g4t1,,success
Status,957,17491193921,/g4t1,,success
Status,958,17511389694,/g4t1,,success
Status,959,17520535006,/g3t1_1,,running
Status,960,17520889344,/g3t1_1,,success
Status,961,17525359819,/g3t1_2,,running
Status,962,17525456759,/g3t1_3,,running
Status,963,17525809325,/g3t1_3,,success
Status,964,17525862094,/g3t1_2,,success
Status,965,17531108374,/g4t1,,fail
Status,966,17551660722,/g4t1,,success
Status,967,17571977725,/g4t1,,success
Status,968,17591605316,/g4t1,,success
Status,969,17612092838,/g4t1,,success
Status,970,17620534694,/g3t1_1,,running
Status,971,17620912759,/g3t1_1,,success
Status,972,17625479035,/g3t1_3,,running
Status,973,17625568993,/g3t1_2,,running
Status,974,17625614975,/g3t1_3,,success
Status,975,17626076159,/g3t1_2,,success
Status,976,17632118791,/g4t1,,fail
Status,977,17652325502,/g4t1,,success
Status,978,17672789990,/g4t1,,success
Status,979,17692874479,/g4t1,,success
Status,980,17712908916,/g4t1,,success
Status,981,17720572961,/g3t1_1,,running
Status,982,17720734365,/g3t1_1,,success
Status,983,17726007189,/g3t1_3,,running
Status,984,17726064158,/g3t1_2,,running
Status,985,17726086317,/g3t1_3,,success
Status,986,17726103418,/g3t1_2,,success
Status,987,17732836201,/g4t1,,fail
Status,988,17753060691,/g4t1,,success
Status,989,17773440968,/g4t1,,success
Status,990,17793388444,/g4t1,,success
Status,991,17813501124,/g4t1,,success
Status,992,17821024768,/g3t1_1,,running
Status,993,17821183171,/g3t1_1,,success
Status,994,17826389125,/g3t1_3,,running
Status,995,17826486847,/g3t1_2,,running
Status,996,17826523181,/g3t1_3,,success
Status,997,17826651403,/g3t1_2,,success
Status,998,17833510155,/g4t1,,fail
Status,999,17853739763,/g4t1,,success
Status,1000,17873785124,/g4t1,,success
Status,1001,17893893850,/g4t1,,success
Status,1002,17913976243,/g4t1,,success
Status,1003,17921033655,/g3t1_1,,running
Status,1004,17921274272,/g3t1_1,,success
Status,1005,17925889436,/g3t1_3,,running
Status,1006,17925957323,/g3t1_2,,running
Status,1007,17926413560,/g3t1_2,,success
Status,1008,17926455452,/g3t1_3,,success
Status,1009,17934000266,/g4t1,,fail
Status,1010,17954046001,/g4t1,,success
Status,1011,17974494200,/g4t1,,success
Status,1012,17994457367,/g4t1,,success
Status,1013,18014630381,/g4t1,,success
Status,1014,18021234899,/g3t1_1,,running
Status,1015,18021529304,/g3t1_1,,success
Status,1016,18026580508,/g3t1_3,,running
Status,1017,18026706735,/g3t1_2,,running
Status,1018,18026741226,/g3t1_3,,success
Status,1019,18026980547,/g3t1_2,,success
Status,1020,18034664894,/g4t1,,fail
Status,1021,18054740614,/g4t1,,success
Status,1022,18075013940,/g4t1,,success
Status,1023,18095179197,/g4t1,,success
Status,1024,18115258921,/g4t1,,success
Status,1025,18121294492,/g3t1_1,,running
Status,1026,18121454558,/g3t1_1,,success
Status,1027,18126403242,/g3t1_3,,running
Status,1028,18126469215,/g3t1_2,,running
Status,1029,18126534719,/g3t1_2,,success
Status,1030,18126552757,/g3t1_3,,success
Status,1031,18135268864,/g4t1,,fail
Status,1032,18155613905,/g4t1,,success
Status,1033,18175663213,/g4t1,,success
Status,1034,18195833861,/g4t1,,success
Status,1035,18215863014,/g4t1,,success
Status,1036,18222341868,/g3t1_1,,running
Status,1037,18222405000,/g3t1_1,,success
Status,1038,18227016897,/g3t1_2,,running
Status,1039,18227073241,/g3t1_3,,running
Status,1040,18227102465,/g3t1_2,,success
Status,1041,18227125216,/g3t1_3,,success
Status,1042,18236103137,/g4t1,,fail
Status,1043,18256252387,/g4t1,,success
Status,1044,18276302084,/g4t1,,success
Status,1045,18296517279,/g4t1,,success
Status,1046,18316538439,/g4t1,,success
Status,1047,18321335784,/g3t1_1,,running
Status,1048,18321691434,/g3t1_1,,success
Status,1049,18326662918,/g3t1_3,,running
Status,1050,18326740866,/g3t1_2,,running
Status,1051,18327297901,/g3t1_3,,success
Status,1052,18327525384,/g3t1_2,,success
Status,1053,18336261322,/g4t1,,fail
Status,1054,18356993881,/g4t1,,success
Status,1055,18376763937,/g4t1,,success
Status,1056,18397360965,/g4t1,,success
Status,1057,18417347377,/g4t1,,success
Status,1058,18421502505,/g3t1_1,,running
Status,1059,18421874403,/g3t1_1,,success
Status,1060,18426941694,/g3t1_2,,running
Status,1061,18427076094,/g3t1_3,,running
Status,1062,18427118351,/g3t1_2,,success
Status,1063,18427381302,/g3t1_3,,success
Status,1064,18437487269,/g4t1,,fail
Status,1065,18457709094,/g4t1,,success
Status,1066,18477906891,/g4t1,,success
Status,1067,18498235105,/g4t1,,success
Status,1068,18518332966,/g4t1,,success
Status,1069,18521753887,/g3t1_1,,running
Status,1070,18522460920,/g3t1_1,,success
Status,1071,18527206498,/g3t1_2,,running
Status,1072,18527293677,/g3t1_3,,running
Status,1073,18527350944,/g3t1_3,,success
Status,1074,18527580363,/g3t1_2,,success
Status,1075,18538075535,/g4t1,,fail
Status,1076,18558447767,/g4t1,,success
Status,1077,18578513030,/g4t1,,success
Status,1078,18598601966,/g4t1,,success
Status,1079,18618674996,/g4t1,,success
Status,1080,18621668852,/g3t1_1,,running
Status,1081,18622640968,/g3t1_1,,success
Status,1082,18627004849,/g3t1_2,,running
Status,1083,18627066631,/g3t1_3,,running
Status,1084,18627461053,/g3t1_3,,success
Status,1085,18627550719,/g3t1_2,,success
Status,1086,18638697054,/g4t1,,fail
Status,1087,18659188884,/g4t1,,success
Status,1088,18679091950,/g4t1,,success
Status,1089,18699134265,/g4t1,,success
Status,1090,18719307083,/g4t1,,success
Status,1091,18721892423,/g3t1_1,,running
Status,1092,18722155522,/g3t1_1,,success
Status,1093,18727476421,/g3t1_2,,running
Status,1094,18727527111,/g3t1_3,,running
Status,1095,18727552350,/g3t1_2,,success
Status,1096,18727572242,/g3t1_3,,success
Status,1097,18739512144,/g4t1,,fail
Status,1098,18759573864,/g4t1,,success
Status,1099,18779852405,/g4t1,,success
Status,1100,18799747988,/g4t1,,success
Status,1101,18820065468,/g4t1,,success
Status,1102,18821885731,/g3t1_1,,running
Status,1103,18822236940,/g3t1_1,,success
Status,1104,18827156303,/g3t1_2,,running
Status,1105,18827268738,/g3t1_3,,running
Status,1106,18827604557,/g3t1_2,,success
Status,1107,18827662031,/g3t1_3,,success
Status,1108,18840329405,/g4t1,,fail
Status,1109,18860453237,/g4t1,,success
Status,1110,18880523703,/g4t1,,success
Status,1111,18900688456,/g4t1,,success
Status,1112,18921050001,/g4t1,,success
Status,1113,18921900781,/g3t1_1,,running
Status,1114,18922412813,/g3t1_1,,success
Status,1115,18927761983,/g3t1_2,,running
Status,1116,18927806036,/g3t1_3,,running
Status,1117,18927904247,/g3t1_2,,success
Status,1118,18927923289,/g3t1_3,,success
Status,1119,18941220309,/g4t1,,fail
Status,1120,18961126005,/g4t1,,success
Status,1121,18981290313,/g4t1,,success
Status,1122,19001425379,/g4t1,,success
Status,1123,19021337633,/g4t1,,success
Status,1124,19022354672,/g3t1_1,,running
Status,1125,19022420317,/g3t1_1,,success
Status,1126,19027227400,/g3t1_2,,running
Status,1127,19027259024,/g3t1_2,,success
Status,1128,19027298703,/g3t1_3,,running
Status,1129,19027310709,/g3t1_3,,success
Status,1130,19040870511,/g4t1,,fail
Status,1131,19061123502,/g4t1,,success
Status,1132,19081325288,/g4t1,,success
Status,1133,19101978565,/g4t1,,success
Status,1134,19122008331,/g4t1,,success
Status,1135,19122087865,/g3t1_1,,running
Status,1136,19122373143,/g3t1_1,,success
Status,1137,19127772297,/g3t1_3,,running
Status,1138,19127813638,/g3t1_2,,running
Status,1139,19127893075,/g3t1_3,,success
Status,1140,19127911846,/g3t1_2,,success
Status,1141,19142077134,/g4t1,,fail
Status,1142,19162230328,/g4t1,,success
Status,1143,19182387614,/g4t1,,success
Status,1144,19202589248,/g4t1,,success
Status,1145,19222326231,/g3t1_1,,running
Status,1146,19222545967,/g4t1,,success
Status,1147,19222817906,/g3t1_1,,success
Status,1148,19227693277,/g3t1_3,,running
Status,1149,19228046076,/g3t1_2,,running
Status,1150,19228117833,/g3t1_2,,success
Status,1151,19228187463,/g3t1_3,,success
Status,1152,19242125869,/g4t1,,fail
Status,1153,19262094671,/g4t1,,success
Status,1154,19282179581,/g4t1,,success
Status,1155,19302761144,/g4t1,,success
Status,1156,19322036276,/g3t1_1,,running
Status,1157,19322063049,/g3t1_1,,success
Status,1158,19322244848,/g4t1,,success
Status,1159,19327194097,/g3t1_3,,running
Status,1160,19327231112,/g3t1_2,,running
Status,1161,19327241184,/g3t1_3,,success
Status,1162,19327367536,/g3t1_2,,success
Status,1163,19342552484,/g4t1,,fail
Status,1164,19362890142,/g4t1,,success
Status,1165,19383337535,/g4t1,,success
Status,1166,19403464425,/g4t1,,success
Status,1167,19422395028,/g3t1_1,,running
Status,1168,19422604185,/g3t1_1,,success
Status,1169,19423383899,/g4t1,,fail
Status,1170,19427933006,/g3t1_2,,running
Status,1171,19428030330,/g3t1_3,,running
Status,1172,19428568753,/g3t1_2,,success
Status,1173,19428640846,/g3t1_3,,success
Status,1174,19443625977,/g4t1,,fail
Status,1175,19464257116,/g4t1,,success
Status,1176,19484107246,/g4t1,,success
Status,1177,19504213419,/g4t1,,success
Status,1178,19522336941,/g3t1_1,,running
Status,1179,19522564814,/g3t1_1,,success
Status,1180,19523616762,/g4t1,,success
Status,1181,19527901268,/g3t1_2,,running
Status,1182,19527936982,/g3t1_3,,running
Status,1183,19527950163,/g3t1_2,,success
Status,1184,19527961222,/g3t1_3,,success
Status,1185,19544251590,/g4t1,,fail
Status,1186,19563821737,/g4t1,,success
Status,1187,19584093536,/g4t1,,success
Status,1188,19604600460,/g4t1,,success
Status,1189,19622932914,/g3t1_1,,running
Status,1190,19623319791,/g3t1_1,,success
Status,1191,19624496385,/g4t1,,fail
Status,1192,19628065950,/g3t1_2,,running
Status,1193,19628130695,/g3t1_3,,running
Status,1194,19628351106,/g3t1_2,,success
Status,1195,19628693469,/g3t1_3,,success
Status,1196,19644959113,/g4t1,,fail
Status,1197,19664802701,/g4t1,,success
Status,1198,19684704259,/g4t1,,success
Status,1199,19705018326,/g4t1,,success
Status,1200,19723008364,/g3t1_1,,running
Status,1201,19723145737,/g3t1_1,,success
Status,1202,19725209150,/g4t1,,success
Status,1203,19729279073,/g3t1_3,,running
Status,1204,19729405218,/g3t1_3,,success
Status,1205,19729482040,/g3t1_2,,running
Status,1206,19729532357,/g3t1_2,,success
Status,1207,19745465079,/g4t1,,fail
Status,1208,19765695507,/g4t1,,success
Status,1209,19785957685,/g4t1,,success
Status,1210,19806008002,/g4t1,,success
Status,1211,19823177629,/g3t1_1,,running
Status,1212,19823681330,/g3t1_1,,success
Status,1213,19826024672,/g4t1,,fail
Status,1214,19828335467,/g3t1_3,,running
Status,1215,19828485695,/g3t1_2,,running
Status,1216,19829233292,/g3t1_3,,success
Status,1217,19829301098,/g3t1_2,,success
Status,1218,19846140717,/g4t1,,fail
Status,1219,19866215370,/g4t1,,success
Status,1220,19886367259,/g4t1,,success
Status,1221,19906626441,/g4t1,,success
Status,1222,19923236181,/g3t1_1,,running
Status,1223,19923578164,/g3t1_1,,success
Status,1224,19926409357,/g4t1,,success
Status,1225,19928186430,/g3t1_2,,running
Status,1226,19928302784,/g3t1_3,,running
Status,1227,19928623906,/g3t1_3,,success
Status,1228,19928679429,/g3t1_2,,success
Status,1229,19946444298,/g4t1,,fail
Status,1230,19966696754,/g4t1,,success
Status,1231,19986508623,/g4t1,,success
Status,1232,20006671886,/g4t1,,success
Status,1233,20023000954,/g3t1_1,,running
Status,1234,20023195641,/g3t1_1,,success
Status,1235,20026682036,/g4t1,,fail
Status,1236,20028246007,/g3t1_2,,running
Status,1237,20028542290,/g3t1_3,,running
Status,1238,20028581529,/g3t1_2,,success
Status,1239,20028599795,/g3t1_3,,success
Status,1240,20047316607,/g4t1,,fail
Status,1241,20067445224,/g4t1,,success
Status,1242,20087603447,/g4t1,,success
Status,1243,20107681635,/g4t1,,success
Status,1244,20123189810,/g3t1_1,,running
Status,1245,20123547782,/g3t1_1,,success
Status,1246,20127678952,/g4t1,,success
Status,1247,20128696849,/g3t1_2,,running
Status,1248,20129455721,/g3t1_3,,running
Status,1249,20129513329,/g3t1_3,,success
Status,1250,20129592115,/g3t1_2,,success
Status,1251,20148193558,/g4t1,,fail
Status,1252,20168201132,/g4t1,,success
Status,1253,20188346165,/g4t1,,success
Status,1254,20208714295,/g4t1,,success
Status,1255,20223332241,/g3t1_1,,running
Status,1256,20223564703,/g3t1_1,,success
Status,1257,20228767579,/g4t1,,fail
Status,1258,20228829705,/g3t1_2,,running
Status,1259,20229010014,/g3t1_3,,running
Status,1260,20229380775,/g3t1_2,,success
Status,1261,20229459683,/g3t1_3,,success
Status,1262,20248672109,/g4t1,,fail
Status,1263,20268897208,/g4t1,,success
Status,1264,20288677515,/g4t1,,success
Status,1265,20309118438,/g4t1,,success
Status,1266,20323773924,/g3t1_1,,running
Status,1267,20324025133,/g3t1_1,,success
Status,1268,20329082882,/g3t1_2,,running
Status,1269,20329279746,/g3t1_3,,running
Status,1270,20329342480,/g4t1,,success
Status,1271,20329411868,/g3t1_3,,success
Status,1272,20329580346,/g3t1_2,,success
Status,1273,20349352882,/g4t1,,fail
Status,1274,20369604711,/g4t1,,success
Status,1275,20389796489,/g4t1,,success
Status,1276,20409677332,/g4t1,,success
Status,1277,20423963169,/g3t1_1,,running
Status,1278,20424108610,/g3t1_1,,success
Status,1279,20429637962,/g3t1_2,,running
Status,1280,20429701580,/g3t1_3,,running
Status,1281,20429774159,/g3t1_2,,success
Status,1282,20429799894,/g4t1,,fail
Status,1283,20429825380,/g3t1_3,,success
Status,1284,20450118841,/g4t1,,fail
Status,1285,20470179495,/g4t1,,success
Status,1286,20490402109,/g4t1,,success
Status,1287,20510575755,/g4t1,,success
Status,1288,20524137999,/g3t1_1,,running
Status,1289,20524739273,/g3t1_1,,success
Status,1290,20529493286,/g3t1_2,,running
Status,1291,20529553414,/g3t1_3,,running
Status,1292,20529619972,/g3t1_3,,success
Status,1293,20530009868,/g3t1_2,,success
Status,1294,20530251496,/g4t1,,success
Status,1295,20550590572,/g4t1,,fail
Status,1296,20570897415,/g4t1,,success
Status,1297,20591045178,/g4t1,,success
Status,1298,20611195166,/g4t1,,success
Status,1299,20624382941,/g3t1_1,,running
Status,1300,20624461443,/g3t1_1,,success
Status,1301,20629335846,/g3t1_3,,running
Status,1302,20629561141,/g3t1_2,,running
Status,1303,20630152225,/g3t1_3,,success
Status,1304,20630435527,/g3t1_2,,success
Status,1305,20631115225,/g4t1,,fail
Status,1306,20651076870,/g4t1,,success
Status,1307,20671355288,/g4t1,,success
Status,1308,20691233367,/g4t1,,success
Status,1309,20711658935,/g4t1,,success
Status,1310,20724620327,/g3t1_1,,running
Status,1311,20724901372,/g3t1_1,,success
Status,1312,20729664624,/g3t1_2,,running
Status,1313,20729740834,/g3t1_3,,running
Status,1314,20730003525,/g3t1_3,,success
Status,1315,20730359777,/g3t1_2,,success
Status,1316,20731613358,/g4t1,,fail
Status,1317,20752177987,/g4t1,,success
Status,1318,20772581178,/g4t1,,success
Status,1319,20792237012,/g4t1,,success
Status,1320,20812479735,/g4t1,,success
Status,1321,20824292443,/g3t1_1,,running
Status,1322,20825275767,/g3t1_1,,success
Status,1323,20829961798,/g3t1_2,,running
Status,1324,20830107566,/g3t1_2,,success
Status,1325,20830145609,/g3t1_3,,running
Status,1326,20830167568,/g3t1_3,,success
Status,1327,20832319438,/g4t1,,fail
Status,1328,20852643795,/g4t1,,success
Status,1329,20872691266,/g4t1,,success
Status,1330,20892842410,/g4t1,,success
Status,1331,20913055636,/g4t1,,success
Status,1332,20924840223,/g3t1_1,,running
Status,1333,20925120901,/g3t1_1,,success
Status,1334,20929711172,/g3t1_2,,running
Status,1335,20929833133,/g3t1_3,,running
Status,1336,20930436464,/g3t1_3,,success
Status,1337,20930511220,/g3t1_2,,success
Status,1338,20932914022,/g4t1,,fail
Status,1339,20953150424,/g4t1,,success
Status,1340,20973461272,/g4t1,,success
Status,1341,20993587487,/g4t1,,success
Status,1342,21013822757,/g4t1,,success
Status,1343,21024920859,/g3t1_1,,running
Status,1344,21025292136,/g3t1_1,,success
Status,1345,21030045383,/g3t1_2,,running
Status,1346,21030106166,/g3t1_3,,running
Status,1347,21030141883,/g3t1_2,,success
Status,1348,21030319733,/g3t1_3,,success
Status,1349,21033704550,/g4t1,,fail
Status,1350,21053891136,/g4t1,,success
Status,1351,21073660466,/g4t1,,success
Status,1352,21093966659,/g4t1,,success
Status,1353,21114030471,/g4t1,,success
Status,1354,21125194753,/g3t1_1,,running
Status,1355,21125381636,/g3t1_1,,success
Status,1356,21129863602,/g3t1_2,,running
Status,1357,21129962292,/g3t1_3,,running
Status,1358,21130819157,/g3t1_2,,success
Status,1359,21130877574,/g3t1_3,,success
Status,1360,21134052245,/g4t1,,fail
Status,1361,21154413611,/g4t1,,success
Status,1362,21174561872,/g4t1,,success
Status,1363,21194815578,/g4t1,,success
Status,1364,21214956603,/g4t1,,success
Status,1365,21225091527,/g3t1_1,,running
Status,1366,21225470342,/g3t1_1,,success
Status,1367,21230399482,/g3t1_2,,running
Status,1368,21230462561,/g3t1_3,,running
Status,1369,21230523474,/g3t1_2,,success
Status,1370,21230746683,/g3t1_3,,success
Status,1371,21234928211,/g4t1,,fail
Status,1372,21255215479,/g4t1,,success
Status,1373,21275201847,/g4t1,,success
Status,1374,21295407813,/g4t1,,success
Status,1375,21315555297,/g4t1,,success
Status,1376,21325333221,/g3t1_1,,running
Status,1377,21325587939,/g3t1_1,,success
Status,1378,21330169593,/g3t1_2,,running
Status,1379,21330242369,/g3t1_3,,running
Status,1380,21330774340,/g3t1_2,,success
Status,1381,21331380947,/g3t1_3,,success
Status,1382,21335362227,/g4t1,,fail
Status,1383,21355657352,/g4t1,,success
Status,1384,21375786079,/g4t1,,success
Status,1385,21395965809,/g4t1,,success
Status,1386,21416205109,/g4t1,,success
Status,1387,21425335773,/g3t1_1,,running
Status,1388,21425723693,/g3t1_1,,success
Status,1389,21430505900,/g3t1_2,,running
Status,1390,21430569324,/g3t1_3,,running
Status,1391,21430598991,/g3t1_2,,success
Status,1392,21430624066,/g3t1_3,,success
Status,1393,21436058644,/g4t1,,fail
Status,1394,21456677896,/g4t1,,success
Status,1395,21476751844,/g4t1,,success
Status,1396,21497020906,/g4t1,,success
Status,1397,21517070539,/g4t1,,success
Status,1398,21525531882,/g3t1_1,,running
Status,1399,21525663275,/g3t1_1,,success
Status,1400,21530285002,/g3t1_3,,running
Status,1401,21530352529,/g3t1_2,,running
Status,1402,21530738818,/g3t1_3,,success
Status,1403,21530798277,/g3t1_2,,success
Status,1404,21536867512,/g4t1,,fail
Status,1405,21557182611,/g4t1,,success
Status,1406,21577398502,/g4t1,,success
Status,1407,21597237717,/g4t1,,success
Status,1408,21617634430,/g4t1,,success
Status,1409,21625664247,/g3t1_1,,running
Status,1410,21626023956,/g3t1_1,,success
Status,1411,21630589407,/g3t1_2,,running
Status,1412,21630646756,/g3t1_3,,running
Status,1413,21630666420,/g3t1_3,,success
Status,1414,21630720259,/g3t1_2,,success
Status,1415,21637681348,/g4t1,,fail
Status,1416,21658094630,/g4t1,,success
Status,1417,21678148876,/g4t1,,success
Status,1418,21698127464,/g4t1,,success
Status,1419,21718371213,/g4t1,,success
Status,1420,21726130338,/g3t1_1,,running
Status,1421,21726194027,/g3t1_1,,success
Status,1422,21730456171,/g3t1_3,,running
Status,1423,21730578372,/g3t1_2,,running
Status,1424,21731111217,/g3t1_3,,success
Status,1425,21731172922,/g3t1_2,,success
Status,1426,21738260051,/g4t1,,fail
Status,1427,21758486409,/g4t1,,success
Status,1428,21778822108,/g4t1,,success
Status,1429,21798809734,/g4t1,,success
Status,1430,21818971051,/g4t1,,success
Status,1431,21825563974,/g3t1_1,,running
Status,1432,21826210479,/g3t1_1,,success
Status,1433,21830961695,/g3t1_3,,running
Status,1434,21831034194,/g3t1_2,,running
Status,1435,21831571654,/g3t1_3,,success
Status,1436,21831675097,/g3t1_2,,success
Status,1437,21839553510,/g4t1,,fail
Status,1438,21859386009,/g4t1,,success
Status,1439,21879662305,/g4t1,,success
Status,1440,21899708677,/g4t1,,success
Status,1441,21919734205,/g4t1,,success
Status,1442,21925905386,/g3t1_1,,running
Status,1443,21926469278,/g3t1_1,,success
Status,1444,21930869655,/g3t1_2,,running
Status,1445,21930929560,/g3t1_3,,running
Status,1446,21931603587,/g3t1_3,,success
Status,1447,21931709693,/g3t1_2,,success
Status,1448,21940032175,/g4t1,,fail
Status,1449,21960019912,/g4t1,,success
Status,1450,21980226349,/g4t1,,success
Status,1451,22000310166,/g4t1,,success
Status,1452,22020249776,/g4t1,,success
Status,1453,22026125922,/g3t1_1,,running
Status,1454,22026467839,/g3t1_1,,success
Status,1455,22030977709,/g3t1_2,,running
Status,1456,22031090895,/g3t1_3,,running
Status,1457,22031903401,/g3t1_3,,success
Status,1458,22031955977,/g3t1_2,,success
Status,1459,22040682992,/g4t1,,fail
Status,1460,22060631818,/g4t1,,success
Status,1461,22081029091,/g4t1,,success
Status,1462,22100935523,/g4t1,,success
Status,1463,22121032394,/g4t1,,success
Status,1464,22126324512,/g3t1_1,,running
Status,1465,22126749127,/g3t1_1,,success
Status,1466,22131140619,/g3t1_2,,running
Status,1467,22131292546,/g3t1_3,,running
Status,1468,22131901674,/g3t1_2,,success
Status,1469,22131960338,/g3t1_3,,success
Status,1470,22141327511,/g4t1,,fail
Status,1471,22161518183,/g4t1,,success
Status,1472,22181592304,/g4t1,,success
Status,1473,22201988280,/g4t1,,success
Status,1474,22222016990,/g4t1,,success
Status,1475,22226549999,/g3t1_1,,running
Status,1476,22226606975,/g3t1_1,,success
Status,1477,22231411655,/g3t1_2,,running
Status,1478,22231456154,/g3t1_3,,running
Status,1479,22231511193,/g3t1_2,,success
Status,1480,22231876100,/g3t1_3,,success
Status,1481,22241909340,/g4t1,,fail
Status,1482,22262194762,/g4t1,,success
Status,1483,22282293920,/g4t1,,success
Status,1484,22302420233,/g4t1,,success
Status,1485,22322767061,/g4t1,,success
Status,1486,22326631122,/g3t1_1,,running
Status,1487,22326932960,/g3t1_1,,success
Status,1488,22331366669,/g3t1_2,,running
Status,1489,22331773045,/g3t1_3,,running
Status,1490,22331841298,/g3t1_2,,success
Status,1491,22332185763,/g3t1_3,,success
Status,1492,22342569693,/g4t1,,fail
Status,1493,22362948240,/g4t1,,success
Status,1494,22382788321,/g4t1,,success
Status,1495,22403188903,/g4t1,,success
Status,1496,22423587561,/g4t1,,success
Status,1497,22426380831,/g3t1_1,,running
Status,1498,22427127784,/g3t1_1,,success
Status,1499,22431767534,/g3t1_2,,running
Status,1500,22431951933,/g3t1_3,,running
Status,1501,22431996445,/g3t1_2,,success
Status,1502,22432196787,/g3t1_3,,success
Status,1503,22443348433,/g4t1,,fail
Status,1504,22463578763,/g4t1,,success
Status,1505,22483665091,/g4t1,,success
Status,1506,22503938494,/g4t1,,success
Status,1507,22524287833,/g4t1,,success
Status,1508,22526919636,/g3t1_1,,running
Status,1509,22527194053,/g3t1_1,,success
Status,1510,22532082571,/g3t1_2,,running
Status,1511,22532179085,/g3t1_3,,running
Status,1512,22532261628,/g3t1_3,,success
Status,1513,22532522435,/g3t1_2,,success
Status,1514,22544353790,/g4t1,,fail
Status,1515,22564235975,/g4t1,,success
Status,1516,22584485533,/g4t1,,success
Status,1517,22604770633,/g4t1,,success
Status,1518,22624744835,/g4t1,,success
Status,1519,22626778784,/g3t1_1,,running
Status,1520,22627093329,/g3t1_1,,success
Status,1521,22631697009,/g3t1_2,,running
Status,1522,22631997085,/g3t1_3,,running
Status,1523,22632086428,/g3t1_2,,success
Status,1524,22632146145,/g3t1_3,,success
Status,1525,22644969449,/g4t1,,fail
Status,1526,22664644343,/g4t1,,success
Status,1527,22684513397,/g4t1,,success
Status,1528,22705248788,/g4t1,,success
Status,1529,22725663421,/g4t1,,success
Status,1530,22727058786,/g3t1_1,,running
Status,1531,22727653934,/g3t1_1,,success
Status,1532,22731918810,/g3t1_2,,running
Status,1533,22732468075,/g3t1_3,,running
Status,1534,22732985902,/g3t1_2,,success
Status,1535,22733109225,/g3t1_3,,success
Status,1536,22745502049,/g4t1,,fail
Status,1537,22765711844,/g4t1,,success
Status,1538,22785787837,/g4t1,,success
Status,1539,22806007227,/g4t1,,success
Status,1540,22825791502,/g4t1,,success
Status,1541,22827152153,/g3t1_1,,running
Status,1542,22827797365,/g3t1_1,,success
