
Status,2,3491518142,/g4t1,,init
Status,3,8637457117,/g3t1_1,,init
Status,5,8646677790,/g3t1_1,,init
Status,6,8646697029,/g3t1_1,,running
Status,7,8647128919,/g3t1_1,,success
Status,8,8696876241,/g3t1_1,,running
Status,9,8696971010,/g3t1_1,,success
Status,10,8746967067,/g3t1_1,,running
Status,11,8747056791,/g3t1_1,,success
Status,12,8797066147,/g3t1_1,,running
Status,13,8797105032,/g3t1_1,,success
Status,15,8803169621,/g3t1_2,,init
Status,16,8809777792,/g3t1_2,,init
Status,17,8809800250,/g3t1_2,,running
Status,18,8810323057,/g3t1_2,,success
Status,19,8847217714,/g3t1_1,,running
Status,20,8847313818,/g3t1_1,,success
Status,21,8859947695,/g3t1_2,,running
Status,22,8859963473,/g3t1_2,,success
Status,23,8897392684,/g3t1_1,,running
Status,24,8897410296,/g3t1_1,,success
Status,26,8903689832,/g3t1_3,,init
Status,27,8909924338,/g3t1_2,,running
Status,28,8909940847,/g3t1_2,,success
Status,29,8911240163,/g3t1_3,,init
Status,30,8911257516,/g3t1_3,,running
Status,31,8911799750,/g3t1_3,,success
Status,32,8947654961,/g3t1_1,,running
Status,33,8947678240,/g3t1_1,,success
Status,34,8960268624,/g3t1_2,,running
Status,35,8960410899,/g3t1_2,,success
Status,36,8961526759,/g3t1_3,,running
Status,37,8961680495,/g3t1_3,,success
Status,38,8998205524,/g3t1_1,,running
Status,39,8998591900,/g3t1_1,,success
Status,40,9010831855,/g3t1_2,,running
Status,41,9012402417,/g3t1_2,,success
Status,42,9012488548,/g3t1_3,,running
Status,43,9012539197,/g4t1,,success
Status,44,9013535136,/g3t1_3,,success
Status,45,9048041268,/g3t1_1,,running
Status,46,9048487888,/g3t1_1,,success
Status,47,9060941510,/g3t1_2,,running
Status,48,9061321365,/g3t1_2,,success
Status,49,9062164210,/g3t1_3,,running
Status,50,9062402663,/g3t1_3,,success
Status,51,9098788157,/g3t1_1,,running
Status,52,9098856856,/g3t1_1,,success
Status,53,9110954916,/g3t1_2,,running
Status,54,9111500683,/g3t1_2,,success
Status,55,9111750049,/g4t1,,success
Status,56,9112413789,/g3t1_3,,running
Status,57,9112464485,/g3t1_3,,success
Status,58,9148429668,/g3t1_1,,running
Status,59,9148823582,/g3t1_1,,success
Status,60,9161469614,/g3t1_2,,running
Status,61,9161864452,/g3t1_2,,success
Status,62,9162547763,/g3t1_3,,running
Status,63,9163520132,/g3t1_3,,success
Status,64,9199049456,/g3t1_1,,running
Status,65,9199522259,/g3t1_1,,success
Status,66,9211554574,/g3t1_2,,running
Status,67,9211957579,/g3t1_2,,success
Status,68,9212553523,/g4t1,,success
Status,69,9212668346,/g3t1_3,,running
Status,70,9213414183,/g3t1_3,,success
Status,71,9248887772,/g3t1_1,,running
Status,72,9248985767,/g3t1_1,,success
Status,73,9261805944,/g3t1_2,,running
Status,74,9262267921,/g3t1_2,,success
Status,75,9263193814,/g3t1_3,,running
Status,76,9263276063,/g3t1_3,,success
Status,77,9299267665,/g3t1_1,,running
Status,78,9299844424,/g3t1_1,,success
Status,79,9311962590,/g3t1_2,,running
Status,80,9312062921,/g3t1_2,,success
Status,81,9312599850,/g4t1,,fail
Status,82,9312686644,/g3t1_3,,running
Status,83,9313605199,/g3t1_3,,success
Status,84,9348922388,/g3t1_1,,running
Status,85,9349436221,/g3t1_1,,success
Status,86,9361756263,/g3t1_2,,running
Status,87,9362430207,/g3t1_2,,success
Status,88,9363045955,/g3t1_3,,running
Status,89,9363503976,/g3t1_3,,success
Status,90,9399401028,/g3t1_1,,running
Status,91,9399945504,/g3t1_1,,success
Status,92,9411871261,/g3t1_2,,running
Status,93,9413204793,/g4t1,,fail
Status,94,9413393346,/g3t1_2,,success
Status,95,9413424418,/g3t1_3,,running
Status,96,9413492508,/g3t1_3,,success
Status,97,9449222728,/g3t1_1,,running
Status,98,9449559471,/g3t1_1,,success
Status,99,9462076657,/g3t1_2,,running
Status,100,9462357886,/g3t1_2,,success
Status,101,9463678286,/g3t1_3,,running
Status,102,9463745609,/g3t1_3,,success
Status,103,9499604807,/g3t1_1,,running
Status,104,9500082955,/g3t1_1,,success
Status,105,9511943280,/g3t1_2,,running
Status,106,9512430769,/g3t1_2,,success
Status,107,9512522987,/g4t1,,fail
Status,108,9513821334,/g3t1_3,,running
Status,109,9514202059,/g3t1_3,,success
Status,110,9549417844,/g3t1_1,,running
Status,111,9549531941,/g3t1_1,,success
Status,112,9562230425,/g3t1_2,,running
Status,113,9562564947,/g3t1_2,,success
Status,114,9563537202,/g3t1_3,,running
Status,115,9563826773,/g3t1_3,,success
Status,116,9599886251,/g3t1_1,,running
Status,117,9600521390,/g3t1_1,,success
Status,118,9612426012,/g3t1_2,,running
Status,119,9612497531,/g3t1_2,,success
Status,120,9613053676,/g4t1,,fail
Status,121,9613368071,/g3t1_3,,running
Status,122,9613440923,/g3t1_3,,success
Status,123,9649828305,/g3t1_1,,running
Status,124,9650182622,/g3t1_1,,success
Status,125,9662869776,/g3t1_2,,running
Status,126,9663371570,/g3t1_2,,success
Status,127,9663462487,/g3t1_3,,running
Status,128,9664089815,/g3t1_3,,success
Status,129,9700131126,/g3t1_1,,running
Status,130,9700504638,/g3t1_1,,success
Status,131,9712889317,/g3t1_2,,running
Status,132,9712997657,/g4t1,,fail
Status,133,9713657764,/g3t1_3,,running
Status,134,9714063884,/g3t1_3,,success
Status,135,9714414399,/g3t1_2,,success
Status,136,9750261456,/g3t1_1,,running
Status,137,9750585452,/g3t1_1,,success
Status,138,9762853545,/g3t1_2,,running
Status,139,9763161950,/g3t1_2,,success
Status,140,9764144285,/g3t1_3,,running
Status,141,9764203495,/g3t1_3,,success
Status,142,9800585676,/g3t1_1,,running
Status,143,9801055641,/g3t1_1,,success
Status,144,9812906987,/g3t1_2,,running
Status,145,9812989669,/g4t1,,fail
Status,146,9813292856,/g3t1_2,,success
Status,147,9813785870,/g3t1_3,,running
Status,148,9814350400,/g3t1_3,,success
Status,149,9850603546,/g3t1_1,,running
Status,150,9851061078,/g3t1_1,,success
Status,151,9863421086,/g3t1_2,,running
Status,152,9863863292,/g3t1_2,,success
Status,153,9864122750,/g3t1_3,,running
Status,154,9864181113,/g3t1_3,,success
Status,155,9900587956,/g3t1_1,,running
Status,156,9901053660,/g3t1_1,,success
Status,157,9913100219,/g4t1,,fail
Status,158,9913190347,/g3t1_2,,running
Status,159,9913574575,/g3t1_2,,success
Status,160,9914165367,/g3t1_3,,running
Status,161,9914485102,/g3t1_3,,success
Status,162,9951032632,/g3t1_1,,running
Status,163,9951269739,/g3t1_1,,success
Status,164,9963341466,/g3t1_2,,running
Status,165,9963667316,/g3t1_2,,success
Status,166,9964259001,/g3t1_3,,running
Status,167,9964803297,/g3t1_3,,success
Status,168,10000931522,/g3t1_1,,running
Status,169,10001371121,/g3t1_1,,success
Status,170,10013227160,/g4t1,,fail
Status,171,10013314135,/g3t1_2,,running
Status,172,10013757724,/g3t1_2,,success
Status,173,10014133969,/g3t1_3,,running
Status,174,10014636874,/g3t1_3,,success
Status,175,10051095188,/g3t1_1,,running
Status,176,10051780968,/g3t1_1,,success
Status,177,10063525626,/g3t1_2,,running
Status,178,10064162041,/g3t1_2,,success
Status,179,10064806182,/g3t1_3,,running
Status,180,10064866824,/g3t1_3,,success
Status,181,10101197713,/g3t1_1,,running
Status,182,10102028476,/g3t1_1,,success
Status,183,10113241452,/g4t1,,fail
Status,184,10113292341,/g3t1_2,,running
Status,185,10113415463,/g3t1_2,,success
Status,186,10114296061,/g3t1_3,,running
Status,187,10114384505,/g3t1_3,,success
Status,188,10150724231,/g3t1_1,,running
Status,189,10150772591,/g3t1_1,,success
Status,190,10163764325,/g3t1_2,,running
Status,191,10163841232,/g3t1_2,,success
Status,192,10164563361,/g3t1_3,,running
Status,193,10165136960,/g3t1_3,,success
Status,194,10201274926,/g3t1_1,,running
Status,195,10202019632,/g3t1_1,,success
Status,196,10213525069,/g4t1,,fail
Status,197,10213612171,/g3t1_2,,running
Status,198,10214188701,/g3t1_2,,success
Status,199,10214473063,/g3t1_3,,running
Status,200,10215433353,/g3t1_3,,success
Status,201,10251600944,/g3t1_1,,running
Status,202,10252002620,/g3t1_1,,success
Status,203,10263889166,/g3t1_2,,running
Status,204,10264257378,/g3t1_2,,success
Status,205,10264665898,/g3t1_3,,running
Status,206,10264961867,/g3t1_3,,success
Status,207,10301674253,/g3t1_1,,running
Status,208,10301999104,/g3t1_1,,success
Status,209,10313416342,/g4t1,,fail
Status,210,10313806469,/g3t1_2,,running
Status,211,10314157537,/g3t1_2,,success
Status,212,10314843778,/g3t1_3,,running
Status,213,10315651077,/g3t1_3,,success
Status,214,10352393797,/g3t1_1,,running
Status,215,10352481996,/g3t1_1,,success
Status,216,10364612487,/g3t1_2,,running
Status,217,10364692112,/g3t1_2,,success
Status,218,10364804454,/g3t1_3,,running
Status,219,10365949997,/g3t1_3,,success
Status,220,10402869527,/g3t1_1,,running
Status,221,10402940658,/g3t1_1,,success
Status,222,10413707680,/g4t1,,fail
Status,223,10414443843,/g3t1_2,,running
Status,224,10415069214,/g3t1_2,,success
Status,225,10415447436,/g3t1_3,,running
Status,226,10415524236,/g3t1_3,,success
Status,227,10452074774,/g3t1_1,,running
Status,228,10452650062,/g3t1_1,,success
Status,229,10464359683,/g3t1_2,,running
Status,230,10464435242,/g3t1_2,,success
Status,231,10464984613,/g3t1_3,,running
Status,232,10465496383,/g3t1_3,,success
Status,233,10502241318,/g3t1_1,,running
Status,234,10502490766,/g3t1_1,,success
Status,235,10513761762,/g4t1,,fail
Status,236,10514446810,/g3t1_2,,running
Status,237,10515412275,/g3t1_2,,success
Status,238,10515472339,/g3t1_3,,running
Status,239,10515798638,/g3t1_3,,success
Status,240,10552854453,/g3t1_1,,running
Status,241,10552926725,/g3t1_1,,success
Status,242,10564949301,/g3t1_2,,running
Status,243,10565040640,/g3t1_2,,success
Status,244,10565484502,/g3t1_3,,running
Status,245,10565842563,/g3t1_3,,success
Status,246,10602632185,/g3t1_1,,running
Status,247,10602721169,/g3t1_1,,success
Status,248,10614104111,/g4t1,,fail
Status,249,10614535932,/g3t1_2,,running
Status,250,10615435237,/g3t1_2,,success
Status,251,10615549942,/g3t1_3,,running
Status,252,10615896430,/g3t1_3,,success
Status,253,10652728389,/g3t1_1,,running
Status,254,10653225914,/g3t1_1,,success
Status,255,10665019914,/g3t1_2,,running
Status,256,10665304626,/g3t1_2,,success
Status,257,10665357217,/g3t1_3,,running
Status,258,10666050112,/g3t1_3,,success
Status,259,10702897705,/g3t1_1,,running
Status,260,10703312646,/g3t1_1,,success
Status,261,10714231343,/g4t1,,fail
Status,262,10715019912,/g3t1_2,,running
Status,263,10715779214,/g3t1_2,,success
Status,264,10715872032,/g3t1_3,,running
Status,265,10716302328,/g3t1_3,,success
Status,266,10753136172,/g3t1_1,,running
Status,267,10753204608,/g3t1_1,,success
Status,268,10765088758,/g3t1_2,,running
Status,269,10765525221,/g3t1_2,,success
Status,270,10765964566,/g3t1_3,,running
Status,271,10766547856,/g3t1_3,,success
Status,272,10803574364,/g3t1_1,,running
Status,273,10803641733,/g3t1_1,,success
Status,274,10814861524,/g4t1,,fail
Status,275,10815430808,/g3t1_2,,running
Status,276,10816101732,/g3t1_2,,success
Status,277,10816186347,/g3t1_3,,running
Status,278,10816645223,/g3t1_3,,success
Status,279,10853405393,/g3t1_1,,running
Status,280,10853483266,/g3t1_1,,success
Status,281,10865490253,/g3t1_2,,running
Status,282,10866263977,/g3t1_3,,running
Status,283,10866354088,/g3t1_2,,success
Status,284,10866868903,/g3t1_3,,success
Status,285,10903456831,/g3t1_1,,running
Status,286,10903544426,/g3t1_1,,success
Status,287,10914537443,/g4t1,,fail
Status,288,10915460097,/g3t1_2,,running
Status,289,10916229566,/g3t1_2,,success
Status,290,10916406070,/g3t1_3,,running
Status,291,10916780704,/g3t1_3,,success
Status,292,10953500056,/g3t1_1,,running
Status,293,10954085384,/g3t1_1,,success
Status,294,10965855160,/g3t1_2,,running
Status,295,10965996110,/g3t1_2,,success
Status,296,10966443644,/g3t1_3,,running
Status,297,10966960095,/g3t1_3,,success
Status,298,11003682201,/g3t1_1,,running
Status,299,11004165963,/g3t1_1,,success
Status,300,11014605021,/g4t1,,fail
Status,301,11015813591,/g3t1_2,,running
Status,302,11016619414,/g3t1_2,,success
Status,303,11016802282,/g3t1_3,,running
Status,304,11017196267,/g3t1_3,,success
Status,305,11053587918,/g3t1_1,,running
Status,306,11053913804,/g3t1_1,,success
Status,307,11065890846,/g3t1_2,,running
Status,308,11066476302,/g3t1_2,,success
Status,309,11066627622,/g3t1_3,,running
Status,310,11067107984,/g3t1_3,,success
Status,311,11103982552,/g3t1_1,,running
Status,312,11104259166,/g3t1_1,,success
Status,313,11114809678,/g4t1,,fail
Status,314,11115752283,/g3t1_2,,running
Status,315,11116102988,/g3t1_2,,success
Status,316,11116628762,/g3t1_3,,running
Status,317,11116740020,/g3t1_3,,success
Status,318,11153963078,/g3t1_1,,running
Status,319,11154392031,/g3t1_1,,success
Status,320,11166282292,/g3t1_2,,running
Status,321,11167446736,/g3t1_2,,success
Status,322,11167582009,/g3t1_3,,running
Status,323,11167900224,/g3t1_3,,success
Status,324,11204378300,/g3t1_1,,running
Status,325,11204699195,/g3t1_1,,success
Status,326,11214661913,/g4t1,,fail
Status,327,11215896822,/g3t1_2,,running
Status,328,11216232014,/g3t1_2,,success
Status,329,11217084808,/g3t1_3,,running
Status,330,11217153699,/g3t1_3,,success
Status,331,11254335769,/g3t1_1,,running
Status,332,11254834339,/g3t1_1,,success
Status,333,11266552745,/g3t1_2,,running
Status,334,11267217292,/g3t1_2,,success
Status,335,11267330561,/g3t1_3,,running
Status,336,11267983825,/g3t1_3,,success
Status,337,11304813366,/g3t1_1,,running
Status,338,11304906555,/g3t1_1,,success
Status,339,11314970981,/g4t1,,fail
Status,340,11316337673,/g3t1_2,,running
Status,341,11317012076,/g3t1_2,,success
Status,342,11317165581,/g3t1_3,,running
Status,343,11317713390,/g3t1_3,,success
Status,344,11355158017,/g3t1_1,,running
Status,345,11355443192,/g3t1_1,,success
Status,346,11366484613,/g3t1_2,,running
Status,347,11367529202,/g3t1_3,,running
Status,348,11367632725,/g3t1_2,,success
Status,349,11367793229,/g3t1_3,,success
Status,350,11404830630,/g3t1_1,,running
Status,351,11405053227,/g3t1_1,,success
Status,352,11414932974,/g4t1,,fail
Status,353,11416304807,/g3t1_2,,running
Status,354,11416606133,/g3t1_2,,success
Status,355,11417081392,/g3t1_3,,running
Status,356,11417289436,/g3t1_3,,success
Status,357,11455184296,/g3t1_1,,running
Status,358,11455549125,/g3t1_1,,success
Status,359,11466950364,/g3t1_2,,running
Status,360,11467901269,/g3t1_2,,success
Status,361,11467965517,/g3t1_3,,running
Status,362,11468390564,/g3t1_3,,success
Status,363,11505204373,/g3t1_1,,running
Status,364,11505398809,/g3t1_1,,success
Status,365,11515054324,/g4t1,,fail
Status,366,11516858545,/g3t1_2,,running
Status,367,11517524961,/g3t1_2,,success
Status,368,11517645253,/g3t1_3,,running
Status,369,11517843170,/g3t1_3,,success
Status,370,11555572879,/g3t1_1,,running
Status,371,11555954676,/g3t1_1,,success
Status,372,11567090455,/g3t1_2,,running
Status,373,11567993910,/g3t1_2,,success
Status,374,11568063087,/g3t1_3,,running
Status,375,11568465376,/g3t1_3,,success
Status,376,11605230675,/g3t1_1,,running
Status,377,11605518155,/g3t1_1,,success
Status,378,11615717468,/g4t1,,fail
Status,379,11617486987,/g3t1_2,,running
Status,380,11618244400,/g3t1_2,,success
Status,381,11618327630,/g3t1_3,,running
Status,382,11618429553,/g3t1_3,,success
Status,383,11655826724,/g3t1_1,,running
Status,384,11656212442,/g3t1_1,,success
Status,385,11667512806,/g3t1_2,,running
Status,386,11667885826,/g3t1_2,,success
Status,387,11668060967,/g3t1_3,,running
Status,388,11668582283,/g3t1_3,,success
Status,389,11706139794,/g3t1_1,,running
Status,390,11706255730,/g3t1_1,,success
Status,391,11715640847,/g4t1,,fail
Status,392,11717559780,/g3t1_2,,running
Status,393,11718155867,/g3t1_2,,success
Status,394,11718343320,/g3t1_3,,running
Status,395,11718716290,/g3t1_3,,success
Status,396,11756138201,/g3t1_1,,running
Status,397,11756558999,/g3t1_1,,success
Status,398,11767412237,/g3t1_2,,running
Status,399,11768002982,/g3t1_2,,success
Status,400,11768074254,/g3t1_3,,running
Status,401,11768332492,/g3t1_3,,success
Status,402,11806251964,/g3t1_1,,running
Status,403,11807305555,/g3t1_1,,success
Status,404,11816117531,/g4t1,,fail
Status,405,11817773803,/g3t1_2,,running
Status,406,11818657198,/g3t1_2,,success
Status,407,11818840554,/g3t1_3,,running
Status,408,11818888307,/g3t1_3,,success
Status,409,11856186737,/g3t1_1,,running
Status,410,11856666998,/g3t1_1,,success
Status,411,11867772418,/g3t1_2,,running
Status,412,11867848311,/g3t1_2,,success
Status,413,11868431300,/g3t1_3,,running
Status,414,11868544010,/g3t1_3,,success
Status,415,11906480342,/g3t1_1,,running
Status,416,11906831749,/g3t1_1,,success
Status,417,11915979954,/g4t1,,fail
Status,418,11917980251,/g3t1_2,,running
Status,419,11918628760,/g3t1_2,,success
Status,420,11918721977,/g3t1_3,,running
Status,421,11919441736,/g3t1_3,,success
Status,422,11956805450,/g3t1_1,,running
Status,423,11957395500,/g3t1_1,,success
Status,424,11968810237,/g3t1_2,,running
Status,425,11968882626,/g3t1_2,,success
Status,426,11968980108,/g3t1_3,,running
Status,427,11969262794,/g3t1_3,,success
Status,428,12006884394,/g3t1_1,,running
Status,429,12007291404,/g3t1_1,,success
Status,430,12016160005,/g4t1,,fail
Status,431,12017973247,/g3t1_2,,running
Status,432,12018897017,/g3t1_2,,success
Status,433,12018982203,/g3t1_3,,running
Status,434,12019436853,/g3t1_3,,success
Status,435,12057065232,/g3t1_1,,running
Status,436,12057131457,/g3t1_1,,success
Status,437,12068192398,/g3t1_2,,running
Status,438,12069014197,/g3t1_3,,running
Status,439,12069117970,/g3t1_2,,success
Status,440,12069167527,/g3t1_3,,success
Status,441,12107136276,/g3t1_1,,running
Status,442,12107377966,/g3t1_1,,success
Status,443,12116220608,/g4t1,,fail
Status,444,12118645244,/g3t1_2,,running
Status,445,12118973818,/g3t1_3,,running
Status,446,12119084308,/g3t1_2,,success
Status,447,12120084443,/g3t1_3,,success
Status,448,12157557248,/g3t1_1,,running
Status,449,12157623217,/g3t1_1,,success
Status,450,12168540829,/g3t1_2,,running
Status,451,12169241891,/g3t1_3,,running
Status,452,12169402028,/g3t1_2,,success
Status,453,12169835788,/g3t1_3,,success
Status,454,12207666992,/g3t1_1,,running
Status,455,12208150677,/g3t1_1,,success
Status,456,12216491629,/g4t1,,fail
Status,457,12218976017,/g3t1_2,,running
Status,458,12219230710,/g3t1_2,,success
Status,459,12219317276,/g3t1_3,,running
Status,460,12219872475,/g3t1_3,,success
Status,461,12257747378,/g3t1_1,,running
Status,462,12257836373,/g3t1_1,,success
Status,463,12268990863,/g3t1_2,,running
Status,464,12269610664,/g3t1_3,,running
Status,465,12269693345,/g3t1_2,,success
Status,466,12270076998,/g3t1_3,,success
Status,467,12307920312,/g3t1_1,,running
Status,468,12308458191,/g3t1_1,,success
Status,469,12316480054,/g4t1,,fail
Status,470,12318999764,/g3t1_2,,running
Status,471,12319705866,/g3t1_3,,running
Status,472,12319761849,/g3t1_2,,success
Status,473,12320026744,/g3t1_3,,success
Status,474,12358014338,/g3t1_1,,running
Status,475,12358611401,/g3t1_1,,success
Status,476,12369482280,/g3t1_2,,running
Status,477,12369876878,/g3t1_3,,running
Status,478,12370017996,/g3t1_2,,success
Status,479,12370283623,/g3t1_3,,success
Status,480,12408185324,/g3t1_1,,running
Status,481,12408571425,/g3t1_1,,success
Status,482,12416664496,/g4t1,,fail
Status,483,12420030146,/g3t1_2,,running
Status,484,12420111717,/g3t1_2,,success
Status,485,12420190358,/g3t1_3,,running
Status,486,12420213721,/g3t1_3,,success
Status,487,12458536713,/g3t1_1,,running
Status,488,12458880555,/g3t1_1,,success
Status,489,12469850428,/g3t1_2,,running
Status,490,12469980766,/g3t1_3,,running
Status,491,12470150831,/g3t1_2,,success
Status,492,12470799581,/g3t1_3,,success
Status,493,12508470631,/g3t1_1,,running
Status,494,12508972582,/g3t1_1,,success
Status,495,12516670286,/g4t1,,fail
Status,496,12519950166,/g3t1_2,,running
Status,497,12520026651,/g3t1_2,,success
Status,498,12520106194,/g3t1_3,,running
Status,499,12520538727,/g3t1_3,,success
Status,500,12558373116,/g3t1_1,,running
Status,501,12558988098,/g3t1_1,,success
Status,502,12569861396,/g3t1_2,,running
Status,503,12570033908,/g3t1_2,,success
Status,504,12570090810,/g3t1_3,,running
Status,505,12570983556,/g3t1_3,,success
Status,506,12608636561,/g3t1_1,,running
Status,507,12609049842,/g3t1_1,,success
Status,508,12617128421,/g4t1,,fail
Status,509,12619712699,/g3t1_2,,running
Status,510,12620166973,/g3t1_3,,running
Status,511,12620220828,/g3t1_2,,success
Status,512,12620931027,/g3t1_3,,success
Status,513,12658576025,/g3t1_1,,running
Status,514,12659288658,/g3t1_1,,success
Status,515,12670309964,/g3t1_2,,running
Status,516,12670437302,/g3t1_3,,running
Status,517,12670560781,/g3t1_2,,success
Status,518,12671145359,/g3t1_3,,success
Status,519,12708799885,/g3t1_1,,running
Status,520,12709216145,/g3t1_1,,success
Status,521,12716974282,/g4t1,,fail
Status,522,12719865625,/g3t1_2,,running
Status,523,12720534897,/g3t1_3,,running
Status,524,12720631618,/g3t1_2,,success
Status,525,12721035051,/g3t1_3,,success
Status,526,12759181618,/g3t1_1,,running
Status,527,12759490029,/g3t1_1,,success
Status,528,12770185220,/g3t1_2,,running
Status,529,12770932391,/g3t1_2,,success
Status,530,12771040846,/g3t1_3,,running
Status,531,12771143001,/g3t1_3,,success
Status,532,12809150822,/g3t1_1,,running
Status,533,12809614258,/g3t1_1,,success
Status,534,12817132863,/g4t1,,fail
Status,535,12820420347,/g3t1_2,,running
Status,536,12820544693,/g3t1_3,,running
Status,537,12820743825,/g3t1_2,,success
Status,538,12821170870,/g3t1_3,,success
Status,539,12859412658,/g3t1_1,,running
Status,540,12859511163,/g3t1_1,,success
Status,541,12870227008,/g3t1_2,,running
Status,542,12870873383,/g3t1_2,,success
Status,543,12871509308,/g3t1_3,,running
Status,544,12871638837,/g3t1_3,,success
Status,545,12909488410,/g3t1_1,,running
Status,546,12909768364,/g3t1_1,,success
Status,547,12917314944,/g4t1,,fail
Status,548,12920377611,/g3t1_2,,running
Status,549,12920981787,/g3t1_2,,success
Status,550,12921339058,/g3t1_3,,running
Status,551,12921626852,/g3t1_3,,success
Status,552,12959547419,/g3t1_1,,running
Status,553,12959923466,/g3t1_1,,success
Status,554,12970921851,/g3t1_2,,running
Status,555,12971023864,/g3t1_2,,success
Status,556,12971271626,/g3t1_3,,running
Status,557,12972188620,/g3t1_3,,success
Status,558,13009925289,/g3t1_1,,running
Status,559,13009995156,/g3t1_1,,success
Status,560,13017320418,/g4t1,,fail
Status,561,13020376036,/g3t1_2,,running
Status,562,13021057852,/g3t1_2,,success
Status,563,13021136168,/g3t1_3,,running
Status,564,13021928787,/g3t1_3,,success
Status,565,13059793540,/g3t1_1,,running
Status,566,13060280967,/g3t1_1,,success
Status,567,13071289799,/g3t1_2,,running
Status,568,13071385585,/g3t1_2,,success
Status,569,13071431703,/g3t1_3,,running
Status,570,13071740376,/g3t1_3,,success
Status,571,13110039526,/g3t1_1,,running
Status,572,13110445704,/g3t1_1,,success
Status,573,13117539032,/g4t1,,fail
Status,574,13121011586,/g3t1_2,,running
Status,575,13121081869,/g3t1_2,,success
Status,576,13121247779,/g3t1_3,,running
Status,577,13121909545,/g3t1_3,,success
Status,578,13160327516,/g3t1_1,,running
Status,579,13160398084,/g3t1_1,,success
Status,580,13171734530,/g3t1_2,,running
Status,581,13171784579,/g3t1_3,,running
Status,582,13171807766,/g3t1_2,,success
Status,583,13171990400,/g3t1_3,,success
Status,584,13210348411,/g3t1_1,,running
Status,585,13210850435,/g3t1_1,,success
Status,586,13217673038,/g4t1,,fail
Status,587,13220918313,/g3t1_2,,running
Status,588,13221262059,/g3t1_3,,running
Status,589,13221369354,/g3t1_2,,success
Status,590,13221795147,/g3t1_3,,success
Status,591,13260468820,/g3t1_1,,running
Status,592,13260920664,/g3t1_1,,success
Status,593,13271763499,/g3t1_2,,running
Status,594,13271953333,/g3t1_3,,running
Status,595,13272082366,/g3t1_2,,success
Status,596,13272488338,/g3t1_3,,success
Status,597,13310509478,/g3t1_1,,running
Status,598,13311022898,/g3t1_1,,success
Status,599,13317987471,/g4t1,,fail
Status,600,13321581174,/g3t1_2,,running
Status,601,13321659980,/g3t1_2,,success
Status,602,13321826984,/g3t1_3,,running
Status,603,13322101001,/g3t1_3,,success
Status,604,13360810427,/g3t1_1,,running
Status,605,13361279880,/g3t1_1,,success
Status,606,13371784079,/g3t1_2,,running
Status,607,13372674935,/g3t1_3,,running
Status,608,13372747959,/g3t1_2,,success
Status,609,13372839818,/g3t1_3,,success
Status,610,13410834457,/g3t1_1,,running
Status,611,13411262567,/g3t1_1,,success
Status,612,13417879758,/g4t1,,fail
Status,613,13421578305,/g3t1_2,,running
Status,614,13422000066,/g3t1_3,,running
Status,615,13422344931,/g3t1_2,,success
Status,616,13422684244,/g3t1_3,,success
Status,617,13461052299,/g3t1_1,,running
Status,618,13461392931,/g3t1_1,,success
Status,619,13472832017,/g3t1_2,,running
Status,620,13472902000,/g3t1_3,,running
Status,621,13472927179,/g3t1_3,,success
Status,622,13472950426,/g3t1_2,,success
Status,623,13511291837,/g3t1_1,,running
Status,624,13511431165,/g3t1_1,,success
Status,625,13518111435,/g4t1,,fail
Status,626,13521883522,/g3t1_2,,running
Status,627,13522072532,/g3t1_3,,running
Status,628,13522575162,/g3t1_2,,success
Status,629,13522674941,/g3t1_3,,success
Status,630,13561433539,/g3t1_1,,running
Status,631,13561742946,/g3t1_1,,success
Status,632,13571910861,/g3t1_2,,running
Status,633,13572555923,/g3t1_2,,success
Status,634,13572740727,/g3t1_3,,running
Status,635,13573007066,/g3t1_3,,success
Status,636,13611168114,/g3t1_1,,running
Status,637,13611580603,/g3t1_1,,success
Status,638,13618140041,/g4t1,,fail
Status,639,13622383515,/g3t1_2,,running
Status,640,13622463473,/g3t1_3,,running
Status,641,13622494214,/g3t1_2,,success
Status,642,13623010764,/g3t1_3,,success
Status,643,13661743571,/g3t1_1,,running
Status,644,13662364848,/g3t1_1,,success
Status,645,13672325833,/g3t1_2,,running
Status,646,13672616735,/g3t1_3,,running
Status,647,13672754198,/g3t1_2,,success
Status,648,13673067742,/g3t1_3,,success
Status,649,13711481046,/g3t1_1,,running
Status,650,13711773296,/g3t1_1,,success
Status,651,13718250848,/g4t1,,fail
Status,652,13722245802,/g3t1_2,,running
Status,653,13722343145,/g3t1_2,,success
Status,654,13722414219,/g3t1_3,,running
Status,655,13723171070,/g3t1_3,,success
Status,656,13761804538,/g3t1_1,,running
Status,657,13762570639,/g3t1_1,,success
Status,658,13772351361,/g3t1_2,,running
Status,659,13772415955,/g3t1_3,,running
Status,660,13772485700,/g3t1_2,,success
Status,661,13772681260,/g3t1_3,,success
Status,662,13811390092,/g3t1_1,,running
Status,663,13811412543,/g3t1_1,,success
Status,664,13818924590,/g4t1,,fail
Status,665,13822817017,/g3t1_2,,running
Status,666,13823323811,/g3t1_3,,running
Status,667,13823389808,/g3t1_2,,success
Status,668,13823418413,/g3t1_3,,success
Status,669,13862282436,/g3t1_1,,running
Status,670,13862352204,/g3t1_1,,success
Status,671,13872614280,/g3t1_2,,running
Status,672,13872877257,/g3t1_3,,running
Status,673,13873219613,/g3t1_2,,success
Status,674,13873395812,/g3t1_3,,success
Status,675,13912165348,/g3t1_1,,running
Status,676,13912520778,/g3t1_1,,success
Status,677,13918698506,/g4t1,,fail
Status,678,13923041366,/g3t1_2,,running
Status,679,13923174551,/g3t1_3,,running
Status,680,13923838408,/g3t1_2,,success
Status,681,13924259859,/g3t1_3,,success
Status,682,13962327102,/g3t1_1,,running
Status,683,13962661464,/g3t1_1,,success
Status,684,13973055162,/g3t1_2,,running
Status,685,13973140447,/g3t1_3,,running
Status,686,13973255476,/g3t1_2,,success
Status,687,13973847115,/g3t1_3,,success
Status,688,14012434669,/g3t1_1,,running
Status,689,14012661417,/g3t1_1,,success
Status,690,14018558388,/g4t1,,fail
Status,691,14023294116,/g3t1_2,,running
Status,692,14023440990,/g3t1_3,,running
Status,693,14023857019,/g3t1_2,,success
Status,694,14023971174,/g3t1_3,,success
Status,695,14062800972,/g3t1_1,,running
Status,696,14062880844,/g3t1_1,,success
Status,697,14073266121,/g3t1_2,,running
Status,698,14073395218,/g3t1_3,,running
Status,699,14073773861,/g3t1_2,,success
Status,700,14073869090,/g3t1_3,,success
Status,701,14112741000,/g3t1_1,,running
Status,702,14112812044,/g3t1_1,,success
Status,703,14118929238,/g4t1,,fail
Status,704,14123812383,/g3t1_2,,running
Status,705,14123989349,/g3t1_3,,running
Status,706,14124451990,/g3t1_2,,success
Status,707,14124940109,/g3t1_3,,success
Status,708,14162949195,/g3t1_1,,running
Status,709,14163306084,/g3t1_1,,success
Status,710,14173554930,/g3t1_2,,running
Status,711,14173635785,/g3t1_3,,running
Status,712,14174186379,/g3t1_3,,success
Status,713,14174251444,/g3t1_2,,success
Status,714,14213168778,/g3t1_1,,running
Status,715,14213236885,/g3t1_1,,success
Status,716,14219267369,/g4t1,,fail
Status,717,14224034749,/g3t1_2,,running
Status,718,14224618165,/g3t1_3,,running
Status,719,14224683309,/g3t1_2,,success
Status,720,14224712251,/g3t1_3,,success
Status,721,14263143588,/g3t1_1,,running
Status,722,14263253391,/g3t1_1,,success
Status,723,14273980957,/g3t1_2,,running
Status,724,14274092724,/g3t1_3,,running
Status,725,14274540228,/g3t1_2,,success
Status,726,14274977144,/g3t1_3,,success
Status,727,14313185238,/g3t1_1,,running
Status,728,14313635711,/g3t1_1,,success
Status,729,14319205558,/g4t1,,fail
Status,730,14324111725,/g3t1_2,,running
Status,731,14324274837,/g3t1_3,,running
Status,732,14324419540,/g3t1_2,,success
Status,733,14324821129,/g3t1_3,,success
Status,734,14363538134,/g3t1_1,,running
Status,735,14363606789,/g3t1_1,,success
Status,736,14374057819,/g3t1_2,,running
Status,737,14374471333,/g3t1_3,,running
Status,738,14374982216,/g3t1_2,,success
Status,739,14375058310,/g3t1_3,,success
Status,740,14413427032,/g3t1_1,,running
Status,741,14413757937,/g3t1_1,,success
Status,742,14419237014,/g4t1,,fail
Status,743,14423937830,/g3t1_2,,running
Status,744,14424406592,/g3t1_2,,success
Status,745,14424578489,/g3t1_3,,running
Status,746,14425018954,/g3t1_3,,success
Status,747,14463474653,/g3t1_1,,running
Status,748,14463831198,/g3t1_1,,success
Status,749,14474607216,/g3t1_2,,running
Status,750,14474816863,/g3t1_3,,running
Status,751,14474889211,/g3t1_2,,success
Status,752,14475311846,/g3t1_3,,success
Status,753,14513657247,/g3t1_1,,running
Status,754,14514042565,/g3t1_1,,success
Status,755,14519348979,/g4t1,,fail
Status,756,14525042379,/g3t1_2,,running
Status,757,14525145222,/g3t1_3,,running
Status,758,14525191156,/g3t1_2,,success
Status,759,14525311884,/g3t1_3,,success
Status,760,14563781156,/g3t1_1,,running
Status,761,14564316906,/g3t1_1,,success
Status,762,14574932444,/g3t1_2,,running
Status,763,14575020536,/g3t1_3,,running
Status,764,14575137350,/g3t1_2,,success
Status,765,14575527803,/g3t1_3,,success
Status,766,14614150352,/g3t1_1,,running
Status,767,14614347735,/g3t1_1,,success
Status,768,14619562875,/g4t1,,fail
Status,769,14624938818,/g3t1_2,,running
Status,770,14625022847,/g3t1_3,,running
Status,771,14625067779,/g3t1_2,,success
Status,772,14625521795,/g3t1_3,,success
Status,773,14664278865,/g3t1_1,,running
Status,774,14664362987,/g3t1_1,,success
Status,775,14675285728,/g3t1_2,,running
Status,776,14675380520,/g3t1_3,,running
Status,777,14675416470,/g3t1_2,,success
Status,778,14675803829,/g3t1_3,,success
Status,779,14714244815,/g3t1_1,,running
Status,780,14714693868,/g3t1_1,,success
Status,781,14719648881,/g4t1,,fail
Status,782,14724823213,/g3t1_2,,running
Status,783,14725180588,/g3t1_3,,running
Status,784,14725237605,/g3t1_2,,success
Status,785,14725556056,/g3t1_3,,success
Status,786,14764264069,/g3t1_1,,running
Status,787,14764628327,/g3t1_1,,success
Status,788,14775298504,/g3t1_2,,running
Status,789,14775439685,/g3t1_3,,running
Status,790,14775881357,/g3t1_2,,success
Status,791,14776452963,/g3t1_3,,success
Status,792,14814477115,/g3t1_1,,running
Status,793,14814695683,/g3t1_1,,success
Status,794,14819798085,/g4t1,,fail
Status,795,14825264853,/g3t1_2,,running
Status,796,14825394894,/g3t1_3,,running
Status,797,14825439943,/g3t1_2,,success
Status,798,14826149769,/g3t1_3,,success
Status,799,14864735054,/g3t1_1,,running
Status,800,14865145370,/g3t1_1,,success
Status,801,14875747905,/g3t1_2,,running
Status,802,14875862168,/g3t1_3,,running
Status,803,14876173288,/g3t1_2,,success
Status,804,14876245791,/g3t1_3,,success
Status,805,14914690579,/g3t1_1,,running
Status,806,14915124961,/g3t1_1,,success
Status,807,14919949552,/g4t1,,fail
Status,808,14925516402,/g3t1_2,,running
Status,809,14925765965,/g3t1_3,,running
Status,810,14925836570,/g3t1_2,,success
Status,811,14926312444,/g3t1_3,,success
Status,812,14964884410,/g3t1_1,,running
Status,813,14965284341,/g3t1_1,,success
Status,814,14975825137,/g3t1_2,,running
Status,815,14975938556,/g3t1_3,,running
Status,816,14976463220,/g3t1_2,,success
Status,817,14976561431,/g3t1_3,,success
Status,818,15014688930,/g3t1_1,,running
Status,819,15015090610,/g3t1_1,,success
Status,820,15020443573,/g4t1,,fail
Status,821,15026179238,/g3t1_2,,running
Status,822,15026276740,/g3t1_3,,running
Status,823,15026315950,/g3t1_2,,success
Status,824,15026688781,/g3t1_3,,success
Status,825,15065064326,/g3t1_1,,running
Status,826,15065478218,/g3t1_1,,success
Status,827,15076021203,/g3t1_2,,running
Status,828,15076133576,/g3t1_2,,success
Status,829,15076538918,/g3t1_3,,running
Status,830,15076897353,/g3t1_3,,success
Status,831,15115303412,/g3t1_1,,running
Status,832,15115736464,/g3t1_1,,success
Status,833,15120314407,/g4t1,,fail
Status,834,15126025306,/g3t1_2,,running
Status,835,15126101022,/g3t1_3,,running
Status,836,15126214800,/g3t1_2,,success
Status,837,15126832725,/g3t1_3,,success
Status,838,15165534547,/g3t1_1,,running
Status,839,15165975330,/g3t1_1,,success
Status,840,15175963331,/g3t1_2,,running
Status,841,15176082660,/g3t1_3,,running
Status,842,15176542374,/g3t1_2,,success
Status,843,15177055303,/g3t1_3,,success
Status,844,15215427217,/g3t1_1,,running
Status,845,15215984402,/g3t1_1,,success
Status,846,15220612302,/g4t1,,fail
Status,847,15226440460,/g3t1_2,,running
Status,848,15226523659,/g3t1_3,,running
Status,849,15227026188,/g3t1_2,,success
Status,850,15227101415,/g3t1_3,,success
Status,851,15265763780,/g3t1_1,,running
Status,852,15266214685,/g3t1_1,,success
Status,853,15276550112,/g3t1_2,,running
Status,854,15276684871,/g3t1_3,,running
Status,855,15276783880,/g3t1_2,,success
Status,856,15276972910,/g3t1_3,,success
Status,857,15315925915,/g3t1_1,,running
Status,858,15316214301,/g3t1_1,,success
Status,859,15320803521,/g4t1,,fail
Status,860,15326615618,/g3t1_2,,running
Status,861,15326862326,/g3t1_3,,running
Status,862,15326904656,/g3t1_2,,success
Status,863,15327163470,/g3t1_3,,success
Status,864,15365748940,/g3t1_1,,running
Status,865,15366569600,/g3t1_1,,success
Status,866,15376913818,/g3t1_2,,running
Status,867,15377004390,/g3t1_3,,running
Status,868,15377614503,/g3t1_3,,success
Status,869,15377935206,/g3t1_2,,success
Status,870,15416102459,/g3t1_1,,running
Status,871,15416173219,/g3t1_1,,success
Status,872,15420784462,/g4t1,,fail
Status,873,15426823914,/g3t1_2,,running
Status,874,15427248691,/g3t1_3,,running
Status,875,15427320709,/g3t1_3,,success
Status,876,15427375893,/g3t1_2,,success
Status,877,15466346004,/g3t1_1,,running
Status,878,15466843671,/g3t1_1,,success
Status,879,15476915152,/g3t1_2,,running
Status,880,15477013221,/g3t1_3,,running
Status,881,15477488185,/g3t1_2,,success
Status,882,15477607942,/g3t1_3,,success
Status,883,15516161465,/g3t1_1,,running
Status,884,15516612957,/g3t1_1,,success
Status,885,15521058839,/g4t1,,fail
Status,886,15527334709,/g3t1_2,,running
Status,887,15527416578,/g3t1_3,,running
Status,888,15527542184,/g3t1_2,,success
Status,889,15527566347,/g3t1_3,,success
Status,890,15566552179,/g3t1_1,,running
Status,891,15566622956,/g3t1_1,,success
Status,892,15577299568,/g3t1_2,,running
Status,893,15577366773,/g3t1_3,,running
Status,894,15577448087,/g3t1_2,,success
Status,895,15577601355,/g3t1_3,,success
Status,896,15616451906,/g3t1_1,,running
Status,897,15616676049,/g3t1_1,,success
Status,898,15621097187,/g4t1,,fail
Status,899,15627371861,/g3t1_2,,running
Status,900,15627486467,/g3t1_3,,running
Status,901,15627950072,/g3t1_2,,success
Status,902,15628023394,/g3t1_3,,success
Status,903,15666694352,/g3t1_1,,running
Status,904,15667387895,/g3t1_1,,success
Status,905,15677464123,/g3t1_2,,running
Status,906,15677640127,/g3t1_3,,running
Status,907,15677982243,/g3t1_2,,success
Status,908,15678065144,/g3t1_3,,success
Status,909,15716758664,/g3t1_1,,running
Status,910,15717192715,/g3t1_1,,success
Status,911,15721193966,/g4t1,,fail
Status,912,15728274223,/g3t1_2,,running
Status,913,15728347418,/g3t1_3,,running
Status,914,15728439060,/g3t1_2,,success
Status,915,15728465731,/g3t1_3,,success
Status,916,15767386882,/g3t1_1,,running
Status,917,15767645742,/g3t1_1,,success
Status,918,15777952455,/g3t1_2,,running
Status,919,15778045246,/g3t1_3,,running
Status,920,15778187344,/g3t1_3,,success
Status,921,15778217018,/g3t1_2,,success
Status,922,15817184024,/g3t1_1,,running
Status,923,15817518082,/g3t1_1,,success
Status,924,15821171221,/g4t1,,fail
Status,925,15828051974,/g3t1_2,,running
Status,926,15828183512,/g3t1_3,,running
Status,927,15828267020,/g3t1_2,,success
Status,928,15829091215,/g3t1_3,,success
Status,929,15867464255,/g3t1_1,,running
Status,930,15867933129,/g3t1_1,,success
Status,931,15878183167,/g3t1_2,,running
Status,932,15878264628,/g3t1_3,,running
Status,933,15878800834,/g3t1_3,,success
Status,934,15878901799,/g3t1_2,,success
Status,935,15917441580,/g3t1_1,,running
Status,936,15917786147,/g3t1_1,,success
Status,937,15921014361,/g4t1,,fail
Status,938,15928810697,/g3t1_2,,running
Status,939,15928935086,/g3t1_3,,running
Status,940,15929057530,/g3t1_2,,success
Status,941,15929091729,/g3t1_3,,success
Status,942,15967522555,/g3t1_1,,running
Status,943,15967603447,/g3t1_1,,success
Status,944,15978982712,/g3t1_3,,running
Status,945,15979057223,/g3t1_2,,running
Status,946,15979165090,/g3t1_2,,success
Status,947,15979191617,/g3t1_3,,success
Status,948,16017761230,/g3t1_1,,running
Status,949,16018147881,/g3t1_1,,success
Status,950,16021510936,/g4t1,,fail
Status,951,16028569222,/g3t1_3,,running
Status,952,16028651712,/g3t1_2,,running
Status,953,16028944186,/g3t1_3,,success
Status,954,16029360003,/g3t1_2,,success
Status,955,16067862935,/g3t1_1,,running
Status,956,16068304264,/g3t1_1,,success
Status,957,16079018806,/g3t1_2,,running
Status,958,16079088779,/g3t1_3,,running
Status,959,16079568920,/g3t1_2,,success
Status,960,16079622393,/g3t1_3,,success
Status,961,16118138613,/g3t1_1,,running
Status,962,16118286275,/g3t1_1,,success
Status,963,16121713910,/g4t1,,fail
Status,964,16128874005,/g3t1_2,,running
Status,965,16128977111,/g3t1_3,,running
Status,966,16129488813,/g3t1_3,,success
Status,967,16129565475,/g3t1_2,,success
Status,968,16168173002,/g3t1_1,,running
Status,969,16168613822,/g3t1_1,,success
Status,970,16179391272,/g3t1_2,,running
Status,971,16179518217,/g3t1_3,,running
Status,972,16179713764,/g3t1_2,,success
Status,973,16179783990,/g3t1_3,,success
Status,974,16218285997,/g3t1_1,,running
Status,975,16218681239,/g3t1_1,,success
Status,976,16221728923,/g4t1,,fail
Status,977,16229289208,/g3t1_3,,running
Status,978,16229503264,/g3t1_2,,running
Status,979,16229572140,/g3t1_2,,success
Status,980,16229879132,/g3t1_3,,success
Status,981,16268736943,/g3t1_1,,running
Status,982,16268846299,/g3t1_1,,success
Status,983,16279532948,/g3t1_2,,running
Status,984,16279630114,/g3t1_3,,running
Status,985,16279701495,/g3t1_2,,success
Status,986,16280023735,/g3t1_3,,success
Status,987,16318419254,/g3t1_1,,running
Status,988,16318905871,/g3t1_1,,success
Status,989,16321918541,/g4t1,,fail
Status,990,16329828352,/g3t1_2,,running
Status,991,16329967419,/g3t1_2,,success
Status,992,16330013493,/g3t1_3,,running
Status,993,16330107256,/g3t1_3,,success
Status,994,16367999914,/g3t1_1,,running
Status,995,16368030408,/g3t1_1,,success
Status,996,16378813151,/g3t1_2,,running
Status,997,16378831896,/g3t1_2,,success
Status,998,16378859575,/g3t1_3,,running
Status,999,16378866888,/g3t1_3,,success
Status,1000,16418118131,/g3t1_1,,running
Status,1001,16418467420,/g3t1_1,,success
Status,1002,16421102704,/g4t1,,fail
Status,1003,16428978525,/g3t1_2,,running
Status,1004,16429013336,/g3t1_3,,running
Status,1005,16429039665,/g3t1_2,,success
Status,1006,16429127299,/g3t1_3,,success
Status,1007,16468703208,/g3t1_1,,running
Status,1008,16469448630,/g3t1_1,,success
Status,1009,16479898351,/g3t1_3,,running
Status,1010,16480165533,/g3t1_2,,running
Status,1011,16480251808,/g3t1_3,,success
Status,1012,16480356671,/g3t1_2,,success
Status,1013,16519167490,/g3t1_1,,running
Status,1014,16520030623,/g3t1_1,,success
Status,1015,16521804377,/g4t1,,fail
Status,1016,16529897101,/g3t1_3,,running
Status,1017,16529999894,/g3t1_2,,running
Status,1018,16530042991,/g3t1_3,,success
Status,1019,16530342533,/g3t1_2,,success
Status,1020,16569301823,/g3t1_1,,running
Status,1021,16569388686,/g3t1_1,,success
Status,1022,16580326674,/g3t1_3,,running
Status,1023,16580426139,/g3t1_2,,running
Status,1024,16580522115,/g3t1_2,,success
Status,1025,16580547305,/g3t1_3,,success
Status,1026,16619126399,/g3t1_1,,running
Status,1027,16619552016,/g3t1_1,,success
Status,1028,16622169059,/g4t1,,fail
Status,1029,16630063782,/g3t1_3,,running
Status,1030,16630152739,/g3t1_2,,running
Status,1031,16630334645,/g3t1_2,,success
Status,1032,16630392536,/g3t1_3,,success
Status,1033,16669524294,/g3t1_1,,running
Status,1034,16669864753,/g3t1_1,,success
Status,1035,16680086958,/g3t1_3,,running
Status,1036,16680476066,/g3t1_2,,running
Status,1037,16680551914,/g3t1_2,,success
Status,1038,16680581530,/g3t1_3,,success
Status,1039,16719377781,/g3t1_1,,running
Status,1040,16719730279,/g3t1_1,,success
Status,1041,16722103320,/g4t1,,fail
Status,1042,16730941793,/g3t1_3,,running
Status,1043,16731015449,/g3t1_2,,running
Status,1044,16731192477,/g3t1_2,,success
Status,1045,16731243878,/g3t1_3,,success
Status,1046,16769638127,/g3t1_1,,running
Status,1047,16770002619,/g3t1_1,,success
Status,1048,16780561156,/g3t1_3,,running
Status,1049,16780681877,/g3t1_2,,running
Status,1050,16781100264,/g3t1_3,,success
Status,1051,16781469128,/g3t1_2,,success
Status,1052,16819851482,/g3t1_1,,running
Status,1053,16820319574,/g3t1_1,,success
Status,1054,16822455740,/g4t1,,fail
Status,1055,16830550356,/g3t1_2,,running
Status,1056,16830669836,/g3t1_3,,running
Status,1057,16831347219,/g3t1_2,,success
Status,1058,16831421381,/g3t1_3,,success
Status,1059,16869967979,/g3t1_1,,running
Status,1060,16870409524,/g3t1_1,,success
Status,1061,16880719319,/g3t1_2,,running
Status,1062,16880825661,/g3t1_3,,running
Status,1063,16881088580,/g3t1_3,,success
Status,1064,16881612597,/g3t1_2,,success
Status,1065,16920204300,/g3t1_1,,running
Status,1066,16920868666,/g3t1_1,,success
Status,1067,16922557692,/g4t1,,fail
Status,1068,16930777889,/g3t1_2,,running
Status,1069,16930916319,/g3t1_3,,running
Status,1070,16931439592,/g3t1_3,,success
Status,1071,16931539626,/g3t1_2,,success
Status,1072,16970176085,/g3t1_1,,running
Status,1073,16970648834,/g3t1_1,,success
Status,1074,16980985621,/g3t1_3,,running
Status,1075,16981083338,/g3t1_2,,running
Status,1076,16981546998,/g3t1_3,,success
Status,1077,16981628563,/g3t1_2,,success
Status,1078,17020466149,/g3t1_1,,running
Status,1079,17021015786,/g3t1_1,,success
Status,1080,17023010472,/g4t1,,fail
Status,1081,17031588354,/g3t1_3,,running
Status,1082,17031649895,/g3t1_2,,running
Status,1083,17031706297,/g3t1_3,,success
Status,1084,17031732409,/g3t1_2,,success
Status,1085,17070435875,/g3t1_1,,running
Status,1086,17071276207,/g3t1_1,,success
Status,1087,17081238979,/g3t1_3,,running
Status,1088,17081321372,/g3t1_2,,running
Status,1089,17081661364,/g3t1_3,,success
Status,1090,17081739199,/g3t1_2,,success
Status,1091,17120968893,/g3t1_1,,running
Status,1092,17121062951,/g3t1_1,,success
Status,1093,17122681902,/g4t1,,fail
Status,1094,17131638229,/g3t1_3,,running
Status,1095,17131719777,/g3t1_2,,running
Status,1096,17131900081,/g3t1_3,,success
Status,1097,17131962953,/g3t1_2,,success
Status,1098,17171283005,/g3t1_1,,running
Status,1099,17171356833,/g3t1_1,,success
Status,1100,17181700554,/g3t1_3,,running
Status,1101,17181861796,/g3t1_2,,running
Status,1102,17181906419,/g3t1_2,,success
Status,1103,17182091457,/g3t1_3,,success
Status,1104,17220718531,/g3t1_1,,running
Status,1105,17221346497,/g3t1_1,,success
Status,1106,17222542029,/g4t1,,fail
Status,1107,17231847674,/g3t1_2,,running
Status,1108,17231921018,/g3t1_3,,running
Status,1109,17232764480,/g3t1_3,,success
Status,1110,17232829849,/g3t1_2,,success
Status,1111,17271243698,/g3t1_1,,running
Status,1112,17271418914,/g3t1_1,,success
Status,1113,17281788598,/g3t1_2,,running
Status,1114,17281904063,/g3t1_3,,running
Status,1115,17282070270,/g3t1_3,,success
Status,1116,17282117016,/g3t1_2,,success
Status,1117,17321361719,/g3t1_1,,running
Status,1118,17321929669,/g3t1_1,,success
Status,1119,17323180435,/g4t1,,fail
Status,1120,17332336432,/g3t1_3,,running
Status,1121,17332412313,/g3t1_2,,running
Status,1122,17332459834,/g3t1_2,,success
Status,1123,17332640764,/g3t1_3,,success
Status,1124,17371409576,/g3t1_1,,running
Status,1125,17371791557,/g3t1_1,,success
Status,1126,17382241718,/g3t1_3,,running
Status,1127,17382433987,/g3t1_2,,running
Status,1128,17382488007,/g3t1_2,,success
Status,1129,17383023316,/g3t1_3,,success
Status,1130,17421720929,/g3t1_1,,running
Status,1131,17422065143,/g3t1_1,,success
Status,1132,17422845219,/g4t1,,fail
Status,1133,17432427265,/g3t1_3,,running
Status,1134,17432544507,/g3t1_2,,running
Status,1135,17432588403,/g3t1_2,,success
Status,1136,17432624431,/g3t1_3,,success
Status,1137,17471369513,/g3t1_1,,running
Status,1138,17471806220,/g3t1_1,,success
Status,1139,17482309386,/g3t1_3,,running
Status,1140,17482419668,/g3t1_2,,running
Status,1141,17482913256,/g3t1_3,,success
Status,1142,17483290377,/g3t1_2,,success
Status,1143,17521696809,/g3t1_1,,running
Status,1144,17522086397,/g3t1_1,,success
Status,1145,17522950225,/g4t1,,fail
Status,1146,17532534536,/g3t1_3,,running
Status,1147,17532616099,/g3t1_2,,running
Status,1148,17533088394,/g3t1_2,,success
Status,1149,17533150514,/g3t1_3,,success
Status,1150,17571709675,/g3t1_1,,running
Status,1151,17572418778,/g3t1_1,,success
Status,1152,17582803006,/g3t1_3,,running
Status,1153,17582888625,/g3t1_2,,running
Status,1154,17583376184,/g3t1_2,,success
Status,1155,17583613898,/g3t1_3,,success
Status,1156,17622277530,/g3t1_1,,running
Status,1157,17623213266,/g3t1_1,,success
Status,1158,17623314450,/g4t1,,fail
Status,1159,17632789325,/g3t1_2,,running
Status,1160,17632920969,/g3t1_3,,running
Status,1161,17633209237,/g3t1_3,,success
Status,1162,17633272266,/g3t1_2,,success
Status,1163,17671973326,/g3t1_1,,running
Status,1164,17672075374,/g3t1_1,,success
Status,1165,17683241673,/g3t1_2,,running
Status,1166,17683338248,/g3t1_3,,running
Status,1167,17683427358,/g3t1_3,,success
Status,1168,17683744090,/g3t1_2,,success
Status,1169,17722455900,/g3t1_1,,running
Status,1170,17722725700,/g3t1_1,,success
Status,1171,17723790081,/g4t1,,fail
Status,1172,17733151279,/g3t1_2,,running
Status,1173,17733213437,/g3t1_3,,running
Status,1174,17733287135,/g3t1_3,,success
Status,1175,17733387976,/g3t1_2,,success
Status,1176,17772414802,/g3t1_1,,running
Status,1177,17773051866,/g3t1_1,,success
Status,1178,17783109751,/g3t1_2,,running
Status,1179,17783314789,/g3t1_3,,running
Status,1180,17783773388,/g3t1_2,,success
Status,1181,17783942578,/g3t1_3,,success
Status,1182,17822621645,/g3t1_1,,running
Status,1183,17822694107,/g3t1_1,,success
Status,1184,17823569642,/g4t1,,fail
Status,1185,17833128724,/g3t1_2,,running
Status,1186,17833195387,/g3t1_3,,running
Status,1187,17833402106,/g3t1_2,,success
Status,1188,17833447675,/g3t1_3,,success
Status,1189,17872888863,/g3t1_1,,running
Status,1190,17872969301,/g3t1_1,,success
Status,1191,17883703331,/g3t1_2,,running
Status,1192,17883766488,/g3t1_3,,running
Status,1193,17884057168,/g3t1_3,,success
Status,1194,17884320573,/g3t1_2,,success
Status,1195,17923109497,/g3t1_1,,running
Status,1196,17923768248,/g3t1_1,,success
Status,1197,17923836310,/g4t1,,fail
Status,1198,17933585217,/g3t1_2,,running
Status,1199,17933666079,/g3t1_2,,success
Status,1200,17933709600,/g3t1_3,,running
Status,1201,17934107708,/g3t1_3,,success
Status,1202,17973148202,/g3t1_1,,running
Status,1203,17973211148,/g3t1_1,,success
Status,1204,17983688778,/g3t1_2,,running
Status,1205,17983853557,/g3t1_3,,running
Status,1206,17984520406,/g3t1_2,,success
Status,1207,17984878961,/g3t1_3,,success
Status,1208,18023365020,/g3t1_1,,running
Status,1209,18023855255,/g3t1_1,,success
Status,1210,18023977114,/g4t1,,fail
Status,1211,18033759811,/g3t1_2,,running
Status,1212,18033837977,/g3t1_3,,running
Status,1213,18034330471,/g3t1_3,,success
Status,1214,18034410831,/g3t1_2,,success
Status,1215,18073573158,/g3t1_1,,running
Status,1216,18073922541,/g3t1_1,,success
Status,1217,18083980853,/g3t1_3,,running
Status,1218,18084108898,/g3t1_2,,running
Status,1219,18084688750,/g3t1_3,,success
Status,1220,18084763545,/g3t1_2,,success
Status,1221,18123295017,/g3t1_1,,running
Status,1222,18123666988,/g3t1_1,,success
Status,1223,18123942838,/g4t1,,fail
Status,1224,18134264749,/g3t1_3,,running
Status,1225,18134346038,/g3t1_2,,running
Status,1226,18134384484,/g3t1_3,,success
Status,1227,18134722082,/g3t1_2,,success
Status,1228,18173730358,/g3t1_1,,running
Status,1229,18173796469,/g3t1_1,,success
Status,1230,18184065129,/g3t1_3,,running
Status,1231,18184201406,/g3t1_2,,running
Status,1232,18184829706,/g3t1_2,,success
Status,1233,18184899769,/g3t1_3,,success
Status,1234,18223622912,/g3t1_1,,running
Status,1235,18224215503,/g4t1,,fail
Status,1236,18224299467,/g3t1_1,,success
Status,1237,18234450933,/g3t1_3,,running
Status,1238,18234565512,/g3t1_2,,running
Status,1239,18234975961,/g3t1_3,,success
Status,1240,18235343111,/g3t1_2,,success
Status,1241,18274172485,/g3t1_1,,running
Status,1242,18274375949,/g3t1_1,,success
Status,1243,18284563801,/g3t1_2,,running
Status,1244,18284663214,/g3t1_3,,running
Status,1245,18285085440,/g3t1_2,,success
Status,1246,18285125719,/g3t1_3,,success
Status,1247,18323739473,/g3t1_1,,running
Status,1248,18324104872,/g3t1_1,,success
Status,1249,18324168613,/g4t1,,fail
Status,1250,18334546916,/g3t1_3,,running
Status,1251,18334663884,/g3t1_2,,running
Status,1252,18335361893,/g3t1_2,,success
Status,1253,18335521086,/g3t1_3,,success
Status,1254,18374148559,/g3t1_1,,running
Status,1255,18374290687,/g3t1_1,,success
Status,1256,18384602681,/g3t1_3,,running
Status,1257,18384695437,/g3t1_2,,running
Status,1258,18385160392,/g3t1_3,,success
Status,1259,18385239484,/g3t1_2,,success
Status,1260,18424074602,/g3t1_1,,running
Status,1261,18424315124,/g4t1,,fail
Status,1262,18424351721,/g3t1_1,,success
Status,1263,18434967368,/g3t1_3,,running
Status,1264,18435428795,/g3t1_2,,running
Status,1265,18435536493,/g3t1_3,,success
Status,1266,18435785311,/g3t1_2,,success
Status,1267,18474370801,/g3t1_1,,running
Status,1268,18475012119,/g3t1_1,,success
Status,1269,18484809245,/g3t1_3,,running
Status,1270,18484913634,/g3t1_2,,running
Status,1271,18485382533,/g3t1_3,,success
Status,1272,18485475501,/g3t1_2,,success
Status,1273,18524373962,/g4t1,,fail
Status,1274,18524444192,/g3t1_1,,running
Status,1275,18524664706,/g3t1_1,,success
Status,1276,18535433640,/g3t1_3,,running
Status,1277,18535526370,/g3t1_2,,running
Status,1278,18535663799,/g3t1_3,,success
Status,1279,18536020227,/g3t1_2,,success
Status,1280,18574432456,/g3t1_1,,running
Status,1281,18574871349,/g3t1_1,,success
Status,1282,18585041794,/g3t1_3,,running
Status,1283,18585161713,/g3t1_2,,running
Status,1284,18585605416,/g3t1_3,,success
Status,1285,18585670267,/g3t1_2,,success
Status,1286,18624611399,/g4t1,,fail
Status,1287,18624699597,/g3t1_1,,running
Status,1288,18624899969,/g3t1_1,,success
Status,1289,18635527721,/g3t1_3,,running
Status,1290,18635620628,/g3t1_2,,running
Status,1291,18636167498,/g3t1_3,,success
Status,1292,18636262480,/g3t1_2,,success
Status,1293,18674892256,/g3t1_1,,running
Status,1294,18675219977,/g3t1_1,,success
Status,1295,18685273179,/g3t1_3,,running
Status,1296,18685343198,/g3t1_2,,running
Status,1297,18685427426,/g3t1_3,,success
Status,1298,18685452817,/g3t1_2,,success
Status,1299,18723783351,/g4t1,,fail
Status,1300,18724201684,/g3t1_1,,running
Status,1301,18724389637,/g3t1_1,,success
Status,1302,18734672574,/g3t1_3,,running
Status,1303,18734698615,/g3t1_3,,success
Status,1304,18734788823,/g3t1_2,,running
Status,1305,18734978041,/g3t1_2,,success
Status,1306,18774536805,/g3t1_1,,running
Status,1307,18774559504,/g3t1_1,,success
Status,1308,18785034320,/g3t1_3,,running
Status,1309,18785554622,/g3t1_2,,running
Status,1310,18785600346,/g3t1_2,,success
Status,1311,18785663975,/g3t1_3,,success
Status,1312,18823990330,/g4t1,,fail
Status,1313,18824605277,/g3t1_1,,running
Status,1314,18824759604,/g3t1_1,,success
Status,1315,18835248338,/g3t1_3,,running
Status,1316,18835277576,/g3t1_2,,running
Status,1317,18835306686,/g3t1_3,,success
Status,1318,18835427966,/g3t1_2,,success
Status,1319,18874801957,/g3t1_1,,running
Status,1320,18874841597,/g3t1_1,,success
Status,1321,18885037791,/g3t1_3,,running
Status,1322,18885209886,/g3t1_3,,success
Status,1323,18885254052,/g3t1_2,,running
Status,1324,18885479167,/g3t1_2,,success
Status,1325,18925057711,/g4t1,,fail
Status,1326,18925208571,/g3t1_1,,running
Status,1327,18925758966,/g3t1_1,,success
Status,1328,18935736329,/g3t1_3,,running
Status,1329,18935871126,/g3t1_2,,running
Status,1330,18936644843,/g3t1_3,,success
Status,1331,18936720424,/g3t1_2,,success
Status,1332,18975339558,/g3t1_1,,running
Status,1333,18975384330,/g3t1_1,,success
Status,1334,18985511039,/g3t1_3,,running
Status,1335,18985918814,/g3t1_2,,running
Status,1336,18985979904,/g3t1_3,,success
Status,1337,18986071161,/g3t1_2,,success
Status,1338,19024623568,/g4t1,,fail
Status,1339,19025151062,/g3t1_1,,running
Status,1340,19025364210,/g3t1_1,,success
Status,1341,19035944557,/g3t1_3,,running
Status,1342,19035988022,/g3t1_2,,running
Status,1343,19036004379,/g3t1_3,,success
Status,1344,19036268302,/g3t1_2,,success
Status,1345,19075823666,/g3t1_1,,running
Status,1346,19076073890,/g3t1_1,,success
Status,1347,19086264273,/g3t1_3,,running
Status,1348,19086589735,/g3t1_2,,running
Status,1349,19087188388,/g3t1_2,,success
Status,1350,19087383867,/g3t1_3,,success
Status,1351,19125327841,/g4t1,,fail
Status,1352,19125779351,/g3t1_1,,running
Status,1353,19126030368,/g3t1_1,,success
Status,1354,19136564675,/g3t1_3,,running
Status,1355,19136712190,/g3t1_2,,running
Status,1356,19136756506,/g3t1_3,,success
Status,1357,19136952762,/g3t1_2,,success
Status,1358,19176188523,/g3t1_1,,running
Status,1359,19176279561,/g3t1_1,,success
Status,1360,19186669349,/g3t1_3,,running
Status,1361,19186880373,/g3t1_2,,running
Status,1362,19187273712,/g3t1_3,,success
Status,1363,19187329094,/g3t1_2,,success
Status,1364,19225433812,/g4t1,,fail
Status,1365,19225839797,/g3t1_1,,running
Status,1366,19226181911,/g3t1_1,,success
Status,1367,19236536800,/g3t1_3,,running
Status,1368,19236725108,/g3t1_2,,running
Status,1369,19237148148,/g3t1_3,,success
Status,1370,19237227434,/g3t1_2,,success
Status,1371,19276169138,/g3t1_1,,running
Status,1372,19276624777,/g3t1_1,,success
Status,1373,19287130980,/g3t1_3,,running
Status,1374,19287214671,/g3t1_2,,running
Status,1375,19287327587,/g3t1_3,,success
Status,1376,19287664030,/g3t1_2,,success
Status,1377,19325467049,/g4t1,,fail
Status,1378,19326078147,/g3t1_1,,running
Status,1379,19326418332,/g3t1_1,,success
Status,1380,19337251541,/g3t1_3,,running
Status,1381,19337371265,/g3t1_2,,running
Status,1382,19337818434,/g3t1_3,,success
Status,1383,19337889955,/g3t1_2,,success
Status,1384,19376239001,/g3t1_1,,running
Status,1385,19376586910,/g3t1_1,,success
Status,1386,19387545163,/g3t1_3,,running
Status,1387,19387613076,/g3t1_2,,running
Status,1388,19387637947,/g3t1_2,,success
Status,1389,19387681006,/g3t1_3,,success
Status,1390,19425680647,/g4t1,,fail
Status,1391,19426347361,/g3t1_1,,running
Status,1392,19427171943,/g3t1_1,,success
Status,1393,19437506812,/g3t1_3,,running
Status,1394,19437625913,/g3t1_2,,running
Status,1395,19438091273,/g3t1_2,,success
Status,1396,19438199831,/g3t1_3,,success
Status,1397,19476701031,/g3t1_1,,running
Status,1398,19476956630,/g3t1_1,,success
Status,1399,19487511296,/g3t1_3,,running
Status,1400,19487606121,/g3t1_2,,running
Status,1401,19487677319,/g3t1_3,,success
Status,1402,19487957600,/g3t1_2,,success
Status,1403,19525945156,/g4t1,,fail
Status,1404,19526552370,/g3t1_1,,running
Status,1405,19527373210,/g3t1_1,,success
Status,1406,19537851200,/g3t1_3,,running
Status,1407,19538015608,/g3t1_2,,running
Status,1408,19538070156,/g3t1_3,,success
Status,1409,19538412493,/g3t1_2,,success
Status,1410,19576965733,/g3t1_1,,running
Status,1411,19577219508,/g3t1_1,,success
Status,1412,19587811873,/g3t1_3,,running
Status,1413,19587904953,/g3t1_2,,running
Status,1414,19587986505,/g3t1_3,,success
Status,1415,19588375287,/g3t1_2,,success
Status,1416,19626074124,/g4t1,,fail
Status,1417,19627082826,/g3t1_1,,running
Status,1418,19627385868,/g3t1_1,,success
Status,1419,19637878770,/g3t1_3,,running
Status,1420,19638272371,/g3t1_2,,running
Status,1421,19638341886,/g3t1_3,,success
Status,1422,19638482597,/g3t1_2,,success
Status,1423,19677172105,/g3t1_1,,running
Status,1424,19677684590,/g3t1_1,,success
Status,1425,19687661162,/g3t1_3,,running
Status,1426,19687759473,/g3t1_2,,running
Status,1427,19688151654,/g3t1_3,,success
Status,1428,19688230401,/g3t1_2,,success
Status,1429,19726379183,/g4t1,,fail
Status,1430,19727175715,/g3t1_1,,running
Status,1431,19727799172,/g3t1_1,,success
Status,1432,19738416044,/g3t1_3,,running
Status,1433,19738518390,/g3t1_2,,running
Status,1434,19738652685,/g3t1_3,,success
Status,1435,19738684597,/g3t1_2,,success
Status,1436,19777709837,/g3t1_1,,running
Status,1437,19778304783,/g3t1_1,,success
Status,1438,19788249745,/g3t1_3,,running
Status,1439,19788358482,/g3t1_2,,running
Status,1440,19788828371,/g3t1_3,,success
Status,1441,19788895195,/g3t1_2,,success
Status,1442,19826487873,/g4t1,,fail
Status,1443,19827429379,/g3t1_1,,running
Status,1444,19828199460,/g3t1_1,,success
Status,1445,19838136320,/g3t1_3,,running
Status,1446,19838223105,/g3t1_2,,running
Status,1447,19838814014,/g3t1_2,,success
Status,1448,19838899055,/g3t1_3,,success
Status,1449,19877653896,/g3t1_1,,running
Status,1450,19877982319,/g3t1_1,,success
Status,1451,19888618512,/g3t1_3,,running
Status,1452,19888692478,/g3t1_2,,running
Status,1453,19889120323,/g3t1_3,,success
Status,1454,19889208617,/g3t1_2,,success
Status,1455,19926445989,/g4t1,,fail
Status,1456,19927881131,/g3t1_1,,running
Status,1457,19928293765,/g3t1_1,,success
Status,1458,19938470963,/g3t1_3,,running
Status,1459,19938590878,/g3t1_2,,running
Status,1460,19939001082,/g3t1_3,,success
Status,1461,19939082717,/g3t1_2,,success
Status,1462,19977919352,/g3t1_1,,running
Status,1463,19978243587,/g3t1_1,,success
Status,1464,19988929287,/g3t1_3,,running
Status,1465,19989097582,/g3t1_2,,running
Status,1466,19989540900,/g3t1_3,,success
Status,1467,19989612333,/g3t1_2,,success
Status,1468,20026666088,/g4t1,,fail
Status,1469,20027873181,/g3t1_1,,running
Status,1470,20028523035,/g3t1_1,,success
Status,1471,20038373172,/g3t1_3,,running
Status,1472,20038836501,/g3t1_3,,success
Status,1473,20039431870,/g3t1_2,,running
Status,1474,20039508491,/g3t1_2,,success
Status,1475,20078218432,/g3t1_1,,running
Status,1476,20078633261,/g3t1_1,,success
Status,1477,20089049715,/g3t1_3,,running
Status,1478,20089197803,/g3t1_2,,running
Status,1479,20089313276,/g3t1_3,,success
Status,1480,20089875045,/g3t1_2,,success
Status,1481,20127016021,/g4t1,,fail
Status,1482,20128045624,/g3t1_1,,running
Status,1483,20128623740,/g3t1_1,,success
Status,1484,20138901380,/g3t1_3,,running
Status,1485,20139277467,/g3t1_2,,running
Status,1486,20139351519,/g3t1_3,,success
Status,1487,20139597947,/g3t1_2,,success
Status,1488,20178340260,/g3t1_1,,running
Status,1489,20179084636,/g3t1_1,,success
Status,1490,20189326816,/g3t1_3,,running
Status,1491,20189411194,/g3t1_2,,running
Status,1492,20189578415,/g3t1_3,,success
Status,1493,20189876175,/g3t1_2,,success
Status,1494,20227060385,/g4t1,,fail
Status,1495,20228524716,/g3t1_1,,running
Status,1496,20228809659,/g3t1_1,,success
Status,1497,20239527241,/g3t1_3,,running
Status,1498,20239600330,/g3t1_2,,running
Status,1499,20239780059,/g3t1_3,,success
Status,1500,20239899597,/g3t1_2,,success
Status,1501,20278623698,/g3t1_1,,running
Status,1502,20278982045,/g3t1_1,,success
Status,1503,20289467704,/g3t1_3,,running
Status,1504,20289555547,/g3t1_2,,running
Status,1505,20289753306,/g3t1_3,,success
Status,1506,20289966859,/g3t1_2,,success
Status,1507,20327224346,/g4t1,,fail
Status,1508,20328623030,/g3t1_1,,running
Status,1509,20328725996,/g3t1_1,,success
Status,1510,20339466348,/g3t1_3,,running
Status,1511,20339559190,/g3t1_2,,running
Status,1512,20340114809,/g3t1_3,,success
