
Status,1,20696993853,g4t1,,init
Status,3,25809648262,g3t1_4,,init
Status,5,25823346415,g3t1_4,,init
Status,6,25823391796,g3t1_4,,running
Status,7,25826454738,g3t1_4,,success
Status,8,26824149414,g3t1_4,,running
Status,9,26831315729,g3t1_4,,success
Status,10,27824395675,g3t1_4,,running
Status,11,27831448752,g3t1_4,,success
Status,12,28824379840,g3t1_4,,running
Status,13,28831758593,g3t1_4,,success
Status,14,29824588615,g3t1_4,,running
Status,15,29827399131,g3t1_4,,success
Status,16,30824639756,g3t1_4,,running
Status,17,30831174043,g3t1_4,,success
Status,18,31824777260,g3t1_4,,running
Status,19,31831696679,g3t1_4,,success
Status,20,32824456324,g3t1_4,,running
Status,21,32833503799,g3t1_4,,success
Status,22,33824518241,g3t1_4,,running
Status,23,33830764887,g3t1_4,,success
Status,24,34824975279,g3t1_4,,running
Status,25,34834205277,g3t1_4,,success
Status,26,35824702591,g3t1_4,,running
Status,27,35826598434,g3t1_4,,success
Status,28,36824677575,g3t1_4,,running
Status,29,36831071188,g3t1_4,,success
Status,30,37825135224,g3t1_4,,running
Status,31,37833240202,g3t1_4,,success
Status,32,38824922862,g3t1_4,,running
Status,33,38831831459,g3t1_4,,success
Status,34,39824672989,g3t1_4,,running
Status,35,39828522662,g3t1_4,,success
Status,36,40825045024,g3t1_4,,running
Status,37,40831053159,g3t1_4,,success
Status,38,41825499050,g3t1_4,,running
Status,39,41831719032,g3t1_4,,success
Status,40,42825239388,g3t1_4,,running
Status,41,42831251823,g3t1_4,,success
Status,42,43825680605,g3t1_4,,running
Status,43,43832479225,g3t1_4,,success
Status,44,44825059231,g3t1_4,,running
Status,45,44827714426,g3t1_4,,success
Status,46,45825444966,g3t1_4,,running
Status,47,45832505188,g3t1_4,,success
Status,48,46825991431,g3t1_4,,running
Status,49,46833207886,g3t1_4,,success
Status,50,47826098739,g3t1_4,,running
Status,51,47833393512,g3t1_4,,success
Status,52,48826418812,g3t1_4,,running
Status,53,48832618628,g3t1_4,,success
Status,54,49826350471,g3t1_4,,running
Status,55,49832579911,g3t1_4,,success
Status,56,50826167359,g3t1_4,,running
Status,57,50832530105,g3t1_4,,success
Status,58,51825991124,g3t1_4,,running
Status,59,51830979080,g3t1_4,,success
Status,60,52826649661,g3t1_4,,running
Status,61,52833438073,g3t1_4,,success
Status,62,53826371793,g3t1_4,,running
Status,63,53834846921,g3t1_4,,success
Status,64,54826397482,g3t1_4,,running
Status,65,54834475710,g3t1_4,,success
Status,69,55826992215,g3t1_4,,running
Status,70,55834198934,g3t1_4,,success
Status,76,56827039564,g3t1_4,,running
Status,77,56834247849,g3t1_4,,success
Status,83,57827121743,g3t1_4,,running
Status,84,57837258881,g3t1_4,,success
Status,90,58826618975,g3t1_4,,running
Status,91,58829347131,g3t1_4,,success
Status,97,59827416330,g3t1_4,,running
Status,98,59834015013,g3t1_4,,success
Status,104,60827492437,g3t1_4,,running
Status,105,60834325496,g3t1_4,,success
Status,111,61827731173,g3t1_4,,running
Status,112,61834351611,g3t1_4,,success
Status,118,62827817505,g3t1_4,,running
Status,119,62837612695,g3t1_4,,success
Status,125,63828943038,g3t1_4,,running
Status,126,63835140233,g3t1_4,,success
Status,132,64828573516,g3t1_4,,running
Status,133,64834652633,g3t1_4,,success
Status,139,65828510517,g3t1_4,,running
Status,140,65835292340,g3t1_4,,success
Status,146,66828515371,g3t1_4,,running
Status,147,66834974425,g3t1_4,,success
Status,153,67828500147,g3t1_4,,running
Status,154,67837534997,g3t1_4,,success
Status,160,68828827776,g3t1_4,,running
Status,161,68835651963,g3t1_4,,success
Status,167,69828698070,g3t1_4,,running
Status,168,69835004593,g3t1_4,,success
Status,174,70829047211,g3t1_4,,running
Status,175,70834733861,g3t1_4,,success
Status,181,71829075339,g3t1_4,,running
Status,182,71834743112,g3t1_4,,success
Status,188,72829093687,g3t1_4,,running
Status,189,72837743314,g3t1_4,,success
Status,195,73829269812,g3t1_4,,running
Status,196,73835849079,g3t1_4,,success
Status,202,74829362298,g3t1_4,,running
Status,203,74835957031,g3t1_4,,success
Status,209,75829044749,g3t1_4,,running
Status,210,75835429148,g3t1_4,,success
Status,216,76829575732,g3t1_4,,running
Status,217,76839344447,g3t1_4,,success
Status,223,77830423409,g3t1_4,,running
Status,224,77840379805,g3t1_4,,success
Status,230,78830305253,g3t1_4,,running
Status,231,78835912965,g3t1_4,,success
Status,237,79829569176,g3t1_4,,running
Status,238,79839555669,g3t1_4,,success
Status,244,80829978604,g3t1_4,,running
Status,245,80836402994,g3t1_4,,success
Status,251,81829867680,g3t1_4,,running
Status,252,81837011686,g3t1_4,,success
Status,258,82830252182,g3t1_4,,running
Status,259,82833382803,g3t1_4,,success
Status,265,83829827873,g3t1_4,,running
Status,266,83836699002,g3t1_4,,success
Status,272,84829970071,g3t1_4,,running
Status,273,84835939909,g3t1_4,,success
Status,279,85830070130,g3t1_4,,running
Status,280,85836381780,g3t1_4,,success
Status,286,86830211765,g3t1_4,,running
Status,287,86832514520,g3t1_4,,success
Status,293,87575384577,g3t1_2,,init
Status,294,87587452444,g3t1_2,,init
Status,295,87587497988,g3t1_2,,running
Status,296,87588990984,g3t1_2,,success
Status,298,87787637588,g3t1_2,,running
Status,299,87788895238,g3t1_2,,success
Status,300,87830307655,g3t1_4,,running
Status,301,87839724690,g3t1_4,,success
Status,303,87987792325,g3t1_2,,running
Status,304,87989082009,g3t1_2,,success
Status,306,88187562288,g3t1_2,,running
Status,307,88188166945,g3t1_2,,success
Status,309,88388430548,g3t1_2,,running
Status,310,88389167788,g3t1_2,,success
Status,312,88587975886,g3t1_2,,running
Status,313,88589179408,g3t1_2,,success
Status,315,88720746307,g4t1,,success
Status,316,88788186356,g3t1_2,,running
Status,317,88789503550,g3t1_2,,success
Status,318,88830378182,g3t1_4,,running
Status,319,88837909131,g3t1_4,,success
Status,321,88988225394,g3t1_2,,running
Status,322,88989354459,g3t1_2,,success
Status,324,89188272619,g3t1_2,,running
Status,325,89189363940,g3t1_2,,success
Status,327,89388391321,g3t1_2,,running
Status,328,89389433429,g3t1_2,,success
Status,330,89588660724,g3t1_2,,running
Status,331,89590067489,g3t1_2,,success
Status,333,89720656130,g4t1,,success
Status,334,89788585367,g3t1_2,,running
Status,335,89789780577,g3t1_2,,success
Status,336,89830398161,g3t1_4,,running
Status,337,89836351233,g3t1_4,,success
Status,339,89988671442,g3t1_2,,running
Status,340,89989842997,g3t1_2,,success
Status,342,90189155347,g3t1_2,,running
Status,343,90190495734,g3t1_2,,success
Status,345,90389251011,g3t1_2,,running
Status,346,90390480032,g3t1_2,,success
Status,348,90589263542,g3t1_2,,running
Status,349,90590439014,g3t1_2,,success
Status,351,90721497143,g4t1,,success
Status,352,90789226931,g3t1_2,,running
Status,353,90790427032,g3t1_2,,success
Status,354,90830524449,g3t1_4,,running
Status,355,90837384397,g3t1_4,,success
Status,357,90989180199,g3t1_2,,running
Status,358,90990493336,g3t1_2,,success
Status,360,91189551054,g3t1_2,,running
Status,361,91190745098,g3t1_2,,success
Status,363,91389868079,g3t1_2,,running
Status,364,91391279804,g3t1_2,,success
Status,366,91589965134,g3t1_2,,running
Status,367,91591393918,g3t1_2,,success
Status,369,91721392244,g4t1,,success
Status,370,91789647871,g3t1_2,,running
Status,371,91790914385,g3t1_2,,success
Status,372,91830636165,g3t1_4,,running
Status,373,91837549797,g3t1_4,,success
Status,375,91989620496,g3t1_2,,running
Status,376,91990969606,g3t1_2,,success
Status,378,92190204406,g3t1_2,,running
Status,379,92191489235,g3t1_2,,success
Status,381,92390274040,g3t1_2,,running
Status,382,92391531423,g3t1_2,,success
Status,384,92590301587,g3t1_2,,running
Status,385,92591523010,g3t1_2,,success
Status,387,92721231900,g4t1,,success
Status,388,92790041244,g3t1_2,,running
Status,389,92791161385,g3t1_2,,success
Status,390,92831353425,g3t1_4,,running
Status,391,92838633847,g3t1_4,,success
Status,393,92990111808,g3t1_2,,running
Status,394,92991396498,g3t1_2,,success
Status,396,93190159935,g3t1_2,,running
Status,397,93191326392,g3t1_2,,success
Status,399,93390557114,g3t1_2,,running
Status,400,93391905145,g3t1_2,,success
Status,402,93590776497,g3t1_2,,running
Status,403,93591963334,g3t1_2,,success
Status,405,93721871093,g4t1,,success
Status,406,93790573607,g3t1_2,,running
Status,407,93791876548,g3t1_2,,success
Status,408,93830874842,g3t1_4,,running
Status,409,93836842551,g3t1_4,,success
Status,411,93990644330,g3t1_2,,running
Status,412,93991936710,g3t1_2,,success
Status,414,94191616882,g3t1_2,,running
Status,415,94191889061,g3t1_2,,success
Status,417,94391632572,g3t1_2,,running
Status,418,94391954395,g3t1_2,,success
Status,420,94591190762,g3t1_2,,running
Status,421,94592547359,g3t1_2,,success
Status,423,94721847610,g4t1,,success
Status,424,94790828131,g3t1_2,,running
Status,425,94791946790,g3t1_2,,success
Status,426,94831106394,g3t1_4,,running
Status,427,94838030505,g3t1_4,,success
Status,429,94991194542,g3t1_2,,running
Status,430,94992378478,g3t1_2,,success
Status,432,95191121579,g3t1_2,,running
Status,433,95192301794,g3t1_2,,success
Status,435,95391180547,g3t1_2,,running
Status,436,95392430021,g3t1_2,,success
Status,438,95591319458,g3t1_2,,running
Status,439,95592686938,g3t1_2,,success
Status,441,95721363419,g4t1,,success
Status,442,95791434574,g3t1_2,,running
Status,443,95792545242,g3t1_2,,success
Status,444,95831050104,g3t1_4,,running
Status,445,95838420964,g3t1_4,,success
Status,447,95991496680,g3t1_2,,running
Status,448,95992931438,g3t1_2,,success
Status,450,96191626843,g3t1_2,,running
Status,451,96192922173,g3t1_2,,success
Status,453,96392597928,g3t1_2,,running
Status,454,96392873940,g3t1_2,,success
Status,456,96591802728,g3t1_2,,running
Status,457,96593036623,g3t1_2,,success
Status,459,96721508747,g4t1,,success
Status,460,96791875136,g3t1_2,,running
Status,461,96793215654,g3t1_2,,success
Status,462,96831125008,g3t1_4,,running
Status,463,96838188014,g3t1_4,,success
Status,465,96991916049,g3t1_2,,running
Status,466,96993142918,g3t1_2,,success
Status,468,97192555997,g3t1_2,,running
Status,469,97193855553,g3t1_2,,success
Status,471,97392449287,g3t1_2,,running
Status,472,97393724694,g3t1_2,,success
Status,474,97592250377,g3t1_2,,running
Status,475,97593580290,g3t1_2,,success
Status,477,97721239129,g4t1,,success
Status,478,97792739607,g3t1_2,,running
Status,479,97794077836,g3t1_2,,success
Status,480,97831551838,g3t1_4,,running
Status,481,97838715023,g3t1_4,,success
Status,483,97992443255,g3t1_2,,running
Status,484,97993694153,g3t1_2,,success
Status,486,98192942127,g3t1_2,,running
Status,487,98194063336,g3t1_2,,success
Status,489,98393024483,g3t1_2,,running
Status,490,98394287518,g3t1_2,,success
Status,492,98593104711,g3t1_2,,running
Status,493,98594243708,g3t1_2,,success
Status,495,98722012895,g4t1,,success
Status,496,98792918838,g3t1_2,,running
Status,497,98794103467,g3t1_2,,success
Status,498,98831965753,g3t1_4,,running
Status,499,98838807265,g3t1_4,,success
Status,501,98993018861,g3t1_2,,running
Status,502,98994339827,g3t1_2,,success
Status,504,99193065323,g3t1_2,,running
Status,505,99194396592,g3t1_2,,success
Status,507,99393314345,g3t1_2,,running
Status,508,99394439901,g3t1_2,,success
Status,510,99593535913,g3t1_2,,running
Status,511,99594915664,g3t1_2,,success
Status,513,99721772621,g4t1,,success
Status,514,99793664421,g3t1_2,,running
Status,515,99795102921,g3t1_2,,success
Status,516,99831977080,g3t1_4,,running
Status,517,99838866342,g3t1_4,,success
Status,519,99993461241,g3t1_2,,running
Status,520,99994786152,g3t1_2,,success
Status,522,100193770703,g3t1_2,,running
Status,523,100195232092,g3t1_2,,success
Status,525,100393897568,g3t1_2,,running
Status,526,100395331296,g3t1_2,,success
Status,528,100593908891,g3t1_2,,running
Status,529,100595137839,g3t1_2,,success
Status,531,100721898113,g4t1,,success
Status,532,100793872994,g3t1_2,,running
Status,533,100795205890,g3t1_2,,success
Status,534,100831527250,g3t1_4,,running
Status,535,100838397155,g3t1_4,,success
Status,537,100993865127,g3t1_2,,running
Status,538,100994956057,g3t1_2,,success
Status,540,101194236478,g3t1_2,,running
Status,541,101195483673,g3t1_2,,success
Status,543,101394550264,g3t1_2,,running
Status,544,101395563845,g3t1_2,,success
Status,546,101594732325,g3t1_2,,running
Status,547,101595906612,g3t1_2,,success
Status,549,101722050492,g4t1,,success
Status,550,101794923307,g3t1_2,,running
Status,551,101796090128,g3t1_2,,success
Status,552,101832265619,g3t1_4,,running
Status,553,101842269428,g3t1_4,,success
Status,555,101994448540,g3t1_2,,running
Status,556,101995751981,g3t1_2,,success
Status,558,102194535092,g3t1_2,,running
Status,559,102195877013,g3t1_2,,success
Status,561,102395128240,g3t1_2,,running
Status,562,102396429918,g3t1_2,,success
Status,564,102595311016,g3t1_2,,running
Status,565,102596740595,g3t1_2,,success
Status,567,102722052786,g4t1,,success
Status,568,102795350408,g3t1_2,,running
Status,569,102796853741,g3t1_2,,success
Status,570,102832263477,g3t1_4,,running
Status,571,102842757522,g3t1_4,,success
Status,573,102995090123,g3t1_2,,running
Status,574,102996522484,g3t1_2,,success
Status,576,103195434330,g3t1_2,,running
Status,577,103196724651,g3t1_2,,success
Status,579,103395037566,g3t1_2,,running
Status,580,103395576698,g3t1_2,,success
Status,582,103595134677,g3t1_2,,running
Status,583,103595851091,g3t1_2,,success
Status,585,103722004399,g4t1,,success
Status,586,103795328272,g3t1_2,,running
Status,587,103796587559,g3t1_2,,success
Status,588,103832006623,g3t1_4,,running
Status,589,103839100852,g3t1_4,,success
Status,591,103995456548,g3t1_2,,running
Status,592,103996522526,g3t1_2,,success
Status,594,104195408537,g3t1_2,,running
Status,595,104196109644,g3t1_2,,success
Status,597,104395638543,g3t1_2,,running
Status,598,104396914034,g3t1_2,,success
Status,600,104595659110,g3t1_2,,running
Status,601,104596906794,g3t1_2,,success
Status,603,104722292903,g4t1,,success
Status,604,104795856784,g3t1_2,,running
Status,605,104797218386,g3t1_2,,success
Status,606,104831923772,g3t1_4,,running
Status,607,104842045290,g3t1_4,,success
Status,609,104995937204,g3t1_2,,running
Status,610,104997214703,g3t1_2,,success
Status,612,105195939011,g3t1_2,,running
Status,613,105197203262,g3t1_2,,success
Status,615,105396097270,g3t1_2,,running
Status,616,105397344148,g3t1_2,,success
Status,618,105595844619,g3t1_2,,running
Status,619,105596462280,g3t1_2,,success
Status,621,105722271578,g4t1,,success
Status,622,105796289499,g3t1_2,,running
Status,623,105797622109,g3t1_2,,success
Status,624,105832005061,g3t1_4,,running
Status,625,105839023253,g3t1_4,,success
Status,627,105996301985,g3t1_2,,running
Status,628,105997574743,g3t1_2,,success
Status,630,106196853187,g3t1_2,,running
Status,631,106198052205,g3t1_2,,success
Status,633,106397093493,g3t1_2,,running
Status,634,106398273895,g3t1_2,,success
Status,636,106597610232,g3t1_2,,running
Status,637,106597895588,g3t1_2,,success
Status,639,106722396655,g4t1,,success
Status,640,106796753315,g3t1_2,,running
Status,641,106798066750,g3t1_2,,success
Status,642,106832064613,g3t1_4,,running
Status,643,106838704485,g3t1_4,,success
Status,645,106996919462,g3t1_2,,running
Status,646,106998189962,g3t1_2,,success
Status,648,107197162072,g3t1_2,,running
Status,649,107198438071,g3t1_2,,success
Status,651,107397420522,g3t1_2,,running
Status,652,107398760989,g3t1_2,,success
Status,654,107597447469,g3t1_2,,running
Status,655,107598699776,g3t1_2,,success
Status,657,107722682129,g4t1,,success
Status,658,107797631011,g3t1_2,,running
Status,659,107798982721,g3t1_2,,success
Status,660,107832648503,g3t1_4,,running
Status,661,107840311808,g3t1_4,,success
Status,663,107997360449,g3t1_2,,running
Status,664,107998584675,g3t1_2,,success
Status,666,108197782002,g3t1_2,,running
Status,667,108199168044,g3t1_2,,success
Status,669,108397932048,g3t1_2,,running
Status,670,108399127141,g3t1_2,,success
Status,672,108598057683,g3t1_2,,running
Status,673,108599281863,g3t1_2,,success
Status,675,108722576294,g4t1,,success
Status,676,108797873044,g3t1_2,,running
Status,677,108799063718,g3t1_2,,success
Status,678,108832295535,g3t1_4,,running
Status,679,108841427402,g3t1_4,,success
Status,681,108998003146,g3t1_2,,running
Status,682,108999277918,g3t1_2,,success
Status,684,109198105105,g3t1_2,,running
Status,685,109199209967,g3t1_2,,success
Status,687,109398156462,g3t1_2,,running
Status,688,109399425658,g3t1_2,,success
Status,690,109597811124,g3t1_2,,running
Status,691,109598366550,g3t1_2,,success
Status,693,109722605956,g4t1,,success
Status,694,109798201684,g3t1_2,,running
Status,695,109799504017,g3t1_2,,success
Status,696,109832363190,g3t1_4,,running
Status,697,109839151015,g3t1_4,,success
Status,699,109998332819,g3t1_2,,running
Status,700,109999558279,g3t1_2,,success
Status,702,110198338590,g3t1_2,,running
Status,703,110199466040,g3t1_2,,success
Status,705,110399440180,g3t1_2,,running
Status,706,110399608478,g3t1_2,,success
Status,708,110598518440,g3t1_2,,running
Status,709,110599609560,g3t1_2,,success
Status,711,110722682371,g4t1,,success
Status,712,110798694683,g3t1_2,,running
Status,713,110799816794,g3t1_2,,success
Status,714,110832482734,g3t1_4,,running
Status,715,110838536496,g3t1_4,,success
Status,717,110998650367,g3t1_2,,running
Status,718,110999801992,g3t1_2,,success
Status,720,111198459879,g3t1_2,,running
Status,721,111199464230,g3t1_2,,success
Status,723,111398830796,g3t1_2,,running
Status,724,111400100236,g3t1_2,,success
Status,726,111598951921,g3t1_2,,running
Status,727,111600005070,g3t1_2,,success
Status,729,111722758255,g4t1,,success
Status,730,111799862637,g3t1_2,,running
Status,731,111800230342,g3t1_2,,success
Status,732,111832708525,g3t1_4,,running
Status,733,111838873617,g3t1_4,,success
Status,735,111999125642,g3t1_2,,running
Status,736,112000338740,g3t1_2,,success
Status,738,112199321218,g3t1_2,,running
Status,739,112200569991,g3t1_2,,success
Status,741,112399359443,g3t1_2,,running
Status,742,112400497983,g3t1_2,,success
Status,744,112599404422,g3t1_2,,running
Status,745,112600716103,g3t1_2,,success
Status,747,112723335951,g4t1,,success
Status,748,112799470111,g3t1_2,,running
Status,749,112800714503,g3t1_2,,success
Status,750,112832703686,g3t1_4,,running
Status,751,112835643903,g3t1_4,,success
Status,753,112999602560,g3t1_2,,running
Status,754,113000776987,g3t1_2,,success
Status,756,113199734181,g3t1_2,,running
Status,757,113201185245,g3t1_2,,success
Status,759,113400602597,g3t1_2,,running
Status,760,113401413168,g3t1_2,,success
Status,762,113599544575,g3t1_2,,running
Status,763,113600168804,g3t1_2,,success
Status,765,113722619346,g4t1,,success
Status,766,113800007018,g3t1_2,,running
Status,767,113801602752,g3t1_2,,success
Status,768,113832859946,g3t1_4,,running
Status,769,113841293455,g3t1_4,,success
Status,771,114000082836,g3t1_2,,running
Status,772,114001209972,g3t1_2,,success
Status,774,114201126665,g3t1_2,,running
Status,775,114201386776,g3t1_2,,success
Status,777,114400239535,g3t1_2,,running
Status,778,114401439063,g3t1_2,,success
Status,780,114600365309,g3t1_2,,running
Status,781,114601889034,g3t1_2,,success
Status,783,114723063187,g4t1,,success
Status,784,114800467619,g3t1_2,,running
Status,785,114801730892,g3t1_2,,success
Status,786,114832922063,g3t1_4,,running
Status,787,114840203904,g3t1_4,,success
Status,789,115000620635,g3t1_2,,running
Status,790,115001798425,g3t1_2,,success
Status,792,115201110978,g3t1_2,,running
Status,793,115202432114,g3t1_2,,success
Status,795,115400481400,g3t1_2,,running
Status,796,115401230606,g3t1_2,,success
Status,798,115600481241,g3t1_2,,running
Status,799,115601052664,g3t1_2,,success
Status,801,115723062806,g4t1,,success
Status,802,115800825445,g3t1_2,,running
Status,803,115801966025,g3t1_2,,success
Status,804,115832982675,g3t1_4,,running
Status,805,115840069347,g3t1_4,,success
Status,807,116001162216,g3t1_2,,running
Status,808,116002476449,g3t1_2,,success
Status,810,116201320996,g3t1_2,,running
Status,811,116202471255,g3t1_2,,success
Status,813,116401931650,g3t1_2,,running
Status,814,116402395832,g3t1_2,,success
Status,816,116601142455,g3t1_2,,running
Status,817,116602312747,g3t1_2,,success
Status,819,116723028541,g4t1,,success
Status,820,116802074177,g3t1_2,,running
Status,821,116802147849,g3t1_2,,success
Status,822,116832929483,g3t1_4,,running
Status,823,116837569603,g3t1_4,,success
Status,825,117001335376,g3t1_2,,running
Status,826,117002640037,g3t1_2,,success
Status,828,117201400361,g3t1_2,,running
Status,829,117202601574,g3t1_2,,success
Status,831,117401492783,g3t1_2,,running
Status,832,117402778404,g3t1_2,,success
Status,834,117601210972,g3t1_2,,running
Status,835,117601770169,g3t1_2,,success
Status,837,117723250830,g4t1,,success
Status,838,117801628627,g3t1_2,,running
Status,839,117802873440,g3t1_2,,success
Status,840,117833118298,g3t1_4,,running
Status,841,117840306954,g3t1_4,,success
Status,843,118001765442,g3t1_2,,running
Status,844,118002787182,g3t1_2,,success
Status,846,118201922167,g3t1_2,,running
Status,847,118203228027,g3t1_2,,success
Status,849,118401975104,g3t1_2,,running
Status,850,118403259753,g3t1_2,,success
Status,852,118601982458,g3t1_2,,running
Status,853,118603582404,g3t1_2,,success
Status,855,118723511980,g4t1,,success
Status,856,118802130083,g3t1_2,,running
Status,857,118803439150,g3t1_2,,success
Status,858,118833186366,g3t1_4,,running
Status,859,118842101099,g3t1_4,,success
Status,861,119002340160,g3t1_2,,running
Status,862,119003746024,g3t1_2,,success
Status,864,119203248949,g3t1_2,,running
Status,865,119203368765,g3t1_2,,success
Status,867,119403142755,g3t1_2,,running
Status,868,119403251480,g3t1_2,,success
Status,870,119603270273,g3t1_2,,running
Status,871,119606162124,g3t1_2,,success
Status,873,119723492664,g4t1,,success
Status,874,119802608088,g3t1_2,,running
Status,875,119802752773,g3t1_2,,success
Status,876,119832994445,g3t1_4,,running
Status,877,119837087544,g3t1_4,,success
Status,879,120002331669,g3t1_2,,running
Status,880,120003257247,g3t1_2,,success
Status,882,120202616567,g3t1_2,,running
Status,883,120203876385,g3t1_2,,success
Status,885,120404447666,g3t1_2,,running
Status,886,120404497056,g3t1_2,,success
Status,888,120603206624,g3t1_2,,running
Status,889,120604592710,g3t1_2,,success
Status,891,120723926900,g4t1,,success
Status,892,120803847628,g3t1_2,,running
Status,893,120804463480,g3t1_2,,success
Status,894,120833269979,g3t1_4,,running
Status,895,120839804466,g3t1_4,,success
Status,897,121003107827,g3t1_2,,running
Status,898,121004304564,g3t1_2,,success
Status,900,121203667310,g3t1_2,,running
Status,901,121205061023,g3t1_2,,success
Status,903,121403281034,g3t1_2,,running
Status,904,121404628270,g3t1_2,,success
Status,906,121604550290,g3t1_2,,running
Status,907,121605203716,g3t1_2,,success
Status,909,121724394560,g4t1,,success
Status,910,121803594887,g3t1_2,,running
Status,911,121804867129,g3t1_2,,success
Status,912,121833425633,g3t1_4,,running
Status,913,121840248704,g3t1_4,,success
Status,915,122003776371,g3t1_2,,running
Status,916,122005533780,g3t1_2,,success
Status,918,122203349592,g3t1_2,,running
Status,919,122204060583,g3t1_2,,success
Status,921,122403420656,g3t1_2,,running
Status,922,122403983747,g3t1_2,,success
Status,924,122603956310,g3t1_2,,running
Status,925,122604033750,g3t1_2,,success
Status,927,122723203479,g4t1,,success
Status,928,122804067307,g3t1_2,,running
Status,929,122804091162,g3t1_2,,success
Status,930,122833119051,g3t1_4,,running
Status,931,122835743534,g3t1_4,,success
Status,933,123003988405,g3t1_2,,running
Status,934,123004594781,g3t1_2,,success
Status,936,123204664304,g3t1_2,,running
Status,937,123206049400,g3t1_2,,success
Status,939,123404579919,g3t1_2,,running
Status,940,123405668069,g3t1_2,,success
Status,942,123604785795,g3t1_2,,running
Status,943,123605978679,g3t1_2,,success
Status,945,123724220849,g4t1,,success
Status,946,123805426594,g3t1_2,,running
Status,947,123805717139,g3t1_2,,success
Status,948,123833530074,g3t1_4,,running
Status,949,123840659958,g3t1_4,,success
Status,951,124004628612,g3t1_2,,running
Status,952,124005806876,g3t1_2,,success
Status,954,124205117796,g3t1_2,,running
Status,955,124206190022,g3t1_2,,success
Status,957,124404889534,g3t1_2,,running
Status,958,124406160251,g3t1_2,,success
Status,960,124605022362,g3t1_2,,running
Status,961,124606224722,g3t1_2,,success
Status,963,124723754759,g4t1,,success
Status,964,124805087457,g3t1_2,,running
Status,965,124806433243,g3t1_2,,success
Status,966,124834098080,g3t1_4,,running
Status,967,124841243580,g3t1_4,,success
Status,969,125005159395,g3t1_2,,running
Status,970,125006356055,g3t1_2,,success
Status,972,125205548209,g3t1_2,,running
Status,973,125206740549,g3t1_2,,success
Status,975,125405659287,g3t1_2,,running
Status,976,125406950153,g3t1_2,,success
Status,978,125605422528,g3t1_2,,running
Status,979,125606633684,g3t1_2,,success
Status,981,125724299009,g4t1,,success
Status,982,125805458469,g3t1_2,,running
Status,983,125806841594,g3t1_2,,success
Status,984,125833810290,g3t1_4,,running
Status,985,125840061346,g3t1_4,,success
Status,987,126006048888,g3t1_2,,running
Status,988,126007264768,g3t1_2,,success
Status,990,126206096492,g3t1_2,,running
Status,991,126207419445,g3t1_2,,success
Status,993,126405854102,g3t1_2,,running
Status,994,126407092748,g3t1_2,,success
Status,996,126606377074,g3t1_2,,running
Status,997,126607813455,g3t1_2,,success
Status,999,126724252958,g4t1,,success
Status,1000,126805977822,g3t1_2,,running
Status,1001,126807242497,g3t1_2,,success
Status,1002,126833847741,g3t1_4,,running
Status,1003,126839978850,g3t1_4,,success
Status,1005,127006114632,g3t1_2,,running
Status,1006,127007127969,g3t1_2,,success
Status,1008,127206149461,g3t1_2,,running
Status,1009,127207428136,g3t1_2,,success
Status,1011,127406726838,g3t1_2,,running
Status,1012,127408082995,g3t1_2,,success
Status,1014,127606866752,g3t1_2,,running
Status,1015,127608313631,g3t1_2,,success
Status,1017,127724737905,g4t1,,success
Status,1018,127807005980,g3t1_2,,running
Status,1019,127808421841,g3t1_2,,success
Status,1020,127834442709,g3t1_4,,running
Status,1021,127843589388,g3t1_4,,success
Status,1023,128006626415,g3t1_2,,running
Status,1024,128007916649,g3t1_2,,success
Status,1026,128207065463,g3t1_2,,running
Status,1027,128208270645,g3t1_2,,success
Status,1029,128407252651,g3t1_2,,running
Status,1030,128408420151,g3t1_2,,success
Status,1032,128607406395,g3t1_2,,running
Status,1033,128608645442,g3t1_2,,success
Status,1035,128725008321,g4t1,,success
Status,1036,128807613999,g3t1_2,,running
Status,1037,128809211361,g3t1_2,,success
Status,1038,128834234654,g3t1_4,,running
Status,1039,128842303849,g3t1_4,,success
Status,1041,129007311235,g3t1_2,,running
Status,1042,129008688076,g3t1_2,,success
Status,1044,129207390300,g3t1_2,,running
Status,1045,129208812208,g3t1_2,,success
Status,1047,129407900161,g3t1_2,,running
Status,1048,129409594025,g3t1_2,,success
Status,1050,129608161358,g3t1_2,,running
Status,1051,129609581134,g3t1_2,,success
Status,1053,129724411946,g4t1,,success
Status,1054,129807831658,g3t1_2,,running
Status,1055,129809062462,g3t1_2,,success
Status,1056,129834184746,g3t1_4,,running
Status,1057,129842278827,g3t1_4,,success
Status,1059,130007739744,g3t1_2,,running
Status,1060,130008893745,g3t1_2,,success
Status,1062,130208287461,g3t1_2,,running
Status,1063,130209770743,g3t1_2,,success
Status,1065,130408515404,g3t1_2,,running
Status,1066,130408902386,g3t1_2,,success
Status,1068,130608148313,g3t1_2,,running
Status,1069,130609553816,g3t1_2,,success
Status,1071,130724689436,g4t1,,success
Status,1072,130808315366,g3t1_2,,running
Status,1073,130809789400,g3t1_2,,success
Status,1074,130834280777,g3t1_4,,running
Status,1075,130843508125,g3t1_4,,success
Status,1077,131008457121,g3t1_2,,running
Status,1078,131009524353,g3t1_2,,success
Status,1080,131209254689,g3t1_2,,running
Status,1081,131209563309,g3t1_2,,success
Status,1083,131409407914,g3t1_2,,running
Status,1084,131409564537,g3t1_2,,success
Status,1086,131608588020,g3t1_2,,running
Status,1087,131609698093,g3t1_2,,success
Status,1089,131724833158,g4t1,,success
Status,1090,131808611632,g3t1_2,,running
Status,1091,131809913229,g3t1_2,,success
Status,1092,131834304048,g3t1_4,,running
Status,1093,131841405790,g3t1_4,,success
Status,1095,132009569543,g3t1_2,,running
Status,1096,132009785891,g3t1_2,,success
Status,1098,132208799820,g3t1_2,,running
Status,1099,132209937377,g3t1_2,,success
Status,1101,132408926927,g3t1_2,,running
Status,1102,132410095174,g3t1_2,,success
Status,1104,132609546767,g3t1_2,,running
Status,1105,132610729450,g3t1_2,,success
Status,1107,132725181603,g4t1,,success
Status,1108,132809032897,g3t1_2,,running
Status,1109,132810151276,g3t1_2,,success
Status,1110,132835405327,g3t1_4,,running
Status,1111,132841869338,g3t1_4,,success
Status,1113,133009487709,g3t1_2,,running
Status,1114,133010660501,g3t1_2,,success
Status,1116,133210237811,g3t1_2,,running
Status,1117,133210577368,g3t1_2,,success
Status,1119,133409812258,g3t1_2,,running
Status,1120,133411072384,g3t1_2,,success
Status,1122,133609891834,g3t1_2,,running
Status,1123,133611208122,g3t1_2,,success
Status,1125,133725445857,g4t1,,success
Status,1126,133809997685,g3t1_2,,running
Status,1127,133811290797,g3t1_2,,success
Status,1128,133834926928,g3t1_4,,running
Status,1129,133841978826,g3t1_4,,success
Status,1131,134009672899,g3t1_2,,running
Status,1132,134010860498,g3t1_2,,success
Status,1134,134209883525,g3t1_2,,running
Status,1135,134211214400,g3t1_2,,success
Status,1137,134410228156,g3t1_2,,running
Status,1138,134411562669,g3t1_2,,success
Status,1140,134611306368,g3t1_2,,running
Status,1141,134611606221,g3t1_2,,success
Status,1143,134725330179,g4t1,,success
Status,1144,134810093784,g3t1_2,,running
Status,1145,134811350843,g3t1_2,,success
Status,1146,134834587177,g3t1_4,,running
Status,1147,134842504128,g3t1_4,,success
Status,1149,135010216629,g3t1_2,,running
Status,1150,135011849088,g3t1_2,,success
Status,1152,135211117935,g3t1_2,,running
Status,1153,135211388862,g3t1_2,,success
Status,1155,135410909232,g3t1_2,,running
Status,1156,135412532833,g3t1_2,,success
Status,1158,135610636795,g3t1_2,,running
Status,1159,135611852544,g3t1_2,,success
Status,1161,135725136484,g4t1,,success
Status,1162,135810712758,g3t1_2,,running
Status,1163,135812226119,g3t1_2,,success
Status,1164,135834746015,g3t1_4,,running
Status,1165,135843991141,g3t1_4,,success
Status,1167,136010743122,g3t1_2,,running
Status,1168,136011969620,g3t1_2,,success
Status,1170,136211172578,g3t1_2,,running
Status,1171,136212578983,g3t1_2,,success
Status,1173,136411334969,g3t1_2,,running
Status,1174,136412568791,g3t1_2,,success
Status,1176,136611451959,g3t1_2,,running
Status,1177,136612827811,g3t1_2,,success
Status,1179,136725683458,g4t1,,success
Status,1180,136811663690,g3t1_2,,running
Status,1181,136813049460,g3t1_2,,success
Status,1182,136835178873,g3t1_4,,running
Status,1183,136842060539,g3t1_4,,success
Status,1185,137011790320,g3t1_2,,running
Status,1186,137013204052,g3t1_2,,success
Status,1188,137211910403,g3t1_2,,running
Status,1189,137213326805,g3t1_2,,success
Status,1191,137412125678,g3t1_2,,running
Status,1192,137413491055,g3t1_2,,success
Status,1194,137611778846,g3t1_2,,running
Status,1195,137613094402,g3t1_2,,success
Status,1197,137725228068,g4t1,,success
Status,1198,137811884373,g3t1_2,,running
Status,1199,137813202081,g3t1_2,,success
Status,1200,137834858088,g3t1_4,,running
Status,1201,137841259926,g3t1_4,,success
Status,1203,138011973056,g3t1_2,,running
Status,1204,138013232118,g3t1_2,,success
Status,1206,138212005168,g3t1_2,,running
Status,1207,138213220449,g3t1_2,,success
Status,1209,138411939067,g3t1_2,,running
Status,1210,138412926705,g3t1_2,,success
Status,1212,138612861162,g3t1_2,,running
Status,1213,138614122249,g3t1_2,,success
Status,1215,138725916019,g4t1,,success
Status,1216,138812385561,g3t1_2,,running
Status,1217,138813734173,g3t1_2,,success
Status,1218,138834897429,g3t1_4,,running
Status,1219,138842032652,g3t1_4,,success
Status,1221,139012436966,g3t1_2,,running
Status,1222,139013785515,g3t1_2,,success
Status,1224,139212749250,g3t1_2,,running
Status,1225,139214139964,g3t1_2,,success
Status,1227,139412608016,g3t1_2,,running
Status,1228,139413764065,g3t1_2,,success
Status,1230,139613048595,g3t1_2,,running
Status,1231,139614179850,g3t1_2,,success
Status,1233,139725999935,g4t1,,success
Status,1234,139813329566,g3t1_2,,running
Status,1235,139814589560,g3t1_2,,success
Status,1236,139835424451,g3t1_4,,running
Status,1237,139842690664,g3t1_4,,success
Status,1239,140013305592,g3t1_2,,running
Status,1240,140014512091,g3t1_2,,success
Status,1242,140213426986,g3t1_2,,running
Status,1243,140214706128,g3t1_2,,success
Status,1245,140413494964,g3t1_2,,running
Status,1246,140414738240,g3t1_2,,success
Status,1248,140613637917,g3t1_2,,running
Status,1249,140614945464,g3t1_2,,success
Status,1251,140726130877,g4t1,,success
Status,1252,140813736347,g3t1_2,,running
Status,1253,140815015399,g3t1_2,,success
Status,1254,140835805446,g3t1_4,,running
Status,1255,140845241614,g3t1_4,,success
Status,1257,141013831800,g3t1_2,,running
Status,1258,141015021029,g3t1_2,,success
Status,1260,141214011330,g3t1_2,,running
Status,1261,141215236164,g3t1_2,,success
Status,1263,141414110712,g3t1_2,,running
Status,1264,141415280066,g3t1_2,,success
Status,1266,141614409396,g3t1_2,,running
Status,1267,141615698113,g3t1_2,,success
Status,1269,141726362065,g4t1,,success
Status,1270,141814550138,g3t1_2,,running
Status,1271,141815967753,g3t1_2,,success
Status,1272,141835661846,g3t1_4,,running
Status,1273,141842732697,g3t1_4,,success
Status,1275,142014170307,g3t1_2,,running
Status,1276,142015545273,g3t1_2,,success
Status,1278,142214660392,g3t1_2,,running
Status,1279,142215931854,g3t1_2,,success
Status,1281,142414918145,g3t1_2,,running
Status,1282,142415878637,g3t1_2,,success
Status,1284,142615245522,g3t1_2,,running
Status,1285,142616514334,g3t1_2,,success
Status,1287,142726461763,g4t1,,success
Status,1288,142814668853,g3t1_2,,running
Status,1289,142816067390,g3t1_2,,success
Status,1290,142835441576,g3t1_4,,running
Status,1291,142843141658,g3t1_4,,success
Status,1293,143014721979,g3t1_2,,running
Status,1294,143015926513,g3t1_2,,success
Status,1296,143214855118,g3t1_2,,running
Status,1297,143216176391,g3t1_2,,success
Status,1299,143415234011,g3t1_2,,running
Status,1300,143416591507,g3t1_2,,success
Status,1302,143615414474,g3t1_2,,running
Status,1303,143616788234,g3t1_2,,success
Status,1305,143726492733,g4t1,,success
Status,1306,143815470845,g3t1_2,,running
Status,1307,143816721168,g3t1_2,,success
Status,1308,143835900173,g3t1_4,,running
Status,1309,143842878080,g3t1_4,,success
Status,1311,144015297500,g3t1_2,,running
Status,1312,144016408469,g3t1_2,,success
Status,1314,144215390589,g3t1_2,,running
Status,1315,144216638343,g3t1_2,,success
Status,1317,144415428125,g3t1_2,,running
Status,1318,144416630310,g3t1_2,,success
Status,1320,144615968643,g3t1_2,,running
Status,1321,144617417766,g3t1_2,,success
Status,1323,144726712004,g4t1,,success
Status,1324,144815747060,g3t1_2,,running
Status,1325,144817051227,g3t1_2,,success
Status,1326,144835611083,g3t1_4,,running
Status,1327,144842487209,g3t1_4,,success
Status,1329,145015739550,g3t1_2,,running
Status,1330,145017087481,g3t1_2,,success
Status,1332,145216519705,g3t1_2,,running
Status,1333,145217514052,g3t1_2,,success
Status,1335,145416686957,g3t1_2,,running
Status,1336,145417995848,g3t1_2,,success
Status,1338,145616564178,g3t1_2,,running
Status,1339,145617854960,g3t1_2,,success
Status,1341,145726804832,g4t1,,success
Status,1342,145816588931,g3t1_2,,running
Status,1343,145818101202,g3t1_2,,success
Status,1344,145836397445,g3t1_4,,running
Status,1345,145846864812,g3t1_4,,success
Status,1347,146016313663,g3t1_2,,running
Status,1348,146017467459,g3t1_2,,success
Status,1350,146216787268,g3t1_2,,running
Status,1351,146217973844,g3t1_2,,success
Status,1353,146417222914,g3t1_2,,running
Status,1354,146418461509,g3t1_2,,success
Status,1356,146616545143,g3t1_2,,running
Status,1357,146618015064,g3t1_2,,success
Status,1359,146726469131,g4t1,,success
Status,1360,146816792553,g3t1_2,,running
Status,1361,146818107588,g3t1_2,,success
Status,1362,146835828191,g3t1_4,,running
Status,1363,146843043379,g3t1_4,,success
Status,1365,147016772357,g3t1_2,,running
Status,1366,147017987336,g3t1_2,,success
Status,1368,147216793765,g3t1_2,,running
Status,1369,147218102746,g3t1_2,,success
Status,1371,147417208610,g3t1_2,,running
Status,1372,147418540901,g3t1_2,,success
Status,1374,147617399506,g3t1_2,,running
Status,1375,147618621587,g3t1_2,,success
Status,1377,147726992536,g4t1,,success
Status,1378,147817144766,g3t1_2,,running
Status,1379,147818502111,g3t1_2,,success
Status,1380,147835940071,g3t1_4,,running
Status,1381,147844228870,g3t1_4,,success
Status,1383,148017108773,g3t1_2,,running
Status,1384,148018576502,g3t1_2,,success
Status,1386,148217740739,g3t1_2,,running
Status,1387,148219183374,g3t1_2,,success
Status,1389,148417778810,g3t1_2,,running
Status,1390,148419190113,g3t1_2,,success
Status,1392,148617918224,g3t1_2,,running
Status,1393,148619406984,g3t1_2,,success
Status,1395,148727182659,g4t1,,success
Status,1396,148817979943,g3t1_2,,running
Status,1397,148819448147,g3t1_2,,success
Status,1398,148836531798,g3t1_4,,running
Status,1399,148843055092,g3t1_4,,success
Status,1401,149017601146,g3t1_2,,running
Status,1402,149018814587,g3t1_2,,success
Status,1404,149218971075,g3t1_2,,running
Status,1405,149219286845,g3t1_2,,success
Status,1407,149418222688,g3t1_2,,running
Status,1408,149419694146,g3t1_2,,success
Status,1410,149618080001,g3t1_2,,running
Status,1411,149619154759,g3t1_2,,success
Status,1413,149727494300,g4t1,,success
Status,1414,149818358233,g3t1_2,,running
Status,1415,149819552841,g3t1_2,,success
Status,1416,149836666748,g3t1_4,,running
Status,1417,149843677921,g3t1_4,,success
Status,1419,150018294670,g3t1_2,,running
Status,1420,150019464247,g3t1_2,,success
Status,1422,150218190650,g3t1_2,,running
Status,1423,150219541484,g3t1_2,,success
Status,1425,150418249068,g3t1_2,,running
Status,1426,150419555709,g3t1_2,,success
Status,1428,150618221079,g3t1_2,,running
Status,1429,150619469932,g3t1_2,,success
Status,1431,150726560356,g4t1,,success
Status,1432,150818383919,g3t1_2,,running
Status,1433,150819683324,g3t1_2,,success
Status,1434,150836279691,g3t1_4,,running
Status,1435,150845534057,g3t1_4,,success
Status,1437,151018544476,g3t1_2,,running
Status,1438,151019953757,g3t1_2,,success
Status,1440,151218856246,g3t1_2,,running
Status,1441,151220309509,g3t1_2,,success
Status,1443,151418663509,g3t1_2,,running
Status,1444,151419875076,g3t1_2,,success
Status,1446,151618667480,g3t1_2,,running
Status,1447,151619724554,g3t1_2,,success
Status,1449,151727019328,g4t1,,success
Status,1450,151818747657,g3t1_2,,running
Status,1451,151819845729,g3t1_2,,success
Status,1452,151836328300,g3t1_4,,running
Status,1453,151844753159,g3t1_4,,success
Status,1455,152018851472,g3t1_2,,running
Status,1456,152019922576,g3t1_2,,success
Status,1458,152218902931,g3t1_2,,running
Status,1459,152220077556,g3t1_2,,success
Status,1461,152420458345,g3t1_2,,running
Status,1462,152420534306,g3t1_2,,success
Status,1464,152619429448,g3t1_2,,running
Status,1465,152620712815,g3t1_2,,success
Status,1467,152727076504,g4t1,,success
Status,1468,152819323355,g3t1_2,,running
Status,1469,152820701588,g3t1_2,,success
Status,1470,152836474019,g3t1_4,,running
Status,1471,152843632101,g3t1_4,,success
Status,1473,153019393645,g3t1_2,,running
Status,1474,153020716067,g3t1_2,,success
Status,1476,153220620842,g3t1_2,,running
Status,1477,153220980232,g3t1_2,,success
Status,1479,153419612139,g3t1_2,,running
Status,1480,153420653386,g3t1_2,,success
Status,1482,153620216950,g3t1_2,,running
Status,1483,153621393666,g3t1_2,,success
Status,1485,153727662612,g4t1,,success
Status,1486,153820006268,g3t1_2,,running
Status,1487,153821531941,g3t1_2,,success
Status,1488,153837169596,g3t1_4,,running
Status,1489,153846095702,g3t1_4,,success
Status,1491,154019910022,g3t1_2,,running
Status,1492,154021330925,g3t1_2,,success
Status,1494,154219908274,g3t1_2,,running
Status,1495,154221223952,g3t1_2,,success
Status,1497,154419987211,g3t1_2,,running
Status,1498,154421540338,g3t1_2,,success
Status,1500,154620473198,g3t1_2,,running
Status,1501,154621664684,g3t1_2,,success
Status,1503,154727170565,g4t1,,success
Status,1504,154820458784,g3t1_2,,running
Status,1505,154822467584,g3t1_2,,success
Status,1506,154836522866,g3t1_4,,running
Status,1507,154844483435,g3t1_4,,success
Status,1509,155020367171,g3t1_2,,running
Status,1510,155021692069,g3t1_2,,success
Status,1512,155221248458,g3t1_2,,running
Status,1513,155222668865,g3t1_2,,success
Status,1515,155421231508,g3t1_2,,running
Status,1516,155421275840,g3t1_2,,success
Status,1518,155621003027,g3t1_2,,running
Status,1519,155621048620,g3t1_2,,success
Status,1521,155726942847,g4t1,,success
Status,1522,155820264508,g3t1_2,,running
Status,1523,155820915099,g3t1_2,,success
Status,1524,155836486257,g3t1_4,,running
Status,1525,155839987938,g3t1_4,,success
Status,1527,156021752942,g3t1_2,,running
Status,1528,156021811527,g3t1_2,,success
Status,1530,156220832529,g3t1_2,,running
Status,1531,156222095724,g3t1_2,,success
Status,1533,156421385393,g3t1_2,,running
Status,1534,156422517277,g3t1_2,,success
Status,1536,156621122152,g3t1_2,,running
Status,1537,156622557600,g3t1_2,,success
Status,1539,156727470117,g4t1,,success
Status,1540,156822003809,g3t1_2,,running
Status,1541,156822321239,g3t1_2,,success
Status,1542,156836909533,g3t1_4,,running
Status,1543,156843480483,g3t1_4,,success
Status,1545,157021994516,g3t1_2,,running
Status,1546,157022295452,g3t1_2,,success
Status,1548,157221621314,g3t1_2,,running
Status,1549,157222921096,g3t1_2,,success
Status,1551,157421569640,g3t1_2,,running
Status,1552,157422965397,g3t1_2,,success
Status,1554,157621508445,g3t1_2,,running
Status,1555,157622525484,g3t1_2,,success
Status,1557,157727936323,g4t1,,success
Status,1558,157821559988,g3t1_2,,running
Status,1559,157822848401,g3t1_2,,success
Status,1560,157836616870,g3t1_4,,running
Status,1561,157840860526,g3t1_4,,success
Status,1563,158022595028,g3t1_2,,running
Status,1564,158022699712,g3t1_2,,success
Status,1566,158221511730,g3t1_2,,running
Status,1567,158222228563,g3t1_2,,success
Status,1569,158422312724,g3t1_2,,running
Status,1570,158422857758,g3t1_2,,success
Status,1572,158622899648,g3t1_2,,running
Status,1573,158622958018,g3t1_2,,success
Status,1575,158727708197,g4t1,,success
Status,1576,158822867606,g3t1_2,,running
Status,1577,158823034036,g3t1_2,,success
Status,1578,158837059610,g3t1_4,,running
Status,1579,158842072512,g3t1_4,,success
Status,1581,159022038632,g3t1_2,,running
Status,1582,159023152417,g3t1_2,,success
Status,1584,159222952908,g3t1_2,,running
Status,1585,159223247542,g3t1_2,,success
Status,1587,159423583404,g3t1_2,,running
Status,1588,159423837311,g3t1_2,,success
Status,1590,159623446995,g3t1_2,,running
Status,1591,159623673871,g3t1_2,,success
Status,1593,159728178666,g4t1,,success
Status,1594,159822559421,g3t1_2,,running
Status,1595,159823852859,g3t1_2,,success
Status,1596,159837022777,g3t1_4,,running
Status,1597,159843546468,g3t1_4,,success
Status,1599,160022597780,g3t1_2,,running
Status,1600,160023963802,g3t1_2,,success
Status,1602,160222657966,g3t1_2,,running
Status,1603,160222806708,g3t1_2,,success
Status,1605,160422352871,g3t1_2,,running
Status,1606,160422941336,g3t1_2,,success
Status,1608,160622448831,g3t1_2,,running
Status,1609,160623067534,g3t1_2,,success
Status,1611,160727400796,g4t1,,success
Status,1612,160822960808,g3t1_2,,running
Status,1613,160823027816,g3t1_2,,success
Status,1614,160836869648,g3t1_4,,running
Status,1615,160840608569,g3t1_4,,success
Status,1617,161022551935,g3t1_2,,running
Status,1618,161022994459,g3t1_2,,success
Status,1620,161222608328,g3t1_2,,running
Status,1621,161223192506,g3t1_2,,success
Status,1624,161376798038,g3t1_1,,init
Status,1625,161389835772,g3t1_1,,init
Status,1626,161389872853,g3t1_1,,running
Status,1627,161390897595,g3t1_1,,success
Status,1628,161423244209,g3t1_2,,running
Status,1629,161424725638,g3t1_2,,success
Status,1631,161623191886,g3t1_2,,running
Status,1632,161624533018,g3t1_2,,success
Status,1634,161728553709,g4t1,,success
Status,1635,161823674761,g3t1_2,,running
Status,1636,161824982884,g3t1_2,,success
Status,1637,161837755922,g3t1_4,,running
Status,1638,161844084741,g3t1_4,,success
Status,1640,162023409155,g3t1_2,,running
Status,1641,162024708073,g3t1_2,,success
Status,1643,162223828111,g3t1_2,,running
Status,1644,162225258604,g3t1_2,,success
Status,1646,162423810926,g3t1_2,,running
Status,1647,162425106084,g3t1_2,,success
Status,1649,162624293008,g3t1_2,,running
Status,1650,162625592411,g3t1_2,,success
Status,1652,162728425079,g4t1,,success
Status,1653,162823841414,g3t1_2,,running
Status,1654,162825252562,g3t1_2,,success
Status,1655,162837345536,g3t1_4,,running
Status,1656,162843935801,g3t1_4,,success
Status,1658,163023853674,g3t1_2,,running
Status,1659,163025107578,g3t1_2,,success
Status,1661,163224433892,g3t1_2,,running
Status,1662,163225675514,g3t1_2,,success
Status,1664,163424606378,g3t1_2,,running
Status,1665,163425882597,g3t1_2,,success
Status,1667,163624724406,g3t1_2,,running
Status,1668,163625854843,g3t1_2,,success
Status,1670,163728341537,g4t1,,success
Status,1671,163824444509,g3t1_2,,running
Status,1672,163825661966,g3t1_2,,success
Status,1673,163837518256,g3t1_4,,running
Status,1674,163844423083,g3t1_4,,success
Status,1676,164024482195,g3t1_2,,running
Status,1677,164025721783,g3t1_2,,success
Status,1679,164224823421,g3t1_2,,running
Status,1680,164226150630,g3t1_2,,success
Status,1682,164424816256,g3t1_2,,running
Status,1683,164426186849,g3t1_2,,success
Status,1685,164625284191,g3t1_2,,running
Status,1686,164626743107,g3t1_2,,success
Status,1688,164728776993,g4t1,,success
Status,1689,164825391748,g3t1_2,,running
Status,1690,164826685401,g3t1_2,,success
Status,1691,164837772086,g3t1_4,,running
Status,1692,164843494692,g3t1_4,,success
Status,1694,165025093086,g3t1_2,,running
Status,1695,165026472150,g3t1_2,,success
Status,1697,165225167636,g3t1_2,,running
Status,1698,165226611471,g3t1_2,,success
Status,1700,165425206266,g3t1_2,,running
Status,1701,165426632029,g3t1_2,,success
Status,1703,165625297018,g3t1_2,,running
Status,1704,165625520163,g3t1_2,,success
Status,1706,165727878165,g4t1,,success
Status,1707,165826200939,g3t1_2,,running
Status,1708,165826512311,g3t1_2,,success
Status,1709,165837744168,g3t1_4,,running
Status,1710,165845754227,g3t1_4,,success
Status,1712,166025319767,g3t1_2,,running
Status,1713,166026676200,g3t1_2,,success
Status,1715,166225830538,g3t1_2,,running
Status,1716,166226770773,g3t1_2,,success
Status,1718,166390302911,g3t1_1,,running
Status,1719,166391804454,g3t1_1,,success
Status,1720,166425752063,g3t1_2,,running
Status,1721,166427100254,g3t1_2,,success
Status,1723,166625610916,g3t1_2,,running
Status,1724,166626913161,g3t1_2,,success
Status,1726,166728439228,g4t1,,success
Status,1727,166825832563,g3t1_2,,running
Status,1728,166827000606,g3t1_2,,success
Status,1729,166837635609,g3t1_4,,running
Status,1730,166844292096,g3t1_4,,success
Status,1732,167026799043,g3t1_2,,running
Status,1733,167027447760,g3t1_2,,success
Status,1735,167226278149,g3t1_2,,running
Status,1736,167227418498,g3t1_2,,success
Status,1738,167426381801,g3t1_2,,running
Status,1739,167427649908,g3t1_2,,success
Status,1741,167626583709,g3t1_2,,running
Status,1742,167627928669,g3t1_2,,success
Status,1744,167729104971,g4t1,,success
Status,1745,167826795659,g3t1_2,,running
Status,1746,167828080437,g3t1_2,,success
Status,1747,167837730331,g3t1_4,,running
Status,1748,167843914913,g3t1_4,,success
Status,1750,168026333545,g3t1_2,,running
Status,1751,168027730993,g3t1_2,,success
Status,1753,168226879938,g3t1_2,,running
Status,1754,168228106141,g3t1_2,,success
Status,1756,168427043242,g3t1_2,,running
Status,1757,168428191797,g3t1_2,,success
Status,1759,168627154884,g3t1_2,,running
Status,1760,168628616348,g3t1_2,,success
Status,1762,168728191572,g4t1,,success
Status,1763,168827726720,g3t1_2,,running
Status,1764,168827818020,g3t1_2,,success
Status,1765,168837827438,g3t1_4,,running
Status,1766,168843955562,g3t1_4,,success
Status,1768,169026992225,g3t1_2,,running
Status,1769,169028113271,g3t1_2,,success
Status,1771,169227004994,g3t1_2,,running
Status,1772,169228179869,g3t1_2,,success
Status,1774,169427086902,g3t1_2,,running
Status,1775,169428371225,g3t1_2,,success
Status,1777,169627149989,g3t1_2,,running
Status,1778,169628111712,g3t1_2,,success
Status,1780,169728736837,g4t1,,success
Status,1781,169827246582,g3t1_2,,running
Status,1782,169828479939,g3t1_2,,success
Status,1783,169837839345,g3t1_4,,running
Status,1784,169843840447,g3t1_4,,success
Status,1786,170027369527,g3t1_2,,running
Status,1787,170028453594,g3t1_2,,success
Status,1789,170228547900,g3t1_2,,running
Status,1790,170229002078,g3t1_2,,success
Status,1792,170427993909,g3t1_2,,running
Status,1793,170429484971,g3t1_2,,success
Status,1795,170628140976,g3t1_2,,running
Status,1796,170629555659,g3t1_2,,success
Status,1798,170729203888,g4t1,,success
Status,1799,170828278052,g3t1_2,,running
Status,1800,170829804603,g3t1_2,,success
Status,1801,170837994554,g3t1_4,,running
Status,1802,170842898836,g3t1_4,,success
Status,1804,171028551009,g3t1_2,,running
Status,1805,171029255513,g3t1_2,,success
Status,1807,171228399385,g3t1_2,,running
Status,1808,171229756720,g3t1_2,,success
Status,1810,171390727407,g3t1_1,,running
Status,1811,171391974842,g3t1_1,,success
Status,1812,171428225620,g3t1_2,,running
Status,1813,171429579280,g3t1_2,,success
Status,1815,171628749058,g3t1_2,,running
Status,1816,171629905698,g3t1_2,,success
Status,1818,171729259923,g4t1,,success
Status,1819,171828815582,g3t1_2,,running
Status,1820,171830049145,g3t1_2,,success
Status,1821,171838581558,g3t1_4,,running
Status,1822,171845227975,g3t1_4,,success
Status,1824,172028533960,g3t1_2,,running
Status,1825,172029707810,g3t1_2,,success
Status,1827,172229179765,g3t1_2,,running
Status,1828,172230540234,g3t1_2,,success
Status,1830,172429302912,g3t1_2,,running
Status,1831,172430794027,g3t1_2,,success
Status,1833,172629122142,g3t1_2,,running
Status,1834,172630293586,g3t1_2,,success
Status,1836,172728587486,g4t1,,success
Status,1837,172829062666,g3t1_2,,running
Status,1838,172830531808,g3t1_2,,success
Status,1839,172838205177,g3t1_4,,running
Status,1840,172847577358,g3t1_4,,success
Status,1842,173029167075,g3t1_2,,running
Status,1843,173030406305,g3t1_2,,success
Status,1845,173229600119,g3t1_2,,running
Status,1846,173230904379,g3t1_2,,success
Status,1848,173429628106,g3t1_2,,running
Status,1849,173430805614,g3t1_2,,success
Status,1851,173629586485,g3t1_2,,running
Status,1852,173630783418,g3t1_2,,success
Status,1854,173729542178,g4t1,,success
Status,1855,173830073779,g3t1_2,,running
Status,1856,173831387791,g3t1_2,,success
Status,1857,173838598505,g3t1_4,,running
Status,1858,173845542355,g3t1_4,,success
Status,1860,174029951558,g3t1_2,,running
Status,1861,174031115399,g3t1_2,,success
Status,1863,174230266158,g3t1_2,,running
Status,1864,174230439017,g3t1_2,,success
Status,1866,174429778324,g3t1_2,,running
Status,1867,174431070813,g3t1_2,,success
Status,1869,174629852411,g3t1_2,,running
Status,1870,174631193632,g3t1_2,,success
Status,1872,174729200963,g4t1,,success
Status,1873,174830095808,g3t1_2,,running
Status,1874,174831373367,g3t1_2,,success
Status,1875,174838376919,g3t1_4,,running
Status,1876,174844590784,g3t1_4,,success
Status,1878,175029970399,g3t1_2,,running
Status,1879,175031137444,g3t1_2,,success
Status,1881,175230055637,g3t1_2,,running
Status,1882,175231346114,g3t1_2,,success
Status,1884,175430227689,g3t1_2,,running
Status,1885,175431506372,g3t1_2,,success
Status,1887,175630621957,g3t1_2,,running
Status,1888,175631710123,g3t1_2,,success
Status,1890,175729916404,g4t1,,success
Status,1891,175830938546,g3t1_2,,running
Status,1892,175831933551,g3t1_2,,success
Status,1893,175838528098,g3t1_4,,running
Status,1894,175844898051,g3t1_4,,success
Status,1896,176030865649,g3t1_2,,running
Status,1897,176032170750,g3t1_2,,success
Status,1899,176231021752,g3t1_2,,running
Status,1900,176232476377,g3t1_2,,success
Status,1902,176391734703,g3t1_1,,running
Status,1903,176392033978,g3t1_1,,success
Status,1904,176431193935,g3t1_2,,running
Status,1905,176432812658,g3t1_2,,success
Status,1907,176630903985,g3t1_2,,running
Status,1908,176632140600,g3t1_2,,success
Status,1910,176729549543,g4t1,,success
Status,1911,176831049128,g3t1_2,,running
Status,1912,176832387947,g3t1_2,,success
Status,1913,176838535423,g3t1_4,,running
Status,1914,176848659159,g3t1_4,,success
Status,1916,177031092644,g3t1_2,,running
Status,1917,177032458184,g3t1_2,,success
Status,1919,177231292653,g3t1_2,,running
Status,1920,177232486028,g3t1_2,,success
Status,1922,177431293922,g3t1_2,,running
Status,1923,177432666516,g3t1_2,,success
Status,1925,177632284167,g3t1_2,,running
Status,1926,177632474519,g3t1_2,,success
Status,1928,177729553118,g4t1,,success
Status,1929,177831447895,g3t1_2,,running
Status,1930,177832826044,g3t1_2,,success
Status,1931,177838613204,g3t1_4,,running
Status,1932,177850405437,g3t1_4,,success
Status,1934,178031689773,g3t1_2,,running
Status,1935,178032928793,g3t1_2,,success
Status,1937,178232602947,g3t1_2,,running
Status,1938,178233268477,g3t1_2,,success
Status,1940,178432638406,g3t1_2,,running
Status,1941,178433246502,g3t1_2,,success
Status,1943,178632379325,g3t1_2,,running
Status,1944,178633586003,g3t1_2,,success
Status,1946,178730024003,g4t1,,success
Status,1947,178832447808,g3t1_2,,running
Status,1948,178833895748,g3t1_2,,success
Status,1949,178838839982,g3t1_4,,running
Status,1950,178847879506,g3t1_4,,success
Status,1952,179032125944,g3t1_2,,running
Status,1953,179033556848,g3t1_2,,success
Status,1955,179232222345,g3t1_2,,running
Status,1956,179233670710,g3t1_2,,success
Status,1958,179432794207,g3t1_2,,running
Status,1959,179434238282,g3t1_2,,success
Status,1961,179633702885,g3t1_2,,running
Status,1962,179633957544,g3t1_2,,success
Status,1964,179729480338,g4t1,,success
Status,1965,179832615965,g3t1_2,,running
Status,1966,179833942525,g3t1_2,,success
Status,1967,179838713234,g3t1_4,,running
Status,1968,179845050392,g3t1_4,,success
Status,1970,180033146877,g3t1_2,,running
Status,1971,180034456656,g3t1_2,,success
Status,1973,180233111170,g3t1_2,,running
Status,1974,180234337888,g3t1_2,,success
Status,1976,180432930081,g3t1_2,,running
Status,1977,180434178636,g3t1_2,,success
Status,1979,180632901687,g3t1_2,,running
Status,1980,180634248846,g3t1_2,,success
Status,1982,180729788951,g4t1,,success
Status,1983,180833100264,g3t1_2,,running
Status,1984,180834363934,g3t1_2,,success
Status,1985,180838889372,g3t1_4,,running
Status,1986,180844880346,g3t1_4,,success
Status,1988,181033111667,g3t1_2,,running
Status,1989,181034403799,g3t1_2,,success
Status,1991,181233272604,g3t1_2,,running
Status,1992,181234576723,g3t1_2,,success
Status,1994,181391484447,g3t1_1,,running
Status,1995,181391787791,g3t1_1,,success
Status,1996,181433399054,g3t1_2,,running
Status,1997,181434502923,g3t1_2,,success
Status,1999,181633364063,g3t1_2,,running
Status,2000,181634464611,g3t1_2,,success
Status,2002,181729894700,g4t1,,success
Status,2003,181834797352,g3t1_2,,running
Status,2004,181834974529,g3t1_2,,success
Status,2005,181839406894,g3t1_4,,running
Status,2006,181845938738,g3t1_4,,success
Status,2008,182033998594,g3t1_2,,running
Status,2009,182035273208,g3t1_2,,success
Status,2011,182233817687,g3t1_2,,running
Status,2012,182234927683,g3t1_2,,success
Status,2014,182433744062,g3t1_2,,running
Status,2015,182434862324,g3t1_2,,success
Status,2017,182633857444,g3t1_2,,running
Status,2018,182634957958,g3t1_2,,success
Status,2020,182730511828,g4t1,,success
Status,2021,182833954217,g3t1_2,,running
Status,2022,182835255453,g3t1_2,,success
Status,2023,182839152964,g3t1_4,,running
Status,2024,182847794361,g3t1_4,,success
Status,2026,183034101814,g3t1_2,,running
Status,2027,183035277120,g3t1_2,,success
Status,2029,183234277423,g3t1_2,,running
Status,2030,183235315235,g3t1_2,,success
Status,2032,183434698982,g3t1_2,,running
Status,2033,183436057176,g3t1_2,,success
Status,2035,183634828597,g3t1_2,,running
Status,2036,183636142118,g3t1_2,,success
Status,2038,183730519608,g4t1,,success
Status,2039,183834526842,g3t1_2,,running
Status,2040,183835791617,g3t1_2,,success
Status,2041,183840184740,g3t1_4,,running
Status,2042,183846051221,g3t1_4,,success
Status,2044,184034557060,g3t1_2,,running
Status,2045,184035834338,g3t1_2,,success
Status,2047,184235561014,g3t1_2,,running
Status,2048,184235743081,g3t1_2,,success
Status,2050,184435672106,g3t1_2,,running
Status,2051,184435951732,g3t1_2,,success
Status,2053,184634789624,g3t1_2,,running
Status,2054,184635944147,g3t1_2,,success
Status,2056,184730347132,g4t1,,success
Status,2057,184834955317,g3t1_2,,running
Status,2058,184836149169,g3t1_2,,success
Status,2059,184839130947,g3t1_4,,running
Status,2060,184845430278,g3t1_4,,success
Status,2062,185035374003,g3t1_2,,running
Status,2063,185036282454,g3t1_2,,success
Status,2065,185235070063,g3t1_2,,running
Status,2066,185236214187,g3t1_2,,success
Status,2068,185435244960,g3t1_2,,running
Status,2069,185436637605,g3t1_2,,success
Status,2071,185635237900,g3t1_2,,running
Status,2072,185636573374,g3t1_2,,success
Status,2074,185730820407,g4t1,,success
Status,2075,185835371019,g3t1_2,,running
Status,2076,185836622768,g3t1_2,,success
Status,2077,185839304636,g3t1_4,,running
Status,2078,185845624076,g3t1_4,,success
Status,2080,186036359659,g3t1_2,,running
Status,2081,186036677728,g3t1_2,,success
Status,2083,186235891732,g3t1_2,,running
Status,2084,186237346491,g3t1_2,,success
Status,2086,186390754742,g3t1_1,,running
Status,2087,186391898860,g3t1_1,,success
Status,2088,186435570894,g3t1_2,,running
Status,2089,186436822826,g3t1_2,,success
Status,2091,186635648638,g3t1_2,,running
Status,2092,186637000768,g3t1_2,,success
Status,2094,186730591133,g4t1,,success
Status,2095,186835669925,g3t1_2,,running
Status,2096,186836877156,g3t1_2,,success
Status,2097,186839390055,g3t1_4,,running
Status,2098,186845503391,g3t1_4,,success
Status,2100,187035843339,g3t1_2,,running
Status,2101,187037561417,g3t1_2,,success
Status,2103,187235869314,g3t1_2,,running
Status,2104,187237130504,g3t1_2,,success
Status,2106,187436003537,g3t1_2,,running
Status,2107,187437215588,g3t1_2,,success
Status,2109,187636052734,g3t1_2,,running
Status,2110,187637547359,g3t1_2,,success
Status,2112,187730940826,g4t1,,success
Status,2113,187836786790,g3t1_2,,running
Status,2114,187838068594,g3t1_2,,success
Status,2115,187839417720,g3t1_4,,running
Status,2116,187847649660,g3t1_4,,success
Status,2118,188036240512,g3t1_2,,running
Status,2119,188037628916,g3t1_2,,success
Status,2121,188236344590,g3t1_2,,running
Status,2122,188237548802,g3t1_2,,success
Status,2124,188436610280,g3t1_2,,running
Status,2125,188438074654,g3t1_2,,success
Status,2127,188637567538,g3t1_2,,running
Status,2128,188637838976,g3t1_2,,success
Status,2130,188730779043,g4t1,,success
Status,2131,188836702801,g3t1_2,,running
Status,2132,188838088605,g3t1_2,,success
Status,2133,188839663854,g3t1_4,,running
Status,2134,188846069294,g3t1_4,,success
Status,2136,189036766062,g3t1_2,,running
Status,2137,189038249494,g3t1_2,,success
Status,2139,189236844642,g3t1_2,,running
Status,2140,189238128855,g3t1_2,,success
Status,2142,189436531757,g3t1_2,,running
Status,2143,189437034775,g3t1_2,,success
Status,2145,189637049850,g3t1_2,,running
Status,2146,189638558159,g3t1_2,,success
Status,2148,189730910499,g4t1,,success
Status,2149,189837149537,g3t1_2,,running
Status,2150,189838383645,g3t1_2,,success
Status,2151,189839616947,g3t1_4,,running
Status,2152,189845466167,g3t1_4,,success
Status,2154,190037138913,g3t1_2,,running
Status,2155,190038600705,g3t1_2,,success
Status,2157,190237269754,g3t1_2,,running
Status,2158,190238556984,g3t1_2,,success
Status,2160,190437368492,g3t1_2,,running
Status,2161,190438621580,g3t1_2,,success
Status,2163,190638352277,g3t1_2,,running
Status,2164,190638421068,g3t1_2,,success
Status,2166,190730401725,g4t1,,success
Status,2167,190837570692,g3t1_2,,running
Status,2168,190838827008,g3t1_2,,success
Status,2169,190839626771,g3t1_4,,running
Status,2170,190845798819,g3t1_4,,success
Status,2172,191038160187,g3t1_2,,running
Status,2173,191039431852,g3t1_2,,success
Status,2175,191238106021,g3t1_2,,running
Status,2176,191239589954,g3t1_2,,success
Status,2178,191390803728,g3t1_1,,running
