
Status,2,20782077788,g4t1,,init
Status,4,26297808562,g3t1_1,,init
Status,5,26317504305,g3t1_1,,init
Status,6,26318071561,g3t1_1,,running
Status,7,26318925018,g3t1_1,,success
Status,9,26699604648,g3t1_2,,init
Status,10,26706217535,g3t1_2,,init
Status,11,26706247537,g3t1_2,,running
Status,12,26706957211,g3t1_2,,success
Status,13,26800176820,g3t1_4,,init
Status,15,26812933454,g3t1_4,,init
Status,16,26812990223,g3t1_4,,running
Status,17,26815654507,g3t1_4,,success
Status,18,26906646023,g3t1_2,,running
Status,19,26907992903,g3t1_2,,success
Status,20,27107603946,g3t1_2,,running
Status,21,27108344601,g3t1_2,,success
Status,22,27306848521,g3t1_2,,running
Status,23,27308210356,g3t1_2,,success
Status,24,27507052950,g3t1_2,,running
Status,25,27508234371,g3t1_2,,success
Status,26,27707057540,g3t1_2,,running
Status,27,27708372771,g3t1_2,,success
Status,28,27802254028,g4t1,,success
Status,29,27813290696,g3t1_4,,running
Status,30,27821786331,g3t1_4,,success
Status,31,27907101250,g3t1_2,,running
Status,32,27908893404,g3t1_2,,success
Status,33,28107255928,g3t1_2,,running
Status,34,28108405418,g3t1_2,,success
Status,35,28307404859,g3t1_2,,running
Status,36,28308743611,g3t1_2,,success
Status,37,28507493773,g3t1_2,,running
Status,38,28508872564,g3t1_2,,success
Status,39,28707585156,g3t1_2,,running
Status,40,28708937729,g3t1_2,,success
Status,41,28802853395,g4t1,,success
Status,42,28813696991,g3t1_4,,running
Status,43,28821230303,g3t1_4,,success
Status,44,28907741782,g3t1_2,,running
Status,45,28909786298,g3t1_2,,success
Status,46,29107717251,g3t1_2,,running
Status,47,29109057620,g3t1_2,,success
Status,48,29307858529,g3t1_2,,running
Status,49,29309165675,g3t1_2,,success
Status,50,29508331751,g3t1_2,,running
Status,51,29509839000,g3t1_2,,success
Status,52,29708113984,g3t1_2,,running
Status,53,29709416169,g3t1_2,,success
Status,54,29802786168,g4t1,,success
Status,55,29814085743,g3t1_4,,running
Status,56,29821808793,g3t1_4,,success
Status,57,29908696662,g3t1_2,,running
Status,58,29910151063,g3t1_2,,success
Status,59,30107843299,g3t1_2,,running
Status,60,30108399571,g3t1_2,,success
Status,61,30308301947,g3t1_2,,running
Status,62,30308604629,g3t1_2,,success
Status,63,30508025691,g3t1_2,,running
Status,64,30508548746,g3t1_2,,success
Status,65,30708501364,g3t1_2,,running
Status,66,30708660328,g3t1_2,,success
Status,67,30802147676,g4t1,,success
Status,68,30813786129,g3t1_4,,running
Status,69,30818232789,g3t1_4,,success
Status,70,30908157802,g3t1_2,,running
Status,71,30908735305,g3t1_2,,success
Status,72,31108582373,g3t1_2,,running
Status,73,31111527320,g3t1_2,,success
Status,74,31308738136,g3t1_2,,running
Status,75,31311488450,g3t1_2,,success
Status,76,31317839077,g3t1_1,,running
Status,77,31320362414,g3t1_1,,success
Status,78,31508813236,g3t1_2,,running
Status,79,31511493621,g3t1_2,,success
Status,80,31708900727,g3t1_2,,running
Status,81,31711527824,g3t1_2,,success
Status,82,31802688869,g4t1,,success
Status,83,31813699343,g3t1_4,,running
Status,84,31824852621,g3t1_4,,success
Status,85,31909053373,g3t1_2,,running
Status,86,31911559452,g3t1_2,,success
Status,87,32109060197,g3t1_2,,running
Status,88,32111776743,g3t1_2,,success
Status,89,32309137362,g3t1_2,,running
Status,90,32311901581,g3t1_2,,success
Status,91,32509268204,g3t1_2,,running
Status,92,32511935380,g3t1_2,,success
Status,93,32709387158,g3t1_2,,running
Status,94,32712284119,g3t1_2,,success
Status,95,32802821878,g4t1,,success
Status,96,32813881609,g3t1_4,,running
Status,97,32822873896,g3t1_4,,success
Status,98,32909440645,g3t1_2,,running
Status,99,32911955048,g3t1_2,,success
Status,100,33109545461,g3t1_2,,running
Status,101,33112146816,g3t1_2,,success
Status,102,33309643881,g3t1_2,,running
Status,103,33312172938,g3t1_2,,success
Status,104,33510612976,g3t1_2,,running
Status,105,33512267243,g3t1_2,,success
Status,106,33710716509,g3t1_2,,running
Status,107,33712464343,g3t1_2,,success
Status,108,33802911724,g4t1,,success
Status,109,33813916754,g3t1_4,,running
Status,110,33823001565,g3t1_4,,success
Status,111,33909958528,g3t1_2,,running
Status,112,33912475293,g3t1_2,,success
Status,113,34109959344,g3t1_2,,running
Status,114,34112801630,g3t1_2,,success
Status,115,34310044718,g3t1_2,,running
Status,116,34312807878,g3t1_2,,success
Status,117,34510108202,g3t1_2,,running
Status,118,34512723359,g3t1_2,,success
Status,119,34710206652,g3t1_2,,running
Status,120,34712790978,g3t1_2,,success
Status,121,34803050458,g4t1,,success
Status,122,34813941992,g3t1_4,,running
Status,123,34824159896,g3t1_4,,success
Status,124,34910224534,g3t1_2,,running
Status,125,34912830503,g3t1_2,,success
Status,126,35110309643,g3t1_2,,running
Status,127,35112820534,g3t1_2,,success
Status,128,35310416008,g3t1_2,,running
Status,129,35312997184,g3t1_2,,success
Status,130,35510529989,g3t1_2,,running
Status,131,35513061922,g3t1_2,,success
Status,132,35710651115,g3t1_2,,running
Status,133,35713187260,g3t1_2,,success
Status,134,35803074374,g4t1,,success
Status,135,35814039030,g3t1_4,,running
Status,136,35823810033,g3t1_4,,success
Status,137,35910683413,g3t1_2,,running
Status,138,35913068208,g3t1_2,,success
Status,139,36110717198,g3t1_2,,running
Status,140,36113357329,g3t1_2,,success
Status,141,36310925275,g3t1_2,,running
Status,142,36313631281,g3t1_2,,success
Status,143,36317937693,g3t1_1,,running
Status,144,36320501179,g3t1_1,,success
Status,145,36511053473,g3t1_2,,running
Status,146,36513733206,g3t1_2,,success
Status,147,36711010030,g3t1_2,,running
Status,148,36713643997,g3t1_2,,success
Status,149,36803182373,g4t1,,success
Status,150,36814056966,g3t1_4,,running
Status,151,36824203249,g3t1_4,,success
Status,152,36911225689,g3t1_2,,running
Status,153,36913947361,g3t1_2,,success
Status,154,37111155812,g3t1_2,,running
Status,155,37113796227,g3t1_2,,success
Status,156,37311317670,g3t1_2,,running
Status,157,37313884937,g3t1_2,,success
Status,158,37511373238,g3t1_2,,running
Status,159,37513965753,g3t1_2,,success
Status,160,37712420319,g3t1_2,,running
Status,161,37714192600,g3t1_2,,success
Status,162,37803179188,g4t1,,success
Status,163,37814237540,g3t1_4,,running
Status,164,37824076082,g3t1_4,,success
Status,165,37911579317,g3t1_2,,running
Status,166,37914379937,g3t1_2,,success
Status,167,38111749296,g3t1_2,,running
Status,168,38114430145,g3t1_2,,success
Status,169,38311814546,g3t1_2,,running
Status,170,38314534744,g3t1_2,,success
Status,171,38511843875,g3t1_2,,running
Status,172,38514643964,g3t1_2,,success
Status,173,38711959286,g3t1_2,,running
Status,174,38714562713,g3t1_2,,success
Status,175,38803376714,g4t1,,success
Status,176,38814324686,g3t1_4,,running
Status,177,38825175920,g3t1_4,,success
Status,178,38912076795,g3t1_2,,running
Status,179,38914831396,g3t1_2,,success
Status,180,39112150908,g3t1_2,,running
Status,181,39114880234,g3t1_2,,success
Status,182,39312220317,g3t1_2,,running
Status,183,39314933553,g3t1_2,,success
Status,184,39512330382,g3t1_2,,running
Status,185,39515024781,g3t1_2,,success
Status,186,39712445903,g3t1_2,,running
Status,187,39715164605,g3t1_2,,success
Status,188,39803391528,g4t1,,success
Status,189,39814392277,g3t1_4,,running
Status,190,39823407633,g3t1_4,,success
Status,191,39912500581,g3t1_2,,running
Status,192,39915234624,g3t1_2,,success
Status,193,40112613759,g3t1_2,,running
Status,194,40113377568,g3t1_2,,success
Status,195,40312679643,g3t1_2,,running
Status,196,40315485428,g3t1_2,,success
Status,197,40512653642,g3t1_2,,running
Status,198,40515399964,g3t1_2,,success
Status,199,40712788621,g3t1_2,,running
Status,200,40715584102,g3t1_2,,success
Status,201,40803440374,g4t1,,success
Status,202,40815389163,g3t1_4,,running
Status,203,40823984843,g3t1_4,,success
Status,204,40912797009,g3t1_2,,running
Status,205,40915405811,g3t1_2,,success
Status,206,41112922101,g3t1_2,,running
Status,207,41115700410,g3t1_2,,success
Status,208,41313122566,g3t1_2,,running
Status,209,41315802008,g3t1_2,,success
Status,210,41318046273,g3t1_1,,running
Status,211,41320372246,g3t1_1,,success
Status,212,41513066203,g3t1_2,,running
Status,213,41515999143,g3t1_2,,success
Status,214,41713261689,g3t1_2,,running
Status,215,41715888410,g3t1_2,,success
Status,216,41803453196,g4t1,,success
Status,217,41814615021,g3t1_4,,running
Status,218,41824039897,g3t1_4,,success
Status,219,41913323935,g3t1_2,,running
Status,220,41916004799,g3t1_2,,success
Status,221,42113443564,g3t1_2,,running
Status,222,42116199287,g3t1_2,,success
Status,223,42313513289,g3t1_2,,running
Status,224,42316166607,g3t1_2,,success
Status,225,42513600920,g3t1_2,,running
Status,226,42515943904,g3t1_2,,success
Status,227,42713353694,g3t1_2,,running
Status,228,42714529386,g3t1_2,,success
Status,229,42803222354,g4t1,,success
Status,230,42814353198,g3t1_4,,running
Status,231,42818119832,g3t1_4,,success
Status,232,42913762606,g3t1_2,,running
Status,233,42916562113,g3t1_2,,success
Status,234,43113575936,g3t1_2,,running
Status,235,43114785648,g3t1_2,,success
Status,236,43313897448,g3t1_2,,running
Status,237,43316589806,g3t1_2,,success
Status,238,43514055332,g3t1_2,,running
Status,239,43516654552,g3t1_2,,success
Status,240,43714132661,g3t1_2,,running
Status,241,43716592130,g3t1_2,,success
Status,242,43803726844,g4t1,,success
Status,243,43814784584,g3t1_4,,running
Status,244,43826829008,g3t1_4,,success
Status,245,43914020684,g3t1_2,,running
Status,246,43915577951,g3t1_2,,success
Status,247,44113924716,g3t1_2,,running
Status,248,44115254757,g3t1_2,,success
Status,249,44314030220,g3t1_2,,running
Status,250,44315217119,g3t1_2,,success
Status,251,44515032495,g3t1_2,,running
Status,252,44517003639,g3t1_2,,success
Status,253,44714421368,g3t1_2,,running
Status,254,44716948769,g3t1_2,,success
Status,255,44803349509,g4t1,,success
Status,256,44814461872,g3t1_4,,running
Status,257,44818229951,g3t1_4,,success
Status,258,44914585432,g3t1_2,,running
Status,259,44917468311,g3t1_2,,success
Status,260,45115388330,g3t1_2,,running
Status,261,45117034123,g3t1_2,,success
Status,262,45315277249,g3t1_2,,running
Status,263,45316343161,g3t1_2,,success
Status,264,45514863456,g3t1_2,,running
Status,265,45517471139,g3t1_2,,success
Status,266,45714977686,g3t1_2,,running
Status,267,45717822581,g3t1_2,,success
Status,268,45803928869,g4t1,,success
Status,269,45814844783,g3t1_4,,running
Status,270,45824668044,g3t1_4,,success
Status,271,45915112397,g3t1_2,,running
Status,272,45917550663,g3t1_2,,success
Status,273,46115142468,g3t1_2,,running
Status,274,46118024535,g3t1_2,,success
Status,275,46315783930,g3t1_2,,running
Status,276,46317194198,g3t1_2,,success
Status,277,46317723677,g3t1_1,,running
Status,278,46319232697,g3t1_1,,success
Status,279,46515370552,g3t1_2,,running
Status,280,46517943892,g3t1_2,,success
Status,281,46715459663,g3t1_2,,running
Status,282,46718177005,g3t1_2,,success
Status,283,46803931499,g4t1,,success
Status,284,46814975112,g3t1_4,,running
Status,285,46824567937,g3t1_4,,success
Status,286,46915539600,g3t1_2,,running
Status,287,46918031327,g3t1_2,,success
Status,288,47115627709,g3t1_2,,running
Status,289,47118601069,g3t1_2,,success
Status,290,47315359848,g3t1_2,,running
Status,291,47316418585,g3t1_2,,success
Status,292,47515685875,g3t1_2,,running
Status,293,47518601256,g3t1_2,,success
Status,294,47715527530,g3t1_2,,running
Status,295,47716739235,g3t1_2,,success
Status,296,47804024280,g4t1,,success
Status,297,47815058499,g3t1_4,,running
Status,298,47823863519,g3t1_4,,success
Status,299,47916245767,g3t1_2,,running
Status,300,47917340962,g3t1_2,,success
Status,301,48115815171,g3t1_2,,running
Status,302,48117741181,g3t1_2,,success
Status,303,48316074958,g3t1_2,,running
Status,304,48318702102,g3t1_2,,success
Status,305,48516245493,g3t1_2,,running
Status,306,48518894364,g3t1_2,,success
Status,307,48716144554,g3t1_2,,running
Status,308,48718820377,g3t1_2,,success
Status,309,48803961113,g4t1,,success
Status,310,48815170661,g3t1_4,,running
Status,311,48826244479,g3t1_4,,success
Status,312,48916301310,g3t1_2,,running
Status,313,48918891253,g3t1_2,,success
Status,314,49116461878,g3t1_2,,running
Status,315,49119181348,g3t1_2,,success
Status,316,49316550724,g3t1_2,,running
Status,317,49319153560,g3t1_2,,success
Status,318,49516531436,g3t1_2,,running
Status,319,49519307747,g3t1_2,,success
Status,320,49717596733,g3t1_2,,running
Status,321,49719319590,g3t1_2,,success
Status,322,49804231554,g4t1,,success
Status,323,49815246947,g3t1_4,,running
Status,324,49824781474,g3t1_4,,success
Status,325,49916910559,g3t1_2,,running
Status,326,49919599569,g3t1_2,,success
Status,327,50116832289,g3t1_2,,running
Status,328,50119672930,g3t1_2,,success
Status,329,50316728043,g3t1_2,,running
Status,330,50319170851,g3t1_2,,success
Status,331,50517127687,g3t1_2,,running
Status,332,50520017459,g3t1_2,,success
Status,333,50716765162,g3t1_2,,running
Status,334,50717923756,g3t1_2,,success
Status,335,50804271330,g4t1,,success
Status,336,50815373468,g3t1_4,,running
Status,337,50823190552,g3t1_4,,success
Status,338,50917223030,g3t1_2,,running
Status,339,50920120145,g3t1_2,,success
Status,340,51117385889,g3t1_2,,running
Status,341,51120030075,g3t1_2,,success
Status,342,51317292315,g3t1_2,,running
Status,343,51318001772,g3t1_1,,running
Status,344,51319255572,g3t1_2,,success
Status,345,51319804706,g3t1_1,,success
Status,346,51517677938,g3t1_2,,running
Status,347,51520837342,g3t1_2,,success
Status,348,51717618637,g3t1_2,,running
Status,349,51720276957,g3t1_2,,success
Status,350,51804356092,g4t1,,success
Status,351,51815423990,g3t1_4,,running
Status,352,51824709881,g3t1_4,,success
Status,353,51917744850,g3t1_2,,running
Status,354,51920267931,g3t1_2,,success
Status,355,52118117997,g3t1_2,,running
Status,356,52120539489,g3t1_2,,success
Status,357,52317876744,g3t1_2,,running
Status,358,52320542036,g3t1_2,,success
Status,359,52518033920,g3t1_2,,running
Status,360,52520597691,g3t1_2,,success
Status,361,52718143524,g3t1_2,,running
Status,362,52718965672,g3t1_2,,success
Status,363,52804229324,g4t1,,success
Status,364,52815469674,g3t1_4,,running
Status,365,52823942404,g3t1_4,,success
Status,366,52918049031,g3t1_2,,running
Status,367,52920520882,g3t1_2,,success
Status,368,53117920204,g3t1_2,,running
Status,369,53119264988,g3t1_2,,success
Status,370,53318156737,g3t1_2,,running
Status,371,53320719581,g3t1_2,,success
Status,372,53518297045,g3t1_2,,running
Status,373,53520793630,g3t1_2,,success
Status,374,53718367538,g3t1_2,,running
Status,375,53720824601,g3t1_2,,success
Status,377,53801533710,g4t1,,status
Status,378,53815288926,g3t1_4,,running
Status,379,53820825899,g3t1_4,,success
Status,380,53918212702,g3t1_2,,running
Status,381,53919397996,g3t1_2,,success
Status,382,54118190630,g3t1_2,,running
Status,383,54119394440,g3t1_2,,success
Status,384,54318672728,g3t1_2,,running
Status,385,54321342009,g3t1_2,,success
Status,386,54519555312,g3t1_2,,running
Status,387,54521377939,g3t1_2,,success
Status,388,54718763374,g3t1_2,,running
Status,389,54721403215,g3t1_2,,success
Status,390,54815777599,g3t1_4,,running
Status,391,54826352076,g3t1_4,,success
Status,392,54918862185,g3t1_2,,running
Status,393,54921302240,g3t1_2,,success
Status,394,55118584815,g3t1_2,,running
Status,395,55119690613,g3t1_2,,success
Status,396,55319038758,g3t1_2,,running
Status,397,55321673126,g3t1_2,,success
Status,398,55519317822,g3t1_2,,running
Status,399,55520125854,g3t1_2,,success
Status,400,55718890063,g3t1_2,,running
Status,401,55720249087,g3t1_2,,success
Status,402,55815715817,g3t1_4,,running
Status,403,55824239535,g3t1_4,,success
Status,404,55918875009,g3t1_2,,running
Status,405,55920150959,g3t1_2,,success
Status,406,56119244490,g3t1_2,,running
Status,407,56122086501,g3t1_2,,success
Status,408,56318408225,g3t1_1,,running
Status,409,56319381895,g3t1_2,,running
Status,410,56321767743,g3t1_1,,success
Status,411,56322428462,g3t1_2,,success
Status,413,56519603607,g3t1_2,,running
Status,414,56522209232,g3t1_2,,success
Status,416,56719671586,g3t1_2,,running
Status,417,56722296580,g3t1_2,,success
Status,418,56815851451,g3t1_4,,running
Status,419,56823477583,g3t1_4,,success
