
Status,2,20660073837,/g4t1,,init
Status,4,25671624937,/g3t1_1,,init
Status,5,25678614578,/g3t1_1,,init
Status,6,25678629850,/g3t1_1,,running
Status,7,25679262259,/g3t1_1,,success
Status,8,30679998840,/g3t1_1,,running
Status,9,30680651838,/g3t1_1,,success
Status,10,31671891366,/g4t1,,success
Status,11,35680254563,/g3t1_1,,running
Status,12,35680698872,/g3t1_1,,success
Status,13,36672771953,/g4t1,,success
Status,14,37673253952,/g4t1,,success
Status,15,40680431109,/g3t1_1,,running
Status,16,40681393758,/g3t1_1,,success
Status,17,41674349331,/g4t1,,success
Status,18,42674433449,/g4t1,,success
Status,19,43674788680,/g4t1,,success
Status,20,45680319378,/g3t1_1,,running
Status,21,45680846358,/g3t1_1,,success
Status,22,46675394331,/g4t1,,success
Status,23,47676058072,/g4t1,,success
Status,24,48675800538,/g4t1,,success
Status,25,49676029795,/g4t1,,success
Status,26,50680325718,/g3t1_1,,running
Status,27,50681192415,/g3t1_1,,success
Status,28,51676933210,/g4t1,,success
Status,29,52676611161,/g4t1,,success
Status,30,53676568926,/g4t1,,success
Status,31,54676771909,/g4t1,,success
Status,35,55676826496,/g4t1,,success
Status,36,55680737078,/g3t1_1,,running
Status,37,55681410704,/g3t1_1,,success
Status,43,56677080500,/g4t1,,success
Status,49,57677339158,/g4t1,,success
Status,55,58677673306,/g4t1,,success
Status,61,59677851875,/g4t1,,success
Status,67,60678109546,/g4t1,,success
Status,68,60681062449,/g3t1_1,,running
Status,69,60681462935,/g3t1_1,,fail
Status,75,61678294141,/g4t1,,success
Status,96,65681314717,/g3t1_1,,running
Status,97,65681941160,/g3t1_1,,fail
Status,123,70681710696,/g3t1_1,,running
Status,124,70681958942,/g3t1_1,,fail
Status,150,75681844648,/g3t1_1,,running
Status,151,75681923426,/g3t1_1,,fail
Status,177,80682317300,/g3t1_1,,running
Status,178,80682950612,/g3t1_1,,success
Status,184,81682707726,/g4t1,,success
Status,190,82682794869,/g4t1,,success
Status,196,83683032019,/g4t1,,success
Status,202,84683305293,/g4t1,,success
Status,208,85682491089,/g3t1_1,,running
Status,209,85683058955,/g3t1_1,,success
Status,210,85683143781,/g4t1,,success
Status,216,86683735043,/g4t1,,success
Status,222,87684119607,/g4t1,,success
Status,228,88684179827,/g4t1,,success
Status,234,89684381054,/g4t1,,success
Status,240,90682320766,/g3t1_1,,running
Status,241,90683285021,/g3t1_1,,success
Status,242,90684394119,/g4t1,,success
Status,248,91684849872,/g4t1,,success
Status,254,92684383458,/g4t1,,success
Status,260,93685170574,/g4t1,,success
Status,266,94685373965,/g4t1,,success
Status,272,95682669753,/g3t1_1,,running
Status,273,95683022669,/g3t1_1,,fail
Status,274,95685328107,/g4t1,,success
Status,280,96685732534,/g4t1,,success
Status,286,97686081605,/g4t1,,success
Status,292,98686255516,/g4t1,,success
Status,303,100682581293,/g3t1_1,,running
Status,304,100682902795,/g3t1_1,,fail
Status,330,105683136865,/g3t1_1,,running
Status,331,105683619688,/g3t1_1,,success
Status,332,105687230514,/g4t1,,success
Status,338,106687765426,/g4t1,,success
Status,344,107687990600,/g4t1,,success
Status,350,108688247086,/g4t1,,success
Status,356,109688332752,/g4t1,,success
Status,362,110683118652,/g3t1_1,,running
Status,363,110683177556,/g3t1_1,,success
Status,364,110688363452,/g4t1,,success
Status,370,111688620040,/g4t1,,success
Status,376,112689004277,/g4t1,,success
Status,382,113689292681,/g4t1,,success
Status,388,114689533544,/g4t1,,success
Status,394,115683337923,/g3t1_1,,running
Status,395,115683409687,/g3t1_1,,fail
Status,396,115689845186,/g4t1,,success
Status,402,116690088683,/g4t1,,success
Status,408,117690115705,/g4t1,,success
Status,414,118690267864,/g4t1,,success
Status,420,119690295193,/g4t1,,success
Status,426,120682729470,/g3t1_1,,running
Status,427,120683088167,/g3t1_1,,fail
Status,428,120690267272,/g4t1,,success
Status,454,125683443835,/g3t1_1,,running
Status,455,125683500650,/g3t1_1,,fail
Status,481,130683587616,/g3t1_1,,running
Status,482,130683696127,/g3t1_1,,fail
Status,508,135683685523,/g3t1_1,,running
Status,509,135683747775,/g3t1_1,,fail
Status,535,140684200701,/g3t1_1,,running
Status,536,140684684307,/g3t1_1,,success
Status,537,140693386347,/g4t1,,success
Status,543,141694008810,/g4t1,,success
Status,549,142693783514,/g4t1,,success
Status,555,143694059892,/g4t1,,success
Status,561,144694398836,/g4t1,,success
Status,567,145684080184,/g3t1_1,,running
Status,568,145684743644,/g3t1_1,,success
Status,569,145694311750,/g4t1,,success
Status,575,146694266278,/g4t1,,success
Status,581,147694740649,/g4t1,,success
Status,587,148694686905,/g4t1,,success
Status,593,149694801272,/g4t1,,success
Status,599,150683455582,/g3t1_1,,running
Status,600,150683483110,/g3t1_1,,fail
Status,601,150694362970,/g4t1,,success
Status,607,151695027911,/g4t1,,success
Status,613,152695510334,/g4t1,,success
Status,619,153695569783,/g4t1,,success
Status,625,154695812901,/g4t1,,success
Status,631,155684106183,/g3t1_1,,running
Status,632,155684652105,/g3t1_1,,fail
Status,633,155696090864,/g4t1,,success
Status,639,156696097629,/g4t1,,success
Status,645,157696247294,/g4t1,,success
Status,661,160684361533,/g3t1_1,,running
Status,662,160684423477,/g3t1_1,,fail
Status,688,165684738146,/g3t1_1,,running
Status,689,165685467046,/g3t1_1,,fail
Status,715,170684989477,/g3t1_1,,running
Status,716,170685752273,/g3t1_1,,success
Status,717,170698159489,/g4t1,,success
Status,723,171698750930,/g4t1,,success
Status,729,172698701109,/g4t1,,success
Status,735,173698854659,/g4t1,,success
Status,741,174699076458,/g4t1,,success
Status,747,175685294114,/g3t1_1,,running
Status,748,175686135825,/g3t1_1,,success
Status,749,175699100630,/g4t1,,success
Status,755,176699405404,/g4t1,,success
Status,761,177699508232,/g4t1,,success
Status,767,178699489592,/g4t1,,success
Status,773,179699677335,/g4t1,,success
Status,778,180685733879,/g3t1_1,,running
Status,779,180685845646,/g3t1_1,,fail
Status,781,180699583963,/g4t1,,success
Status,787,181700061134,/g4t1,,success
Status,793,182700214589,/g4t1,,success
Status,799,183700486236,/g4t1,,success
Status,805,184700818540,/g4t1,,success
Status,810,185685961031,/g3t1_1,,running
Status,811,185686796540,/g3t1_1,,success
Status,813,185700200129,/g4t1,,success
Status,819,186700847538,/g4t1,,success
Status,825,187701184123,/g4t1,,success
Status,831,188701484363,/g4t1,,success
Status,837,189701854396,/g4t1,,success
Status,842,190686329629,/g3t1_1,,running
Status,843,190686415287,/g3t1_1,,fail
Status,845,190701890222,/g4t1,,success
Status,851,191701966882,/g4t1,,success
Status,857,192701980983,/g4t1,,success
Status,863,193702339645,/g4t1,,success
Status,869,194702466692,/g4t1,,success
Status,874,195686509296,/g3t1_1,,running
Status,875,195686979736,/g3t1_1,,success
Status,876,195702505724,/g4t1,,success
Status,882,196702898629,/g4t1,,success
Status,888,197703252971,/g4t1,,success
Status,894,198703251166,/g4t1,,success
Status,900,199703610402,/g4t1,,success
Status,906,200686741088,/g3t1_1,,running
Status,907,200687316647,/g3t1_1,,success
Status,908,200703572194,/g4t1,,success
Status,914,201704154101,/g4t1,,success
Status,920,202704215342,/g4t1,,success
Status,926,203704347841,/g4t1,,success
Status,932,204704742992,/g4t1,,success
Status,938,205687135795,/g3t1_1,,running
Status,939,205687222257,/g3t1_1,,fail
Status,940,205704864054,/g4t1,,success
Status,946,206704998918,/g4t1,,success
Status,952,207705405323,/g4t1,,success
Status,958,208705690740,/g4t1,,success
Status,964,209705859056,/g4t1,,success
Status,970,210687049847,/g3t1_1,,running
Status,971,210687132587,/g3t1_1,,fail
Status,972,210706244160,/g4t1,,success
Status,978,211706643141,/g4t1,,success
Status,984,212706799525,/g4t1,,success
Status,990,213707228264,/g4t1,,success
Status,996,214707198800,/g4t1,,success
Status,1002,215687365726,/g3t1_1,,running
Status,1003,215688118785,/g3t1_1,,success
Status,1004,215707043529,/g4t1,,success
Status,1010,216707490206,/g4t1,,success
Status,1016,217707690400,/g4t1,,success
Status,1022,218707775381,/g4t1,,success
Status,1028,219708213717,/g4t1,,success
Status,1034,220687289294,/g3t1_1,,running
Status,1035,220687931498,/g3t1_1,,success
Status,1036,220707474307,/g4t1,,success
Status,1042,221708628640,/g4t1,,success
Status,1048,222708763079,/g4t1,,success
Status,1054,223708978573,/g4t1,,success
Status,1060,224709459902,/g4t1,,success
Status,1066,225687758607,/g3t1_1,,running
Status,1067,225688042822,/g3t1_1,,success
Status,1068,225709460424,/g4t1,,success
Status,1074,226709833141,/g4t1,,success
Status,1080,227710537119,/g4t1,,success
Status,1086,228710522092,/g4t1,,success
Status,1092,229710782252,/g4t1,,success
Status,1098,230688049899,/g3t1_1,,running
Status,1099,230688341253,/g3t1_1,,success
Status,1100,230710981493,/g4t1,,success
Status,1106,231710980960,/g4t1,,success
Status,1112,232711394900,/g4t1,,success
Status,1118,233711658614,/g4t1,,success
Status,1124,234711870422,/g4t1,,success
Status,1130,235688077355,/g3t1_1,,running
Status,1131,235688145974,/g3t1_1,,fail
Status,1132,235711861872,/g4t1,,success
Status,1138,236712228646,/g4t1,,success
Status,1144,237712485119,/g4t1,,success
Status,1150,238712758212,/g4t1,,success
Status,1156,239713004043,/g4t1,,success
Status,1162,240688688315,/g3t1_1,,running
Status,1163,240689481246,/g3t1_1,,success
Status,1164,240713075025,/g4t1,,success
Status,1170,241713458077,/g4t1,,success
Status,1176,242713846619,/g4t1,,success
Status,1182,243713929671,/g4t1,,success
Status,1188,244714030317,/g4t1,,success
Status,1194,245688671279,/g3t1_1,,running
Status,1195,245688750869,/g3t1_1,,fail
Status,1196,245714210581,/g4t1,,success
Status,1202,246714004547,/g4t1,,success
Status,1208,247714835992,/g4t1,,success
Status,1214,248714846236,/g4t1,,success
Status,1220,249715084730,/g4t1,,success
Status,1226,250688985289,/g3t1_1,,running
Status,1227,250689064274,/g3t1_1,,fail
Status,1228,250715317161,/g4t1,,success
Status,1234,251715440367,/g4t1,,success
Status,1240,252715655710,/g4t1,,success
Status,1246,253715964381,/g4t1,,success
Status,1252,254716214036,/g4t1,,success
Status,1258,255689240634,/g3t1_1,,running
Status,1259,255689670633,/g3t1_1,,fail
Status,1260,255716306528,/g4t1,,success
Status,1266,256716593483,/g4t1,,success
Status,1272,257716821923,/g4t1,,success
Status,1278,258717101661,/g4t1,,success
Status,1284,259717699630,/g4t1,,success
Status,1290,260689319281,/g3t1_1,,running
Status,1291,260690075092,/g3t1_1,,success
Status,1292,260716956347,/g4t1,,success
Status,1298,261717745619,/g4t1,,success
Status,1304,262718170819,/g4t1,,success
Status,1310,263718309467,/g4t1,,success
Status,1316,264718617383,/g4t1,,success
Status,1322,265689895334,/g3t1_1,,running
Status,1323,265689978845,/g3t1_1,,fail
Status,1324,265718596148,/g4t1,,success
Status,1330,266721085678,/g4t1,,success
Status,1336,267719159378,/g4t1,,success
Status,1342,268719098920,/g4t1,,success
Status,1348,269719694388,/g4t1,,success
Status,1354,270689844640,/g3t1_1,,running
Status,1355,270690305825,/g3t1_1,,success
Status,1356,270719227931,/g4t1,,success
Status,1362,271719691271,/g4t1,,success
Status,1368,272720206853,/g4t1,,success
Status,1374,273720370283,/g4t1,,success
Status,1380,274720670201,/g4t1,,success
Status,1386,275690031623,/g3t1_1,,running
Status,1387,275690335886,/g3t1_1,,fail
Status,1388,275720974475,/g4t1,,success
Status,1394,276721081625,/g4t1,,success
Status,1400,277721312587,/g4t1,,success
Status,1406,278721513240,/g4t1,,success
Status,1412,279721887681,/g4t1,,success
Status,1418,280690445554,/g3t1_1,,running
Status,1419,280690935028,/g3t1_1,,fail
Status,1420,280721974202,/g4t1,,success
Status,1426,281722203223,/g4t1,,success
Status,1432,282722469608,/g4t1,,success
Status,1438,283722740881,/g4t1,,success
Status,1444,284723005328,/g4t1,,success
Status,1450,285689686327,/g3t1_1,,running
Status,1451,285689724696,/g3t1_1,,fail
Status,1452,285722894957,/g4t1,,success
Status,1458,286723371912,/g4t1,,success
Status,1464,287723411432,/g4t1,,success
Status,1470,288723542899,/g4t1,,success
Status,1476,289723832132,/g4t1,,success
Status,1482,290690835158,/g3t1_1,,running
Status,1483,290691278235,/g3t1_1,,fail
Status,1484,290723656375,/g4t1,,success
Status,1490,291724456001,/g4t1,,success
Status,1496,292724306648,/g4t1,,success
Status,1502,293724555360,/g4t1,,success
Status,1508,294724789253,/g4t1,,success
Status,1514,295691093947,/g3t1_1,,running
Status,1515,295691728107,/g3t1_1,,success
Status,1516,295724891961,/g4t1,,success
Status,1522,296725303598,/g4t1,,success
Status,1528,297725651192,/g4t1,,success
Status,1534,298725686803,/g4t1,,success
Status,1540,299726104349,/g4t1,,success
Status,1546,300691261523,/g3t1_1,,running
Status,1547,300691330660,/g3t1_1,,success
Status,1548,300726014636,/g4t1,,success
Status,1554,301726455922,/g4t1,,success
Status,1560,302726715442,/g4t1,,success
Status,1566,303727083581,/g4t1,,success
Status,1572,304727314606,/g4t1,,success
Status,1578,305691586206,/g3t1_1,,running
Status,1579,305691651417,/g3t1_1,,success
Status,1580,305727032531,/g4t1,,success
Status,1586,306727457031,/g4t1,,success
Status,1592,307727485922,/g4t1,,success
Status,1598,308728009512,/g4t1,,success
Status,1604,309727925021,/g4t1,,success
Status,1610,310691389059,/g3t1_1,,running
Status,1611,310691911293,/g3t1_1,,success
Status,1612,310727865616,/g4t1,,success
Status,1618,311727994906,/g4t1,,success
Status,1624,312728394908,/g4t1,,success
Status,1630,313728654569,/g4t1,,success
Status,1636,314729022739,/g4t1,,success
Status,1642,315691820281,/g3t1_1,,running
Status,1643,315691888151,/g3t1_1,,success
Status,1644,315728956291,/g4t1,,success
Status,1650,316729422455,/g4t1,,success
Status,1656,317729499450,/g4t1,,success
Status,1662,318729672725,/g4t1,,success
Status,1668,319730138221,/g4t1,,success
Status,1674,320691558711,/g3t1_1,,running
Status,1675,320692151466,/g3t1_1,,success
Status,1676,320730252565,/g4t1,,success
Status,1682,321730669206,/g4t1,,success
Status,1688,322731275333,/g4t1,,success
Status,1694,323731197388,/g4t1,,success
Status,1700,324731308199,/g4t1,,success
Status,1706,325692015127,/g3t1_1,,running
Status,1707,325692298245,/g3t1_1,,success
Status,1708,325731221418,/g4t1,,success
Status,1714,326731621958,/g4t1,,success
Status,1720,327731673652,/g4t1,,success
Status,1726,328732205652,/g4t1,,success
Status,1732,329731852448,/g4t1,,success
Status,1738,330692094293,/g3t1_1,,running
Status,1739,330692361050,/g3t1_1,,success
Status,1740,330732053833,/g4t1,,success
Status,1746,331732420965,/g4t1,,success
Status,1752,332732550155,/g4t1,,success
Status,1758,333732788574,/g4t1,,success
Status,1764,334733073680,/g4t1,,success
Status,1770,335692175937,/g3t1_1,,running
Status,1771,335692667317,/g3t1_1,,success
Status,1772,335733262322,/g4t1,,success
Status,1778,336733254304,/g4t1,,success
Status,1784,337733456321,/g4t1,,success
Status,1790,338733526482,/g4t1,,success
Status,1796,339734055441,/g4t1,,success
Status,1802,340692587831,/g3t1_1,,running
Status,1803,340692664232,/g3t1_1,,success
Status,1804,340734168027,/g4t1,,success
Status,1810,341734570453,/g4t1,,success
Status,1816,342734414975,/g4t1,,success
Status,1822,343734696990,/g4t1,,success
Status,1828,344734227913,/g4t1,,success
Status,1834,345692526542,/g3t1_1,,running
Status,1835,345693100552,/g3t1_1,,success
Status,1836,345734193421,/g4t1,,success
Status,1842,346734961625,/g4t1,,success
Status,1848,347735308032,/g4t1,,success
Status,1854,348734737127,/g4t1,,success
Status,1860,349735480278,/g4t1,,success
Status,1866,350692896184,/g3t1_1,,running
Status,1867,350693311507,/g3t1_1,,success
Status,1868,350735375033,/g4t1,,success
Status,1874,351735806341,/g4t1,,success
Status,1880,352736046297,/g4t1,,success
Status,1886,353736099431,/g4t1,,success
Status,1892,354736287546,/g4t1,,success
Status,1898,355693034586,/g3t1_1,,running
Status,1899,355693121820,/g3t1_1,,fail
Status,1900,355736683867,/g4t1,,success
Status,1906,356736746475,/g4t1,,success
Status,1912,357736949362,/g4t1,,success
Status,1918,358736984850,/g4t1,,success
Status,1924,359736975682,/g4t1,,success
Status,1930,360693321660,/g3t1_1,,running
Status,1931,360693438102,/g3t1_1,,fail
Status,1932,360737181213,/g4t1,,success
Status,1938,361737413207,/g4t1,,success
Status,1944,362737523923,/g4t1,,success
Status,1950,363738055815,/g4t1,,success
Status,1956,364737997431,/g4t1,,success
Status,1962,365693461101,/g3t1_1,,running
Status,1963,365694350284,/g3t1_1,,success
Status,1964,365738057623,/g4t1,,success
Status,1970,366738584601,/g4t1,,success
Status,1976,367738704409,/g4t1,,success
Status,1982,368738601999,/g4t1,,success
Status,1988,369738658583,/g4t1,,success
Status,1993,370694091878,/g3t1_1,,running
Status,1994,370694177150,/g3t1_1,,success
Status,1996,370739106466,/g4t1,,success
Status,2002,371739178697,/g4t1,,success
Status,2008,372739270320,/g4t1,,success
Status,2014,373738756404,/g4t1,,success
Status,2020,374739494807,/g4t1,,success
Status,2025,375693992938,/g3t1_1,,running
Status,2026,375694521892,/g3t1_1,,success
Status,2028,375739663912,/g4t1,,success
Status,2034,376739727389,/g4t1,,success
Status,2040,377739812425,/g4t1,,success
Status,2046,378740044410,/g4t1,,success
Status,2052,379740307695,/g4t1,,success
Status,2057,380694296018,/g3t1_1,,running
Status,2058,380694758563,/g3t1_1,,success
Status,2060,380740452011,/g4t1,,success
Status,2066,381740536028,/g4t1,,success
Status,2072,382740616462,/g4t1,,success
Status,2078,383741051205,/g4t1,,success
Status,2084,384740965835,/g4t1,,success
Status,2089,385694457162,/g3t1_1,,running
Status,2090,385695353647,/g3t1_1,,success
Status,2092,385740989237,/g4t1,,success
Status,2098,386741182382,/g4t1,,success
Status,2104,387741434784,/g4t1,,success
Status,2110,388741546441,/g4t1,,success
Status,2116,389741826857,/g4t1,,success
Status,2121,390694764819,/g3t1_1,,running
Status,2122,390695044935,/g3t1_1,,fail
Status,2124,390741743664,/g4t1,,success
Status,2130,391742142720,/g4t1,,success
Status,2136,392742240124,/g4t1,,success
Status,2142,393742342937,/g4t1,,success
Status,2148,394742569178,/g4t1,,success
Status,2153,395694975328,/g3t1_1,,running
Status,2154,395695278456,/g3t1_1,,fail
Status,2156,395742665796,/g4t1,,success
Status,2162,396742806836,/g4t1,,success
Status,2168,397743127804,/g4t1,,success
Status,2174,398742934986,/g4t1,,success
Status,2180,399743168604,/g4t1,,success
Status,2185,400695445131,/g3t1_1,,running
Status,2186,400695526617,/g3t1_1,,fail
Status,2188,400743234985,/g4t1,,success
Status,2194,401743486074,/g4t1,,success
Status,2200,402743601829,/g4t1,,success
Status,2206,403743720899,/g4t1,,success
Status,2212,404743852788,/g4t1,,success
Status,2217,405695326483,/g3t1_1,,running
Status,2218,405695845733,/g3t1_1,,success
Status,2220,405743210828,/g4t1,,success
Status,2226,406744435965,/g4t1,,success
Status,2232,407744445989,/g4t1,,success
Status,2238,408744652705,/g4t1,,success
Status,2244,409744836781,/g4t1,,success
Status,2249,410695667838,/g3t1_1,,running
Status,2250,410695755520,/g3t1_1,,fail
Status,2252,410744922994,/g4t1,,success
Status,2258,411745377852,/g4t1,,success
Status,2264,412746259208,/g4t1,,success
Status,2269,413745908944,/g4t1,,success
Status,2275,414746084814,/g4t1,,success
Status,2281,415695880423,/g3t1_1,,running
Status,2282,415696512260,/g3t1_1,,fail
Status,2283,415745947086,/g4t1,,success
Status,2289,416746480615,/g4t1,,success
Status,2295,417747084223,/g4t1,,success
Status,2301,418747046747,/g4t1,,success
Status,2307,419747259795,/g4t1,,success
Status,2313,420696035464,/g3t1_1,,running
Status,2314,420696686760,/g3t1_1,,success
Status,2315,420747142578,/g4t1,,success
Status,2321,421747633098,/g4t1,,success
Status,2327,422747944280,/g4t1,,success
Status,2333,423748143011,/g4t1,,success
Status,2339,424748316634,/g4t1,,success
Status,2345,425696219659,/g3t1_1,,running
Status,2346,425697034223,/g3t1_1,,success
Status,2347,425748025293,/g4t1,,success
Status,2353,426748594974,/g4t1,,success
Status,2359,427749074481,/g4t1,,success
Status,2365,428749397023,/g4t1,,success
Status,2371,429749336689,/g4t1,,success
Status,2377,430696315784,/g3t1_1,,running
Status,2378,430696412529,/g3t1_1,,fail
Status,2379,430749153673,/g4t1,,success
Status,2385,431748855962,/g4t1,,success
Status,2391,432749825680,/g4t1,,success
Status,2397,433749942947,/g4t1,,success
Status,2403,434750177711,/g4t1,,success
Status,2409,435696415651,/g3t1_1,,running
Status,2410,435697122751,/g3t1_1,,success
Status,2411,435750216249,/g4t1,,success
Status,2417,436750499082,/g4t1,,success
Status,2423,437751221783,/g4t1,,success
Status,2429,438750900832,/g4t1,,success
Status,2435,439751394657,/g4t1,,success
Status,2441,440696599716,/g3t1_1,,running
Status,2442,440696682273,/g3t1_1,,fail
Status,2443,440751036854,/g4t1,,success
Status,2449,441751614868,/g4t1,,success
Status,2455,442750607832,/g4t1,,success
Status,2461,443751647404,/g4t1,,success
Status,2467,444751924448,/g4t1,,success
Status,2473,445696729150,/g3t1_1,,running
Status,2474,445697053801,/g3t1_1,,success
Status,2475,445752242197,/g4t1,,success
Status,2481,446752421784,/g4t1,,success
Status,2487,447752790330,/g4t1,,success
Status,2493,448753108980,/g4t1,,success
Status,2499,449753473787,/g4t1,,success
Status,2505,450696490555,/g3t1_1,,running
Status,2506,450696749595,/g3t1_1,,fail
Status,2507,450753536919,/g4t1,,success
Status,2513,451753923310,/g4t1,,success
Status,2519,452754236162,/g4t1,,success
Status,2525,453754557171,/g4t1,,success
Status,2531,454754988011,/g4t1,,success
Status,2537,455697391668,/g3t1_1,,running
Status,2538,455697454545,/g3t1_1,,success
Status,2539,455755165499,/g4t1,,success
Status,2545,456755225311,/g4t1,,success
Status,2551,457755216355,/g4t1,,success
Status,2557,458755691624,/g4t1,,success
Status,2563,459756029155,/g4t1,,success
Status,2569,460697439972,/g3t1_1,,running
Status,2570,460698132645,/g3t1_1,,success
Status,2571,460756181674,/g4t1,,success
Status,2577,461756360766,/g4t1,,success
Status,2583,462756597564,/g4t1,,success
Status,2589,463756837770,/g4t1,,success
Status,2595,464757257633,/g4t1,,success
Status,2601,465697816063,/g3t1_1,,running
Status,2602,465698203242,/g3t1_1,,success
Status,2603,465757811878,/g4t1,,success
Status,2609,466758084111,/g4t1,,success
Status,2615,467758410903,/g4t1,,success
Status,2621,468758667633,/g4t1,,success
Status,2627,469758875300,/g4t1,,success
Status,2633,470697967308,/g3t1_1,,running
Status,2634,470698022928,/g3t1_1,,fail
Status,2635,470759128687,/g4t1,,success
Status,2641,471759182880,/g4t1,,success
Status,2647,472759836677,/g4t1,,success
Status,2653,473759936546,/g4t1,,success
Status,2659,474760080858,/g4t1,,success
Status,2665,475698491583,/g3t1_1,,running
Status,2666,475698553696,/g3t1_1,,fail
Status,2667,475760188865,/g4t1,,success
Status,2673,476760487129,/g4t1,,success
Status,2679,477760764450,/g4t1,,success
Status,2685,478761053696,/g4t1,,success
Status,2691,479761371245,/g4t1,,success
Status,2697,480698801325,/g3t1_1,,running
Status,2698,480699118671,/g3t1_1,,success
Status,2699,480761827254,/g4t1,,success
Status,2705,481762025129,/g4t1,,success
Status,2711,482762283306,/g4t1,,success
Status,2717,483762583799,/g4t1,,success
Status,2723,484762806691,/g4t1,,success
Status,2729,485699100029,/g3t1_1,,running
Status,2730,485699162126,/g3t1_1,,fail
Status,2731,485762926071,/g4t1,,success
Status,2737,486763165999,/g4t1,,success
Status,2743,487763545677,/g4t1,,success
Status,2749,488763761194,/g4t1,,success
Status,2755,489763861271,/g4t1,,success
Status,2761,490699193757,/g3t1_1,,running
Status,2762,490699448672,/g3t1_1,,fail
Status,2763,490764045616,/g4t1,,success
Status,2769,491764512283,/g4t1,,success
Status,2775,492764851596,/g4t1,,success
Status,2781,493765174978,/g4t1,,success
Status,2787,494765328468,/g4t1,,success
Status,2793,495699518185,/g3t1_1,,running
Status,2794,495699576016,/g3t1_1,,fail
Status,2795,495765725032,/g4t1,,success
Status,2801,496765995718,/g4t1,,success
Status,2807,497766242358,/g4t1,,success
Status,2813,498766671694,/g4t1,,success
Status,2819,499766877067,/g4t1,,success
Status,2825,500699725243,/g3t1_1,,running
Status,2826,500699987781,/g3t1_1,,fail
Status,2827,500767008981,/g4t1,,success
Status,2833,501767439330,/g4t1,,success
Status,2839,502767700390,/g4t1,,success
Status,2845,503768119987,/g4t1,,success
Status,2851,504768273063,/g4t1,,success
Status,2857,505700064134,/g3t1_1,,running
Status,2858,505700120036,/g3t1_1,,fail
Status,2859,505768540787,/g4t1,,success
Status,2865,506768881027,/g4t1,,success
Status,2871,507769209887,/g4t1,,success
Status,2877,508769519499,/g4t1,,success
Status,2883,509769917828,/g4t1,,success
Status,2889,510700286922,/g3t1_1,,running
Status,2890,510700692469,/g3t1_1,,fail
Status,2891,510770198026,/g4t1,,success
Status,2897,511770508307,/g4t1,,success
Status,2903,512770831867,/g4t1,,success
Status,2909,513771105193,/g4t1,,success
Status,2915,514771203080,/g4t1,,success
Status,2921,515700561687,/g3t1_1,,running
Status,2922,515701091398,/g3t1_1,,success
Status,2923,515771440768,/g4t1,,success
Status,2929,516771366634,/g4t1,,success
Status,2935,517771550608,/g4t1,,success
Status,2941,518771654509,/g4t1,,success
Status,2947,519772096221,/g4t1,,success
Status,2953,520700840533,/g3t1_1,,running
Status,2954,520700913528,/g3t1_1,,fail
Status,2955,520772620305,/g4t1,,success
Status,2961,521773001289,/g4t1,,success
Status,2967,522773072348,/g4t1,,success
Status,2973,523773329397,/g4t1,,success
Status,2979,524773669978,/g4t1,,success
Status,2985,525700925039,/g3t1_1,,running
Status,2986,525701284189,/g3t1_1,,fail
Status,2987,525773893367,/g4t1,,success
Status,2993,526774491640,/g4t1,,success
Status,2999,527774796043,/g4t1,,success
Status,3005,528775042762,/g4t1,,success
Status,3011,529775386922,/g4t1,,success
Status,3017,530701446569,/g3t1_1,,running
Status,3018,530701770108,/g3t1_1,,fail
Status,3019,530775597076,/g4t1,,success
Status,3025,531775766557,/g4t1,,success
Status,3031,532775715562,/g4t1,,success
Status,3037,533776188396,/g4t1,,success
Status,3043,534776258943,/g4t1,,success
Status,3049,535701920314,/g3t1_1,,running
Status,3050,535702509403,/g3t1_1,,success
Status,3051,535776659558,/g4t1,,success
Status,3057,536776908155,/g4t1,,success
Status,3063,537777191414,/g4t1,,success
Status,3069,538777670838,/g4t1,,success
Status,3075,539777937055,/g4t1,,success
Status,3081,540701871974,/g3t1_1,,running
Status,3082,540702352146,/g3t1_1,,success
Status,3083,540778282325,/g4t1,,success
Status,3089,541778609473,/g4t1,,success
Status,3095,542778911751,/g4t1,,success
Status,3101,543779088852,/g4t1,,success
Status,3107,544779185199,/g4t1,,success
Status,3112,545702189864,/g3t1_1,,running
Status,3113,545702264737,/g3t1_1,,fail
Status,3115,545779492897,/g4t1,,success
Status,3121,546779709315,/g4t1,,success
Status,3127,547780101864,/g4t1,,success
Status,3133,548780442846,/g4t1,,success
Status,3139,549780708958,/g4t1,,success
Status,3144,550702519488,/g3t1_1,,running
Status,3145,550702881879,/g3t1_1,,success
Status,3147,550781120431,/g4t1,,success
Status,3153,551781438241,/g4t1,,success
Status,3159,552781809744,/g4t1,,success
Status,3165,553782243979,/g4t1,,success
Status,3171,554782394048,/g4t1,,success
Status,3176,555702835090,/g3t1_1,,running
Status,3177,555703147620,/g3t1_1,,success
Status,3179,555782698260,/g4t1,,success
Status,3185,556782980259,/g4t1,,success
Status,3191,557783152577,/g4t1,,success
Status,3197,558783493217,/g4t1,,success
Status,3203,559783279821,/g4t1,,success
Status,3208,560702949871,/g3t1_1,,running
Status,3209,560703332039,/g3t1_1,,success
Status,3211,560783630477,/g4t1,,success
Status,3217,561783845465,/g4t1,,success
Status,3223,562784447033,/g4t1,,success
Status,3229,563784558552,/g4t1,,success
Status,3235,564784449621,/g4t1,,success
Status,3240,565702262563,/g3t1_1,,running
Status,3241,565702294270,/g3t1_1,,success
Status,3243,565783784804,/g4t1,,success
Status,3249,566783939733,/g4t1,,success
Status,3255,567784795142,/g4t1,,success
Status,3261,568785209771,/g4t1,,success
Status,3267,569785259337,/g4t1,,success
Status,3272,570703554250,/g3t1_1,,running
Status,3273,570704016843,/g3t1_1,,success
Status,3275,570785445280,/g4t1,,success
Status,3281,571785510765,/g4t1,,success
Status,3287,572785803870,/g4t1,,success
Status,3293,573786170598,/g4t1,,success
Status,3299,574786159899,/g4t1,,success
Status,3304,575703886066,/g3t1_1,,running
Status,3305,575703965127,/g3t1_1,,fail
Status,3307,575786722124,/g4t1,,success
Status,3313,576786683953,/g4t1,,success
Status,3319,577786502217,/g4t1,,success
Status,3325,578786862671,/g4t1,,success
