
Status,1,20739388821,/g4t1,,init
Status,4,25650340274,/g3t1_2,,init
Status,5,25657452413,/g3t1_2,,init
Status,6,25657473382,/g3t1_2,,running
Status,7,25657821091,/g3t1_2,,success
Status,8,25858207733,/g3t1_2,,running
Status,9,25858627292,/g3t1_2,,success
Status,10,26058600718,/g3t1_2,,running
Status,11,26059076861,/g3t1_2,,success
Status,12,26258658183,/g3t1_2,,running
Status,13,26259214970,/g3t1_2,,success
Status,14,26459013769,/g3t1_2,,running
Status,15,26459328451,/g3t1_2,,success
Status,16,26659039304,/g3t1_2,,running
Status,17,26659345753,/g3t1_2,,success
Status,18,26750834060,/g4t1,,success
Status,19,26859398619,/g3t1_2,,running
Status,20,26859867832,/g3t1_2,,success
Status,21,27059734037,/g3t1_2,,running
Status,22,27059843011,/g3t1_2,,success
Status,23,27259874265,/g3t1_2,,running
Status,24,27260532248,/g3t1_2,,success
Status,25,27459975525,/g3t1_2,,running
Status,26,27460078314,/g3t1_2,,success
Status,27,27660127988,/g3t1_2,,running
Status,28,27660216004,/g3t1_2,,success
Status,29,27750999749,/g4t1,,success
Status,30,27860427108,/g3t1_2,,running
Status,31,27860671347,/g3t1_2,,success
Status,32,28060284280,/g3t1_2,,running
Status,33,28061293851,/g3t1_2,,success
Status,34,28260755069,/g3t1_2,,running
Status,35,28261124816,/g3t1_2,,success
Status,36,28460758938,/g3t1_2,,running
Status,37,28461627940,/g3t1_2,,success
Status,38,28660924821,/g3t1_2,,running
Status,39,28661521594,/g3t1_2,,success
Status,40,28751011144,/g4t1,,success
Status,41,28860952904,/g3t1_2,,running
Status,42,28861264231,/g3t1_2,,success
Status,43,29060995938,/g3t1_2,,running
Status,44,29061829577,/g3t1_2,,success
Status,45,29260573976,/g3t1_2,,running
Status,46,29260597565,/g3t1_2,,success
Status,47,29461224188,/g3t1_2,,running
Status,48,29461341385,/g3t1_2,,success
Status,49,29661400098,/g3t1_2,,running
Status,50,29661880964,/g3t1_2,,success
Status,51,29751091482,/g4t1,,success
Status,52,29861537593,/g3t1_2,,running
Status,53,29862139012,/g3t1_2,,success
Status,54,30060956013,/g3t1_2,,running
Status,55,30060980475,/g3t1_2,,success
Status,56,30261891694,/g3t1_2,,running
Status,57,30262340056,/g3t1_2,,success
Status,58,30462216930,/g3t1_2,,running
Status,59,30462781197,/g3t1_2,,success
Status,60,30662262716,/g3t1_2,,running
Status,61,30662340464,/g3t1_2,,success
Status,62,30751319600,/g4t1,,success
Status,63,30862078830,/g3t1_2,,running
Status,64,30862546721,/g3t1_2,,success
Status,65,31062149687,/g3t1_2,,running
Status,66,31062899621,/g3t1_2,,success
Status,67,31262366474,/g3t1_2,,running
Status,68,31263157090,/g3t1_2,,success
Status,69,31462421871,/g3t1_2,,running
Status,70,31463070362,/g3t1_2,,success
Status,71,31661982930,/g3t1_2,,running
Status,72,31662017699,/g3t1_2,,success
Status,73,31751431541,/g4t1,,success
Status,74,31862596169,/g3t1_2,,running
Status,75,31862994850,/g3t1_2,,success
Status,76,32062719802,/g3t1_2,,running
Status,77,32063722756,/g3t1_2,,success
Status,78,32262819839,/g3t1_2,,running
Status,79,32263263196,/g3t1_2,,success
Status,80,32463156773,/g3t1_2,,running
Status,81,32463676384,/g3t1_2,,success
Status,82,32663167151,/g3t1_2,,running
Status,83,32663851221,/g3t1_2,,success
Status,84,32751458112,/g4t1,,success
Status,85,32863422012,/g3t1_2,,running
Status,86,32863960844,/g3t1_2,,success
Status,87,33064085931,/g3t1_2,,running
Status,88,33064779460,/g3t1_2,,success
Status,89,33264390504,/g3t1_2,,running
Status,90,33264472665,/g3t1_2,,success
Status,91,33463393638,/g3t1_2,,running
Status,92,33463543331,/g3t1_2,,success
Status,93,33664561958,/g3t1_2,,running
Status,94,33665150778,/g3t1_2,,success
Status,95,33751768314,/g4t1,,success
Status,96,33864332701,/g3t1_2,,running
Status,97,33864924457,/g3t1_2,,success
Status,98,34065012801,/g3t1_2,,running
Status,99,34065179983,/g3t1_2,,success
Status,100,34264923591,/g3t1_2,,running
Status,101,34265708613,/g3t1_2,,success
Status,102,34465062233,/g3t1_2,,running
Status,103,34465883228,/g3t1_2,,success
Status,104,34665213297,/g3t1_2,,running
Status,105,34665291143,/g3t1_2,,success
Status,106,34752330922,/g4t1,,success
Status,107,34865463143,/g3t1_2,,running
Status,108,34866025019,/g3t1_2,,success
Status,109,35065381005,/g3t1_2,,running
Status,110,35066260466,/g3t1_2,,success
Status,111,35265580072,/g3t1_2,,running
Status,112,35266186661,/g3t1_2,,success
Status,113,35465817628,/g3t1_2,,running
Status,114,35465908108,/g3t1_2,,success
Status,115,35666061409,/g3t1_2,,running
Status,116,35666480015,/g3t1_2,,success
Status,117,35752288575,/g4t1,,success
Status,118,35866106831,/g3t1_2,,running
Status,119,35866944906,/g3t1_2,,success
Status,120,36066457301,/g3t1_2,,running
Status,121,36067002908,/g3t1_2,,success
Status,122,36266815424,/g3t1_2,,running
Status,123,36267041012,/g3t1_2,,success
Status,124,36466915992,/g3t1_2,,running
Status,125,36467702083,/g3t1_2,,success
Status,126,36666928299,/g3t1_2,,running
Status,127,36667392646,/g3t1_2,,success
Status,128,36752426390,/g4t1,,success
Status,129,36867266793,/g3t1_2,,running
Status,130,36867725200,/g3t1_2,,success
Status,131,37067367822,/g3t1_2,,running
Status,132,37067489470,/g3t1_2,,success
Status,133,37267432909,/g3t1_2,,running
Status,134,37267760779,/g3t1_2,,success
Status,135,37468121890,/g3t1_2,,running
Status,136,37468193532,/g3t1_2,,success
Status,137,37667752316,/g3t1_2,,running
Status,138,37667899028,/g3t1_2,,success
Status,139,37752846357,/g4t1,,success
Status,140,37868149147,/g3t1_2,,running
Status,141,37868710587,/g3t1_2,,success
Status,142,38068658959,/g3t1_2,,running
Status,143,38069150849,/g3t1_2,,success
Status,144,38268866232,/g3t1_2,,running
Status,145,38269459406,/g3t1_2,,success
Status,146,38469461292,/g3t1_2,,running
Status,147,38469539771,/g3t1_2,,success
Status,148,38669219766,/g3t1_2,,running
Status,149,38669784021,/g3t1_2,,success
Status,150,38752980292,/g4t1,,success
Status,151,38869073908,/g3t1_2,,running
Status,152,38869395191,/g3t1_2,,success
Status,153,39069359233,/g3t1_2,,running
Status,154,39069853639,/g3t1_2,,success
Status,155,39269578947,/g3t1_2,,running
Status,156,39270321374,/g3t1_2,,success
Status,157,39469644307,/g3t1_2,,running
Status,158,39470192907,/g3t1_2,,success
Status,159,39669827271,/g3t1_2,,running
Status,160,39670122594,/g3t1_2,,success
Status,161,39752833666,/g4t1,,success
Status,162,39870098160,/g3t1_2,,running
Status,163,39870433712,/g3t1_2,,success
Status,164,40069824781,/g3t1_2,,running
Status,165,40070218316,/g3t1_2,,success
Status,166,40270180369,/g3t1_2,,running
Status,167,40270503354,/g3t1_2,,success
Status,168,40470161315,/g3t1_2,,running
Status,169,40470872021,/g3t1_2,,success
Status,170,40670610771,/g3t1_2,,running
Status,171,40671236802,/g3t1_2,,success
Status,172,40753386253,/g4t1,,success
Status,173,40870983097,/g3t1_2,,running
Status,174,40871532143,/g3t1_2,,success
Status,175,41071116612,/g3t1_2,,running
Status,176,41071445265,/g3t1_2,,success
Status,177,41271104479,/g3t1_2,,running
Status,178,41271743863,/g3t1_2,,success
Status,179,41471433651,/g3t1_2,,running
Status,180,41472140781,/g3t1_2,,success
Status,181,41671670736,/g3t1_2,,running
Status,182,41672266708,/g3t1_2,,success
Status,183,41753527628,/g4t1,,success
Status,184,41871603276,/g3t1_2,,running
Status,185,41872169857,/g3t1_2,,success
Status,186,42072154684,/g3t1_2,,running
Status,187,42072493332,/g3t1_2,,success
Status,188,42272354099,/g3t1_2,,running
Status,189,42272915122,/g3t1_2,,success
Status,190,42472346318,/g3t1_2,,running
Status,191,42472773545,/g3t1_2,,success
Status,192,42672631634,/g3t1_2,,running
Status,193,42673065809,/g3t1_2,,success
Status,194,42753537806,/g4t1,,success
Status,195,42872494430,/g3t1_2,,running
Status,196,42872978409,/g3t1_2,,success
Status,197,43072658630,/g3t1_2,,running
Status,198,43073250439,/g3t1_2,,success
Status,199,43273178316,/g3t1_2,,running
Status,200,43273679486,/g3t1_2,,success
Status,201,43473111279,/g3t1_2,,running
Status,202,43473378560,/g3t1_2,,success
Status,203,43672945841,/g3t1_2,,running
Status,204,43673760509,/g3t1_2,,success
Status,205,43753677496,/g4t1,,success
Status,206,43873128425,/g3t1_2,,running
Status,207,43873899151,/g3t1_2,,success
Status,208,44073402981,/g3t1_2,,running
Status,209,44073715340,/g3t1_2,,success
Status,210,44273402012,/g3t1_2,,running
Status,211,44273916280,/g3t1_2,,success
Status,212,44473482406,/g3t1_2,,running
Status,213,44473962832,/g3t1_2,,success
Status,214,44673542706,/g3t1_2,,running
Status,215,44673934888,/g3t1_2,,success
Status,216,44754090622,/g4t1,,success
Status,217,44873728734,/g3t1_2,,running
Status,218,44874124758,/g3t1_2,,success
Status,219,45073976898,/g3t1_2,,running
Status,220,45074363973,/g3t1_2,,success
Status,221,45274045373,/g3t1_2,,running
Status,222,45274447610,/g3t1_2,,success
Status,223,45474190083,/g3t1_2,,running
Status,224,45474969106,/g3t1_2,,success
Status,225,45674211882,/g3t1_2,,running
Status,226,45674550757,/g3t1_2,,success
Status,227,45753702531,/g4t1,,success
Status,228,45874369833,/g3t1_2,,running
Status,229,45874757117,/g3t1_2,,success
Status,230,46074634460,/g3t1_2,,running
Status,231,46075486770,/g3t1_2,,success
Status,232,46274902019,/g3t1_2,,running
Status,233,46274977646,/g3t1_2,,success
Status,234,46474921745,/g3t1_2,,running
Status,235,46475208009,/g3t1_2,,success
Status,236,46675069094,/g3t1_2,,running
Status,237,46675766855,/g3t1_2,,success
Status,238,46753954461,/g4t1,,success
Status,239,46875190786,/g3t1_2,,running
Status,240,46875623919,/g3t1_2,,success
Status,241,47075345497,/g3t1_2,,running
Status,242,47076375923,/g3t1_2,,success
Status,243,47275673334,/g3t1_2,,running
Status,244,47276405632,/g3t1_2,,success
Status,245,47475719783,/g3t1_2,,running
Status,246,47476160704,/g3t1_2,,success
Status,247,47676032296,/g3t1_2,,running
Status,248,47676847759,/g3t1_2,,success
Status,249,47754420599,/g4t1,,success
Status,250,47876135751,/g3t1_2,,running
Status,251,47876567480,/g3t1_2,,success
Status,252,48076580055,/g3t1_2,,running
Status,253,48077023548,/g3t1_2,,success
Status,254,48276803494,/g3t1_2,,running
Status,255,48277133771,/g3t1_2,,success
Status,256,48477091932,/g3t1_2,,running
Status,257,48477791415,/g3t1_2,,success
Status,258,48677291900,/g3t1_2,,running
Status,259,48678085471,/g3t1_2,,success
Status,260,48754395617,/g4t1,,success
Status,261,48877311122,/g3t1_2,,running
Status,262,48877688634,/g3t1_2,,success
Status,263,49077506875,/g3t1_2,,running
Status,264,49077984111,/g3t1_2,,success
Status,265,49277753788,/g3t1_2,,running
Status,266,49278293298,/g3t1_2,,success
Status,267,49477998398,/g3t1_2,,running
Status,268,49479198860,/g3t1_2,,success
Status,269,49678121142,/g3t1_2,,running
Status,270,49678716239,/g3t1_2,,success
Status,271,49754589967,/g4t1,,success
Status,272,49878527470,/g3t1_2,,running
Status,273,49878968108,/g3t1_2,,success
Status,274,50078185672,/g3t1_2,,running
Status,275,50078800391,/g3t1_2,,success
Status,276,50277665471,/g3t1_2,,running
Status,277,50277785154,/g3t1_2,,success
Status,278,50478542401,/g3t1_2,,running
Status,279,50479060355,/g3t1_2,,success
Status,280,50678544129,/g3t1_2,,running
Status,281,50679125378,/g3t1_2,,success
Status,282,50754808808,/g4t1,,success
Status,283,50878867933,/g3t1_2,,running
Status,284,50880003943,/g3t1_2,,success
Status,285,51078455187,/g3t1_2,,running
Status,286,51078490169,/g3t1_2,,success
Status,287,51279408739,/g3t1_2,,running
Status,288,51279561646,/g3t1_2,,success
Status,289,51479241108,/g3t1_2,,running
Status,290,51479609350,/g3t1_2,,success
Status,291,51679370714,/g3t1_2,,running
Status,292,51680106156,/g3t1_2,,success
Status,293,51754897263,/g4t1,,success
Status,294,51879538024,/g3t1_2,,running
Status,295,51879956546,/g3t1_2,,success
Status,296,52079729578,/g3t1_2,,running
Status,297,52080143997,/g3t1_2,,success
Status,298,52279977225,/g3t1_2,,running
Status,299,52280317559,/g3t1_2,,success
Status,300,52480137814,/g3t1_2,,running
Status,301,52481060285,/g3t1_2,,success
Status,302,52680474011,/g3t1_2,,running
Status,303,52680546469,/g3t1_2,,success
Status,304,52755050455,/g4t1,,success
Status,305,52880851626,/g3t1_2,,running
Status,306,52881274257,/g3t1_2,,success
Status,307,53080442923,/g3t1_2,,running
Status,308,53080939746,/g3t1_2,,success
Status,309,53280838398,/g3t1_2,,running
Status,310,53281556179,/g3t1_2,,success
Status,311,53480997374,/g3t1_2,,running
Status,312,53481356349,/g3t1_2,,success
Status,313,53681320212,/g3t1_2,,running
Status,314,53682356487,/g3t1_2,,success
Status,315,53755386404,/g4t1,,success
Status,316,53881458447,/g3t1_2,,running
Status,317,53881938808,/g3t1_2,,success
Status,318,54081736337,/g3t1_2,,running
Status,319,54082122682,/g3t1_2,,success
Status,320,54282060501,/g3t1_2,,running
Status,321,54282517794,/g3t1_2,,success
Status,322,54481930893,/g3t1_2,,running
Status,323,54482580834,/g3t1_2,,success
Status,324,54682111817,/g3t1_2,,running
Status,325,54682597063,/g3t1_2,,success
Status,326,54755425171,/g4t1,,success
Status,327,54882370172,/g3t1_2,,running
Status,328,54882683038,/g3t1_2,,success
Status,329,55082495996,/g3t1_2,,running
Status,330,55083203227,/g3t1_2,,success
Status,332,55282715073,/g3t1_2,,running
Status,333,55283353301,/g3t1_2,,success
Status,335,55483083076,/g3t1_2,,running
Status,336,55483693749,/g3t1_2,,success
Status,338,55683077199,/g3t1_2,,running
Status,339,55684017537,/g3t1_2,,success
Status,340,55755979764,/g4t1,,success
Status,342,55883505847,/g3t1_2,,running
Status,343,55883871109,/g3t1_2,,success
Status,345,56083621253,/g3t1_2,,running
Status,346,56084087367,/g3t1_2,,success
Status,348,56283679090,/g3t1_2,,running
Status,349,56284375660,/g3t1_2,,success
Status,351,56483951877,/g3t1_2,,running
Status,352,56484556178,/g3t1_2,,success
Status,354,56684026464,/g3t1_2,,running
Status,355,56684408468,/g3t1_2,,success
Status,356,56755981289,/g4t1,,success
Status,358,56884818172,/g3t1_2,,running
Status,359,56884898663,/g3t1_2,,success
Status,361,57084346294,/g3t1_2,,running
Status,362,57084426681,/g3t1_2,,success
Status,364,57284671936,/g3t1_2,,running
Status,365,57285243313,/g3t1_2,,success
Status,367,57484899443,/g3t1_2,,running
Status,368,57485950290,/g3t1_2,,success
Status,370,57684916600,/g3t1_2,,running
Status,371,57685422018,/g3t1_2,,success
Status,372,57756072417,/g4t1,,success
Status,374,57885374156,/g3t1_2,,running
Status,375,57886106051,/g3t1_2,,success
Status,377,58085396242,/g3t1_2,,running
Status,378,58085828011,/g3t1_2,,success
Status,380,58285718595,/g3t1_2,,running
Status,381,58286121718,/g3t1_2,,success
Status,383,58485984368,/g3t1_2,,running
Status,384,58486448647,/g3t1_2,,success
Status,386,58685933473,/g3t1_2,,running
Status,387,58686565879,/g3t1_2,,success
Status,388,58756625400,/g4t1,,success
Status,390,58886206714,/g3t1_2,,running
Status,391,58886472341,/g3t1_2,,success
Status,393,59086229622,/g3t1_2,,running
Status,394,59086983203,/g3t1_2,,success
Status,396,59286388295,/g3t1_2,,running
Status,397,59286509490,/g3t1_2,,success
Status,399,59486844539,/g3t1_2,,running
Status,400,59487605476,/g3t1_2,,success
Status,402,59687128688,/g3t1_2,,running
Status,403,59687963379,/g3t1_2,,success
Status,404,59756863345,/g4t1,,success
Status,406,59887369693,/g3t1_2,,running
Status,407,59888032947,/g3t1_2,,success
Status,409,60087146310,/g3t1_2,,running
Status,410,60087583093,/g3t1_2,,success
Status,412,60287703550,/g3t1_2,,running
Status,413,60288719528,/g3t1_2,,success
Status,415,60487744605,/g3t1_2,,running
Status,416,60488535644,/g3t1_2,,success
Status,418,60688316122,/g3t1_2,,running
Status,419,60688768696,/g3t1_2,,success
Status,420,60756909461,/g4t1,,success
Status,422,60888456090,/g3t1_2,,running
Status,423,60888853570,/g3t1_2,,success
Status,425,61088812718,/g3t1_2,,running
Status,426,61089251710,/g3t1_2,,success
Status,428,61289029671,/g3t1_2,,running
Status,429,61289107004,/g3t1_2,,success
Status,431,61489121193,/g3t1_2,,running
Status,432,61489629738,/g3t1_2,,success
Status,434,61689650249,/g3t1_2,,running
Status,435,61689731965,/g3t1_2,,success
Status,436,61757322485,/g4t1,,success
Status,438,61889744467,/g3t1_2,,running
Status,439,61890151624,/g3t1_2,,success
Status,441,62089497234,/g3t1_2,,running
Status,442,62089840839,/g3t1_2,,success
Status,444,62289414949,/g3t1_2,,running
Status,445,62289685538,/g3t1_2,,success
Status,447,62489973813,/g3t1_2,,running
Status,448,62491022017,/g3t1_2,,success
Status,450,62690107322,/g3t1_2,,running
Status,451,62690668874,/g3t1_2,,success
Status,452,62757311506,/g4t1,,success
Status,454,62890523190,/g3t1_2,,running
Status,455,62890599811,/g3t1_2,,success
Status,457,63090675616,/g3t1_2,,running
Status,458,63091185693,/g3t1_2,,success
Status,460,63290603984,/g3t1_2,,running
Status,461,63291229697,/g3t1_2,,success
Status,463,63490964699,/g3t1_2,,running
Status,464,63491032373,/g3t1_2,,success
Status,466,63691377687,/g3t1_2,,running
Status,467,63691934933,/g3t1_2,,success
Status,468,63757467720,/g4t1,,success
Status,470,63891511930,/g3t1_2,,running
Status,471,63892549341,/g3t1_2,,success
Status,473,64091661849,/g3t1_2,,running
Status,474,64092295723,/g3t1_2,,success
Status,476,64291955900,/g3t1_2,,running
Status,477,64292461468,/g3t1_2,,success
Status,479,64492275133,/g3t1_2,,running
Status,480,64492783050,/g3t1_2,,success
Status,482,64692537458,/g3t1_2,,running
Status,483,64692668747,/g3t1_2,,success
Status,484,64757813957,/g4t1,,success
Status,486,64892771006,/g3t1_2,,running
Status,487,64893107629,/g3t1_2,,success
Status,489,65092753398,/g3t1_2,,running
Status,490,65093163960,/g3t1_2,,success
Status,492,65293081214,/g3t1_2,,running
Status,493,65293560601,/g3t1_2,,success
Status,495,65492256641,/g3t1_2,,running
Status,496,65492283238,/g3t1_2,,success
Status,498,65693318538,/g3t1_2,,running
Status,499,65694088795,/g3t1_2,,success
Status,500,65758021092,/g4t1,,success
Status,502,65893602478,/g3t1_2,,running
Status,503,65894332071,/g3t1_2,,success
Status,505,66093728493,/g3t1_2,,running
Status,506,66094463449,/g3t1_2,,success
Status,508,66294033064,/g3t1_2,,running
Status,509,66294767307,/g3t1_2,,success
Status,511,66493457525,/g3t1_2,,running
Status,512,66493498211,/g3t1_2,,success
Status,514,66694110477,/g3t1_2,,running
Status,515,66694855701,/g3t1_2,,success
Status,516,66757988974,/g4t1,,success
Status,518,66894271213,/g3t1_2,,running
Status,519,66894566640,/g3t1_2,,success
Status,521,67094179942,/g3t1_2,,running
Status,522,67094670715,/g3t1_2,,success
Status,524,67294766189,/g3t1_2,,running
Status,525,67295721419,/g3t1_2,,success
Status,527,67494919730,/g3t1_2,,running
Status,528,67495505836,/g3t1_2,,success
Status,530,67695118544,/g3t1_2,,running
Status,531,67695191485,/g3t1_2,,success
Status,532,67758341741,/g4t1,,success
Status,534,67895090965,/g3t1_2,,running
Status,535,67895440990,/g3t1_2,,success
Status,537,68094542802,/g3t1_2,,running
Status,538,68094772807,/g3t1_2,,success
Status,540,68296055307,/g3t1_2,,running
Status,541,68296134212,/g3t1_2,,success
Status,543,68496177663,/g3t1_2,,running
Status,544,68496861548,/g3t1_2,,success
Status,546,68696359447,/g3t1_2,,running
Status,547,68696998195,/g3t1_2,,success
Status,548,68758423931,/g4t1,,success
Status,550,68896743400,/g3t1_2,,running
Status,551,68897307048,/g3t1_2,,success
Status,553,69096690211,/g3t1_2,,running
Status,554,69097312514,/g3t1_2,,success
Status,556,69296930229,/g3t1_2,,running
Status,557,69297149719,/g3t1_2,,success
Status,559,69497230316,/g3t1_2,,running
Status,560,69497722366,/g3t1_2,,success
Status,562,69697430680,/g3t1_2,,running
Status,563,69697960347,/g3t1_2,,success
Status,564,69758616477,/g4t1,,success
Status,566,69897389244,/g3t1_2,,running
Status,567,69897814746,/g3t1_2,,success
Status,569,70097656696,/g3t1_2,,running
Status,570,70098378624,/g3t1_2,,success
Status,572,70297653572,/g3t1_2,,running
Status,573,70298414119,/g3t1_2,,success
Status,575,70497653339,/g3t1_2,,running
Status,576,70498051049,/g3t1_2,,success
Status,578,70698317865,/g3t1_2,,running
Status,579,70698625989,/g3t1_2,,success
Status,580,70758689230,/g4t1,,success
Status,582,70898288920,/g3t1_2,,running
Status,583,70898869316,/g3t1_2,,success
Status,585,71098603642,/g3t1_2,,running
Status,586,71099360162,/g3t1_2,,success
Status,588,71298746379,/g3t1_2,,running
Status,589,71299453594,/g3t1_2,,success
Status,591,71498924113,/g3t1_2,,running
Status,592,71499188462,/g3t1_2,,success
Status,594,71699266137,/g3t1_2,,running
Status,595,71699869174,/g3t1_2,,success
Status,596,71758947277,/g4t1,,success
Status,598,71899614218,/g3t1_2,,running
Status,599,71900193621,/g3t1_2,,success
Status,601,72100211311,/g3t1_2,,running
Status,602,72100297899,/g3t1_2,,success
Status,604,72300130613,/g3t1_2,,running
Status,605,72300687589,/g3t1_2,,success
Status,607,72500437308,/g3t1_2,,running
Status,608,72500938949,/g3t1_2,,success
Status,610,72700473583,/g3t1_2,,running
Status,611,72700772008,/g3t1_2,,success
Status,612,72759013949,/g4t1,,success
Status,614,72900752229,/g3t1_2,,running
Status,615,72901183085,/g3t1_2,,success
Status,617,73100968721,/g3t1_2,,running
Status,618,73101318766,/g3t1_2,,success
Status,620,73301327589,/g3t1_2,,running
Status,621,73301631707,/g3t1_2,,success
Status,623,73501890143,/g3t1_2,,running
Status,624,73501971166,/g3t1_2,,success
Status,626,73701587474,/g3t1_2,,running
Status,627,73701932986,/g3t1_2,,success
Status,628,73759352825,/g4t1,,success
Status,630,73901981202,/g3t1_2,,running
Status,631,73902821220,/g3t1_2,,success
Status,633,74102276596,/g3t1_2,,running
Status,634,74102755840,/g3t1_2,,success
Status,636,74302177673,/g3t1_2,,running
Status,637,74302423122,/g3t1_2,,success
Status,639,74502541354,/g3t1_2,,running
Status,640,74503775120,/g3t1_2,,success
Status,642,74703218310,/g3t1_2,,running
Status,643,74703434448,/g3t1_2,,success
Status,644,74759912979,/g4t1,,success
Status,646,74902725591,/g3t1_2,,running
Status,647,74903206500,/g3t1_2,,success
Status,649,75103116891,/g3t1_2,,running
Status,650,75103467734,/g3t1_2,,success
Status,652,75303386870,/g3t1_2,,running
Status,653,75304268038,/g3t1_2,,success
Status,655,75503710911,/g3t1_2,,running
Status,656,75504341108,/g3t1_2,,success
Status,658,75704072536,/g3t1_2,,running
Status,659,75704562675,/g3t1_2,,success
Status,660,75759910873,/g4t1,,success
Status,662,75904457693,/g3t1_2,,running
Status,663,75904893289,/g3t1_2,,success
Status,665,76105100441,/g3t1_2,,running
Status,666,76105188428,/g3t1_2,,success
Status,668,76304822406,/g3t1_2,,running
Status,669,76305360527,/g3t1_2,,success
Status,671,76505099839,/g3t1_2,,running
Status,672,76505655002,/g3t1_2,,success
Status,674,76705261394,/g3t1_2,,running
Status,675,76705700990,/g3t1_2,,success
Status,676,76759985177,/g4t1,,success
Status,678,76905445537,/g3t1_2,,running
Status,679,76906033846,/g3t1_2,,success
Status,681,77105411287,/g3t1_2,,running
Status,682,77106058788,/g3t1_2,,success
Status,684,77304781411,/g3t1_2,,running
Status,685,77304924594,/g3t1_2,,success
Status,687,77505607052,/g3t1_2,,running
Status,688,77506019674,/g3t1_2,,success
Status,690,77705652185,/g3t1_2,,running
Status,691,77706100706,/g3t1_2,,success
Status,692,77760187456,/g4t1,,success
Status,694,77906452920,/g3t1_2,,running
Status,695,77906724488,/g3t1_2,,success
Status,697,78106238161,/g3t1_2,,running
Status,698,78106782393,/g3t1_2,,success
Status,700,78305507000,/g3t1_2,,running
Status,701,78306015738,/g3t1_2,,success
Status,703,78506689366,/g3t1_2,,running
Status,704,78507097780,/g3t1_2,,success
Status,706,78707163942,/g3t1_2,,running
Status,707,78707528614,/g3t1_2,,success
Status,708,78760211905,/g4t1,,success
Status,710,78906941625,/g3t1_2,,running
Status,711,78907744219,/g3t1_2,,success
Status,713,79107293362,/g3t1_2,,running
Status,714,79108220829,/g3t1_2,,success
Status,716,79307442654,/g3t1_2,,running
Status,717,79308293150,/g3t1_2,,success
Status,719,79508110261,/g3t1_2,,running
Status,720,79508203442,/g3t1_2,,success
Status,722,79708141470,/g3t1_2,,running
Status,723,79709054486,/g3t1_2,,success
Status,724,79760567172,/g4t1,,success
Status,726,79908320870,/g3t1_2,,running
Status,727,79908828302,/g3t1_2,,success
Status,729,80108386237,/g3t1_2,,running
Status,730,80108485833,/g3t1_2,,success
Status,732,80308718530,/g3t1_2,,running
Status,733,80309131712,/g3t1_2,,success
Status,735,80508818911,/g3t1_2,,running
Status,736,80509465541,/g3t1_2,,success
Status,738,80709201095,/g3t1_2,,running
Status,739,80709737759,/g3t1_2,,success
Status,740,80761152541,/g4t1,,success
Status,742,80909299895,/g3t1_2,,running
Status,743,80910219942,/g3t1_2,,success
Status,745,81109443780,/g3t1_2,,running
Status,746,81109895807,/g3t1_2,,success
Status,748,81309820871,/g3t1_2,,running
Status,749,81310911127,/g3t1_2,,success
Status,751,81509979363,/g3t1_2,,running
Status,752,81510867639,/g3t1_2,,success
Status,754,81710097043,/g3t1_2,,running
Status,755,81710638588,/g3t1_2,,success
Status,756,81760796854,/g4t1,,success
Status,758,81910210132,/g3t1_2,,running
Status,759,81910683102,/g3t1_2,,success
Status,761,82110628472,/g3t1_2,,running
Status,762,82111357138,/g3t1_2,,success
Status,764,82310813949,/g3t1_2,,running
Status,765,82311288753,/g3t1_2,,success
Status,767,82511121257,/g3t1_2,,running
Status,768,82511476889,/g3t1_2,,success
Status,770,82711209023,/g3t1_2,,running
Status,771,82711619734,/g3t1_2,,success
Status,772,82760939144,/g4t1,,success
Status,774,82911407027,/g3t1_2,,running
Status,775,82912165345,/g3t1_2,,success
Status,777,83111867579,/g3t1_2,,running
Status,778,83112400929,/g3t1_2,,success
Status,780,83312017128,/g3t1_2,,running
Status,781,83312646166,/g3t1_2,,success
Status,783,83512210820,/g3t1_2,,running
Status,784,83512721051,/g3t1_2,,success
Status,786,83712606977,/g3t1_2,,running
Status,787,83712925403,/g3t1_2,,success
Status,788,83761221376,/g4t1,,success
Status,790,83912649969,/g3t1_2,,running
Status,791,83913096833,/g3t1_2,,success
Status,793,84112867109,/g3t1_2,,running
Status,794,84113401817,/g3t1_2,,success
Status,796,84313370862,/g3t1_2,,running
Status,797,84313452440,/g3t1_2,,success
Status,799,84513405833,/g3t1_2,,running
Status,800,84514146172,/g3t1_2,,success
Status,802,84713586812,/g3t1_2,,running
Status,803,84714391835,/g3t1_2,,success
Status,804,84761213451,/g4t1,,success
Status,806,84913833219,/g3t1_2,,running
Status,807,84914326882,/g3t1_2,,success
Status,809,85113720858,/g3t1_2,,running
Status,810,85114046701,/g3t1_2,,success
Status,812,85314192326,/g3t1_2,,running
Status,813,85315137841,/g3t1_2,,success
Status,815,85514615475,/g3t1_2,,running
Status,816,85515121417,/g3t1_2,,success
Status,818,85714565341,/g3t1_2,,running
Status,819,85715132107,/g3t1_2,,success
Status,820,85761707022,/g4t1,,success
Status,822,85914890486,/g3t1_2,,running
Status,823,85915600052,/g3t1_2,,success
Status,825,86114998148,/g3t1_2,,running
Status,826,86115552267,/g3t1_2,,success
Status,828,86315234584,/g3t1_2,,running
Status,829,86315314037,/g3t1_2,,success
Status,831,86515588440,/g3t1_2,,running
Status,832,86515683562,/g3t1_2,,success
Status,834,86715868249,/g3t1_2,,running
Status,835,86716539500,/g3t1_2,,success
Status,836,86761729735,/g4t1,,success
Status,838,86915853422,/g3t1_2,,running
Status,839,86916155484,/g3t1_2,,success
Status,841,87115982238,/g3t1_2,,running
Status,842,87116445190,/g3t1_2,,success
Status,844,87316303249,/g3t1_2,,running
Status,845,87316373549,/g3t1_2,,success
Status,847,87516887981,/g3t1_2,,running
Status,848,87517298429,/g3t1_2,,success
Status,850,87716741495,/g3t1_2,,running
Status,851,87717034371,/g3t1_2,,success
Status,852,87761799066,/g4t1,,success
Status,854,87917005287,/g3t1_2,,running
Status,855,87917805703,/g3t1_2,,success
Status,857,88117479601,/g3t1_2,,running
Status,858,88117758702,/g3t1_2,,success
Status,860,88317462270,/g3t1_2,,running
Status,861,88317992110,/g3t1_2,,success
Status,863,88517626492,/g3t1_2,,running
Status,864,88518292138,/g3t1_2,,success
Status,866,88717879502,/g3t1_2,,running
Status,867,88718789996,/g3t1_2,,success
Status,868,88761947446,/g4t1,,success
Status,870,88918086823,/g3t1_2,,running
Status,871,88918612084,/g3t1_2,,success
Status,873,89118148332,/g3t1_2,,running
Status,874,89119431286,/g3t1_2,,success
Status,876,89318528342,/g3t1_2,,running
Status,877,89318602853,/g3t1_2,,success
Status,879,89518851597,/g3t1_2,,running
Status,880,89520167347,/g3t1_2,,success
Status,882,89718827194,/g3t1_2,,running
Status,883,89719325955,/g3t1_2,,success
Status,884,89762493328,/g4t1,,success
Status,886,89919564241,/g3t1_2,,running
Status,887,89920132672,/g3t1_2,,success
Status,889,90119637852,/g3t1_2,,running
Status,890,90120549259,/g3t1_2,,success
Status,892,90320220196,/g3t1_2,,running
Status,893,90320306042,/g3t1_2,,success
Status,895,90519910945,/g3t1_2,,running
Status,896,90520533155,/g3t1_2,,success
Status,898,90720404010,/g3t1_2,,running
Status,899,90721074196,/g3t1_2,,success
Status,900,90762321489,/g4t1,,success
Status,902,90920603102,/g3t1_2,,running
Status,903,90921146799,/g3t1_2,,success
Status,905,91120866761,/g3t1_2,,running
Status,906,91121582307,/g3t1_2,,success
Status,908,91320926746,/g3t1_2,,running
Status,909,91321472189,/g3t1_2,,success
Status,911,91521316904,/g3t1_2,,running
Status,912,91521398288,/g3t1_2,,success
Status,914,91721491621,/g3t1_2,,running
Status,915,91721948124,/g3t1_2,,success
Status,916,91762523507,/g4t1,,success
Status,918,91921575052,/g3t1_2,,running
Status,919,91921694278,/g3t1_2,,success
Status,921,92121485860,/g3t1_2,,running
Status,922,92122255855,/g3t1_2,,success
Status,924,92321926592,/g3t1_2,,running
Status,925,92322019648,/g3t1_2,,success
Status,927,92522062256,/g3t1_2,,running
Status,928,92522145941,/g3t1_2,,success
Status,930,92722146263,/g3t1_2,,running
Status,931,92722888743,/g3t1_2,,success
Status,932,92762714170,/g4t1,,success
Status,934,92922383140,/g3t1_2,,running
Status,935,92922786144,/g3t1_2,,success
Status,937,93122582549,/g3t1_2,,running
Status,938,93122892362,/g3t1_2,,success
Status,940,93322791540,/g3t1_2,,running
Status,941,93323504000,/g3t1_2,,success
Status,943,93523015482,/g3t1_2,,running
Status,944,93523378229,/g3t1_2,,success
Status,946,93723389237,/g3t1_2,,running
Status,947,93724052591,/g3t1_2,,success
Status,948,93762799479,/g4t1,,success
Status,950,93923420541,/g3t1_2,,running
Status,951,93924031224,/g3t1_2,,success
Status,953,94123409678,/g3t1_2,,running
Status,954,94123640989,/g3t1_2,,success
Status,956,94323638154,/g3t1_2,,running
Status,957,94325018223,/g3t1_2,,success
Status,959,94524059613,/g3t1_2,,running
Status,960,94524924988,/g3t1_2,,success
Status,962,94724106444,/g3t1_2,,running
Status,963,94725245765,/g3t1_2,,success
Status,964,94763145638,/g4t1,,success
Status,966,94924185478,/g3t1_2,,running
Status,967,94925432297,/g3t1_2,,success
Status,969,95124655256,/g3t1_2,,running
Status,970,95124978281,/g3t1_2,,success
Status,972,95325029823,/g3t1_2,,running
Status,973,95325137840,/g3t1_2,,success
Status,975,95525108875,/g3t1_2,,running
Status,976,95525705953,/g3t1_2,,success
Status,978,95724996478,/g3t1_2,,running
Status,979,95725073963,/g3t1_2,,success
Status,980,95763338511,/g4t1,,success
Status,982,95924897864,/g3t1_2,,running
Status,983,95925329927,/g3t1_2,,success
Status,985,96125158659,/g3t1_2,,running
Status,986,96125875084,/g3t1_2,,success
Status,988,96325383871,/g3t1_2,,running
Status,989,96325639668,/g3t1_2,,success
Status,991,96525743720,/g3t1_2,,running
Status,992,96525829117,/g3t1_2,,success
Status,994,96725792359,/g3t1_2,,running
Status,995,96726478185,/g3t1_2,,success
Status,996,96763387581,/g4t1,,success
Status,998,96926233941,/g3t1_2,,running
Status,999,96926408243,/g3t1_2,,success
Status,1001,97126092291,/g3t1_2,,running
Status,1002,97126744746,/g3t1_2,,success
Status,1004,97326739043,/g3t1_2,,running
Status,1005,97327240394,/g3t1_2,,success
Status,1007,97527041965,/g3t1_2,,running
Status,1008,97527134769,/g3t1_2,,success
Status,1010,97726726748,/g3t1_2,,running
Status,1011,97727551996,/g3t1_2,,success
Status,1012,97763649432,/g4t1,,success
Status,1014,97926773923,/g3t1_2,,running
Status,1015,97927441739,/g3t1_2,,success
Status,1017,98127299663,/g3t1_2,,running
Status,1018,98127403520,/g3t1_2,,success
Status,1020,98327371484,/g3t1_2,,running
Status,1021,98328045059,/g3t1_2,,success
Status,1023,98527389368,/g3t1_2,,running
Status,1024,98528090436,/g3t1_2,,success
Status,1026,98728056390,/g3t1_2,,running
Status,1027,98728513532,/g3t1_2,,success
Status,1028,98763971156,/g4t1,,success
Status,1030,98928067004,/g3t1_2,,running
Status,1031,98928879997,/g3t1_2,,success
Status,1033,99128295415,/g3t1_2,,running
Status,1034,99128385050,/g3t1_2,,success
Status,1036,99328673974,/g3t1_2,,running
Status,1037,99329516516,/g3t1_2,,success
Status,1039,99528582210,/g3t1_2,,running
Status,1040,99529150132,/g3t1_2,,success
Status,1042,99728594265,/g3t1_2,,running
Status,1043,99729322095,/g3t1_2,,success
Status,1044,99764165911,/g4t1,,success
Status,1046,99928943184,/g3t1_2,,running
Status,1047,99929566785,/g3t1_2,,success
Status,1049,100129386976,/g3t1_2,,running
Status,1050,100129468502,/g3t1_2,,success
Status,1052,100329674022,/g3t1_2,,running
Status,1053,100329761962,/g3t1_2,,success
Status,1055,100529289383,/g3t1_2,,running
Status,1056,100529557260,/g3t1_2,,success
Status,1058,100729575440,/g3t1_2,,running
Status,1059,100729903380,/g3t1_2,,success
Status,1060,100764646079,/g4t1,,success
Status,1062,100929839060,/g3t1_2,,running
Status,1063,100930930315,/g3t1_2,,success
Status,1065,101130309669,/g3t1_2,,running
Status,1066,101130393599,/g3t1_2,,success
Status,1068,101330209033,/g3t1_2,,running
Status,1069,101330890463,/g3t1_2,,success
Status,1071,101530399014,/g3t1_2,,running
Status,1072,101530528414,/g3t1_2,,success
Status,1074,101730792095,/g3t1_2,,running
Status,1075,101731164184,/g3t1_2,,success
Status,1076,101764390181,/g4t1,,success
Status,1078,101930777721,/g3t1_2,,running
Status,1079,101931299972,/g3t1_2,,success
Status,1081,102130594756,/g3t1_2,,running
Status,1082,102130990289,/g3t1_2,,success
Status,1084,102331327232,/g3t1_2,,running
Status,1085,102331407891,/g3t1_2,,success
Status,1087,102531359291,/g3t1_2,,running
Status,1088,102531997717,/g3t1_2,,success
Status,1090,102730537081,/g3t1_2,,running
Status,1091,102730749233,/g3t1_2,,success
Status,1092,102764435494,/g4t1,,success
Status,1094,102931717734,/g3t1_2,,running
Status,1095,102932339010,/g3t1_2,,success
Status,1097,103132047225,/g3t1_2,,running
Status,1098,103132204846,/g3t1_2,,success
Status,1100,103331728810,/g3t1_2,,running
Status,1101,103332025553,/g3t1_2,,success
Status,1103,103531315667,/g3t1_2,,running
Status,1104,103531580006,/g3t1_2,,success
Status,1106,103732297045,/g3t1_2,,running
Status,1107,103732700644,/g3t1_2,,success
Status,1108,103765200047,/g4t1,,success
Status,1110,103932387131,/g3t1_2,,running
Status,1111,103932923754,/g3t1_2,,success
Status,1113,104132857230,/g3t1_2,,running
Status,1114,104133719189,/g3t1_2,,success
Status,1116,104332530052,/g3t1_2,,running
Status,1117,104333164272,/g3t1_2,,success
Status,1119,104532904242,/g3t1_2,,running
Status,1120,104533340226,/g3t1_2,,success
Status,1122,104733147188,/g3t1_2,,running
Status,1123,104733931519,/g3t1_2,,success
Status,1124,104765502543,/g4t1,,success
Status,1126,104933323016,/g3t1_2,,running
Status,1127,104933827043,/g3t1_2,,success
Status,1129,105133142079,/g3t1_2,,running
Status,1130,105133590231,/g3t1_2,,success
Status,1132,105333765963,/g3t1_2,,running
Status,1133,105334257162,/g3t1_2,,success
Status,1135,105533955032,/g3t1_2,,running
Status,1136,105534281773,/g3t1_2,,success
Status,1138,105733909917,/g3t1_2,,running
Status,1139,105734464211,/g3t1_2,,success
Status,1140,105765307003,/g4t1,,success
Status,1142,105934472692,/g3t1_2,,running
Status,1143,105934918451,/g3t1_2,,success
Status,1145,106134018249,/g3t1_2,,running
Status,1146,106134341690,/g3t1_2,,success
Status,1148,106334329521,/g3t1_2,,running
Status,1149,106334724790,/g3t1_2,,success
Status,1151,106534857778,/g3t1_2,,running
Status,1152,106535454441,/g3t1_2,,success
Status,1154,106735165155,/g3t1_2,,running
Status,1155,106735735240,/g3t1_2,,success
Status,1156,106765382690,/g4t1,,success
Status,1158,106934682297,/g3t1_2,,running
Status,1159,106935202986,/g3t1_2,,success
Status,1161,107135483118,/g3t1_2,,running
Status,1162,107136074934,/g3t1_2,,success
Status,1164,107335587310,/g3t1_2,,running
Status,1165,107336385920,/g3t1_2,,success
Status,1167,107535205527,/g3t1_2,,running
Status,1168,107535577265,/g3t1_2,,success
Status,1170,107735723424,/g3t1_2,,running
Status,1171,107736252593,/g3t1_2,,success
Status,1172,107765534592,/g4t1,,success
Status,1174,107936283237,/g3t1_2,,running
Status,1175,107936855021,/g3t1_2,,success
Status,1177,108136134219,/g3t1_2,,running
Status,1178,108136609206,/g3t1_2,,success
Status,1180,108336690697,/g3t1_2,,running
Status,1181,108337542235,/g3t1_2,,success
Status,1183,108536612249,/g3t1_2,,running
Status,1184,108537412522,/g3t1_2,,success
Status,1186,108736611316,/g3t1_2,,running
Status,1187,108737041584,/g3t1_2,,success
Status,1188,108765702590,/g4t1,,success
Status,1190,108937066855,/g3t1_2,,running
Status,1191,108937532568,/g3t1_2,,success
Status,1193,109137342661,/g3t1_2,,running
Status,1194,109138129812,/g3t1_2,,success
Status,1196,109337100378,/g3t1_2,,running
Status,1197,109337533446,/g3t1_2,,success
Status,1199,109537362002,/g3t1_2,,running
Status,1200,109538154734,/g3t1_2,,success
Status,1202,109737654524,/g3t1_2,,running
Status,1203,109738457569,/g3t1_2,,success
Status,1204,109766053761,/g4t1,,success
Status,1206,109937791986,/g3t1_2,,running
Status,1207,109937864358,/g3t1_2,,success
Status,1209,110137582988,/g3t1_2,,running
Status,1210,110137899260,/g3t1_2,,success
Status,1212,110338221530,/g3t1_2,,running
Status,1213,110338740134,/g3t1_2,,success
Status,1215,110537967820,/g3t1_2,,running
Status,1216,110538403888,/g3t1_2,,success
Status,1218,110738243441,/g3t1_2,,running
Status,1219,110738331214,/g3t1_2,,success
Status,1220,110765990181,/g4t1,,success
Status,1222,110938692153,/g3t1_2,,running
Status,1223,110939230020,/g3t1_2,,success
Status,1225,111138725529,/g3t1_2,,running
Status,1226,111139852437,/g3t1_2,,success
Status,1228,111339093147,/g3t1_2,,running
Status,1229,111339184777,/g3t1_2,,success
Status,1231,111539037638,/g3t1_2,,running
Status,1232,111539386992,/g3t1_2,,success
Status,1234,111738709392,/g3t1_2,,running
Status,1235,111739475093,/g3t1_2,,success
Status,1236,111766233596,/g4t1,,success
Status,1238,111939623305,/g3t1_2,,running
Status,1239,111940029935,/g3t1_2,,success
Status,1241,112139879227,/g3t1_2,,running
Status,1242,112140491218,/g3t1_2,,success
Status,1244,112339483974,/g3t1_2,,running
Status,1245,112339558302,/g3t1_2,,success
Status,1247,112539895779,/g3t1_2,,running
Status,1248,112540315299,/g3t1_2,,success
Status,1250,112739694332,/g3t1_2,,running
Status,1251,112740321170,/g3t1_2,,success
Status,1252,112766320590,/g4t1,,success
Status,1254,112940761588,/g3t1_2,,running
Status,1255,112941525372,/g3t1_2,,success
Status,1257,113140662691,/g3t1_2,,running
Status,1258,113141470323,/g3t1_2,,success
Status,1260,113340939205,/g3t1_2,,running
Status,1261,113341547985,/g3t1_2,,success
Status,1263,113540978227,/g3t1_2,,running
Status,1264,113541728070,/g3t1_2,,success
Status,1266,113741047266,/g3t1_2,,running
Status,1267,113742045366,/g3t1_2,,success
Status,1268,113766421916,/g4t1,,success
Status,1270,113941138026,/g3t1_2,,running
Status,1271,113941502913,/g3t1_2,,success
Status,1273,114141218555,/g3t1_2,,running
Status,1274,114141705406,/g3t1_2,,success
Status,1276,114341372323,/g3t1_2,,running
Status,1277,114341825310,/g3t1_2,,success
Status,1279,114541765213,/g3t1_2,,running
Status,1280,114541842241,/g3t1_2,,success
Status,1282,114741734266,/g3t1_2,,running
Status,1283,114742624638,/g3t1_2,,success
Status,1284,114766579381,/g4t1,,success
Status,1286,114941788875,/g3t1_2,,running
Status,1287,114942315860,/g3t1_2,,success
Status,1289,115142178616,/g3t1_2,,running
Status,1290,115143222677,/g3t1_2,,success
Status,1292,115341981064,/g3t1_2,,running
Status,1293,115342705541,/g3t1_2,,success
Status,1295,115542311392,/g3t1_2,,running
Status,1296,115542705943,/g3t1_2,,success
Status,1298,115742518510,/g3t1_2,,running
Status,1299,115742997475,/g3t1_2,,success
Status,1300,115766871249,/g4t1,,success
Status,1302,115942384014,/g3t1_2,,running
Status,1303,115942820456,/g3t1_2,,success
Status,1305,116142767423,/g3t1_2,,running
Status,1306,116143233598,/g3t1_2,,success
Status,1308,116342952969,/g3t1_2,,running
Status,1309,116343628920,/g3t1_2,,success
Status,1311,116542743461,/g3t1_2,,running
Status,1312,116543446789,/g3t1_2,,success
Status,1314,116743423587,/g3t1_2,,running
Status,1315,116743530303,/g3t1_2,,success
Status,1316,116766966936,/g4t1,,success
Status,1318,116943515425,/g3t1_2,,running
Status,1319,116944318458,/g3t1_2,,success
Status,1321,117143193959,/g3t1_2,,running
Status,1322,117143510070,/g3t1_2,,success
Status,1324,117343641377,/g3t1_2,,running
Status,1325,117343728171,/g3t1_2,,success
Status,1327,117543694618,/g3t1_2,,running
Status,1328,117544481505,/g3t1_2,,success
Status,1330,117743703406,/g3t1_2,,running
Status,1331,117744186412,/g3t1_2,,success
Status,1332,117766993752,/g4t1,,success
Status,1334,117944244597,/g3t1_2,,running
Status,1335,117945076358,/g3t1_2,,success
Status,1337,118144287669,/g3t1_2,,running
Status,1338,118144843755,/g3t1_2,,success
Status,1340,118344143018,/g3t1_2,,running
Status,1341,118344695122,/g3t1_2,,success
Status,1343,118544548766,/g3t1_2,,running
Status,1344,118544944684,/g3t1_2,,success
Status,1346,118744634017,/g3t1_2,,running
Status,1347,118745398635,/g3t1_2,,success
Status,1348,118767321807,/g4t1,,success
Status,1350,118944685073,/g3t1_2,,running
Status,1351,118944987203,/g3t1_2,,success
Status,1353,119145121727,/g3t1_2,,running
Status,1354,119145203733,/g3t1_2,,success
Status,1356,119345038344,/g3t1_2,,running
Status,1357,119345583709,/g3t1_2,,success
Status,1359,119544905677,/g3t1_2,,running
Status,1360,119545527732,/g3t1_2,,success
Status,1362,119745393439,/g3t1_2,,running
Status,1363,119745888481,/g3t1_2,,success
Status,1364,119767452298,/g4t1,,success
Status,1366,119944598011,/g3t1_2,,running
Status,1367,119944796248,/g3t1_2,,success
Status,1369,120145460889,/g3t1_2,,running
Status,1370,120145757422,/g3t1_2,,success
Status,1372,120345753545,/g3t1_2,,running
Status,1373,120346152998,/g3t1_2,,success
Status,1375,120545989803,/g3t1_2,,running
Status,1376,120546639819,/g3t1_2,,success
Status,1378,120745885573,/g3t1_2,,running
Status,1379,120746221050,/g3t1_2,,success
Status,1380,120767453063,/g4t1,,success
Status,1382,120946445975,/g3t1_2,,running
Status,1383,120946927599,/g3t1_2,,success
Status,1385,121146527585,/g3t1_2,,running
Status,1386,121146884519,/g3t1_2,,success
Status,1388,121346268954,/g3t1_2,,running
Status,1389,121346826921,/g3t1_2,,success
Status,1391,121545982885,/g3t1_2,,running
Status,1392,121546320201,/g3t1_2,,success
Status,1394,121747191226,/g3t1_2,,running
Status,1395,121747961916,/g3t1_2,,success
Status,1396,121768042450,/g4t1,,success
Status,1398,121946891659,/g3t1_2,,running
Status,1399,121947564761,/g3t1_2,,success
Status,1401,122147354625,/g3t1_2,,running
Status,1402,122148142085,/g3t1_2,,success
Status,1404,122347474474,/g3t1_2,,running
Status,1405,122347647997,/g3t1_2,,success
Status,1407,122547364411,/g3t1_2,,running
Status,1408,122547852720,/g3t1_2,,success
Status,1410,122747876855,/g3t1_2,,running
Status,1411,122748872533,/g3t1_2,,success
Status,1412,122767674954,/g4t1,,success
Status,1414,122948239028,/g3t1_2,,running
Status,1415,122948679034,/g3t1_2,,success
Status,1417,123147898184,/g3t1_2,,running
Status,1418,123148341792,/g3t1_2,,success
Status,1420,123348601940,/g3t1_2,,running
Status,1421,123348683250,/g3t1_2,,success
Status,1423,123548657078,/g3t1_2,,running
Status,1424,123548740747,/g3t1_2,,success
Status,1426,123748482314,/g3t1_2,,running
Status,1427,123748904725,/g3t1_2,,success
Status,1428,123768098570,/g4t1,,success
Status,1430,123948820724,/g3t1_2,,running
Status,1431,123949219773,/g3t1_2,,success
Status,1433,124149085177,/g3t1_2,,running
Status,1434,124149802332,/g3t1_2,,success
Status,1436,124349095050,/g3t1_2,,running
Status,1437,124349635457,/g3t1_2,,success
Status,1439,124549343439,/g3t1_2,,running
Status,1440,124549787202,/g3t1_2,,success
Status,1442,124749693590,/g3t1_2,,running
Status,1443,124750208347,/g3t1_2,,success
Status,1444,124768642516,/g4t1,,success
Status,1446,124949296750,/g3t1_2,,running
Status,1447,124949782049,/g3t1_2,,success
Status,1449,125149975081,/g3t1_2,,running
Status,1450,125150234870,/g3t1_2,,success
Status,1452,125349996116,/g3t1_2,,running
Status,1453,125350774217,/g3t1_2,,success
Status,1455,125549916442,/g3t1_2,,running
Status,1456,125550334478,/g3t1_2,,success
Status,1458,125750358234,/g3t1_2,,running
Status,1459,125750991478,/g3t1_2,,success
Status,1460,125768734119,/g4t1,,success
Status,1462,125950629988,/g3t1_2,,running
Status,1463,125951564074,/g3t1_2,,success
Status,1465,126151019861,/g3t1_2,,running
Status,1466,126151486332,/g3t1_2,,success
Status,1468,126351072892,/g3t1_2,,running
Status,1469,126351420088,/g3t1_2,,success
Status,1471,126551498204,/g3t1_2,,running
Status,1472,126551588964,/g3t1_2,,success
Status,1474,126751570678,/g3t1_2,,running
Status,1475,126751971552,/g3t1_2,,success
Status,1476,126769041297,/g4t1,,success
Status,1478,126952059341,/g3t1_2,,running
Status,1479,126952238645,/g3t1_2,,success
Status,1481,127152005561,/g3t1_2,,running
Status,1482,127152587710,/g3t1_2,,success
Status,1484,127352205343,/g3t1_2,,running
Status,1485,127352795566,/g3t1_2,,success
Status,1487,127552972148,/g3t1_2,,running
Status,1488,127553062349,/g3t1_2,,success
Status,1490,127752936861,/g3t1_2,,running
Status,1491,127753496488,/g3t1_2,,success
Status,1492,127769288415,/g4t1,,success
Status,1494,127952936050,/g3t1_2,,running
Status,1495,127953207641,/g3t1_2,,success
Status,1497,128153649232,/g3t1_2,,running
Status,1498,128154080387,/g3t1_2,,success
Status,1500,128353586311,/g3t1_2,,running
Status,1501,128354057082,/g3t1_2,,success
Status,1503,128553855149,/g3t1_2,,running
Status,1504,128553939036,/g3t1_2,,success
Status,1506,128753985909,/g3t1_2,,running
Status,1507,128754065541,/g3t1_2,,success
Status,1508,128769485571,/g4t1,,success
Status,1510,128952746520,/g3t1_2,,running
Status,1511,128952934052,/g3t1_2,,success
Status,1513,129153476447,/g3t1_2,,running
Status,1514,129153913794,/g3t1_2,,success
Status,1516,129354310311,/g3t1_2,,running
Status,1517,129354951111,/g3t1_2,,success
Status,1519,129554525325,/g3t1_2,,running
Status,1520,129554608786,/g3t1_2,,success
Status,1522,129754427627,/g3t1_2,,running
Status,1523,129754895509,/g3t1_2,,success
Status,1524,129769430389,/g4t1,,success
Status,1526,129954771465,/g3t1_2,,running
Status,1527,129955676148,/g3t1_2,,success
Status,1529,130154949936,/g3t1_2,,running
Status,1530,130155621945,/g3t1_2,,success
Status,1532,130354688589,/g3t1_2,,running
Status,1533,130355422952,/g3t1_2,,success
Status,1535,130555215491,/g3t1_2,,running
Status,1536,130555953107,/g3t1_2,,success
Status,1538,130755112787,/g3t1_2,,running
Status,1539,130755563325,/g3t1_2,,success
Status,1540,130769389970,/g4t1,,success
Status,1542,130954719889,/g3t1_2,,running
Status,1543,130954892891,/g3t1_2,,success
Status,1545,131155847610,/g3t1_2,,running
Status,1546,131156236960,/g3t1_2,,success
Status,1548,131356364652,/g3t1_2,,running
Status,1549,131356458121,/g3t1_2,,success
Status,1551,131556088420,/g3t1_2,,running
Status,1552,131556607424,/g3t1_2,,success
Status,1554,131756517442,/g3t1_2,,running
Status,1555,131757039694,/g3t1_2,,success
Status,1556,131769586579,/g4t1,,success
Status,1558,131956918957,/g3t1_2,,running
Status,1559,131957678369,/g3t1_2,,success
Status,1561,132156732073,/g3t1_2,,running
Status,1562,132157561945,/g3t1_2,,success
Status,1564,132357087146,/g3t1_2,,running
Status,1565,132357422019,/g3t1_2,,success
Status,1567,132557180358,/g3t1_2,,running
Status,1568,132557946570,/g3t1_2,,success
Status,1570,132757108605,/g3t1_2,,running
Status,1571,132757958899,/g3t1_2,,success
Status,1572,132769588592,/g4t1,,success
Status,1574,132957331241,/g3t1_2,,running
Status,1575,132957981503,/g3t1_2,,success
Status,1577,133157673092,/g3t1_2,,running
Status,1578,133158339129,/g3t1_2,,success
Status,1580,133357798809,/g3t1_2,,running
Status,1581,133358461083,/g3t1_2,,success
Status,1583,133558415410,/g3t1_2,,running
Status,1584,133558770151,/g3t1_2,,success
Status,1586,133758247722,/g3t1_2,,running
Status,1587,133758934275,/g3t1_2,,success
Status,1588,133770082743,/g4t1,,success
Status,1590,133958259270,/g3t1_2,,running
Status,1591,133958767216,/g3t1_2,,success
Status,1593,134158779370,/g3t1_2,,running
Status,1594,134159295979,/g3t1_2,,success
Status,1596,134358985410,/g3t1_2,,running
Status,1597,134359540462,/g3t1_2,,success
Status,1599,134558851404,/g3t1_2,,running
Status,1600,134559373279,/g3t1_2,,success
Status,1602,134759321927,/g3t1_2,,running
Status,1603,134759646952,/g3t1_2,,success
Status,1604,134770291810,/g4t1,,success
Status,1606,134959369504,/g3t1_2,,running
Status,1607,134960147668,/g3t1_2,,success
Status,1609,135159671667,/g3t1_2,,running
Status,1610,135160710009,/g3t1_2,,success
Status,1612,135359861626,/g3t1_2,,running
Status,1613,135360389602,/g3t1_2,,success
Status,1615,135560426071,/g3t1_2,,running
Status,1616,135560512052,/g3t1_2,,success
Status,1618,135760580228,/g3t1_2,,running
Status,1619,135761446184,/g3t1_2,,success
Status,1620,135770442145,/g4t1,,success
Status,1622,135960968870,/g3t1_2,,running
Status,1623,135961545186,/g3t1_2,,success
Status,1625,136161181116,/g3t1_2,,running
Status,1626,136161578059,/g3t1_2,,success
Status,1628,136360977980,/g3t1_2,,running
Status,1629,136361262522,/g3t1_2,,success
Status,1631,136561325084,/g3t1_2,,running
Status,1632,136561689071,/g3t1_2,,success
Status,1634,136761762730,/g3t1_2,,running
Status,1635,136762112535,/g3t1_2,,success
Status,1636,136770687073,/g4t1,,success
Status,1638,136961650778,/g3t1_2,,running
Status,1639,136962522381,/g3t1_2,,success
Status,1641,137161761551,/g3t1_2,,running
Status,1642,137161911335,/g3t1_2,,success
Status,1644,137362043726,/g3t1_2,,running
Status,1645,137362760141,/g3t1_2,,success
Status,1647,137562191658,/g3t1_2,,running
Status,1648,137562633618,/g3t1_2,,success
Status,1650,137762029249,/g3t1_2,,running
Status,1651,137762326662,/g3t1_2,,success
Status,1652,137770271090,/g4t1,,success
Status,1654,137962765277,/g3t1_2,,running
Status,1655,137962883758,/g3t1_2,,success
Status,1657,138162655871,/g3t1_2,,running
Status,1658,138163369829,/g3t1_2,,success
Status,1660,138363030217,/g3t1_2,,running
Status,1661,138363679026,/g3t1_2,,success
Status,1663,138563181989,/g3t1_2,,running
Status,1664,138564032267,/g3t1_2,,success
Status,1666,138763158614,/g3t1_2,,running
Status,1667,138763993663,/g3t1_2,,success
Status,1668,138770453539,/g4t1,,success
Status,1670,138963656166,/g3t1_2,,running
Status,1671,138963736170,/g3t1_2,,success
Status,1673,139163916236,/g3t1_2,,running
Status,1674,139164381292,/g3t1_2,,success
Status,1676,139363987087,/g3t1_2,,running
Status,1677,139364425411,/g3t1_2,,success
Status,1679,139564300694,/g3t1_2,,running
Status,1680,139564382049,/g3t1_2,,success
Status,1682,139763569793,/g3t1_2,,running
Status,1683,139763603679,/g3t1_2,,success
Status,1684,139770002773,/g4t1,,success
Status,1686,139964502324,/g3t1_2,,running
Status,1687,139964677250,/g3t1_2,,success
Status,1689,140165079514,/g3t1_2,,running
Status,1690,140165159666,/g3t1_2,,success
Status,1692,140364838209,/g3t1_2,,running
Status,1693,140365275407,/g3t1_2,,success
Status,1695,140564958936,/g3t1_2,,running
Status,1696,140565626402,/g3t1_2,,success
Status,1698,140765453043,/g3t1_2,,running
Status,1699,140766201592,/g3t1_2,,success
Status,1700,140770832757,/g4t1,,success
Status,1702,140964691880,/g3t1_2,,running
Status,1703,140964720532,/g3t1_2,,success
Status,1705,141165358194,/g3t1_2,,running
Status,1706,141165867624,/g3t1_2,,success
Status,1708,141366271331,/g3t1_2,,running
Status,1709,141366462245,/g3t1_2,,success
Status,1711,141565853731,/g3t1_2,,running
Status,1712,141566356147,/g3t1_2,,success
Status,1714,141766173899,/g3t1_2,,running
Status,1715,141766565452,/g3t1_2,,success
Status,1716,141770940497,/g4t1,,success
Status,1718,141966599304,/g3t1_2,,running
Status,1719,141966680612,/g3t1_2,,success
Status,1721,142166443638,/g3t1_2,,running
Status,1722,142166836476,/g3t1_2,,success
Status,1724,142366733110,/g3t1_2,,running
Status,1725,142367442503,/g3t1_2,,success
Status,1727,142566993835,/g3t1_2,,running
Status,1728,142567534157,/g3t1_2,,success
Status,1730,142767024773,/g3t1_2,,running
Status,1731,142767424730,/g3t1_2,,success
Status,1732,142771245468,/g4t1,,success
Status,1734,142967375224,/g3t1_2,,running
Status,1735,142967616351,/g3t1_2,,success
Status,1737,143167473766,/g3t1_2,,running
Status,1738,143167953257,/g3t1_2,,success
Status,1740,143367765822,/g3t1_2,,running
Status,1741,143368778721,/g3t1_2,,success
Status,1743,143567978185,/g3t1_2,,running
Status,1744,143568685488,/g3t1_2,,success
Status,1746,143768449393,/g3t1_2,,running
Status,1747,143769092978,/g3t1_2,,success
Status,1748,143771256942,/g4t1,,success
Status,1750,143968604410,/g3t1_2,,running
Status,1751,143969022181,/g3t1_2,,success
Status,1753,144168461573,/g3t1_2,,running
Status,1754,144168927119,/g3t1_2,,success
Status,1756,144368961947,/g3t1_2,,running
Status,1757,144369672794,/g3t1_2,,success
Status,1759,144569065310,/g3t1_2,,running
Status,1760,144569858132,/g3t1_2,,success
Status,1762,144769113485,/g3t1_2,,running
Status,1763,144769681148,/g3t1_2,,success
Status,1764,144771227030,/g4t1,,success
Status,1766,144969289219,/g3t1_2,,running
Status,1767,144970054803,/g3t1_2,,success
Status,1769,145169969735,/g3t1_2,,running
Status,1770,145170587627,/g3t1_2,,success
Status,1772,145369677472,/g3t1_2,,running
Status,1773,145370363970,/g3t1_2,,success
Status,1775,145570082893,/g3t1_2,,running
Status,1776,145570670998,/g3t1_2,,success
Status,1778,145770283174,/g3t1_2,,running
Status,1779,145770753044,/g3t1_2,,success
Status,1780,145771586078,/g4t1,,success
Status,1782,145970266617,/g3t1_2,,running
Status,1783,145970723543,/g3t1_2,,success
Status,1785,146170772805,/g3t1_2,,running
Status,1786,146171182663,/g3t1_2,,success
Status,1788,146371064913,/g3t1_2,,running
Status,1789,146371523099,/g3t1_2,,success
Status,1791,146571740109,/g3t1_2,,running
Status,1792,146571989689,/g3t1_2,,success
Status,1794,146771388107,/g3t1_2,,running
Status,1795,146771709900,/g3t1_2,,success
Status,1796,146771854881,/g4t1,,success
Status,1798,146971653911,/g3t1_2,,running
Status,1799,146972238759,/g3t1_2,,success
Status,1801,147171883355,/g3t1_2,,running
Status,1802,147172315957,/g3t1_2,,success
Status,1804,147372380835,/g3t1_2,,running
Status,1805,147372463175,/g3t1_2,,success
Status,1807,147572554787,/g3t1_2,,running
Status,1808,147573465024,/g3t1_2,,success
Status,1810,147772259124,/g4t1,,success
Status,1811,147772331278,/g3t1_2,,running
Status,1812,147773066678,/g3t1_2,,success
Status,1814,147972774430,/g3t1_2,,running
Status,1815,147973170781,/g3t1_2,,success
Status,1817,148173183808,/g3t1_2,,running
Status,1818,148173786562,/g3t1_2,,success
Status,1820,148373529564,/g3t1_2,,running
Status,1821,148374150194,/g3t1_2,,success
Status,1823,148573645677,/g3t1_2,,running
Status,1824,148574145907,/g3t1_2,,success
Status,1826,148772507843,/g4t1,,success
Status,1827,148773373009,/g3t1_2,,running
Status,1828,148774075937,/g3t1_2,,success
Status,1830,148973527295,/g3t1_2,,running
Status,1831,148974235440,/g3t1_2,,success
Status,1833,149173944718,/g3t1_2,,running
Status,1834,149174895721,/g3t1_2,,success
Status,1836,149373714092,/g3t1_2,,running
Status,1837,149374478841,/g3t1_2,,success
Status,1839,149574305561,/g3t1_2,,running
Status,1840,149574706046,/g3t1_2,,success
Status,1842,149772467926,/g4t1,,success
Status,1843,149774046766,/g3t1_2,,running
Status,1844,149774482424,/g3t1_2,,success
Status,1846,149974594589,/g3t1_2,,running
Status,1847,149975433946,/g3t1_2,,success
Status,1849,150174584528,/g3t1_2,,running
Status,1850,150175420134,/g3t1_2,,success
Status,1852,150374991776,/g3t1_2,,running
Status,1853,150375667578,/g3t1_2,,success
Status,1855,150575452411,/g3t1_2,,running
Status,1856,150575765650,/g3t1_2,,success
Status,1858,150772924103,/g4t1,,success
Status,1859,150774846635,/g3t1_2,,running
Status,1860,150775328008,/g3t1_2,,success
Status,1862,150976008236,/g3t1_2,,running
Status,1863,150976104610,/g3t1_2,,success
Status,1865,151176188331,/g3t1_2,,running
Status,1866,151176271865,/g3t1_2,,success
Status,1868,151376067775,/g3t1_2,,running
Status,1869,151376905205,/g3t1_2,,success
Status,1871,151576260744,/g3t1_2,,running
Status,1872,151576701248,/g3t1_2,,success
Status,1874,151773470739,/g4t1,,success
Status,1875,151776111037,/g3t1_2,,running
Status,1876,151776755289,/g3t1_2,,success
Status,1878,151975582054,/g3t1_2,,running
Status,1879,151976040271,/g3t1_2,,success
Status,1881,152176824888,/g3t1_2,,running
Status,1882,152177678899,/g3t1_2,,success
Status,1884,152377310334,/g3t1_2,,running
Status,1885,152378108154,/g3t1_2,,success
Status,1887,152577192142,/g3t1_2,,running
Status,1888,152577669369,/g3t1_2,,success
Status,1890,152773634913,/g4t1,,success
Status,1891,152777115375,/g3t1_2,,running
Status,1892,152777791586,/g3t1_2,,success
Status,1894,152977480152,/g3t1_2,,running
Status,1895,152978173474,/g3t1_2,,success
Status,1897,153177783809,/g3t1_2,,running
Status,1898,153178423642,/g3t1_2,,success
Status,1900,153378277309,/g3t1_2,,running
Status,1901,153378786003,/g3t1_2,,success
Status,1903,153578415485,/g3t1_2,,running
Status,1904,153579089128,/g3t1_2,,success
Status,1906,153773243158,/g4t1,,success
Status,1907,153778438055,/g3t1_2,,running
Status,1908,153778662178,/g3t1_2,,success
Status,1910,153978365060,/g3t1_2,,running
Status,1911,153979059574,/g3t1_2,,success
Status,1913,154178734821,/g3t1_2,,running
Status,1914,154179397621,/g3t1_2,,success
Status,1916,154378621912,/g3t1_2,,running
Status,1917,154379504356,/g3t1_2,,success
Status,1919,154579693019,/g3t1_2,,running
Status,1920,154580327443,/g3t1_2,,success
Status,1922,154773912479,/g4t1,,success
Status,1923,154779447184,/g3t1_2,,running
Status,1924,154780024430,/g3t1_2,,success
Status,1926,154979864594,/g3t1_2,,running
Status,1927,154980696081,/g3t1_2,,success
Status,1929,155179894935,/g3t1_2,,running
Status,1930,155180409058,/g3t1_2,,success
Status,1932,155380435270,/g3t1_2,,running
Status,1933,155381049394,/g3t1_2,,success
Status,1935,155580503756,/g3t1_2,,running
Status,1936,155581149418,/g3t1_2,,success
Status,1938,155773784501,/g4t1,,success
Status,1939,155780745604,/g3t1_2,,running
Status,1940,155781152626,/g3t1_2,,success
Status,1942,155980954040,/g3t1_2,,running
Status,1943,155981482824,/g3t1_2,,success
Status,1945,156181077177,/g3t1_2,,running
Status,1946,156181618525,/g3t1_2,,success
Status,1948,156381413341,/g3t1_2,,running
Status,1949,156382449868,/g3t1_2,,success
Status,1951,156581537530,/g3t1_2,,running
Status,1952,156582032196,/g3t1_2,,success
Status,1954,156773658537,/g4t1,,success
Status,1955,156781300065,/g3t1_2,,running
Status,1956,156781661755,/g3t1_2,,success
Status,1958,156981782924,/g3t1_2,,running
Status,1959,156982914903,/g3t1_2,,success
Status,1961,157182025029,/g3t1_2,,running
Status,1962,157182258196,/g3t1_2,,success
Status,1964,157382356699,/g3t1_2,,running
Status,1965,157382849425,/g3t1_2,,success
Status,1967,157582176726,/g3t1_2,,running
Status,1968,157583050299,/g3t1_2,,success
Status,1970,157774064303,/g4t1,,success
Status,1971,157782832813,/g3t1_2,,running
Status,1972,157782911615,/g3t1_2,,success
Status,1974,157982817420,/g3t1_2,,running
Status,1975,157983224035,/g3t1_2,,success
Status,1977,158183248770,/g3t1_2,,running
Status,1978,158183975915,/g3t1_2,,success
Status,1980,158383335290,/g3t1_2,,running
Status,1981,158383703943,/g3t1_2,,success
Status,1983,158583563090,/g3t1_2,,running
Status,1984,158583761383,/g3t1_2,,success
Status,1986,158774024257,/g4t1,,success
Status,1987,158784320434,/g3t1_2,,running
Status,1988,158784400984,/g3t1_2,,success
Status,1990,158984607505,/g3t1_2,,running
Status,1991,158984747378,/g3t1_2,,success
Status,1993,159184536403,/g3t1_2,,running
Status,1994,159184924415,/g3t1_2,,success
Status,1996,159384601056,/g3t1_2,,running
Status,1997,159385479298,/g3t1_2,,success
Status,1999,159585112527,/g3t1_2,,running
