
Status,2,20498688969,/g4t1,,init
Status,4,25810056986,/g3t1_1,,init
Status,5,25816539266,/g3t1_1,,init
Status,6,25816560867,/g3t1_1,,running
Status,7,25818551049,/g3t1_1,,success
Status,9,26014178352,/g3t1_2,,init
Status,10,26020190152,/g3t1_2,,init
Status,11,26020212220,/g3t1_2,,running
Status,12,26021385767,/g3t1_2,,success
Status,13,26116537216,/g3t1_3,,init
Status,15,26121167787,/g3t1_3,,init
Status,16,26121181054,/g3t1_3,,running
Status,17,26122172614,/g3t1_3,,success
Status,18,26216804880,/g3t1_4,,init
Status,20,26220245130,/g3t1_2,,running
Status,21,26220481934,/g3t1_2,,success
Status,22,26221961696,/g3t1_4,,init
Status,23,26221974222,/g3t1_4,,running
Status,24,26223689824,/g3t1_4,,success
Status,25,26420951683,/g3t1_2,,running
Status,26,26421422626,/g3t1_2,,success
Status,27,26507534872,/g4t1,,success
Status,28,26620962444,/g3t1_2,,running
Status,29,26621043140,/g3t1_2,,success
Status,30,26821353389,/g3t1_2,,running
Status,31,26821682416,/g3t1_2,,success
Status,32,27020983838,/g3t1_2,,running
Status,33,27021081519,/g3t1_2,,success
Status,34,27221753739,/g3t1_2,,running
Status,35,27222612478,/g3t1_2,,success
Status,36,27222805888,/g3t1_4,,running
Status,37,27230485968,/g3t1_4,,success
Status,38,27421863541,/g3t1_2,,running
Status,39,27422155485,/g3t1_2,,success
Status,40,27508051928,/g4t1,,success
Status,41,27621423720,/g3t1_2,,running
Status,42,27621651612,/g3t1_2,,success
Status,43,27821777229,/g3t1_2,,running
Status,44,27822155244,/g3t1_2,,success
Status,45,28021721302,/g3t1_2,,running
Status,46,28021752430,/g3t1_2,,success
Status,47,28221920188,/g3t1_2,,running
Status,48,28222060163,/g3t1_2,,success
Status,49,28222479924,/g3t1_4,,running
Status,50,28226956299,/g3t1_4,,success
Status,51,28422369173,/g3t1_2,,running
Status,52,28422823766,/g3t1_2,,success
Status,53,28507493365,/g4t1,,success
Status,54,28622530332,/g3t1_2,,running
Status,55,28622945512,/g3t1_2,,success
Status,56,28822871380,/g3t1_2,,running
Status,57,28822923323,/g3t1_2,,success
Status,58,29022962167,/g3t1_2,,running
Status,59,29023389059,/g3t1_2,,success
Status,60,29222909589,/g3t1_2,,running
Status,61,29223001139,/g3t1_4,,running
Status,62,29224054935,/g3t1_2,,success
Status,63,29231504011,/g3t1_4,,success
Status,64,29422958643,/g3t1_2,,running
Status,65,29423014287,/g3t1_2,,success
Status,66,29507616575,/g4t1,,success
Status,67,29622673384,/g3t1_2,,running
Status,68,29622984135,/g3t1_2,,success
Status,69,29823246523,/g3t1_2,,running
Status,70,29823653282,/g3t1_2,,success
Status,71,30023192018,/g3t1_2,,running
Status,72,30023300720,/g3t1_2,,success
Status,73,30223314124,/g3t1_4,,running
Status,74,30223427813,/g3t1_2,,running
Status,75,30223750615,/g3t1_2,,success
Status,76,30236989418,/g3t1_4,,success
Status,77,30423545084,/g3t1_2,,running
Status,78,30423878259,/g3t1_2,,success
Status,79,30508190540,/g4t1,,success
Status,80,30623439650,/g3t1_2,,running
Status,81,30623481478,/g3t1_2,,success
Status,82,30816714856,/g3t1_1,,running
Status,83,30817276591,/g3t1_1,,success
Status,84,30822943137,/g3t1_2,,running
Status,85,30823054394,/g3t1_2,,success
Status,86,31023229301,/g3t1_2,,running
Status,87,31023250099,/g3t1_2,,success
Status,88,31222662452,/g3t1_4,,running
Status,89,31223124838,/g3t1_2,,running
Status,90,31223517205,/g3t1_2,,success
Status,91,31225220264,/g3t1_4,,success
Status,92,31423622079,/g3t1_2,,running
Status,93,31423814362,/g3t1_2,,success
Status,94,31507870510,/g4t1,,success
Status,95,31623421130,/g3t1_2,,running
Status,96,31623657978,/g3t1_2,,success
Status,97,31824167857,/g3t1_2,,running
Status,98,31824238155,/g3t1_2,,success
Status,99,32024318456,/g3t1_2,,running
Status,100,32024742793,/g3t1_2,,success
Status,101,32222903134,/g3t1_4,,running
Status,102,32223743562,/g3t1_2,,running
Status,103,32224061186,/g3t1_2,,success
Status,104,32226616921,/g3t1_4,,success
Status,105,32425197925,/g3t1_2,,running
Status,106,32425266564,/g3t1_2,,success
Status,107,32508594447,/g4t1,,success
Status,108,32624063907,/g3t1_2,,running
Status,109,32624389693,/g3t1_2,,success
Status,110,32824763730,/g3t1_2,,running
Status,111,32825158709,/g3t1_2,,success
Status,112,33024310956,/g3t1_2,,running
Status,113,33024737979,/g3t1_2,,success
Status,114,33223583715,/g3t1_4,,running
Status,115,33224953006,/g3t1_2,,running
Status,116,33225406185,/g3t1_2,,success
Status,117,33231297104,/g3t1_4,,success
Status,118,33425377176,/g3t1_2,,running
Status,119,33425829117,/g3t1_2,,success
Status,120,33507993445,/g4t1,,success
Status,121,33624692172,/g3t1_2,,running
Status,122,33624713442,/g3t1_2,,success
Status,123,33824665236,/g3t1_2,,running
Status,124,33824788481,/g3t1_2,,success
Status,126,33888868938,/g3t1_4,,status
Status,127,34025622444,/g3t1_2,,running
Status,128,34026066682,/g3t1_2,,success
Status,129,34225157074,/g3t1_2,,running
Status,130,34225234434,/g3t1_2,,success
Status,131,34425095055,/g3t1_2,,running
Status,132,34425125928,/g3t1_2,,success
Status,133,34508001305,/g4t1,,success
Status,134,34625265419,/g3t1_2,,running
Status,135,34625541701,/g3t1_2,,success
Status,136,34825313523,/g3t1_2,,running
Status,137,34825538179,/g3t1_2,,success
Status,138,35026280950,/g3t1_2,,running
Status,139,35026766674,/g3t1_2,,success
Status,140,35226580341,/g3t1_2,,running
Status,141,35226966752,/g3t1_2,,success
Status,142,35425981380,/g3t1_2,,running
Status,143,35426099978,/g3t1_2,,success
Status,144,35508243769,/g4t1,,success
Status,145,35626691779,/g3t1_2,,running
Status,146,35627132736,/g3t1_2,,success
Status,147,35818067273,/g3t1_1,,running
Status,148,35818908317,/g3t1_1,,success
Status,149,35826765360,/g3t1_2,,running
Status,150,35827527401,/g3t1_2,,success
Status,151,36026355171,/g3t1_2,,running
Status,152,36026379821,/g3t1_2,,success
Status,153,36122412243,/g3t1_3,,running
Status,154,36122947713,/g3t1_3,,success
Status,155,36227078512,/g3t1_2,,running
Status,156,36227590433,/g3t1_2,,success
Status,157,36427019116,/g3t1_2,,running
Status,158,36427240315,/g3t1_2,,success
Status,159,36508355678,/g4t1,,success
Status,160,36626824309,/g3t1_2,,running
Status,161,36627037829,/g3t1_2,,success
Status,162,36826699180,/g3t1_2,,running
Status,163,36826976570,/g3t1_2,,success
Status,164,37027348538,/g3t1_2,,running
Status,165,37028108093,/g3t1_2,,success
Status,166,37227146034,/g3t1_2,,running
Status,167,37227839555,/g3t1_2,,success
Status,168,37427712848,/g3t1_2,,running
Status,169,37428011610,/g3t1_2,,success
Status,170,37509261060,/g4t1,,success
Status,171,37627875049,/g3t1_2,,running
Status,172,37628266922,/g3t1_2,,success
Status,173,37828398608,/g3t1_2,,running
Status,174,37829019105,/g3t1_2,,success
Status,175,38028798688,/g3t1_2,,running
Status,176,38029187645,/g3t1_2,,success
Status,177,38228395517,/g3t1_2,,running
Status,178,38228858382,/g3t1_2,,success
Status,179,38428588179,/g3t1_2,,running
Status,180,38429145712,/g3t1_2,,success
Status,181,38508617461,/g4t1,,success
Status,182,38628212617,/g3t1_2,,running
Status,183,38628511516,/g3t1_2,,success
Status,184,38829410996,/g3t1_2,,running
Status,185,38830232815,/g3t1_2,,success
Status,186,39029018635,/g3t1_2,,running
Status,187,39029882890,/g3t1_2,,success
Status,188,39229159121,/g3t1_2,,running
Status,189,39229567828,/g3t1_2,,success
Status,190,39429331930,/g3t1_2,,running
Status,191,39430072880,/g3t1_2,,success
Status,192,39508650440,/g4t1,,success
Status,193,39629138563,/g3t1_2,,running
Status,194,39629393369,/g3t1_2,,success
Status,195,39829243228,/g3t1_2,,running
Status,196,39829307678,/g3t1_2,,success
Status,197,40030298493,/g3t1_2,,running
Status,198,40030795078,/g3t1_2,,success
Status,199,40230296185,/g3t1_2,,running
Status,200,40230975817,/g3t1_2,,success
Status,201,40430465348,/g3t1_2,,running
Status,202,40430821686,/g3t1_2,,success
Status,203,40509569042,/g4t1,,success
Status,204,40630534418,/g3t1_2,,running
Status,205,40630900336,/g3t1_2,,success
Status,206,40818359247,/g3t1_1,,running
Status,207,40819239960,/g3t1_1,,success
Status,208,40830598687,/g3t1_2,,running
Status,209,40830893568,/g3t1_2,,success
Status,210,41030763368,/g3t1_2,,running
Status,211,41031181508,/g3t1_2,,success
Status,212,41231151098,/g3t1_2,,running
Status,213,41231863943,/g3t1_2,,success
Status,214,41431371834,/g3t1_2,,running
Status,215,41431742247,/g3t1_2,,success
Status,216,41509930698,/g4t1,,success
Status,217,41631248572,/g3t1_2,,running
Status,218,41632133057,/g3t1_2,,success
Status,219,41831302118,/g3t1_2,,running
Status,220,41831560812,/g3t1_2,,success
Status,221,42031547562,/g3t1_2,,running
Status,222,42031976358,/g3t1_2,,success
Status,223,42231869999,/g3t1_2,,running
Status,224,42232594936,/g3t1_2,,success
Status,225,42432037112,/g3t1_2,,running
Status,226,42432474413,/g3t1_2,,success
Status,227,42510065497,/g4t1,,success
Status,228,42632302252,/g3t1_2,,running
Status,229,42632719253,/g3t1_2,,success
Status,230,42832720624,/g3t1_2,,running
Status,231,42833075369,/g3t1_2,,success
Status,232,43033177324,/g3t1_2,,running
Status,233,43033529713,/g3t1_2,,success
Status,234,43233064892,/g3t1_2,,running
Status,235,43233754891,/g3t1_2,,success
Status,236,43433298281,/g3t1_2,,running
Status,237,43434300709,/g3t1_2,,success
Status,238,43510342003,/g4t1,,success
Status,239,43633328985,/g3t1_2,,running
Status,240,43634239940,/g3t1_2,,success
Status,241,43833533531,/g3t1_2,,running
Status,242,43833791697,/g3t1_2,,success
Status,243,44033981345,/g3t1_2,,running
Status,244,44034964795,/g3t1_2,,success
Status,245,44233842650,/g3t1_2,,running
Status,246,44234411211,/g3t1_2,,success
Status,247,44433975121,/g3t1_2,,running
Status,248,44434818768,/g3t1_2,,success
Status,249,44510613191,/g4t1,,success
Status,250,44634232492,/g3t1_2,,running
Status,251,44635024481,/g3t1_2,,success
Status,252,44833898292,/g3t1_2,,running
Status,253,44834172888,/g3t1_2,,success
Status,254,45033841456,/g3t1_2,,running
Status,255,45033987505,/g3t1_2,,success
Status,256,45234728761,/g3t1_2,,running
Status,257,45235104180,/g3t1_2,,success
Status,258,45434672068,/g3t1_2,,running
Status,259,45435264827,/g3t1_2,,success
Status,260,45510792492,/g4t1,,success
Status,261,45634850020,/g3t1_2,,running
Status,262,45635148361,/g3t1_2,,success
Status,263,45817300614,/g3t1_1,,running
Status,264,45817395053,/g3t1_1,,success
Status,265,45834100665,/g3t1_2,,running
Status,266,45834169983,/g3t1_2,,success
Status,267,46034264447,/g3t1_2,,running
Status,268,46034653210,/g3t1_2,,success
Status,269,46122579477,/g3t1_3,,running
Status,270,46123202005,/g3t1_3,,success
Status,271,46234501421,/g3t1_2,,running
Status,272,46234772775,/g3t1_2,,success
Status,273,46435373134,/g3t1_2,,running
Status,274,46435697729,/g3t1_2,,success
Status,275,46510396415,/g4t1,,success
Status,276,46635625641,/g3t1_2,,running
Status,277,46635958793,/g3t1_2,,success
Status,278,46834922510,/g3t1_2,,running
Status,279,46835016897,/g3t1_2,,success
Status,280,47035021191,/g3t1_2,,running
Status,281,47035162798,/g3t1_2,,success
Status,282,47235506461,/g3t1_2,,running
Status,283,47235630721,/g3t1_2,,success
Status,284,47435895808,/g3t1_2,,running
Status,285,47436707034,/g3t1_2,,success
Status,286,47510222119,/g4t1,,success
Status,287,47636348748,/g3t1_2,,running
Status,288,47636941807,/g3t1_2,,success
Status,289,47836501890,/g3t1_2,,running
Status,290,47837164206,/g3t1_2,,success
Status,291,48036765890,/g3t1_2,,running
Status,292,48037401350,/g3t1_2,,success
Status,293,48237223321,/g3t1_2,,running
Status,294,48237288662,/g3t1_2,,success
Status,295,48436217395,/g3t1_2,,running
Status,296,48436350176,/g3t1_2,,success
Status,297,48510863702,/g4t1,,success
Status,298,48637155627,/g3t1_2,,running
Status,299,48637548409,/g3t1_2,,success
Status,300,48837436519,/g3t1_2,,running
Status,301,48838079337,/g3t1_2,,success
Status,302,49036830493,/g3t1_2,,running
Status,303,49036853813,/g3t1_2,,success
Status,304,49237846552,/g3t1_2,,running
Status,305,49238800611,/g3t1_2,,success
Status,306,49437705972,/g3t1_2,,running
Status,307,49438449544,/g3t1_2,,success
Status,308,49510538237,/g4t1,,success
Status,309,49637523765,/g3t1_2,,running
Status,310,49637776058,/g3t1_2,,success
Status,311,49837682367,/g3t1_2,,running
Status,312,49837883083,/g3t1_2,,success
Status,313,50037524731,/g3t1_2,,running
Status,314,50037824953,/g3t1_2,,success
Status,315,50237899371,/g3t1_2,,running
Status,316,50238109573,/g3t1_2,,success
Status,317,50438550948,/g3t1_2,,running
Status,318,50439102746,/g3t1_2,,success
Status,319,50511114165,/g4t1,,success
Status,320,50639192232,/g3t1_2,,running
Status,321,50639264017,/g3t1_2,,success
Status,322,50818139093,/g3t1_1,,running
Status,323,50818780233,/g3t1_1,,success
Status,324,50838738145,/g3t1_2,,running
Status,325,50839502805,/g3t1_2,,success
Status,326,51038877503,/g3t1_2,,running
Status,327,51039276154,/g3t1_2,,success
Status,328,51239254417,/g3t1_2,,running
Status,329,51240204981,/g3t1_2,,success
Status,330,51439209070,/g3t1_2,,running
Status,331,51439491669,/g3t1_2,,success
Status,332,51510649775,/g4t1,,success
Status,333,51639352717,/g3t1_2,,running
Status,334,51639753142,/g3t1_2,,success
Status,335,51839855491,/g3t1_2,,running
Status,336,51840157811,/g3t1_2,,success
Status,337,52039679578,/g3t1_2,,running
Status,338,52040500298,/g3t1_2,,success
Status,339,52239847618,/g3t1_2,,running
Status,340,52240774922,/g3t1_2,,success
Status,341,52439562218,/g3t1_2,,running
Status,342,52439714759,/g3t1_2,,success
Status,343,52510983610,/g4t1,,success
Status,344,52639938787,/g3t1_2,,running
Status,345,52640279370,/g3t1_2,,success
Status,346,52839891951,/g3t1_2,,running
Status,347,52839923271,/g3t1_2,,success
Status,348,53040671828,/g3t1_2,,running
Status,349,53041381782,/g3t1_2,,success
Status,350,53240879735,/g3t1_2,,running
Status,351,53241342410,/g3t1_2,,success
Status,352,53440788430,/g3t1_2,,running
Status,353,53440850463,/g3t1_2,,success
Status,354,53511057383,/g4t1,,success
Status,355,53641080861,/g3t1_2,,running
Status,356,53641841277,/g3t1_2,,success
Status,357,53841014869,/g3t1_2,,running
Status,358,53841431579,/g3t1_2,,success
Status,359,54041727934,/g3t1_2,,running
Status,360,54042227475,/g3t1_2,,success
Status,361,54240806205,/g3t1_2,,running
Status,362,54240921391,/g3t1_2,,success
Status,363,54441597513,/g3t1_2,,running
Status,364,54441943741,/g3t1_2,,success
Status,365,54511851158,/g4t1,,success
Status,366,54641806737,/g3t1_2,,running
Status,367,54642189305,/g3t1_2,,success
Status,368,54841578252,/g3t1_2,,running
Status,369,54841722054,/g3t1_2,,success
Status,370,55041914972,/g3t1_2,,running
Status,371,55042399298,/g3t1_2,,success
Status,372,55241345619,/g3t1_2,,running
Status,373,55241400763,/g3t1_2,,success
Status,374,55442155660,/g3t1_2,,running
Status,375,55442767522,/g3t1_2,,success
Status,376,55511082723,/g4t1,,success
Status,377,55642736398,/g3t1_2,,running
Status,378,55643084068,/g3t1_2,,success
Status,379,55818733311,/g3t1_1,,running
Status,380,55819475700,/g3t1_1,,success
Status,381,55842450175,/g3t1_2,,running
Status,382,55843254545,/g3t1_2,,success
Status,383,56042979436,/g3t1_2,,running
Status,384,56043913842,/g3t1_2,,success
Status,385,56122878775,/g3t1_3,,running
Status,386,56123392057,/g3t1_3,,success
Status,387,56242973032,/g3t1_2,,running
Status,388,56243371065,/g3t1_2,,success
Status,389,56443028358,/g3t1_2,,running
Status,390,56443581316,/g3t1_2,,success
Status,391,56512394912,/g4t1,,success
Status,392,56643051102,/g3t1_2,,running
Status,393,56643380828,/g3t1_2,,success
Status,394,56843791638,/g3t1_2,,running
Status,395,56844258075,/g3t1_2,,success
Status,396,57043562007,/g3t1_2,,running
Status,397,57043905777,/g3t1_2,,success
Status,398,57243593417,/g3t1_2,,running
Status,399,57244228178,/g3t1_2,,success
Status,400,57443318164,/g3t1_2,,running
Status,401,57444096367,/g3t1_2,,success
Status,402,57512003758,/g4t1,,success
Status,403,57643918572,/g3t1_2,,running
Status,404,57644507512,/g3t1_2,,success
Status,405,57843880831,/g3t1_2,,running
Status,406,57844327897,/g3t1_2,,success
Status,407,58044438431,/g3t1_2,,running
Status,408,58044944224,/g3t1_2,,success
Status,409,58244578509,/g3t1_2,,running
Status,410,58244986833,/g3t1_2,,success
Status,411,58444580861,/g3t1_2,,running
Status,412,58444856134,/g3t1_2,,success
Status,413,58512085371,/g4t1,,success
Status,414,58644203697,/g3t1_2,,running
Status,415,58644268576,/g3t1_2,,success
Status,416,58845359344,/g3t1_2,,running
Status,417,58846092036,/g3t1_2,,success
Status,418,59045395178,/g3t1_2,,running
Status,419,59045856555,/g3t1_2,,success
Status,420,59245261300,/g3t1_2,,running
Status,421,59245673711,/g3t1_2,,success
Status,422,59444767894,/g3t1_2,,running
Status,423,59444884115,/g3t1_2,,success
Status,424,59511747102,/g4t1,,success
Status,425,59645604011,/g3t1_2,,running
Status,426,59646021266,/g3t1_2,,success
Status,427,59845862099,/g3t1_2,,running
Status,428,59846420668,/g3t1_2,,success
Status,429,60045183640,/g3t1_2,,running
Status,430,60045211278,/g3t1_2,,success
Status,431,60245338938,/g3t1_2,,running
Status,432,60245509062,/g3t1_2,,success
Status,433,60446014523,/g3t1_2,,running
Status,434,60446516797,/g3t1_2,,success
Status,435,60512333647,/g4t1,,success
Status,436,60645862442,/g3t1_2,,running
Status,437,60645901534,/g3t1_2,,success
Status,438,60818891346,/g3t1_1,,running
Status,439,60819725301,/g3t1_1,,success
Status,440,60845489472,/g3t1_2,,running
Status,441,60845650026,/g3t1_2,,success
Status,442,61046723252,/g3t1_2,,running
Status,443,61047101853,/g3t1_2,,success
Status,444,61246437798,/g3t1_2,,running
Status,445,61246780890,/g3t1_2,,success
Status,446,61446466619,/g3t1_2,,running
Status,447,61447210879,/g3t1_2,,success
Status,448,61512444311,/g4t1,,success
Status,449,61647087075,/g3t1_2,,running
Status,450,61647291312,/g3t1_2,,success
Status,451,61846277364,/g3t1_2,,running
Status,452,61846455636,/g3t1_2,,success
Status,453,62046695981,/g3t1_2,,running
Status,454,62047023267,/g3t1_2,,success
Status,455,62247417394,/g3t1_2,,running
Status,456,62247505080,/g3t1_2,,success
Status,457,62447044005,/g3t1_2,,running
Status,458,62447734917,/g3t1_2,,success
Status,459,62511733374,/g4t1,,success
Status,460,62646807632,/g3t1_2,,running
Status,461,62647073281,/g3t1_2,,success
Status,462,62847455229,/g3t1_2,,running
Status,463,62847753556,/g3t1_2,,success
Status,464,63046993255,/g3t1_2,,running
Status,465,63047162604,/g3t1_2,,success
Status,466,63247550842,/g3t1_2,,running
Status,467,63247968108,/g3t1_2,,success
Status,468,63447787463,/g3t1_2,,running
Status,469,63448121361,/g3t1_2,,success
Status,470,63512316927,/g4t1,,success
Status,471,63647920743,/g3t1_2,,running
Status,472,63648225559,/g3t1_2,,success
Status,473,63848168402,/g3t1_2,,running
Status,474,63848867810,/g3t1_2,,success
Status,475,64048346752,/g3t1_2,,running
Status,476,64048795845,/g3t1_2,,success
Status,477,64248602553,/g3t1_2,,running
Status,478,64249188480,/g3t1_2,,success
Status,479,64448688861,/g3t1_2,,running
Status,480,64449304841,/g3t1_2,,success
Status,481,64512747683,/g4t1,,success
Status,482,64648233354,/g3t1_2,,running
Status,483,64648368866,/g3t1_2,,success
Status,484,64849099714,/g3t1_2,,running
Status,485,64850040633,/g3t1_2,,success
Status,486,65049392259,/g3t1_2,,running
Status,487,65049529242,/g3t1_2,,success
Status,488,65248790056,/g3t1_2,,running
Status,489,65248941025,/g3t1_2,,success
Status,490,65449109204,/g3t1_2,,running
Status,491,65449149495,/g3t1_2,,success
Status,492,65512543042,/g4t1,,success
Status,493,65648953849,/g3t1_2,,running
Status,494,65648981460,/g3t1_2,,success
Status,495,65818263038,/g3t1_1,,running
Status,496,65818510771,/g3t1_1,,success
Status,497,65849173037,/g3t1_2,,running
Status,498,65849555676,/g3t1_2,,success
Status,499,66049713509,/g3t1_2,,running
Status,500,66050660801,/g3t1_2,,success
Status,501,66122996220,/g3t1_3,,running
Status,502,66123547227,/g3t1_3,,success
Status,503,66250302863,/g3t1_2,,running
Status,504,66250787558,/g3t1_2,,success
Status,505,66450123390,/g3t1_2,,running
Status,506,66450574944,/g3t1_2,,success
Status,507,66512901057,/g4t1,,success
Status,508,66650651777,/g3t1_2,,running
Status,509,66651120787,/g3t1_2,,success
Status,510,66850642448,/g3t1_2,,running
Status,511,66851071009,/g3t1_2,,success
Status,512,67050098610,/g3t1_2,,running
Status,513,67050345970,/g3t1_2,,success
Status,514,67251087441,/g3t1_2,,running
Status,515,67252066736,/g3t1_2,,success
Status,516,67450879741,/g3t1_2,,running
Status,517,67451804806,/g3t1_2,,success
Status,518,67513147104,/g4t1,,success
Status,519,67650711811,/g3t1_2,,running
Status,520,67650993020,/g3t1_2,,success
Status,521,67850666947,/g3t1_2,,running
Status,522,67850697372,/g3t1_2,,success
Status,523,68051198942,/g3t1_2,,running
Status,524,68051594109,/g3t1_2,,success
Status,525,68250606044,/g3t1_2,,running
Status,526,68250953959,/g3t1_2,,success
Status,527,68451628211,/g3t1_2,,running
Status,528,68451870149,/g3t1_2,,success
Status,529,68513430170,/g4t1,,success
Status,530,68651549762,/g3t1_2,,running
Status,531,68652452224,/g3t1_2,,success
Status,532,68851571301,/g3t1_2,,running
Status,533,68851841835,/g3t1_2,,success
Status,534,69051622354,/g3t1_2,,running
Status,535,69052261348,/g3t1_2,,success
Status,536,69251851169,/g3t1_2,,running
Status,537,69252878756,/g3t1_2,,success
Status,538,69451946844,/g3t1_2,,running
Status,539,69452842901,/g3t1_2,,success
Status,540,69512823090,/g4t1,,success
Status,541,69651899762,/g3t1_2,,running
Status,542,69652298704,/g3t1_2,,success
Status,543,69852519079,/g3t1_2,,running
Status,544,69852579875,/g3t1_2,,success
Status,545,70052958578,/g3t1_2,,running
Status,546,70053029391,/g3t1_2,,success
Status,547,70252186743,/g3t1_2,,running
Status,548,70252545051,/g3t1_2,,success
Status,549,70452278582,/g3t1_2,,running
Status,550,70452471722,/g3t1_2,,success
Status,551,70513719152,/g4t1,,success
Status,552,70653206602,/g3t1_2,,running
Status,553,70653262670,/g3t1_2,,success
Status,554,70818682144,/g3t1_1,,running
Status,555,70819206460,/g3t1_1,,success
Status,556,70852496114,/g3t1_2,,running
Status,557,70852809046,/g3t1_2,,success
Status,558,71053563929,/g3t1_2,,running
Status,559,71054417892,/g3t1_2,,success
Status,560,71253329863,/g3t1_2,,running
Status,561,71254248492,/g3t1_2,,success
Status,562,71453524049,/g3t1_2,,running
Status,563,71453850474,/g3t1_2,,success
Status,564,71513822048,/g4t1,,success
Status,565,71653962462,/g3t1_2,,running
Status,566,71654618538,/g3t1_2,,success
Status,567,71854193384,/g3t1_2,,running
Status,568,71854627668,/g3t1_2,,success
Status,569,72053912925,/g3t1_2,,running
Status,570,72054535299,/g3t1_2,,success
Status,571,72253989969,/g3t1_2,,running
Status,572,72254584379,/g3t1_2,,success
Status,573,72454302639,/g3t1_2,,running
Status,574,72454685348,/g3t1_2,,success
Status,575,72513923924,/g4t1,,success
Status,576,72654550041,/g3t1_2,,running
Status,577,72655422705,/g3t1_2,,success
Status,578,72854795648,/g3t1_2,,running
Status,579,72854863346,/g3t1_2,,success
Status,580,73054726966,/g3t1_2,,running
Status,581,73054788681,/g3t1_2,,success
Status,582,73254293474,/g3t1_2,,running
Status,583,73254550559,/g3t1_2,,success
Status,584,73454421823,/g3t1_2,,running
Status,585,73454518083,/g3t1_2,,success
Status,586,73514198803,/g4t1,,success
Status,587,73655104344,/g3t1_2,,running
Status,588,73655377502,/g3t1_2,,success
Status,589,73855678661,/g3t1_2,,running
Status,590,73855751455,/g3t1_2,,success
Status,591,74055357545,/g3t1_2,,running
Status,592,74055810180,/g3t1_2,,success
Status,593,74255743223,/g3t1_2,,running
Status,594,74255985616,/g3t1_2,,success
Status,595,74455648677,/g3t1_2,,running
Status,596,74456095786,/g3t1_2,,success
Status,597,74514363871,/g4t1,,success
Status,598,74655809212,/g3t1_2,,running
Status,599,74656229513,/g3t1_2,,success
Status,600,74855975664,/g3t1_2,,running
Status,601,74856425697,/g3t1_2,,success
Status,602,75055537548,/g3t1_2,,running
Status,603,75055564065,/g3t1_2,,success
Status,604,75256186977,/g3t1_2,,running
Status,605,75256693022,/g3t1_2,,success
Status,606,75456300033,/g3t1_2,,running
Status,607,75456733118,/g3t1_2,,success
Status,608,75514505171,/g4t1,,success
Status,609,75656367686,/g3t1_2,,running
Status,610,75656632764,/g3t1_2,,success
Status,611,75818507049,/g3t1_1,,running
Status,612,75818538819,/g3t1_1,,success
Status,613,75856140876,/g3t1_2,,running
Status,614,75856734254,/g3t1_2,,success
Status,615,76056581284,/g3t1_2,,running
Status,616,76057154187,/g3t1_2,,success
Status,617,76122600756,/g3t1_3,,running
Status,618,76122905758,/g3t1_3,,success
Status,619,76256261711,/g3t1_2,,running
Status,620,76256286528,/g3t1_2,,success
Status,621,76456775879,/g3t1_2,,running
Status,622,76457379357,/g3t1_2,,success
Status,623,76514628938,/g4t1,,success
Status,624,76656980851,/g3t1_2,,running
Status,625,76657544534,/g3t1_2,,success
Status,626,76857395300,/g3t1_2,,running
Status,627,76857876653,/g3t1_2,,success
Status,628,77057712501,/g3t1_2,,running
Status,629,77058394680,/g3t1_2,,success
Status,630,77257893346,/g3t1_2,,running
Status,631,77258359524,/g3t1_2,,success
Status,632,77457245635,/g3t1_2,,running
Status,633,77457325058,/g3t1_2,,success
Status,634,77514771400,/g4t1,,success
Status,635,77658191976,/g3t1_2,,running
Status,636,77658525980,/g3t1_2,,success
Status,637,77857766868,/g3t1_2,,running
Status,638,77857990063,/g3t1_2,,success
Status,639,78057615781,/g3t1_2,,running
Status,640,78057637442,/g3t1_2,,success
Status,641,78257823643,/g3t1_2,,running
Status,642,78258005387,/g3t1_2,,success
Status,643,78458533608,/g3t1_2,,running
Status,644,78458998709,/g3t1_2,,success
Status,645,78514282169,/g4t1,,success
Status,646,78658024432,/g3t1_2,,running
Status,647,78658609160,/g3t1_2,,success
Status,648,78858427509,/g3t1_2,,running
Status,649,78859110545,/g3t1_2,,success
Status,650,79058288710,/g3t1_2,,running
Status,651,79058314585,/g3t1_2,,success
Status,652,79258117688,/g3t1_2,,running
Status,653,79258394438,/g3t1_2,,success
Status,654,79458837512,/g3t1_2,,running
Status,655,79459492306,/g3t1_2,,success
Status,656,79514999220,/g4t1,,success
Status,657,79659192584,/g3t1_2,,running
Status,658,79659933151,/g3t1_2,,success
Status,659,79858553014,/g3t1_2,,running
Status,660,79858759899,/g3t1_2,,success
Status,661,80058473776,/g3t1_2,,running
Status,662,80058575300,/g3t1_2,,success
Status,663,80258719284,/g3t1_2,,running
Status,664,80258883453,/g3t1_2,,fail
Status,665,80459341147,/g3t1_2,,running
Status,666,80460050917,/g3t1_2,,success
Status,667,80515192071,/g4t1,,success
Status,668,80659476715,/g3t1_2,,running
Status,669,80659990214,/g3t1_2,,success
Status,670,80818566533,/g3t1_1,,running
Status,671,80818758910,/g3t1_1,,success
Status,672,80859077794,/g3t1_2,,running
Status,673,80859456577,/g3t1_2,,success
Status,674,81059160820,/g3t1_2,,running
Status,675,81059378521,/g3t1_2,,success
Status,676,81259250417,/g3t1_2,,running
Status,677,81259272779,/g3t1_2,,success
Status,678,81460059429,/g3t1_2,,running
Status,679,81460271679,/g3t1_2,,success
Status,680,81514984915,/g4t1,,success
Status,681,81659603477,/g3t1_2,,running
Status,682,81659910176,/g3t1_2,,success
Status,683,81860121047,/g3t1_2,,running
Status,684,81860428284,/g3t1_2,,success
Status,685,82060273381,/g3t1_2,,running
Status,686,82060839268,/g3t1_2,,success
Status,687,82260565255,/g3t1_2,,running
Status,688,82260957118,/g3t1_2,,success
Status,689,82460777021,/g3t1_2,,running
Status,690,82461583067,/g3t1_2,,success
Status,691,82515124009,/g4t1,,success
Status,692,82660300082,/g3t1_2,,running
Status,693,82660340669,/g3t1_2,,success
Status,694,82860076297,/g3t1_2,,running
Status,695,82860571044,/g3t1_2,,success
Status,696,83060149828,/g3t1_2,,running
Status,697,83060276107,/g3t1_2,,success
Status,698,83260518729,/g3t1_2,,running
Status,699,83260947730,/g3t1_2,,success
Status,700,83460386890,/g3t1_2,,running
Status,701,83460479812,/g3t1_2,,success
Status,702,83515075935,/g4t1,,success
Status,703,83661157913,/g3t1_2,,running
Status,704,83661886324,/g3t1_2,,success
Status,705,83860831879,/g3t1_2,,running
Status,706,83861001019,/g3t1_2,,success
Status,707,84061729135,/g3t1_2,,running
Status,708,84062374493,/g3t1_2,,success
Status,709,84261556230,/g3t1_2,,running
Status,710,84262061897,/g3t1_2,,success
Status,711,84461723995,/g3t1_2,,running
Status,712,84462080313,/g3t1_2,,success
Status,713,84515493695,/g4t1,,success
Status,714,84662176588,/g3t1_2,,running
Status,715,84662698747,/g3t1_2,,success
Status,716,84862387537,/g3t1_2,,running
Status,717,84862546439,/g3t1_2,,success
Status,718,85062447178,/g3t1_2,,running
Status,719,85062852846,/g3t1_2,,success
Status,720,85262781000,/g3t1_2,,running
Status,721,85262844216,/g3t1_2,,success
Status,722,85462040034,/g3t1_2,,running
Status,723,85462180559,/g3t1_2,,success
Status,724,85515579238,/g4t1,,success
Status,725,85662761230,/g3t1_2,,running
Status,726,85663044234,/g3t1_2,,success
Status,727,85819281530,/g3t1_1,,running
Status,728,85819882841,/g3t1_1,,success
Status,729,85862740462,/g3t1_2,,running
Status,730,85863139943,/g3t1_2,,success
Status,731,86063024432,/g3t1_2,,running
Status,732,86063524271,/g3t1_2,,success
Status,733,86122878560,/g3t1_3,,running
Status,734,86123518079,/g3t1_3,,success
Status,735,86262453640,/g3t1_2,,running
Status,736,86262656114,/g3t1_2,,success
Status,737,86462459807,/g3t1_2,,running
Status,738,86462663056,/g3t1_2,,success
Status,739,86515002907,/g4t1,,success
Status,740,86662830015,/g3t1_2,,running
Status,741,86663116715,/g3t1_2,,success
Status,742,86863393208,/g3t1_2,,running
Status,743,86863639843,/g3t1_2,,success
Status,744,87063500680,/g3t1_2,,running
Status,745,87064014854,/g3t1_2,,success
Status,746,87263627496,/g3t1_2,,running
Status,747,87264351891,/g3t1_2,,success
Status,748,87463916944,/g3t1_2,,running
Status,749,87464250997,/g3t1_2,,success
Status,750,87515824352,/g4t1,,success
Status,751,87663281624,/g3t1_2,,running
Status,752,87663480431,/g3t1_2,,success
Status,753,87864320543,/g3t1_2,,running
Status,754,87865218031,/g3t1_2,,success
Status,755,88064497464,/g3t1_2,,running
Status,756,88065274820,/g3t1_2,,success
Status,757,88263892445,/g3t1_2,,running
Status,758,88264096265,/g3t1_2,,success
Status,759,88463939316,/g3t1_2,,running
Status,760,88464234469,/g3t1_2,,success
Status,761,88515531588,/g4t1,,success
Status,762,88664812694,/g3t1_2,,running
Status,763,88664901002,/g3t1_2,,success
Status,764,88864309497,/g3t1_2,,running
Status,765,88864541549,/g3t1_2,,success
Status,766,89064688307,/g3t1_2,,running
Status,767,89065338730,/g3t1_2,,success
Status,768,89265389455,/g3t1_2,,running
Status,769,89266542129,/g3t1_2,,success
Status,770,89464996236,/g3t1_2,,running
Status,771,89465622234,/g3t1_2,,success
Status,772,89516035701,/g4t1,,success
Status,773,89665350046,/g3t1_2,,running
Status,774,89665799123,/g3t1_2,,success
Status,775,89865333321,/g3t1_2,,running
Status,776,89866110428,/g3t1_2,,success
Status,777,90065523269,/g3t1_2,,running
Status,778,90065928065,/g3t1_2,,success
Status,779,90265625527,/g3t1_2,,running
Status,780,90266189052,/g3t1_2,,success
Status,781,90465501674,/g3t1_2,,running
Status,782,90465886277,/g3t1_2,,success
Status,783,90516093980,/g4t1,,success
Status,784,90666514782,/g3t1_2,,running
Status,785,90667132100,/g3t1_2,,success
Status,786,90819946727,/g3t1_1,,running
Status,787,90820015556,/g3t1_1,,success
Status,788,90866195344,/g3t1_2,,running
Status,789,90866729821,/g3t1_2,,success
Status,790,91066346133,/g3t1_2,,running
Status,791,91066789102,/g3t1_2,,success
Status,792,91265980383,/g3t1_2,,running
Status,793,91266196100,/g3t1_2,,success
Status,794,91466173441,/g3t1_2,,running
Status,795,91466629371,/g3t1_2,,success
Status,796,91516263097,/g4t1,,success
Status,797,91666183325,/g3t1_2,,running
Status,798,91666617638,/g3t1_2,,success
Status,799,91866753809,/g3t1_2,,running
Status,800,91867155231,/g3t1_2,,success
Status,801,92066885189,/g3t1_2,,running
Status,802,92067203196,/g3t1_2,,success
Status,803,92266911031,/g3t1_2,,running
Status,804,92267330749,/g3t1_2,,success
Status,805,92467169756,/g3t1_2,,running
Status,806,92467756250,/g3t1_2,,success
Status,807,92516468923,/g4t1,,success
Status,808,92667401956,/g3t1_2,,running
Status,809,92667735378,/g3t1_2,,success
Status,810,92867313113,/g3t1_2,,running
Status,811,92867924540,/g3t1_2,,success
Status,812,93066882395,/g3t1_2,,running
Status,813,93066943150,/g3t1_2,,success
Status,814,93267789889,/g3t1_2,,running
Status,815,93268451710,/g3t1_2,,success
Status,816,93467762392,/g3t1_2,,running
Status,817,93468381838,/g3t1_2,,success
Status,818,93516031571,/g4t1,,success
Status,819,93667359391,/g3t1_2,,running
Status,820,93667505304,/g3t1_2,,success
Status,821,93868315112,/g3t1_2,,running
Status,822,93868484495,/g3t1_2,,success
Status,823,94067809124,/g3t1_2,,running
Status,824,94068102765,/g3t1_2,,success
Status,825,94268373270,/g3t1_2,,running
Status,826,94268721387,/g3t1_2,,success
Status,827,94468486238,/g3t1_2,,running
Status,828,94468863020,/g3t1_2,,success
Status,829,94516907869,/g4t1,,success
Status,830,94668714489,/g3t1_2,,running
Status,831,94668969113,/g3t1_2,,success
Status,832,94869184985,/g3t1_2,,running
Status,833,94869860727,/g3t1_2,,success
Status,834,95069519416,/g3t1_2,,running
Status,835,95070075006,/g3t1_2,,success
Status,836,95269322751,/g3t1_2,,running
Status,837,95269647083,/g3t1_2,,success
Status,838,95469396928,/g3t1_2,,running
Status,839,95470031189,/g3t1_2,,success
Status,840,95517010619,/g4t1,,success
Status,841,95669087198,/g3t1_2,,running
Status,842,95669328181,/g3t1_2,,success
Status,843,95819503810,/g3t1_1,,running
Status,844,95820134932,/g3t1_1,,success
Status,845,95869878936,/g3t1_2,,running
Status,846,95870716065,/g3t1_2,,success
Status,847,96070447052,/g3t1_2,,running
Status,848,96070526610,/g3t1_2,,success
Status,849,96123340303,/g3t1_3,,running
Status,850,96123736186,/g3t1_3,,success
Status,851,96269862043,/g3t1_2,,running
Status,852,96270115923,/g3t1_2,,success
Status,853,96470193985,/g3t1_2,,running
Status,854,96470505572,/g3t1_2,,success
Status,855,96516063350,/g4t1,,success
Status,856,96670035059,/g3t1_2,,running
Status,857,96670304741,/g3t1_2,,success
Status,858,96869934201,/g3t1_2,,running
Status,859,96870221620,/g3t1_2,,success
Status,860,97070958857,/g3t1_2,,running
Status,861,97071776385,/g3t1_2,,success
Status,862,97270745426,/g3t1_2,,running
Status,863,97271188701,/g3t1_2,,success
Status,864,97470921981,/g3t1_2,,running
Status,865,97471251542,/g3t1_2,,success
Status,866,97516943894,/g4t1,,success
Status,867,97671137295,/g3t1_2,,running
Status,868,97672014328,/g3t1_2,,success
Status,869,97871343601,/g3t1_2,,running
Status,870,97871738381,/g3t1_2,,success
Status,871,98070864189,/g3t1_2,,running
Status,872,98070888630,/g3t1_2,,success
Status,873,98271489245,/g3t1_2,,running
Status,874,98271796702,/g3t1_2,,success
Status,875,98471641136,/g3t1_2,,running
Status,876,98472320707,/g3t1_2,,success
Status,877,98517174364,/g4t1,,success
Status,878,98671740841,/g3t1_2,,running
Status,879,98672026296,/g3t1_2,,success
Status,880,98871490671,/g3t1_2,,fail
Status,881,99071832324,/g3t1_2,,fail
Status,882,99271855906,/g3t1_2,,fail
Status,883,99472261673,/g3t1_2,,fail
Status,884,99517356541,/g4t1,,success
Status,885,99672837655,/g3t1_2,,fail
Status,886,99872766136,/g3t1_2,,fail
Status,887,100073042209,/g3t1_2,,fail
Status,888,100273108050,/g3t1_2,,fail
Status,889,100473253232,/g3t1_2,,fail
Status,890,100517303230,/g4t1,,success
Status,891,100673415734,/g3t1_2,,fail
Status,892,100819923106,/g3t1_1,,running
Status,893,100820629216,/g3t1_1,,success
Status,894,100873655223,/g3t1_2,,fail
Status,895,101073875420,/g3t1_2,,fail
Status,896,101274067382,/g3t1_2,,fail
Status,897,101474077233,/g3t1_2,,fail
Status,898,101517692440,/g4t1,,success
Status,899,101674282667,/g3t1_2,,fail
Status,900,101874765082,/g3t1_2,,fail
Status,901,102074114607,/g3t1_2,,fail
Status,902,102274776292,/g3t1_2,,fail
Status,903,102474852796,/g3t1_2,,fail
Status,904,102517049777,/g4t1,,success
Status,905,102675200440,/g3t1_2,,fail
Status,906,102874862499,/g3t1_2,,fail
Status,907,103074831728,/g3t1_2,,fail
Status,908,103274796339,/g3t1_2,,fail
Status,909,103475387921,/g3t1_2,,fail
Status,910,103517790166,/g4t1,,success
Status,911,103675787346,/g3t1_2,,fail
Status,912,103875737461,/g3t1_2,,fail
Status,913,104076162471,/g3t1_2,,fail
Status,914,104276386958,/g3t1_2,,fail
Status,915,104476335157,/g3t1_2,,fail
Status,916,104518133496,/g4t1,,success
Status,917,104676638391,/g3t1_2,,fail
Status,918,104877010594,/g3t1_2,,fail
Status,919,105077006509,/g3t1_2,,fail
Status,920,105277265548,/g3t1_2,,fail
Status,921,105476884508,/g3t1_2,,fail
Status,922,105518469836,/g4t1,,success
Status,923,105677784090,/g3t1_2,,fail
Status,924,105819845915,/g3t1_1,,running
Status,925,105820103755,/g3t1_1,,success
Status,926,105878046170,/g3t1_2,,fail
Status,927,106077894620,/g3t1_2,,fail
Status,928,106122769624,/g3t1_3,,running
Status,929,106123011832,/g3t1_3,,success
Status,930,106278503676,/g3t1_2,,fail
Status,931,106478446494,/g3t1_2,,fail
Status,932,106518213331,/g4t1,,success
Status,933,106678662000,/g3t1_2,,fail
Status,934,106878702873,/g3t1_2,,fail
Status,935,107078398052,/g3t1_2,,fail
Status,936,107278507951,/g3t1_2,,fail
Status,937,107478507345,/g3t1_2,,fail
Status,938,107518349094,/g4t1,,success
Status,939,107679267833,/g3t1_2,,fail
Status,940,107879167703,/g3t1_2,,fail
Status,941,108079292696,/g3t1_2,,fail
Status,942,108279663768,/g3t1_2,,fail
Status,943,108479462863,/g3t1_2,,fail
Status,944,108518893286,/g4t1,,success
Status,945,108679842013,/g3t1_2,,fail
Status,946,108879866532,/g3t1_2,,fail
Status,947,109080019765,/g3t1_2,,fail
Status,948,109280332993,/g3t1_2,,fail
Status,949,109480334701,/g3t1_2,,fail
Status,950,109519254119,/g4t1,,success
Status,951,109680681863,/g3t1_2,,fail
Status,952,109880941065,/g3t1_2,,fail
Status,953,110080962340,/g3t1_2,,fail
Status,954,110281030817,/g3t1_2,,fail
Status,955,110481519951,/g3t1_2,,fail
Status,956,110519149884,/g4t1,,success
Status,957,110681346339,/g3t1_2,,fail
Status,958,110820010434,/g3t1_1,,running
Status,959,110820389221,/g3t1_1,,success
Status,960,110881587040,/g3t1_2,,fail
Status,961,111081009507,/g3t1_2,,fail
Status,962,111281673211,/g3t1_2,,fail
Status,963,111481786628,/g3t1_2,,fail
Status,964,111518931409,/g4t1,,success
Status,965,111681499315,/g3t1_2,,fail
Status,966,111881778422,/g3t1_2,,fail
Status,967,112081618775,/g3t1_2,,fail
Status,968,112282369218,/g3t1_2,,fail
Status,969,112482521389,/g3t1_2,,fail
Status,970,112519316642,/g4t1,,success
Status,971,112682678248,/g3t1_2,,fail
Status,972,112882967057,/g3t1_2,,fail
Status,973,113082921921,/g3t1_2,,fail
Status,974,113283122072,/g3t1_2,,fail
Status,975,113483297896,/g3t1_2,,fail
Status,976,113519579749,/g4t1,,success
Status,977,113683446282,/g3t1_2,,fail
Status,978,113883585974,/g3t1_2,,fail
Status,979,114083945045,/g3t1_2,,fail
Status,980,114284053600,/g3t1_2,,fail
Status,981,114484002721,/g3t1_2,,fail
Status,982,114519671492,/g4t1,,success
Status,983,114684661959,/g3t1_2,,fail
Status,984,114884685444,/g3t1_2,,fail
Status,985,115084796805,/g3t1_2,,fail
Status,986,115285172411,/g3t1_2,,fail
Status,987,115485133309,/g3t1_2,,fail
Status,988,115519882454,/g4t1,,success
Status,989,115685306367,/g3t1_2,,fail
Status,990,115820383045,/g3t1_1,,running
Status,991,115820786974,/g3t1_1,,success
Status,992,115885513198,/g3t1_2,,fail
Status,993,116085673727,/g3t1_2,,fail
Status,994,116123288589,/g3t1_3,,running
Status,995,116124089758,/g3t1_3,,success
Status,996,116285704718,/g3t1_2,,fail
Status,997,116485122534,/g3t1_2,,fail
Status,998,116519429310,/g4t1,,success
Status,999,116685912266,/g3t1_2,,running
Status,1000,116685974653,/g3t1_2,,success
Status,1001,116885388737,/g3t1_2,,running
Status,1002,116885661217,/g3t1_2,,success
Status,1003,117085977111,/g3t1_2,,running
Status,1004,117086754911,/g3t1_2,,success
Status,1005,117285411822,/g3t1_2,,running
Status,1006,117285526034,/g3t1_2,,success
Status,1007,117486272536,/g3t1_2,,running
Status,1008,117486714494,/g3t1_2,,success
Status,1009,117520238910,/g4t1,,success
Status,1010,117686623713,/g3t1_2,,running
Status,1011,117687118378,/g3t1_2,,success
Status,1012,117886650449,/g3t1_2,,running
Status,1013,117887418514,/g3t1_2,,success
Status,1014,118087104445,/g3t1_2,,running
Status,1015,118087392100,/g3t1_2,,success
Status,1016,118286894783,/g3t1_2,,running
Status,1017,118287256525,/g3t1_2,,success
Status,1018,118486937549,/g3t1_2,,running
Status,1019,118487374407,/g3t1_2,,success
Status,1020,118520311777,/g4t1,,success
Status,1021,118686365624,/g3t1_2,,running
Status,1022,118686513685,/g3t1_2,,success
Status,1023,118887463003,/g3t1_2,,running
Status,1024,118887861720,/g3t1_2,,success
Status,1025,119087534963,/g3t1_2,,running
Status,1026,119088214556,/g3t1_2,,success
Status,1027,119287433300,/g3t1_2,,running
Status,1028,119287872284,/g3t1_2,,success
Status,1029,119487115226,/g3t1_2,,running
Status,1030,119487260772,/g3t1_2,,success
Status,1031,119520418779,/g4t1,,success
Status,1032,119687397716,/g3t1_2,,running
Status,1033,119688013372,/g3t1_2,,success
Status,1034,119887668196,/g3t1_2,,running
Status,1035,119887878356,/g3t1_2,,success
Status,1036,120088405410,/g3t1_2,,running
Status,1037,120088499019,/g3t1_2,,success
Status,1038,120288157687,/g3t1_2,,running
Status,1039,120288505439,/g3t1_2,,success
Status,1040,120488398840,/g3t1_2,,running
Status,1041,120488923024,/g3t1_2,,success
Status,1042,120520560279,/g4t1,,success
Status,1043,120689018226,/g3t1_2,,running
Status,1044,120689628647,/g3t1_2,,success
Status,1045,120820890233,/g3t1_1,,running
Status,1046,120821648429,/g3t1_1,,success
Status,1047,120888904661,/g3t1_2,,running
Status,1048,120889245135,/g3t1_2,,success
Status,1049,121089846404,/g3t1_2,,running
Status,1050,121089951444,/g3t1_2,,success
Status,1051,121288651379,/g3t1_2,,running
Status,1052,121288677218,/g3t1_2,,success
Status,1053,121489250439,/g3t1_2,,running
Status,1054,121489904548,/g3t1_2,,success
Status,1055,121520644371,/g4t1,,success
Status,1056,121689646342,/g3t1_2,,running
Status,1057,121690377079,/g3t1_2,,success
Status,1058,121889729092,/g3t1_2,,running
Status,1059,121890003079,/g3t1_2,,success
Status,1060,122089563620,/g3t1_2,,running
Status,1061,122089827391,/g3t1_2,,success
Status,1062,122289385790,/g3t1_2,,running
Status,1063,122289621076,/g3t1_2,,success
Status,1064,122489635113,/g3t1_2,,running
Status,1065,122489662472,/g3t1_2,,success
Status,1066,122520252063,/g4t1,,success
Status,1067,122690308519,/g3t1_2,,running
Status,1068,122690590113,/g3t1_2,,fail
Status,1069,122890223259,/g3t1_2,,running
Status,1070,122890622493,/g3t1_2,,fail
Status,1071,123089780187,/g3t1_2,,running
Status,1072,123089810657,/g3t1_2,,fail
Status,1073,123290330199,/g3t1_2,,running
Status,1074,123290713239,/g3t1_2,,fail
Status,1075,123490491722,/g3t1_2,,running
Status,1076,123490784654,/g3t1_2,,fail
Status,1077,123520831143,/g4t1,,success
Status,1078,123691033251,/g3t1_2,,running
Status,1079,123691488219,/g3t1_2,,fail
Status,1080,123890940369,/g3t1_2,,running
Status,1081,123891733745,/g3t1_2,,success
Status,1082,124090898084,/g3t1_2,,running
Status,1083,124091277446,/g3t1_2,,success
Status,1084,124291192779,/g3t1_2,,running
Status,1085,124291566137,/g3t1_2,,success
Status,1086,124491236819,/g3t1_2,,running
Status,1087,124491780263,/g3t1_2,,success
Status,1088,124520399016,/g4t1,,success
Status,1089,124691375073,/g3t1_2,,running
Status,1090,124691953078,/g3t1_2,,success
Status,1091,124891050610,/g3t1_2,,running
Status,1092,124891076031,/g3t1_2,,success
Status,1093,125090996488,/g3t1_2,,running
Status,1094,125091095497,/g3t1_2,,success
Status,1095,125291174416,/g3t1_2,,running
Status,1096,125291305196,/g3t1_2,,success
Status,1097,125491534253,/g3t1_2,,running
Status,1098,125491916312,/g3t1_2,,success
Status,1099,125521127004,/g4t1,,success
Status,1100,125691879702,/g3t1_2,,running
Status,1101,125692209444,/g3t1_2,,success
Status,1102,125820740127,/g3t1_1,,running
Status,1103,125821547504,/g3t1_1,,success
Status,1104,125892362210,/g3t1_2,,running
Status,1105,125893175352,/g3t1_2,,success
Status,1106,126092624909,/g3t1_2,,running
Status,1107,126093371229,/g3t1_2,,success
Status,1108,126123607533,/g3t1_3,,running
Status,1109,126123906864,/g3t1_3,,success
Status,1110,126292895005,/g3t1_2,,running
Status,1111,126293360610,/g3t1_2,,success
Status,1112,126492008216,/g3t1_2,,running
Status,1113,126492121861,/g3t1_2,,success
Status,1114,126520593397,/g4t1,,success
Status,1115,126692182197,/g3t1_2,,running
Status,1116,126692262616,/g3t1_2,,success
Status,1117,126892188284,/g3t1_2,,running
Status,1118,126892277187,/g3t1_2,,success
Status,1119,127092254104,/g3t1_2,,running
Status,1120,127092351341,/g3t1_2,,success
Status,1121,127292380583,/g3t1_2,,running
Status,1122,127292395341,/g3t1_2,,success
Status,1123,127478079433,/g3t1_4,,init
Status,1125,127484069393,/g3t1_4,,init
Status,1126,127484083186,/g3t1_4,,running
Status,1127,127490707928,/g3t1_4,,success
Status,1128,127492578923,/g3t1_2,,running
Status,1129,127492936231,/g3t1_2,,success
Status,1130,127520732805,/g4t1,,success
Status,1131,127692678645,/g3t1_2,,running
Status,1132,127692876846,/g3t1_2,,success
Status,1133,127893411310,/g3t1_2,,running
Status,1134,127894074014,/g3t1_2,,success
Status,1135,128093773587,/g3t1_2,,running
Status,1136,128094488711,/g3t1_2,,success
Status,1137,128294023280,/g3t1_2,,running
Status,1138,128294968083,/g3t1_2,,success
Status,1139,128484980937,/g3t1_4,,running
Status,1140,128492526410,/g3t1_4,,success
Status,1141,128493884499,/g3t1_2,,running
Status,1142,128494624953,/g3t1_2,,success
Status,1143,128521596118,/g4t1,,success
Status,1144,128694117025,/g3t1_2,,running
Status,1145,128695105872,/g3t1_2,,success
Status,1146,128894242158,/g3t1_2,,running
Status,1147,128894765784,/g3t1_2,,success
Status,1148,129094421259,/g3t1_2,,running
Status,1149,129095487394,/g3t1_2,,success
Status,1150,129294674341,/g3t1_2,,running
Status,1151,129295107256,/g3t1_2,,success
Status,1152,129484627972,/g3t1_4,,running
Status,1153,129491923757,/g3t1_4,,success
Status,1154,129494206956,/g3t1_2,,running
Status,1155,129494746064,/g3t1_2,,success
Status,1156,129521078753,/g4t1,,success
Status,1157,129694145222,/g3t1_2,,running
Status,1158,129694341468,/g3t1_2,,success
Status,1159,129894501480,/g3t1_2,,running
Status,1160,129894751850,/g3t1_2,,success
Status,1161,130094892971,/g3t1_2,,running
Status,1162,130095199714,/g3t1_2,,success
Status,1163,130295121992,/g3t1_2,,running
Status,1164,130295515428,/g3t1_2,,success
Status,1165,130485034186,/g3t1_4,,running
Status,1166,130494910174,/g3t1_2,,running
Status,1167,130495324849,/g3t1_2,,success
Status,1168,130521620228,/g4t1,,success
Status,1169,130559541711,/g3t1_4,,success
Status,1170,130695370274,/g3t1_2,,running
Status,1171,130695708502,/g3t1_2,,success
Status,1172,130820356965,/g3t1_1,,running
Status,1173,130820694846,/g3t1_1,,success
Status,1174,130894785364,/g3t1_2,,running
Status,1175,130894900337,/g3t1_2,,success
Status,1176,131096094204,/g3t1_2,,running
Status,1177,131096618596,/g3t1_2,,success
Status,1178,131295708873,/g3t1_2,,running
Status,1179,131296237671,/g3t1_2,,success
Status,1180,131485065904,/g3t1_4,,running
Status,1181,131495484966,/g3t1_2,,running
Status,1182,131495648900,/g3t1_4,,success
Status,1183,131496215450,/g3t1_2,,success
Status,1184,131521039427,/g4t1,,success
Status,1185,131695801875,/g3t1_2,,running
Status,1186,131696553135,/g3t1_2,,success
Status,1187,131895985805,/g3t1_2,,running
Status,1188,131896390232,/g3t1_2,,success
Status,1189,132095936207,/g3t1_2,,running
Status,1190,132095977826,/g3t1_2,,success
Status,1191,132296171837,/g3t1_2,,running
Status,1192,132296588359,/g3t1_2,,success
Status,1193,132485188616,/g3t1_4,,running
Status,1194,132493766860,/g3t1_4,,success
Status,1195,132496176045,/g3t1_2,,running
Status,1196,132496721646,/g3t1_2,,success
Status,1197,132522069268,/g4t1,,success
Status,1198,132696620893,/g3t1_2,,running
Status,1199,132697176430,/g3t1_2,,success
Status,1200,132897052191,/g3t1_2,,running
Status,1201,132897940729,/g3t1_2,,success
Status,1202,133096507349,/g3t1_2,,running
Status,1203,133096638736,/g3t1_2,,success
Status,1204,133296692481,/g3t1_2,,running
Status,1205,133296750219,/g3t1_2,,success
Status,1206,133485308998,/g3t1_4,,running
Status,1207,133497304813,/g3t1_2,,running
Status,1208,133498185527,/g3t1_2,,success
Status,1209,133502148285,/g3t1_4,,success
Status,1210,133522199988,/g4t1,,success
Status,1211,133697365099,/g3t1_2,,running
Status,1212,133698701858,/g3t1_2,,success
Status,1213,133897742062,/g3t1_2,,running
Status,1214,133898146876,/g3t1_2,,success
Status,1215,134097348320,/g3t1_2,,running
Status,1216,134097388716,/g3t1_2,,success
Status,1217,134297467544,/g3t1_2,,running
Status,1218,134297503575,/g3t1_2,,success
Status,1219,134485409062,/g3t1_4,,running
Status,1220,134494150516,/g3t1_4,,success
Status,1221,134497800764,/g3t1_2,,running
Status,1222,134498300182,/g3t1_2,,success
Status,1223,134522278758,/g4t1,,success
Status,1224,134698074007,/g3t1_2,,running
Status,1225,134698820334,/g3t1_2,,success
Status,1226,134898406903,/g3t1_2,,running
Status,1227,134898813565,/g3t1_2,,success
Status,1228,135098623180,/g3t1_2,,running
Status,1229,135099069050,/g3t1_2,,success
Status,1230,135298793321,/g3t1_2,,running
Status,1231,135299349196,/g3t1_2,,success
Status,1232,135485039505,/g3t1_4,,running
Status,1233,135488616453,/g3t1_4,,success
Status,1234,135498322511,/g3t1_2,,running
Status,1235,135498351683,/g3t1_2,,success
Status,1236,135521678459,/g4t1,,success
Status,1237,135699107006,/g3t1_2,,running
Status,1238,135699368148,/g3t1_2,,success
Status,1239,135820918049,/g3t1_1,,running
Status,1240,135821690509,/g3t1_1,,success
Status,1241,135898908479,/g3t1_2,,running
Status,1242,135899787701,/g3t1_2,,success
Status,1243,136099035822,/g3t1_2,,running
Status,1244,136099460812,/g3t1_2,,success
Status,1245,136123678337,/g3t1_3,,running
Status,1246,136124045660,/g3t1_3,,success
Status,1247,136298582228,/g3t1_2,,running
Status,1248,136298695861,/g3t1_2,,success
Status,1249,136485711531,/g3t1_4,,running
Status,1250,136499075281,/g3t1_2,,running
Status,1251,136499799970,/g3t1_2,,success
Status,1252,136500281833,/g3t1_4,,success
Status,1253,136521620559,/g4t1,,success
Status,1254,136699304558,/g3t1_2,,running
Status,1255,136700092832,/g3t1_2,,success
Status,1256,136899724331,/g3t1_2,,running
Status,1257,136900289347,/g3t1_2,,success
Status,1258,137100068889,/g3t1_2,,running
Status,1259,137100938877,/g3t1_2,,success
Status,1260,137300180949,/g3t1_2,,running
Status,1261,137300249698,/g3t1_2,,success
Status,1262,137485848020,/g3t1_4,,running
Status,1263,137493671088,/g3t1_4,,success
Status,1264,137499765756,/g3t1_2,,running
Status,1265,137500534461,/g3t1_2,,success
Status,1266,137521845208,/g4t1,,success
Status,1267,137700284150,/g3t1_2,,running
Status,1268,137701045389,/g3t1_2,,success
Status,1269,137900431972,/g3t1_2,,running
Status,1270,137900714735,/g3t1_2,,success
Status,1271,138100063959,/g3t1_2,,running
Status,1272,138100217869,/g3t1_2,,success
Status,1273,138300460942,/g3t1_2,,running
Status,1274,138301044002,/g3t1_2,,success
Status,1275,138486332099,/g3t1_4,,running
Status,1276,138494714019,/g3t1_4,,success
Status,1277,138500543477,/g3t1_2,,running
Status,1278,138501008946,/g3t1_2,,success
Status,1279,138521957025,/g4t1,,success
Status,1280,138700555155,/g3t1_2,,running
Status,1281,138700815101,/g3t1_2,,success
Status,1282,138901257120,/g3t1_2,,running
Status,1283,138902023014,/g3t1_2,,success
Status,1284,139101420500,/g3t1_2,,running
Status,1285,139101687214,/g3t1_2,,success
Status,1286,139300848045,/g3t1_2,,running
Status,1287,139301090810,/g3t1_2,,success
Status,1288,139486285024,/g3t1_4,,running
Status,1289,139495051809,/g3t1_4,,success
Status,1290,139501248998,/g3t1_2,,running
Status,1291,139502010539,/g3t1_2,,success
Status,1292,139522636288,/g4t1,,success
Status,1293,139701294233,/g3t1_2,,running
Status,1294,139701345492,/g3t1_2,,success
Status,1295,139902302502,/g3t1_2,,running
Status,1296,139902393080,/g3t1_2,,success
Status,1297,140102200630,/g3t1_2,,running
Status,1298,140102646168,/g3t1_2,,success
Status,1299,140301727361,/g3t1_2,,running
Status,1300,140301960814,/g3t1_2,,fail
Status,1301,140486178145,/g3t1_4,,running
Status,1302,140495203561,/g3t1_4,,success
Status,1303,140502147575,/g3t1_2,,running
Status,1304,140502879137,/g3t1_2,,success
Status,1305,140522273959,/g4t1,,success
Status,1306,140702530662,/g3t1_2,,running
Status,1307,140702594247,/g3t1_2,,success
Status,1308,140820775880,/g3t1_1,,running
Status,1309,140821247598,/g3t1_1,,success
Status,1310,140902340078,/g3t1_2,,running
Status,1311,140902695722,/g3t1_2,,success
Status,1312,141103214817,/g3t1_2,,running
Status,1313,141103292739,/g3t1_2,,success
Status,1314,141302856861,/g3t1_2,,running
Status,1315,141303216647,/g3t1_2,,success
Status,1316,141486511894,/g3t1_4,,running
Status,1317,141494455828,/g3t1_4,,success
Status,1318,141502604797,/g3t1_2,,running
Status,1319,141503071560,/g3t1_2,,success
Status,1320,141522888734,/g4t1,,success
Status,1321,141703046631,/g3t1_2,,running
Status,1322,141703464717,/g3t1_2,,success
Status,1323,141903242027,/g3t1_2,,running
Status,1324,141903880503,/g3t1_2,,success
Status,1325,142103493431,/g3t1_2,,running
Status,1326,142104012972,/g3t1_2,,success
Status,1327,142303272666,/g3t1_2,,running
Status,1328,142303520231,/g3t1_2,,success
Status,1329,142485798181,/g3t1_4,,running
Status,1330,142488480682,/g3t1_4,,success
Status,1331,142503032792,/g3t1_2,,running
Status,1332,142503053057,/g3t1_2,,success
Status,1333,142522120102,/g4t1,,success
Status,1334,142703396513,/g3t1_2,,running
Status,1335,142703689595,/g3t1_2,,success
Status,1336,142903323679,/g3t1_2,,running
Status,1337,142903517192,/g3t1_2,,success
Status,1338,143104159904,/g3t1_2,,running
Status,1339,143104892178,/g3t1_2,,success
Status,1340,143304324284,/g3t1_2,,running
Status,1341,143305040253,/g3t1_2,,success
Status,1342,143486886738,/g3t1_4,,running
Status,1343,143494635942,/g3t1_4,,success
Status,1344,143504127719,/g3t1_2,,running
Status,1345,143504806357,/g3t1_2,,success
Status,1346,143522940739,/g4t1,,success
Status,1347,143704748870,/g3t1_2,,running
Status,1348,143705069153,/g3t1_2,,success
Status,1349,143905417026,/g3t1_2,,running
Status,1350,143905588080,/g3t1_2,,success
Status,1351,144104357975,/g3t1_2,,running
Status,1352,144104393438,/g3t1_2,,success
Status,1353,144305117706,/g3t1_2,,running
Status,1354,144306101397,/g3t1_2,,success
Status,1355,144486789902,/g3t1_4,,running
Status,1356,144496032508,/g3t1_4,,success
Status,1357,144504925246,/g3t1_2,,running
Status,1358,144505437031,/g3t1_2,,success
Status,1359,144523196467,/g4t1,,success
Status,1360,144705099641,/g3t1_2,,running
Status,1361,144705147791,/g3t1_2,,success
Status,1362,144904827940,/g3t1_2,,running
Status,1363,144905030376,/g3t1_2,,success
Status,1364,145105683083,/g3t1_2,,running
Status,1365,145105982537,/g3t1_2,,success
Status,1366,145305316379,/g3t1_2,,running
Status,1367,145305346355,/g3t1_2,,success
Status,1368,145487287559,/g3t1_4,,running
Status,1369,145495948870,/g3t1_4,,success
Status,1370,145505621895,/g3t1_2,,running
Status,1371,145506022002,/g3t1_2,,success
Status,1372,145523292534,/g4t1,,success
Status,1373,145706339086,/g3t1_2,,running
Status,1374,145706785356,/g3t1_2,,success
Status,1375,145821362900,/g3t1_1,,running
Status,1376,145821940583,/g3t1_1,,success
Status,1377,145906278202,/g3t1_2,,running
Status,1378,145906622463,/g3t1_2,,success
Status,1379,146106985955,/g3t1_2,,running
Status,1380,146107240625,/g3t1_2,,success
Status,1381,146123561511,/g3t1_3,,running
Status,1382,146124168575,/g3t1_3,,success
Status,1383,146306080030,/g3t1_2,,running
Status,1384,146306211050,/g3t1_2,,success
Status,1385,146487192700,/g3t1_4,,running
Status,1386,146494808790,/g3t1_4,,success
Status,1387,146506407164,/g3t1_2,,running
Status,1388,146507124965,/g3t1_2,,success
Status,1389,146523442300,/g4t1,,success
Status,1390,146706592426,/g3t1_2,,running
Status,1391,146707329691,/g3t1_2,,success
Status,1392,146906914496,/g3t1_2,,running
Status,1393,146907269902,/g3t1_2,,fail
Status,1394,147106374561,/g3t1_2,,running
Status,1395,147106403478,/g3t1_2,,fail
Status,1396,147306418904,/g3t1_2,,running
Status,1397,147306622310,/g3t1_2,,success
Status,1398,147486790205,/g3t1_4,,running
Status,1399,147493198223,/g3t1_4,,success
Status,1400,147506668700,/g3t1_2,,running
Status,1401,147506847976,/g3t1_2,,success
Status,1402,147523353750,/g4t1,,success
Status,1403,147707374161,/g3t1_2,,running
Status,1404,147707655842,/g3t1_2,,fail
Status,1405,147907626964,/g3t1_2,,running
Status,1406,147908167139,/g3t1_2,,fail
Status,1407,148107577201,/g3t1_2,,running
Status,1408,148107982521,/g3t1_2,,fail
Status,1409,148307940080,/g3t1_2,,running
Status,1410,148308267120,/g3t1_2,,fail
Status,1411,148487278819,/g3t1_4,,running
Status,1412,148494015145,/g3t1_4,,success
Status,1413,148507737237,/g3t1_2,,running
Status,1414,148508151955,/g3t1_2,,fail
Status,1415,148523527288,/g4t1,,success
Status,1416,148708294800,/g3t1_2,,running
Status,1417,148709218713,/g3t1_2,,success
Status,1418,148908125748,/g3t1_2,,running
Status,1419,148908676275,/g3t1_2,,success
Status,1420,149108139928,/g3t1_2,,running
Status,1421,149108456356,/g3t1_2,,success
Status,1422,149308391532,/g3t1_2,,running
Status,1423,149308867130,/g3t1_2,,success
Status,1424,149487580711,/g3t1_4,,running
Status,1425,149495236624,/g3t1_4,,success
Status,1426,149508282690,/g3t1_2,,running
Status,1427,149508972591,/g3t1_2,,success
Status,1428,149523894105,/g4t1,,success
Status,1429,149708212248,/g3t1_2,,running
Status,1430,149708601881,/g3t1_2,,success
Status,1431,149909040647,/g3t1_2,,running
Status,1432,149909855433,/g3t1_2,,success
Status,1433,150109383219,/g3t1_2,,running
Status,1434,150109706286,/g3t1_2,,success
Status,1435,150309413071,/g3t1_2,,running
Status,1436,150309692902,/g3t1_2,,fail
Status,1437,150487959243,/g3t1_4,,running
Status,1438,150496869334,/g3t1_4,,success
Status,1439,150509160225,/g3t1_2,,running
Status,1440,150509438023,/g3t1_2,,fail
Status,1441,150523727671,/g4t1,,success
Status,1442,150709422523,/g3t1_2,,running
Status,1443,150710170965,/g3t1_2,,fail
Status,1444,150821798528,/g3t1_1,,running
Status,1445,150822255389,/g3t1_1,,success
Status,1446,150909886315,/g3t1_2,,running
Status,1447,150909944935,/g3t1_2,,fail
Status,1448,151109966629,/g3t1_2,,running
Status,1449,151110720928,/g3t1_2,,success
Status,1450,151310007032,/g3t1_2,,running
Status,1451,151311411325,/g3t1_2,,success
Status,1452,151487164083,/g3t1_4,,running
Status,1453,151490239229,/g3t1_4,,success
Status,1454,151509350430,/g3t1_2,,running
Status,1455,151509374367,/g3t1_2,,fail
Status,1456,151523434435,/g4t1,,success
Status,1457,151710516242,/g3t1_2,,running
Status,1458,151710577263,/g3t1_2,,fail
Status,1459,151909720996,/g3t1_2,,running
Status,1460,151909750857,/g3t1_2,,fail
Status,1461,152110362210,/g3t1_2,,running
Status,1462,152110959108,/g3t1_2,,fail
Status,1463,152310894360,/g3t1_2,,running
Status,1464,152310965099,/g3t1_2,,fail
Status,1465,152488259047,/g3t1_4,,running
Status,1466,152496608034,/g3t1_4,,success
Status,1467,152510663041,/g3t1_2,,running
Status,1468,152510726310,/g3t1_2,,fail
Status,1469,152523805086,/g4t1,,success
Status,1470,152711166010,/g3t1_2,,running
Status,1471,152711944930,/g3t1_2,,fail
Status,1472,152910876592,/g3t1_2,,running
Status,1473,152911199733,/g3t1_2,,fail
Status,1474,153111255710,/g3t1_2,,running
Status,1475,153111323814,/g3t1_2,,fail
Status,1476,153311078452,/g3t1_2,,running
Status,1477,153311373466,/g3t1_2,,fail
Status,1478,153488229890,/g3t1_4,,running
Status,1479,153510603113,/g3t1_2,,running
Status,1480,153510625462,/g3t1_2,,fail
Status,1481,153523416125,/g4t1,,success
Status,1482,153543734360,/g3t1_4,,success
Status,1483,153711799997,/g3t1_2,,running
Status,1484,153711874185,/g3t1_2,,success
Status,1485,153910952894,/g3t1_2,,running
Status,1486,153911109841,/g3t1_2,,success
Status,1487,154111334956,/g3t1_2,,running
Status,1488,154111574970,/g3t1_2,,success
Status,1489,154311882695,/g3t1_2,,running
Status,1490,154312234009,/g3t1_2,,success
Status,1491,154488417435,/g3t1_4,,running
Status,1492,154496175939,/g3t1_4,,success
Status,1493,154511840037,/g3t1_2,,running
Status,1494,154512164689,/g3t1_2,,success
Status,1495,154524167102,/g4t1,,success
Status,1496,154712306790,/g3t1_2,,running
Status,1497,154712409353,/g3t1_2,,fail
Status,1498,154912672381,/g3t1_2,,running
