
Status,2,3475187809,/g4t1,,init
Status,3,8588471081,/g3t1_1,,init
Status,5,8599986663,/g3t1_1,,init
Status,6,8600003361,/g3t1_1,,running
Status,7,8600019371,/g3t1_1,,success
Status,8,8691333700,/g3t1_2,,init
Status,10,8698883977,/g3t1_2,,init
Status,11,8698896879,/g3t1_2,,running
Status,12,8699238113,/g3t1_2,,success
Status,13,8719025879,/g3t1_2,,running
Status,14,8719145501,/g3t1_2,,success
Status,15,8739217955,/g3t1_2,,running
Status,16,8739803421,/g3t1_2,,success
Status,17,8759360290,/g3t1_2,,running
Status,18,8759377226,/g3t1_2,,success
Status,19,8779326558,/g3t1_2,,running
Status,20,8779371075,/g3t1_2,,success
Status,21,8792218590,/g3t1_3,,init
Status,23,8799360135,/g3t1_2,,running
Status,24,8799424556,/g3t1_2,,success
Status,25,8800447222,/g3t1_3,,init
Status,26,8800462357,/g3t1_3,,running
Status,27,8800915141,/g3t1_3,,success
Status,28,8819518079,/g3t1_2,,running
Status,29,8819533543,/g3t1_2,,success
Status,30,8839636180,/g3t1_2,,running
Status,31,8839651060,/g3t1_2,,success
Status,32,8859712056,/g3t1_2,,running
Status,33,8859732022,/g3t1_2,,success
Status,34,8879701849,/g3t1_2,,running
Status,35,8879719478,/g3t1_2,,success
Status,36,8899736723,/g3t1_2,,running
Status,37,8899768098,/g3t1_2,,success
Status,38,8919857957,/g3t1_2,,running
Status,39,8919877219,/g3t1_2,,success
Status,40,8939971167,/g3t1_2,,running
Status,41,8939990131,/g3t1_2,,success
Status,42,8959967912,/g3t1_2,,running
Status,43,8959985850,/g3t1_2,,success
Status,44,8980000844,/g3t1_2,,running
Status,45,8980017118,/g3t1_2,,success
Status,47,8994507972,/g3t1_4,,init
Status,48,9000026659,/g3t1_2,,running
Status,49,9000109200,/g3t1_2,,success
Status,50,9003713629,/g3t1_4,,init
Status,51,9003729607,/g3t1_4,,running
Status,52,9005197600,/g3t1_4,,success
Status,53,9020890037,/g3t1_2,,running
Status,54,9021090572,/g3t1_2,,success
Status,55,9040961795,/g3t1_2,,running
Status,56,9041016718,/g3t1_2,,success
Status,57,9060966222,/g3t1_2,,running
Status,58,9061371390,/g3t1_2,,success
Status,59,9081080908,/g3t1_2,,running
Status,60,9081408665,/g3t1_2,,success
Status,61,9094197039,/g4t1,,success
Status,62,9097880672,/g3t1_1,,running
Status,63,9099091900,/g3t1_1,,success
Status,64,9100980510,/g3t1_2,,running
Status,65,9101571752,/g3t1_2,,success
Status,66,9104227585,/g3t1_4,,running
Status,67,9109863873,/g3t1_4,,success
Status,68,9120963043,/g3t1_2,,running
Status,69,9121222955,/g3t1_2,,success
Status,70,9141098761,/g3t1_2,,running
Status,71,9141371273,/g3t1_2,,success
Status,72,9161523403,/g3t1_2,,running
Status,73,9162110888,/g3t1_2,,success
Status,74,9181676663,/g3t1_2,,running
Status,75,9181940224,/g3t1_2,,success
Status,76,9194398457,/g4t1,,success
Status,77,9201705815,/g3t1_2,,running
Status,78,9202030237,/g3t1_2,,success
Status,79,9204410423,/g3t1_4,,running
Status,80,9210527991,/g3t1_4,,success
Status,81,9221958508,/g3t1_2,,running
Status,82,9222328391,/g3t1_2,,success
Status,83,9242001991,/g3t1_2,,running
Status,84,9242416069,/g3t1_2,,success
Status,85,9262390509,/g3t1_2,,running
Status,86,9262452908,/g3t1_2,,success
Status,87,9282396395,/g3t1_2,,running
Status,88,9282790738,/g3t1_2,,success
Status,89,9294627609,/g4t1,,success
Status,90,9302331936,/g3t1_2,,running
Status,91,9302675555,/g3t1_2,,success
Status,92,9304725680,/g3t1_4,,running
Status,93,9317443859,/g3t1_4,,success
Status,94,9322423711,/g3t1_2,,running
Status,95,9322740732,/g3t1_2,,success
Status,96,9342789777,/g3t1_2,,running
Status,97,9343303962,/g3t1_2,,success
Status,98,9362786213,/g3t1_2,,running
Status,99,9363112744,/g3t1_2,,success
Status,100,9383009125,/g3t1_2,,running
Status,101,9383065256,/g3t1_2,,success
Status,102,9394738469,/g4t1,,success
Status,103,9403205132,/g3t1_2,,running
Status,104,9403578200,/g3t1_2,,success
Status,105,9404683287,/g3t1_4,,running
Status,106,9416983763,/g3t1_4,,success
Status,107,9423129465,/g3t1_2,,running
Status,108,9423488735,/g3t1_2,,success
Status,109,9443332508,/g3t1_2,,running
Status,110,9443600161,/g3t1_2,,success
Status,111,9463849571,/g3t1_2,,running
Status,112,9464409641,/g3t1_2,,success
Status,113,9483798222,/g3t1_2,,running
Status,114,9483856525,/g3t1_2,,success
Status,115,9495087472,/g4t1,,success
Status,116,9503807717,/g3t1_2,,running
Status,117,9504135240,/g3t1_2,,success
Status,118,9504776733,/g3t1_4,,running
Status,119,9510909209,/g3t1_4,,success
Status,120,9524403151,/g3t1_2,,running
Status,121,9524473318,/g3t1_2,,success
Status,122,9544103345,/g3t1_2,,running
Status,123,9544312483,/g3t1_2,,success
Status,124,9564367539,/g3t1_2,,running
Status,125,9564881284,/g3t1_2,,success
Status,126,9584220355,/g3t1_2,,running
Status,127,9584546918,/g3t1_2,,success
Status,128,9594937786,/g4t1,,success
Status,129,9598140937,/g3t1_1,,running
Status,130,9598579872,/g3t1_1,,success
Status,131,9604653308,/g3t1_2,,running
Status,132,9604770974,/g3t1_2,,success
Status,133,9604809557,/g3t1_4,,running
Status,134,9611520568,/g3t1_4,,success
Status,135,9624561776,/g3t1_2,,running
Status,136,9625098817,/g3t1_2,,success
Status,137,9644700300,/g3t1_2,,running
Status,138,9644944212,/g3t1_2,,success
Status,139,9665040481,/g3t1_2,,running
Status,140,9665411098,/g3t1_2,,success
Status,141,9684974332,/g3t1_2,,running
Status,142,9685566192,/g3t1_2,,success
Status,143,9695526374,/g4t1,,success
Status,144,9705580116,/g3t1_4,,running
Status,145,9705649018,/g3t1_2,,running
Status,146,9705674918,/g3t1_2,,success
Status,147,9712668576,/g3t1_4,,success
Status,148,9725492975,/g3t1_2,,running
Status,149,9725758358,/g3t1_2,,success
Status,150,9745552818,/g3t1_2,,running
Status,151,9745871875,/g3t1_2,,success
Status,152,9765501498,/g3t1_2,,running
Status,153,9765883704,/g3t1_2,,success
Status,154,9785701752,/g3t1_2,,running
Status,155,9786294426,/g3t1_2,,success
Status,156,9795578905,/g4t1,,success
Status,157,9801421148,/g3t1_3,,running
Status,158,9802131243,/g3t1_3,,success
Status,159,9805521825,/g3t1_4,,running
Status,160,9805897187,/g3t1_2,,running
Status,161,9806283160,/g3t1_2,,success
Status,162,9813202962,/g3t1_4,,success
Status,163,9825982692,/g3t1_2,,running
Status,164,9826444021,/g3t1_2,,success
Status,165,9845548437,/g3t1_2,,running
Status,166,9845713156,/g3t1_2,,success
Status,167,9865702731,/g3t1_2,,running
Status,168,9865978971,/g3t1_2,,success
Status,169,9885844396,/g3t1_2,,running
Status,170,9885873174,/g3t1_2,,success
Status,171,9894996296,/g4t1,,success
Status,172,9905145913,/g3t1_4,,running
Status,173,9905984800,/g3t1_2,,running
Status,174,9906428166,/g3t1_2,,success
Status,175,9910886632,/g3t1_4,,success
Status,176,9926503280,/g3t1_2,,running
Status,177,9926883137,/g3t1_2,,success
Status,178,9946478060,/g3t1_2,,running
Status,179,9947264494,/g3t1_2,,success
Status,180,9966591258,/g3t1_2,,running
Status,181,9967191963,/g3t1_2,,success
Status,182,9987104475,/g3t1_2,,running
Status,183,9987180608,/g3t1_2,,success
Status,184,9995844644,/g4t1,,success
Status,185,10005570872,/g3t1_4,,running
Status,186,10006913729,/g3t1_2,,running
Status,187,10007503580,/g3t1_2,,success
Status,188,10014031639,/g3t1_4,,success
Status,189,10027166186,/g3t1_2,,running
Status,190,10027497084,/g3t1_2,,success
Status,191,10047494657,/g3t1_2,,running
Status,192,10048056635,/g3t1_2,,success
Status,193,10067373129,/g3t1_2,,running
Status,194,10067941097,/g3t1_2,,success
Status,195,10087515463,/g3t1_2,,running
Status,196,10088048696,/g3t1_2,,success
Status,197,10096025383,/g4t1,,success
Status,198,10098362899,/g3t1_1,,running
Status,199,10098949474,/g3t1_1,,success
Status,200,10105630524,/g3t1_4,,running
Status,201,10107305569,/g3t1_2,,running
Status,202,10107789003,/g3t1_2,,success
Status,203,10114309635,/g3t1_4,,success
Status,204,10128028473,/g3t1_2,,running
Status,205,10128671062,/g3t1_2,,success
Status,206,10148298188,/g3t1_2,,running
Status,207,10148468456,/g3t1_2,,success
Status,208,10168199215,/g3t1_2,,running
Status,209,10168503621,/g3t1_2,,success
Status,210,10188215822,/g3t1_2,,running
Status,211,10188890158,/g3t1_2,,success
Status,212,10195719898,/g4t1,,success
Status,213,10205589439,/g3t1_4,,running
Status,214,10208098113,/g3t1_2,,running
Status,215,10208806170,/g3t1_2,,success
Status,216,10215377852,/g3t1_4,,success
Status,217,10228642478,/g3t1_2,,running
Status,218,10229011159,/g3t1_2,,success
Status,219,10248785448,/g3t1_2,,running
Status,220,10249114440,/g3t1_2,,success
Status,221,10268659187,/g3t1_2,,running
Status,222,10269067490,/g3t1_2,,success
Status,223,10288910236,/g3t1_2,,running
Status,224,10289285516,/g3t1_2,,success
Status,225,10296284097,/g4t1,,success
Status,226,10306144066,/g3t1_4,,running
Status,227,10308978532,/g3t1_2,,running
Status,228,10309745884,/g3t1_2,,success
Status,229,10316418045,/g3t1_4,,success
Status,230,10329190462,/g3t1_2,,running
Status,231,10329738145,/g3t1_2,,success
Status,232,10349139149,/g3t1_2,,running
Status,233,10349774779,/g3t1_2,,success
Status,234,10369127095,/g3t1_2,,running
Status,235,10369453916,/g3t1_2,,success
Status,236,10389369572,/g3t1_2,,running
Status,237,10389668383,/g3t1_2,,success
Status,238,10396096208,/g4t1,,success
Status,239,10406187763,/g3t1_4,,running
Status,240,10409799488,/g3t1_2,,running
Status,241,10409852170,/g3t1_2,,success
Status,242,10415637463,/g3t1_4,,success
Status,243,10429594801,/g3t1_2,,running
Status,244,10429911569,/g3t1_2,,success
Status,245,10449850728,/g3t1_2,,running
Status,246,10450123405,/g3t1_2,,success
Status,247,10469891689,/g3t1_2,,running
Status,248,10470150797,/g3t1_2,,success
Status,249,10490240650,/g3t1_2,,running
Status,250,10490659336,/g3t1_2,,success
Status,251,10496317128,/g4t1,,success
Status,252,10506479586,/g3t1_4,,running
Status,253,10510204901,/g3t1_2,,running
Status,254,10510809348,/g3t1_2,,success
Status,255,10515707079,/g3t1_4,,success
Status,256,10530214719,/g3t1_2,,running
Status,257,10530637080,/g3t1_2,,success
Status,258,10550615261,/g3t1_2,,running
Status,259,10551052614,/g3t1_2,,success
Status,260,10570467464,/g3t1_2,,running
Status,261,10570931586,/g3t1_2,,success
Status,262,10590935374,/g3t1_2,,running
Status,263,10591466308,/g3t1_2,,success
Status,264,10596339696,/g4t1,,success
Status,265,10598241315,/g3t1_1,,running
Status,266,10598688639,/g3t1_1,,success
Status,267,10606354065,/g3t1_4,,running
Status,268,10611154612,/g3t1_2,,running
Status,269,10611596527,/g3t1_2,,success
Status,270,10615164562,/g3t1_4,,success
Status,271,10630723196,/g3t1_2,,running
Status,272,10630760474,/g3t1_2,,success
Status,273,10651029962,/g3t1_2,,running
Status,274,10651441605,/g3t1_2,,success
Status,275,10671397074,/g3t1_2,,running
Status,276,10671838786,/g3t1_2,,success
Status,277,10691493724,/g3t1_2,,running
Status,278,10691863879,/g3t1_2,,success
Status,279,10696297063,/g4t1,,success
Status,280,10706717944,/g3t1_4,,running
Status,281,10712022614,/g3t1_2,,running
Status,282,10712763550,/g3t1_2,,success
Status,283,10716423577,/g3t1_4,,success
Status,284,10731532922,/g3t1_2,,running
Status,285,10732301711,/g3t1_2,,success
Status,286,10751899660,/g3t1_2,,running
Status,287,10752209010,/g3t1_2,,success
Status,288,10772203608,/g3t1_2,,running
Status,289,10772381881,/g3t1_2,,success
Status,290,10792131949,/g3t1_2,,running
Status,291,10792498304,/g3t1_2,,success
Status,292,10796611480,/g4t1,,success
Status,293,10801335266,/g3t1_3,,running
Status,294,10801981109,/g3t1_3,,success
Status,295,10806526959,/g3t1_4,,running
Status,296,10812454885,/g3t1_2,,running
Status,297,10813145858,/g3t1_2,,success
Status,298,10821707709,/g3t1_4,,success
Status,299,10832125137,/g3t1_2,,running
Status,300,10832456584,/g3t1_2,,success
Status,301,10852435292,/g3t1_2,,running
Status,302,10853014512,/g3t1_2,,success
Status,303,10872801864,/g3t1_2,,running
Status,304,10873332218,/g3t1_2,,success
Status,305,10892546246,/g3t1_2,,running
Status,306,10892886182,/g3t1_2,,success
Status,307,10896858596,/g4t1,,success
Status,308,10906884125,/g3t1_4,,running
Status,309,10912885688,/g3t1_2,,running
Status,310,10913351299,/g3t1_2,,success
Status,311,10915675866,/g3t1_4,,success
Status,312,10932837999,/g3t1_2,,running
Status,313,10933288098,/g3t1_2,,success
Status,314,10953108378,/g3t1_2,,running
Status,315,10953521602,/g3t1_2,,success
Status,316,10973324231,/g3t1_2,,running
Status,317,10974012610,/g3t1_2,,success
Status,318,10993361220,/g3t1_2,,running
Status,319,10993685418,/g3t1_2,,success
Status,320,10996959405,/g4t1,,success
Status,321,11006993476,/g3t1_4,,running
Status,322,11013798907,/g3t1_2,,running
Status,323,11014187677,/g3t1_2,,success
Status,324,11016276339,/g3t1_4,,success
Status,325,11033582097,/g3t1_2,,running
Status,326,11034217546,/g3t1_2,,success
Status,327,11053559621,/g3t1_2,,running
Status,328,11053822640,/g3t1_2,,success
Status,329,11073705130,/g3t1_2,,running
Status,330,11074258628,/g3t1_2,,success
Status,331,11094105315,/g3t1_2,,running
Status,332,11094354325,/g3t1_2,,success
Status,333,11097059634,/g4t1,,success
Status,334,11098572778,/g3t1_1,,running
Status,335,11099295010,/g3t1_1,,success
Status,336,11107137839,/g3t1_4,,running
Status,337,11114243015,/g3t1_2,,running
Status,338,11114928855,/g3t1_4,,success
Status,339,11115217067,/g3t1_2,,success
Status,340,11134519208,/g3t1_2,,running
Status,341,11134864321,/g3t1_2,,success
Status,342,11154669387,/g3t1_2,,running
Status,343,11154730230,/g3t1_2,,success
Status,344,11174587383,/g3t1_2,,running
Status,345,11175131935,/g3t1_2,,success
Status,346,11194939414,/g3t1_2,,running
Status,347,11195197002,/g3t1_2,,success
Status,348,11197019433,/g4t1,,success
Status,349,11207408152,/g3t1_4,,running
Status,350,11214986628,/g3t1_2,,running
Status,351,11215047871,/g3t1_4,,success
Status,352,11215372670,/g3t1_2,,success
Status,353,11235143820,/g3t1_2,,running
Status,354,11235852487,/g3t1_2,,success
Status,355,11255176612,/g3t1_2,,running
Status,356,11255794335,/g3t1_2,,success
Status,357,11275397563,/g3t1_2,,running
Status,358,11275819497,/g3t1_2,,success
Status,359,11295595588,/g3t1_2,,running
Status,360,11296011027,/g3t1_2,,success
Status,361,11297136185,/g4t1,,success
Status,362,11307385716,/g3t1_4,,running
Status,363,11314687931,/g3t1_4,,success
Status,364,11315508096,/g3t1_2,,running
Status,365,11316458870,/g3t1_2,,success
Status,366,11336057120,/g3t1_2,,running
Status,367,11336683343,/g3t1_2,,success
Status,368,11356047030,/g3t1_2,,running
Status,369,11356438639,/g3t1_2,,success
Status,370,11376126133,/g3t1_2,,running
Status,371,11376452639,/g3t1_2,,success
Status,372,11396619197,/g3t1_2,,running
Status,373,11396701943,/g3t1_2,,success
Status,374,11397185748,/g4t1,,success
Status,375,11407724383,/g3t1_4,,running
Status,376,11415307088,/g3t1_4,,success
Status,377,11416468771,/g3t1_2,,running
Status,378,11417064731,/g3t1_2,,success
Status,379,11436794812,/g3t1_2,,running
Status,380,11437326250,/g3t1_2,,success
Status,381,11456706838,/g3t1_2,,running
Status,382,11457216854,/g3t1_2,,success
Status,383,11476766365,/g3t1_2,,running
Status,384,11477034971,/g3t1_2,,success
Status,385,11497050452,/g3t1_2,,running
Status,386,11497165257,/g3t1_2,,success
Status,387,11497385867,/g4t1,,success
Status,388,11508065002,/g3t1_4,,running
Status,389,11516527648,/g3t1_4,,success
Status,390,11517025730,/g3t1_2,,running
Status,391,11517649197,/g3t1_2,,success
Status,392,11537407903,/g3t1_2,,running
Status,393,11537467901,/g3t1_2,,success
Status,394,11557207434,/g3t1_2,,running
Status,395,11557699141,/g3t1_2,,success
Status,396,11577953063,/g3t1_2,,running
Status,397,11578343873,/g3t1_2,,success
Status,398,11597629590,/g3t1_2,,running
Status,399,11597714817,/g4t1,,success
Status,400,11597975037,/g3t1_2,,success
Status,401,11599311330,/g3t1_1,,running
Status,402,11599368591,/g3t1_1,,success
Status,403,11608481236,/g3t1_4,,running
Status,404,11616267447,/g3t1_4,,success
Status,405,11617593658,/g3t1_2,,running
Status,406,11618154288,/g3t1_2,,success
Status,407,11637916698,/g3t1_2,,running
Status,408,11638506426,/g3t1_2,,success
Status,409,11658158630,/g3t1_2,,running
Status,410,11658220536,/g3t1_2,,success
Status,411,11678213103,/g3t1_2,,running
Status,412,11678622791,/g3t1_2,,success
Status,413,11698209995,/g4t1,,success
Status,414,11698271389,/g3t1_2,,running
Status,415,11698561452,/g3t1_2,,success
Status,416,11708614716,/g3t1_4,,running
Status,417,11716064287,/g3t1_4,,success
Status,418,11718212134,/g3t1_2,,running
Status,419,11718597166,/g3t1_2,,success
Status,420,11738401585,/g3t1_2,,running
Status,421,11738695223,/g3t1_2,,success
Status,422,11758457293,/g3t1_2,,running
Status,423,11758831741,/g3t1_2,,success
Status,424,11778657473,/g3t1_2,,running
Status,425,11779060669,/g3t1_2,,success
Status,426,11798075157,/g4t1,,success
Status,427,11799032374,/g3t1_2,,running
Status,428,11799248969,/g3t1_2,,success
Status,429,11801416394,/g3t1_3,,running
Status,430,11801752231,/g3t1_3,,success
Status,431,11808367829,/g3t1_4,,running
Status,432,11815695899,/g3t1_4,,success
Status,433,11818684131,/g3t1_2,,running
Status,434,11819253548,/g3t1_2,,success
Status,435,11839279075,/g3t1_2,,running
Status,436,11839665132,/g3t1_2,,success
Status,437,11859274740,/g3t1_2,,running
Status,438,11859880964,/g3t1_2,,success
Status,439,11879446991,/g3t1_2,,running
Status,440,11879815907,/g3t1_2,,success
Status,441,11898131602,/g4t1,,success
Status,442,11899490811,/g3t1_2,,running
Status,443,11900083843,/g3t1_2,,success
Status,444,11908638774,/g3t1_4,,running
Status,445,11916118464,/g3t1_4,,success
Status,446,11919371371,/g3t1_2,,running
Status,447,11919934709,/g3t1_2,,success
Status,448,11939838169,/g3t1_2,,running
Status,449,11940799291,/g3t1_2,,success
Status,450,11960245052,/g3t1_2,,running
Status,451,11960329062,/g3t1_2,,success
Status,452,11979958327,/g3t1_2,,running
Status,453,11980280988,/g3t1_2,,success
Status,454,11998308624,/g4t1,,success
Status,455,12000042347,/g3t1_2,,running
Status,456,12000519561,/g3t1_2,,success
Status,457,12008638532,/g3t1_4,,running
Status,458,12015982323,/g3t1_4,,success
Status,459,12020217027,/g3t1_2,,running
Status,460,12020483016,/g3t1_2,,success
Status,461,12040447195,/g3t1_2,,running
Status,462,12040702448,/g3t1_2,,success
Status,463,12060622702,/g3t1_2,,running
Status,464,12061039589,/g3t1_2,,success
Status,465,12080605630,/g3t1_2,,running
Status,466,12081103311,/g3t1_2,,success
Status,467,12098338217,/g4t1,,success
Status,468,12098693871,/g3t1_1,,running
Status,469,12099444545,/g3t1_1,,success
Status,470,12100631848,/g3t1_2,,running
Status,471,12101640441,/g3t1_2,,success
Status,472,12109642242,/g3t1_4,,running
Status,473,12121244176,/g3t1_2,,running
Status,474,12121375842,/g3t1_4,,success
Status,475,12121414744,/g3t1_2,,success
Status,476,12140949792,/g3t1_2,,running
Status,477,12141236064,/g3t1_2,,success
Status,478,12161201846,/g3t1_2,,running
Status,479,12161474353,/g3t1_2,,success
Status,480,12181165328,/g3t1_2,,running
Status,481,12181480647,/g3t1_2,,success
Status,482,12198650711,/g4t1,,success
Status,483,12201092048,/g3t1_2,,running
Status,484,12201548387,/g3t1_2,,success
Status,485,12208882703,/g3t1_4,,running
Status,486,12216757062,/g3t1_4,,success
Status,487,12221268710,/g3t1_2,,running
Status,488,12222030763,/g3t1_2,,success
Status,489,12241428177,/g3t1_2,,running
Status,490,12241665215,/g3t1_2,,success
Status,491,12261721024,/g3t1_2,,running
Status,492,12262185194,/g3t1_2,,success
Status,493,12282009578,/g3t1_2,,running
Status,494,12282566838,/g3t1_2,,success
Status,495,12298668009,/g4t1,,success
Status,496,12301830035,/g3t1_2,,running
Status,497,12302114431,/g3t1_2,,success
Status,498,12309067766,/g3t1_4,,running
Status,499,12316157627,/g3t1_4,,success
Status,500,12322018405,/g3t1_2,,running
Status,501,12322267904,/g3t1_2,,success
Status,502,12342582673,/g3t1_2,,running
Status,503,12342645430,/g3t1_2,,success
Status,504,12362209933,/g3t1_2,,running
Status,505,12362560759,/g3t1_2,,success
Status,506,12382518480,/g3t1_2,,running
Status,507,12382930307,/g3t1_2,,success
Status,508,12398785855,/g4t1,,success
Status,509,12402460569,/g3t1_2,,running
Status,510,12403032134,/g3t1_2,,success
Status,511,12409449801,/g3t1_4,,running
Status,512,12416567425,/g3t1_4,,success
Status,513,12422649052,/g3t1_2,,running
Status,514,12423176662,/g3t1_2,,success
Status,515,12442716405,/g3t1_2,,running
Status,516,12443437718,/g3t1_2,,success
Status,517,12463512834,/g3t1_2,,running
Status,518,12463600356,/g3t1_2,,success
Status,519,12483151672,/g3t1_2,,running
Status,520,12483933931,/g3t1_2,,success
Status,521,12498850059,/g4t1,,success
Status,522,12503056154,/g3t1_2,,running
Status,523,12503816285,/g3t1_2,,success
Status,524,12509405501,/g3t1_4,,running
Status,525,12518023201,/g3t1_4,,success
Status,526,12523360180,/g3t1_2,,running
Status,527,12523668645,/g3t1_2,,success
Status,528,12543480534,/g3t1_2,,running
Status,529,12543744464,/g3t1_2,,success
Status,530,12563953224,/g3t1_2,,running
Status,531,12564530291,/g3t1_2,,success
Status,532,12583977762,/g3t1_2,,running
Status,533,12584732702,/g3t1_2,,success
Status,534,12598979384,/g4t1,,success
Status,535,12599058271,/g3t1_1,,running
Status,536,12599395378,/g3t1_1,,success
Status,537,12603912636,/g3t1_2,,running
Status,538,12604314828,/g3t1_2,,success
Status,539,12609495646,/g3t1_4,,running
Status,540,12618115355,/g3t1_4,,success
Status,541,12624086340,/g3t1_2,,running
Status,542,12624788208,/g3t1_2,,success
Status,543,12644448633,/g3t1_2,,running
Status,544,12645148311,/g3t1_2,,success
Status,545,12664347023,/g3t1_2,,running
Status,546,12664805742,/g3t1_2,,success
Status,547,12684691918,/g3t1_2,,running
Status,548,12685346202,/g3t1_2,,success
Status,549,12698937146,/g4t1,,success
Status,550,12704695549,/g3t1_2,,running
Status,551,12705174561,/g3t1_2,,success
Status,552,12709850854,/g3t1_4,,running
Status,553,12718575868,/g3t1_4,,success
Status,554,12724849895,/g3t1_2,,running
Status,555,12725133516,/g3t1_2,,success
Status,556,12745249404,/g3t1_2,,running
Status,557,12745600258,/g3t1_2,,success
Status,558,12764950234,/g3t1_2,,running
Status,559,12764995745,/g3t1_2,,success
Status,560,12785096943,/g3t1_2,,running
Status,561,12785633004,/g3t1_2,,success
Status,562,12798957928,/g4t1,,success
Status,563,12801539218,/g3t1_3,,running
Status,564,12802013993,/g3t1_3,,success
Status,565,12805036134,/g3t1_2,,running
Status,566,12805561308,/g3t1_2,,success
Status,567,12810068654,/g3t1_4,,running
Status,568,12818130504,/g3t1_4,,success
Status,569,12825362194,/g3t1_2,,running
Status,570,12825720758,/g3t1_2,,success
Status,571,12845931574,/g3t1_2,,running
Status,572,12845994675,/g3t1_2,,success
Status,573,12865646477,/g3t1_2,,running
Status,574,12865923226,/g3t1_2,,success
Status,575,12885939856,/g3t1_2,,running
Status,576,12886277533,/g3t1_2,,success
Status,577,12899258509,/g4t1,,success
Status,578,12905983750,/g3t1_2,,running
Status,579,12906042850,/g3t1_2,,success
Status,580,12910019874,/g3t1_4,,running
Status,581,12918191373,/g3t1_4,,success
Status,582,12926159031,/g3t1_2,,running
Status,583,12926397856,/g3t1_2,,success
Status,584,12946474895,/g3t1_2,,running
Status,585,12946888229,/g3t1_2,,success
Status,586,12966220916,/g3t1_2,,running
Status,587,12966807232,/g3t1_2,,success
Status,588,12986409459,/g3t1_2,,running
Status,589,12986999488,/g3t1_2,,success
Status,590,12999358420,/g4t1,,success
Status,591,13006347760,/g3t1_2,,running
Status,592,13006908917,/g3t1_2,,success
Status,593,13010010774,/g3t1_4,,running
Status,594,13018683407,/g3t1_4,,success
Status,595,13026485095,/g3t1_2,,running
Status,596,13026884313,/g3t1_2,,success
Status,597,13047031718,/g3t1_2,,running
Status,598,13047278547,/g3t1_2,,success
Status,599,13066887985,/g3t1_2,,running
Status,600,13067370324,/g3t1_2,,success
Status,601,13087088421,/g3t1_2,,running
Status,602,13087344235,/g3t1_2,,success
Status,603,13099194348,/g3t1_1,,running
Status,604,13099512704,/g4t1,,success
Status,605,13099573419,/g3t1_1,,success
Status,606,13107005550,/g3t1_2,,running
Status,607,13107358483,/g3t1_2,,success
Status,608,13110600563,/g3t1_4,,running
Status,609,13118201659,/g3t1_4,,success
Status,610,13127179189,/g3t1_2,,running
Status,611,13127728192,/g3t1_2,,success
Status,612,13147367411,/g3t1_2,,running
Status,613,13148100955,/g3t1_2,,success
Status,614,13167851591,/g3t1_2,,running
Status,615,13168139887,/g3t1_2,,success
Status,616,13187862638,/g3t1_2,,running
Status,617,13188342716,/g3t1_2,,success
Status,618,13199672746,/g4t1,,success
Status,619,13207924678,/g3t1_2,,running
Status,620,13208361153,/g3t1_2,,success
Status,621,13210360106,/g3t1_4,,running
Status,622,13223348615,/g3t1_4,,success
Status,623,13227959073,/g3t1_2,,running
Status,624,13228206044,/g3t1_2,,success
Status,625,13248306206,/g3t1_2,,running
Status,626,13248891112,/g3t1_2,,success
Status,627,13268681698,/g3t1_2,,running
Status,628,13269068839,/g3t1_2,,success
Status,629,13288821427,/g3t1_2,,running
Status,630,13288884644,/g3t1_2,,success
Status,631,13299682821,/g4t1,,success
Status,632,13308768774,/g3t1_2,,running
Status,633,13309132422,/g3t1_2,,success
Status,634,13310497509,/g3t1_4,,running
Status,635,13319145585,/g3t1_4,,success
Status,636,13328880014,/g3t1_2,,running
Status,637,13329445884,/g3t1_2,,success
Status,638,13349049780,/g3t1_2,,running
Status,639,13349127780,/g3t1_2,,success
Status,640,13368964820,/g3t1_2,,running
Status,641,13369257781,/g3t1_2,,success
Status,642,13389344319,/g3t1_2,,running
Status,643,13389407054,/g3t1_2,,success
Status,644,13399776377,/g4t1,,success
Status,645,13409614185,/g3t1_2,,running
Status,646,13409677205,/g3t1_2,,success
Status,647,13410588490,/g3t1_4,,running
Status,648,13418078942,/g3t1_4,,success
Status,649,13429474981,/g3t1_2,,running
Status,650,13430061858,/g3t1_2,,success
Status,651,13449709596,/g3t1_2,,running
Status,652,13449898887,/g3t1_2,,success
Status,653,13469712768,/g3t1_2,,running
Status,654,13470322813,/g3t1_2,,success
Status,655,13489857251,/g3t1_2,,running
Status,656,13490189905,/g3t1_2,,success
Status,657,13499845522,/g4t1,,success
Status,658,13509649394,/g3t1_2,,running
Status,659,13510176644,/g3t1_2,,success
Status,660,13510490532,/g3t1_4,,running
Status,661,13518000031,/g3t1_4,,success
Status,662,13530184412,/g3t1_2,,running
Status,663,13530246403,/g3t1_2,,success
Status,664,13550335169,/g3t1_2,,running
Status,665,13550392241,/g3t1_2,,success
Status,666,13570341668,/g3t1_2,,running
Status,667,13570730302,/g3t1_2,,success
Status,668,13590498179,/g3t1_2,,running
Status,669,13591194446,/g3t1_2,,success
Status,670,13599268657,/g3t1_1,,running
Status,671,13599575245,/g3t1_1,,success
Status,672,13600021601,/g4t1,,success
Status,673,13610929866,/g3t1_2,,running
Status,674,13611129503,/g3t1_4,,running
Status,675,13611483122,/g3t1_2,,success
Status,676,13620130247,/g3t1_4,,success
Status,677,13630689879,/g3t1_2,,running
Status,678,13631265189,/g3t1_2,,success
Status,679,13650885040,/g3t1_2,,running
Status,680,13651309317,/g3t1_2,,success
Status,681,13671140421,/g3t1_2,,running
Status,682,13671512492,/g3t1_2,,success
Status,683,13691088142,/g3t1_2,,running
Status,684,13691942478,/g3t1_2,,success
Status,685,13700265973,/g4t1,,success
Status,686,13711317916,/g3t1_4,,running
Status,687,13711376629,/g3t1_2,,running
Status,688,13711815480,/g3t1_2,,success
Status,689,13718554463,/g3t1_4,,success
Status,690,13731430792,/g3t1_2,,running
Status,691,13731870816,/g3t1_2,,success
Status,692,13751372188,/g3t1_2,,running
Status,693,13752064730,/g3t1_2,,success
Status,694,13771474275,/g3t1_2,,running
Status,695,13771673042,/g3t1_2,,success
Status,696,13791711394,/g3t1_2,,running
Status,697,13792447787,/g3t1_2,,success
Status,698,13800287060,/g4t1,,success
Status,699,13801589603,/g3t1_3,,running
Status,700,13802247800,/g3t1_3,,success
Status,701,13811130260,/g3t1_4,,running
Status,702,13812092462,/g3t1_2,,running
Status,703,13812698092,/g3t1_2,,success
Status,704,13819070066,/g3t1_4,,success
Status,705,13831850063,/g3t1_2,,running
Status,706,13832172314,/g3t1_2,,success
Status,707,13852127987,/g3t1_2,,running
Status,708,13852542099,/g3t1_2,,success
Status,709,13872152426,/g3t1_2,,running
Status,710,13872733364,/g3t1_2,,success
Status,711,13892324194,/g3t1_2,,running
Status,712,13893052987,/g3t1_2,,success
Status,713,13900528776,/g4t1,,success
Status,714,13911157592,/g3t1_4,,running
Status,715,13912365851,/g3t1_2,,running
Status,716,13912960085,/g3t1_2,,success
Status,717,13919894500,/g3t1_4,,success
Status,718,13932715617,/g3t1_2,,running
Status,719,13932786533,/g3t1_2,,success
Status,720,13952681499,/g3t1_2,,running
Status,721,13953332201,/g3t1_2,,success
Status,722,13972747137,/g3t1_2,,running
Status,723,13972804550,/g3t1_2,,success
Status,724,13992958647,/g3t1_2,,running
Status,725,13993509357,/g3t1_2,,success
Status,726,14000607437,/g4t1,,success
Status,727,14011417790,/g3t1_4,,running
Status,728,14012854706,/g3t1_2,,running
Status,729,14013599958,/g3t1_2,,success
Status,730,14019899415,/g3t1_4,,success
Status,731,14032763834,/g3t1_2,,running
Status,732,14032911574,/g3t1_2,,success
Status,733,14052639427,/g3t1_2,,running
Status,734,14052735302,/g3t1_2,,success
Status,735,14072728436,/g3t1_2,,running
Status,736,14072753469,/g3t1_2,,success
Status,737,14093176133,/g3t1_2,,running
Status,738,14093794006,/g3t1_2,,success
Status,739,14099081205,/g3t1_1,,running
Status,740,14099450195,/g3t1_1,,success
Status,741,14100581626,/g4t1,,success
Status,742,14111853107,/g3t1_4,,running
Status,743,14113479675,/g3t1_2,,running
Status,744,14113927854,/g3t1_2,,success
Status,745,14119544006,/g3t1_4,,success
Status,746,14133581186,/g3t1_2,,running
Status,747,14134190052,/g3t1_2,,success
Status,748,14153888992,/g3t1_2,,running
Status,749,14154147569,/g3t1_2,,success
Status,750,14174038332,/g3t1_2,,running
Status,751,14174101394,/g3t1_2,,success
Status,752,14194207473,/g3t1_2,,running
Status,753,14194445218,/g3t1_2,,success
Status,754,14200721209,/g4t1,,success
Status,755,14211838142,/g3t1_4,,running
Status,756,14214087024,/g3t1_2,,running
Status,757,14214631985,/g3t1_2,,success
Status,758,14219165593,/g3t1_4,,success
Status,759,14234321130,/g3t1_2,,running
Status,760,14234968402,/g3t1_2,,success
Status,761,14254469381,/g3t1_2,,running
Status,762,14255140821,/g3t1_2,,success
Status,763,14274588813,/g3t1_2,,running
Status,764,14275208922,/g3t1_2,,success
Status,765,14294910019,/g3t1_2,,running
Status,766,14295208169,/g3t1_2,,success
Status,767,14300715301,/g4t1,,success
Status,768,14312176565,/g3t1_4,,running
Status,769,14314805338,/g3t1_2,,running
Status,770,14315683081,/g3t1_2,,success
Status,771,14325447366,/g3t1_4,,success
Status,772,14335086503,/g3t1_2,,running
Status,773,14335166498,/g3t1_2,,success
Status,774,14355085386,/g3t1_2,,running
Status,775,14355588273,/g3t1_2,,success
Status,776,14375490299,/g3t1_2,,running
Status,777,14375548953,/g3t1_2,,success
Status,778,14395413282,/g3t1_2,,running
Status,779,14395706141,/g3t1_2,,success
Status,780,14400873124,/g4t1,,success
Status,781,14412311181,/g3t1_4,,running
Status,782,14415418116,/g3t1_2,,running
Status,783,14415715740,/g3t1_2,,success
Status,784,14420466899,/g3t1_4,,success
Status,785,14435596256,/g3t1_2,,running
Status,786,14436062504,/g3t1_2,,success
Status,787,14455735997,/g3t1_2,,running
Status,788,14456549390,/g3t1_2,,success
Status,789,14475725721,/g3t1_2,,running
Status,790,14476183354,/g3t1_2,,success
Status,791,14496292836,/g3t1_2,,running
Status,792,14496828990,/g3t1_2,,success
Status,793,14501029658,/g4t1,,success
Status,794,14512357553,/g3t1_4,,running
Status,795,14516096961,/g3t1_2,,running
Status,796,14516869354,/g3t1_2,,success
Status,797,14520288828,/g3t1_4,,success
Status,798,14536318795,/g3t1_2,,running
Status,799,14536735604,/g3t1_2,,success
Status,800,14556624852,/g3t1_2,,running
Status,801,14556949641,/g3t1_2,,success
Status,802,14577014036,/g3t1_2,,running
Status,803,14577083046,/g3t1_2,,success
Status,804,14596823811,/g3t1_2,,running
Status,805,14597113439,/g3t1_2,,success
Status,806,14599331511,/g3t1_1,,running
Status,807,14599902053,/g3t1_1,,success
Status,808,14601180990,/g4t1,,success
Status,809,14612600793,/g3t1_4,,running
Status,810,14616924282,/g3t1_2,,running
Status,811,14617220034,/g3t1_2,,success
Status,812,14620875703,/g3t1_4,,success
Status,813,14637046102,/g3t1_2,,running
Status,814,14637504259,/g3t1_2,,success
Status,815,14657090734,/g3t1_2,,running
Status,816,14657795640,/g3t1_2,,success
Status,817,14677161905,/g3t1_2,,running
Status,818,14677563899,/g3t1_2,,success
Status,819,14697114588,/g3t1_2,,running
Status,820,14697458699,/g3t1_2,,success
Status,821,14701079052,/g4t1,,success
Status,822,14712319425,/g3t1_4,,running
Status,823,14717382804,/g3t1_2,,running
Status,824,14718202312,/g3t1_2,,success
Status,825,14719730157,/g3t1_4,,success
Status,826,14737678092,/g3t1_2,,running
Status,827,14738002814,/g3t1_2,,success
Status,828,14757775208,/g3t1_2,,running
Status,829,14758138860,/g3t1_2,,success
Status,830,14778061301,/g3t1_2,,running
Status,831,14778406871,/g3t1_2,,success
Status,832,14798064884,/g3t1_2,,running
Status,833,14798390970,/g3t1_2,,success
Status,834,14801256665,/g4t1,,success
Status,835,14801763530,/g3t1_3,,running
Status,836,14802147891,/g3t1_3,,success
Status,837,14812441854,/g3t1_4,,running
Status,838,14818073156,/g3t1_2,,running
Status,839,14818463514,/g3t1_2,,success
Status,840,14819733514,/g3t1_4,,success
Status,841,14838156426,/g3t1_2,,running
Status,842,14838489188,/g3t1_2,,success
Status,843,14858374728,/g3t1_2,,running
Status,844,14858803280,/g3t1_2,,success
Status,845,14878544783,/g3t1_2,,running
Status,846,14879150092,/g3t1_2,,success
Status,847,14898839738,/g3t1_2,,running
Status,848,14899108506,/g3t1_2,,success
Status,849,14901553898,/g4t1,,success
Status,850,14912750668,/g3t1_4,,running
Status,851,14918684284,/g3t1_2,,running
Status,852,14919217525,/g3t1_2,,success
Status,853,14919484465,/g3t1_4,,success
Status,854,14939005281,/g3t1_2,,running
Status,855,14939876671,/g3t1_2,,success
Status,856,14959192389,/g3t1_2,,running
Status,857,14959576377,/g3t1_2,,success
Status,858,14979171069,/g3t1_2,,running
Status,859,14979745007,/g3t1_2,,success
Status,860,14999402968,/g3t1_2,,running
Status,861,14999469534,/g3t1_2,,success
Status,862,15001490618,/g4t1,,success
Status,863,15012891317,/g3t1_4,,running
Status,864,15019379469,/g3t1_2,,running
Status,865,15019983737,/g3t1_2,,success
Status,866,15020581203,/g3t1_4,,success
Status,867,15039572867,/g3t1_2,,running
Status,868,15039954585,/g3t1_2,,success
Status,869,15059657269,/g3t1_2,,running
Status,870,15059987098,/g3t1_2,,success
Status,871,15080055904,/g3t1_2,,running
Status,872,15080766513,/g3t1_2,,success
Status,873,15099952752,/g3t1_1,,running
Status,874,15100027226,/g3t1_2,,running
Status,875,15100132465,/g3t1_1,,success
Status,876,15100698011,/g3t1_2,,success
Status,877,15101409915,/g4t1,,success
Status,878,15112962601,/g3t1_4,,running
Status,879,15120298219,/g3t1_2,,running
Status,880,15120689189,/g3t1_2,,success
Status,881,15120806159,/g3t1_4,,success
Status,882,15140440061,/g3t1_2,,running
Status,883,15140777055,/g3t1_2,,success
Status,884,15160477440,/g3t1_2,,running
Status,885,15161198068,/g3t1_2,,success
Status,886,15180731756,/g3t1_2,,running
Status,887,15181176965,/g3t1_2,,success
Status,888,15200811049,/g3t1_2,,running
Status,889,15201002541,/g3t1_2,,success
Status,890,15201424292,/g4t1,,success
Status,891,15213000423,/g3t1_4,,running
Status,892,15220383787,/g3t1_4,,success
Status,893,15220519307,/g3t1_2,,running
Status,894,15221183452,/g3t1_2,,success
Status,895,15240713586,/g3t1_2,,running
Status,896,15241097740,/g3t1_2,,success
Status,897,15261173631,/g3t1_2,,running
Status,898,15261460573,/g3t1_2,,success
Status,899,15281183603,/g3t1_2,,running
Status,900,15281383645,/g3t1_2,,success
Status,901,15301217070,/g3t1_2,,running
Status,902,15301603512,/g3t1_2,,success
Status,903,15301680978,/g4t1,,success
Status,904,15312979995,/g3t1_4,,running
Status,905,15320230468,/g3t1_4,,success
Status,906,15321082452,/g3t1_2,,running
Status,907,15322041548,/g3t1_2,,success
Status,908,15341618553,/g3t1_2,,running
Status,909,15341675568,/g3t1_2,,success
Status,910,15361701993,/g3t1_2,,running
Status,911,15362049252,/g3t1_2,,success
Status,912,15381603583,/g3t1_2,,running
Status,913,15382154781,/g3t1_2,,success
Status,914,15401821413,/g3t1_2,,running
Status,915,15402186120,/g4t1,,success
Status,916,15402252066,/g3t1_2,,success
Status,917,15413055159,/g3t1_4,,running
Status,918,15422109291,/g3t1_2,,running
Status,919,15422190237,/g3t1_2,,success
Status,920,15426950828,/g3t1_4,,success
Status,921,15441928825,/g3t1_2,,running
Status,922,15442284100,/g3t1_2,,success
Status,923,15462326762,/g3t1_2,,running
Status,924,15462930449,/g3t1_2,,success
Status,925,15482187476,/g3t1_2,,running
Status,926,15482459146,/g3t1_2,,success
Status,927,15502199196,/g4t1,,success
Status,928,15502461468,/g3t1_2,,running
Status,929,15502742833,/g3t1_2,,success
Status,930,15513115935,/g3t1_4,,running
Status,931,15521425658,/g3t1_4,,success
Status,932,15522175568,/g3t1_2,,running
Status,933,15522707328,/g3t1_2,,success
Status,934,15542692809,/g3t1_2,,running
Status,935,15542982642,/g3t1_2,,success
Status,936,15563041520,/g3t1_2,,running
Status,937,15563659969,/g3t1_2,,success
Status,938,15582877767,/g3t1_2,,running
Status,939,15583315013,/g3t1_2,,success
Status,940,15599884049,/g3t1_1,,running
Status,941,15600409021,/g3t1_1,,success
Status,942,15602207784,/g4t1,,success
Status,943,15603003921,/g3t1_2,,running
Status,944,15603576235,/g3t1_2,,success
Status,945,15613281067,/g3t1_4,,running
Status,946,15621591410,/g3t1_4,,success
Status,947,15623062711,/g3t1_2,,running
Status,948,15623534446,/g3t1_2,,success
Status,949,15643200631,/g3t1_2,,running
Status,950,15643489801,/g3t1_2,,success
Status,951,15663485209,/g3t1_2,,running
Status,952,15663924660,/g3t1_2,,success
Status,953,15683554431,/g3t1_2,,running
Status,954,15683938901,/g3t1_2,,success
Status,955,15702571459,/g4t1,,success
Status,956,15703663410,/g3t1_2,,running
Status,957,15703741872,/g3t1_2,,success
Status,958,15713526333,/g3t1_4,,running
Status,959,15721599274,/g3t1_4,,success
Status,960,15723722229,/g3t1_2,,running
Status,961,15723841926,/g3t1_2,,success
Status,962,15743872553,/g3t1_2,,running
Status,963,15744290002,/g3t1_2,,success
Status,964,15763957635,/g3t1_2,,running
Status,965,15764375521,/g3t1_2,,success
Status,966,15784112763,/g3t1_2,,running
Status,967,15784710742,/g3t1_2,,success
Status,968,15802027354,/g3t1_3,,running
Status,969,15802503253,/g3t1_3,,success
Status,970,15802562706,/g4t1,,success
Status,971,15803986494,/g3t1_2,,running
Status,972,15804272562,/g3t1_2,,success
Status,973,15813428529,/g3t1_4,,running
Status,974,15824251929,/g3t1_2,,running
Status,975,15824867557,/g3t1_2,,success
Status,976,15826560783,/g3t1_4,,success
Status,977,15844657026,/g3t1_2,,running
Status,978,15845164591,/g3t1_2,,success
Status,979,15864580701,/g3t1_2,,running
Status,980,15865418411,/g3t1_2,,success
Status,981,15884946138,/g3t1_2,,running
Status,982,15885354497,/g3t1_2,,success
Status,983,15902854923,/g4t1,,success
Status,984,15904785161,/g3t1_2,,running
Status,985,15905110869,/g3t1_2,,success
Status,986,15913725678,/g3t1_4,,running
Status,987,15921683528,/g3t1_4,,success
Status,988,15924929498,/g3t1_2,,running
Status,989,15925206914,/g3t1_2,,success
Status,990,15945062213,/g3t1_2,,running
Status,991,15945500523,/g3t1_2,,success
Status,992,15965222169,/g3t1_2,,running
Status,993,15965602811,/g3t1_2,,success
Status,994,15985309909,/g3t1_2,,running
Status,995,15985821763,/g3t1_2,,success
Status,996,16002881160,/g4t1,,success
Status,997,16005322610,/g3t1_2,,running
Status,998,16005673370,/g3t1_2,,success
Status,999,16013808353,/g3t1_4,,running
Status,1000,16021451148,/g3t1_4,,success
Status,1001,16025627731,/g3t1_2,,running
Status,1002,16025705159,/g3t1_2,,success
Status,1003,16045810652,/g3t1_2,,running
Status,1004,16045875279,/g3t1_2,,success
Status,1005,16065878184,/g3t1_2,,running
Status,1006,16066207919,/g3t1_2,,success
Status,1007,16086124225,/g3t1_2,,running
Status,1008,16086553448,/g3t1_2,,success
Status,1009,16099873053,/g3t1_1,,running
Status,1010,16100516456,/g3t1_1,,success
Status,1011,16102828531,/g4t1,,success
Status,1012,16106134267,/g3t1_2,,running
Status,1013,16106459328,/g3t1_2,,success
Status,1014,16114076284,/g3t1_4,,running
Status,1015,16121575063,/g3t1_4,,success
Status,1016,16126330296,/g3t1_2,,running
Status,1017,16126662123,/g3t1_2,,success
Status,1018,16146634959,/g3t1_2,,running
Status,1019,16146692046,/g3t1_2,,success
Status,1020,16166565197,/g3t1_2,,running
Status,1021,16166957846,/g3t1_2,,success
Status,1022,16186902073,/g3t1_2,,running
Status,1023,16187502979,/g3t1_2,,success
Status,1024,16202987774,/g4t1,,success
Status,1025,16206858577,/g3t1_2,,running
Status,1026,16207408799,/g3t1_2,,success
Status,1027,16214667744,/g3t1_4,,running
Status,1028,16221898674,/g3t1_4,,success
Status,1029,16227227460,/g3t1_2,,running
Status,1030,16227994510,/g3t1_2,,success
Status,1031,16247264326,/g3t1_2,,running
Status,1032,16247853472,/g3t1_2,,success
Status,1033,16267564853,/g3t1_2,,running
Status,1034,16267668995,/g3t1_2,,success
Status,1035,16287655258,/g3t1_2,,running
Status,1036,16287999450,/g3t1_2,,success
Status,1037,16303174034,/g4t1,,success
Status,1038,16307500102,/g3t1_2,,running
Status,1039,16308060671,/g3t1_2,,success
Status,1040,16314319761,/g3t1_4,,running
Status,1041,16321612312,/g3t1_4,,success
Status,1042,16327914039,/g3t1_2,,running
Status,1043,16328484137,/g3t1_2,,success
Status,1044,16348015007,/g3t1_2,,running
Status,1045,16348431305,/g3t1_2,,success
Status,1046,16367979255,/g3t1_2,,running
Status,1047,16368484010,/g3t1_2,,success
Status,1048,16388369320,/g3t1_2,,running
Status,1049,16388805260,/g3t1_2,,success
Status,1050,16403307141,/g4t1,,success
Status,1051,16408407363,/g3t1_2,,running
Status,1052,16408733510,/g3t1_2,,success
Status,1053,16414345755,/g3t1_4,,running
Status,1054,16421386155,/g3t1_4,,success
Status,1055,16428365698,/g3t1_2,,running
Status,1056,16428793704,/g3t1_2,,success
Status,1057,16448639634,/g3t1_2,,running
Status,1058,16449062290,/g3t1_2,,success
Status,1059,16468898226,/g3t1_2,,running
Status,1060,16469589437,/g3t1_2,,success
Status,1061,16489138510,/g3t1_2,,running
Status,1062,16489199218,/g3t1_2,,success
Status,1063,16503389646,/g4t1,,success
Status,1064,16508886745,/g3t1_2,,running
Status,1065,16509579164,/g3t1_2,,success
Status,1066,16514547353,/g3t1_4,,running
Status,1067,16521805684,/g3t1_4,,success
Status,1068,16529053151,/g3t1_2,,running
Status,1069,16529659879,/g3t1_2,,success
Status,1070,16549286621,/g3t1_2,,running
Status,1071,16549572638,/g3t1_2,,success
Status,1072,16569371250,/g3t1_2,,running
Status,1073,16569913016,/g3t1_2,,success
Status,1074,16589582715,/g3t1_2,,running
Status,1075,16589862018,/g3t1_2,,success
Status,1076,16599936178,/g3t1_1,,running
Status,1077,16600733120,/g3t1_1,,success
Status,1078,16603439964,/g4t1,,success
Status,1079,16609579535,/g3t1_2,,running
Status,1080,16610054509,/g3t1_2,,success
Status,1081,16614681933,/g3t1_4,,running
Status,1082,16622701753,/g3t1_4,,success
Status,1083,16629586925,/g3t1_2,,running
Status,1084,16630081835,/g3t1_2,,success
Status,1085,16649981228,/g3t1_2,,running
Status,1086,16650311521,/g3t1_2,,success
Status,1087,16670076040,/g3t1_2,,running
Status,1088,16670477454,/g3t1_2,,success
Status,1089,16690283522,/g3t1_2,,running
Status,1090,16690617604,/g3t1_2,,success
Status,1091,16703839495,/g4t1,,success
Status,1092,16710434858,/g3t1_2,,running
Status,1093,16710759321,/g3t1_2,,success
Status,1094,16714765186,/g3t1_4,,running
Status,1095,16721986757,/g3t1_4,,success
Status,1096,16730339742,/g3t1_2,,running
Status,1097,16730769363,/g3t1_2,,success
Status,1098,16750670212,/g3t1_2,,running
Status,1099,16751068627,/g3t1_2,,success
Status,1100,16770772661,/g3t1_2,,running
Status,1101,16771217552,/g3t1_2,,success
Status,1102,16790846030,/g3t1_2,,running
Status,1103,16791295968,/g3t1_2,,success
Status,1104,16802165318,/g3t1_3,,running
Status,1105,16802479347,/g3t1_3,,success
Status,1106,16803664303,/g4t1,,success
Status,1107,16811311808,/g3t1_2,,running
Status,1108,16811373709,/g3t1_2,,success
Status,1109,16814900674,/g3t1_4,,running
Status,1110,16821827725,/g3t1_4,,success
Status,1111,16831139572,/g3t1_2,,running
Status,1112,16831633699,/g3t1_2,,success
Status,1113,16851604330,/g3t1_2,,running
Status,1114,16851905033,/g3t1_2,,success
Status,1115,16871921015,/g3t1_2,,running
Status,1116,16872290559,/g3t1_2,,success
Status,1117,16891944385,/g3t1_2,,running
Status,1118,16892431327,/g3t1_2,,success
Status,1119,16903954263,/g4t1,,success
Status,1120,16912100028,/g3t1_2,,running
Status,1121,16912516379,/g3t1_2,,success
Status,1122,16914992405,/g3t1_4,,running
Status,1123,16922422082,/g3t1_4,,success
Status,1124,16932118029,/g3t1_2,,running
Status,1125,16932194803,/g3t1_2,,success
Status,1126,16952117304,/g3t1_2,,running
Status,1127,16952545634,/g3t1_2,,success
Status,1128,16972439292,/g3t1_2,,running
Status,1129,16972774063,/g3t1_2,,success
Status,1130,16992519376,/g3t1_2,,running
Status,1131,16992901884,/g3t1_2,,success
Status,1132,17004011991,/g4t1,,success
Status,1133,17013038701,/g3t1_2,,running
Status,1134,17013098742,/g3t1_2,,success
Status,1135,17015031975,/g3t1_4,,running
Status,1136,17022750169,/g3t1_4,,success
Status,1137,17032666388,/g3t1_2,,running
Status,1138,17032971223,/g3t1_2,,success
Status,1139,17052730187,/g3t1_2,,running
Status,1140,17053534869,/g3t1_2,,success
Status,1141,17073013364,/g3t1_2,,running
Status,1142,17073454824,/g3t1_2,,success
Status,1143,17093136289,/g3t1_2,,running
Status,1144,17093605711,/g3t1_2,,success
Status,1145,17099974722,/g3t1_1,,running
Status,1146,17100777731,/g3t1_1,,success
Status,1147,17104059570,/g4t1,,success
Status,1148,17112869149,/g3t1_2,,running
Status,1149,17113392204,/g3t1_2,,success
Status,1150,17115078480,/g3t1_4,,running
Status,1151,17122240433,/g3t1_4,,success
Status,1152,17133249359,/g3t1_2,,running
Status,1153,17133735070,/g3t1_2,,success
Status,1154,17153282262,/g3t1_2,,running
Status,1155,17153807652,/g3t1_2,,success
Status,1156,17173497470,/g3t1_2,,running
Status,1157,17174005245,/g3t1_2,,success
Status,1158,17193763205,/g3t1_2,,running
Status,1159,17194166264,/g3t1_2,,success
Status,1160,17204460999,/g4t1,,success
Status,1161,17213499557,/g3t1_2,,running
Status,1162,17214074281,/g3t1_2,,success
Status,1163,17215112498,/g3t1_4,,running
Status,1164,17223141700,/g3t1_4,,success
Status,1165,17233861858,/g3t1_2,,running
Status,1166,17234194236,/g3t1_2,,success
Status,1167,17253872976,/g3t1_2,,running
Status,1168,17254339149,/g3t1_2,,success
Status,1169,17274120848,/g3t1_2,,running
Status,1170,17274631896,/g3t1_2,,success
Status,1171,17294618829,/g3t1_2,,running
Status,1172,17294922461,/g3t1_2,,success
Status,1173,17304278180,/g4t1,,success
Status,1174,17314274661,/g3t1_2,,running
Status,1175,17315381192,/g3t1_2,,success
Status,1176,17315449298,/g3t1_4,,running
Status,1177,17323348599,/g3t1_4,,success
Status,1178,17334415684,/g3t1_2,,running
Status,1179,17334770736,/g3t1_2,,success
Status,1180,17354579807,/g3t1_2,,running
Status,1181,17354876768,/g3t1_2,,success
Status,1182,17374960034,/g3t1_2,,running
Status,1183,17375187441,/g3t1_2,,success
Status,1184,17394842015,/g3t1_2,,running
Status,1185,17395179706,/g3t1_2,,success
Status,1186,17404318046,/g4t1,,success
Status,1187,17415235673,/g3t1_2,,running
Status,1188,17415830814,/g3t1_4,,running
Status,1189,17416066338,/g3t1_2,,success
Status,1190,17427980078,/g3t1_4,,success
Status,1191,17435033138,/g3t1_2,,running
Status,1192,17435680262,/g3t1_2,,success
Status,1193,17455156011,/g3t1_2,,running
Status,1194,17455502422,/g3t1_2,,success
Status,1195,17476028762,/g3t1_2,,running
Status,1196,17476399924,/g3t1_2,,success
Status,1197,17495918419,/g3t1_2,,running
Status,1198,17496181444,/g3t1_2,,success
Status,1199,17504500590,/g4t1,,success
Status,1200,17515848160,/g3t1_4,,running
Status,1201,17515947679,/g3t1_2,,running
Status,1202,17516375713,/g3t1_2,,success
Status,1203,17525302990,/g3t1_4,,success
Status,1204,17535880692,/g3t1_2,,running
Status,1205,17536225280,/g3t1_2,,success
Status,1206,17556303344,/g3t1_2,,running
Status,1207,17556368135,/g3t1_2,,success
Status,1208,17576298099,/g3t1_2,,running
Status,1209,17576380753,/g3t1_2,,success
Status,1210,17596591050,/g3t1_2,,running
Status,1211,17596993130,/g3t1_2,,success
Status,1212,17600253913,/g3t1_1,,running
Status,1213,17600640391,/g3t1_1,,success
Status,1214,17604707106,/g4t1,,success
Status,1215,17615849357,/g3t1_4,,running
Status,1216,17616410679,/g3t1_2,,running
Status,1217,17616999013,/g3t1_2,,success
Status,1218,17624508822,/g3t1_4,,success
Status,1219,17636465228,/g3t1_2,,running
Status,1220,17637152999,/g3t1_2,,success
Status,1221,17656661303,/g3t1_2,,running
Status,1222,17657105416,/g3t1_2,,success
Status,1223,17676836316,/g3t1_2,,running
Status,1224,17677200102,/g3t1_2,,success
Status,1225,17696925461,/g3t1_2,,running
Status,1226,17697326710,/g3t1_2,,success
Status,1227,17704737629,/g4t1,,success
Status,1228,17715968379,/g3t1_4,,running
Status,1229,17716767592,/g3t1_2,,running
Status,1230,17717432766,/g3t1_2,,success
Status,1231,17724218556,/g3t1_4,,success
Status,1232,17737208494,/g3t1_2,,running
Status,1233,17737269060,/g3t1_2,,success
Status,1234,17757135053,/g3t1_2,,running
Status,1235,17757828801,/g3t1_2,,success
Status,1236,17777457432,/g3t1_2,,running
Status,1237,17777661094,/g3t1_2,,success
Status,1238,17797599759,/g3t1_2,,running
Status,1239,17797885847,/g3t1_2,,success
Status,1240,17802114706,/g3t1_3,,running
Status,1241,17802579938,/g3t1_3,,success
Status,1242,17804871600,/g4t1,,success
Status,1243,17816143177,/g3t1_4,,running
Status,1244,17817397108,/g3t1_2,,running
Status,1245,17817750598,/g3t1_2,,success
Status,1246,17823852242,/g3t1_4,,success
Status,1247,17837742095,/g3t1_2,,running
Status,1248,17838116871,/g3t1_2,,success
Status,1249,17857822309,/g3t1_2,,running
Status,1250,17858222911,/g3t1_2,,success
Status,1251,17877813699,/g3t1_2,,running
Status,1252,17878119089,/g3t1_2,,success
Status,1253,17898142682,/g3t1_2,,running
Status,1254,17898205920,/g3t1_2,,success
Status,1255,17904972149,/g4t1,,success
Status,1256,17916280727,/g3t1_4,,running
Status,1257,17917934076,/g3t1_2,,running
Status,1258,17918406908,/g3t1_2,,success
Status,1259,17923925735,/g3t1_4,,success
Status,1260,17938452364,/g3t1_2,,running
Status,1261,17938605256,/g3t1_2,,success
Status,1262,17958661352,/g3t1_2,,running
Status,1263,17958724904,/g3t1_2,,success
Status,1264,17978592046,/g3t1_2,,running
Status,1265,17978967557,/g3t1_2,,success
Status,1266,17998602012,/g3t1_2,,running
Status,1267,17998997692,/g3t1_2,,success
Status,1268,18005182986,/g4t1,,success
Status,1269,18016433570,/g3t1_4,,running
Status,1270,18018481045,/g3t1_2,,running
Status,1271,18019683167,/g3t1_2,,success
Status,1272,18024108021,/g3t1_4,,success
Status,1273,18038878893,/g3t1_2,,running
Status,1274,18039457475,/g3t1_2,,success
Status,1275,18059208913,/g3t1_2,,running
Status,1276,18059444483,/g3t1_2,,success
Status,1277,18079362355,/g3t1_2,,running
Status,1278,18079650382,/g3t1_2,,success
Status,1279,18099356658,/g3t1_2,,running
Status,1280,18099677110,/g3t1_2,,success
Status,1281,18100154647,/g3t1_1,,running
Status,1282,18100635102,/g3t1_1,,success
Status,1283,18105226456,/g4t1,,success
Status,1284,18116529113,/g3t1_4,,running
Status,1285,18119319754,/g3t1_2,,running
Status,1286,18120573494,/g3t1_2,,success
Status,1287,18124485955,/g3t1_4,,success
Status,1288,18139545376,/g3t1_2,,running
Status,1289,18139913216,/g3t1_2,,success
Status,1290,18160029803,/g3t1_2,,running
Status,1291,18160424089,/g3t1_2,,success
Status,1292,18179838828,/g3t1_2,,running
Status,1293,18180168625,/g3t1_2,,success
Status,1294,18199998785,/g3t1_2,,running
Status,1295,18200280708,/g3t1_2,,success
Status,1296,18205253214,/g4t1,,success
Status,1297,18216657073,/g3t1_4,,running
Status,1298,18219892484,/g3t1_2,,running
Status,1299,18220227816,/g3t1_2,,success
Status,1300,18224594227,/g3t1_4,,success
Status,1301,18240376845,/g3t1_2,,running
Status,1302,18240698426,/g3t1_2,,success
Status,1303,18260313896,/g3t1_2,,running
Status,1304,18260593954,/g3t1_2,,success
Status,1305,18280434099,/g3t1_2,,running
Status,1306,18280987087,/g3t1_2,,success
Status,1307,18300736205,/g3t1_2,,running
Status,1308,18300958210,/g3t1_2,,success
Status,1309,18305599228,/g4t1,,success
Status,1310,18316697898,/g3t1_4,,running
Status,1311,18320643163,/g3t1_2,,running
Status,1312,18321075297,/g3t1_2,,success
Status,1313,18324733503,/g3t1_4,,success
Status,1314,18340796102,/g3t1_2,,running
Status,1315,18341320562,/g3t1_2,,success
Status,1316,18361357904,/g3t1_2,,running
Status,1317,18361707512,/g3t1_2,,success
Status,1318,18381124624,/g3t1_2,,running
Status,1319,18381537376,/g3t1_2,,success
Status,1320,18401110333,/g3t1_2,,running
Status,1321,18401649349,/g3t1_2,,success
Status,1322,18405568792,/g4t1,,success
Status,1323,18416734909,/g3t1_4,,running
Status,1324,18421136880,/g3t1_2,,running
Status,1325,18421506523,/g3t1_2,,success
Status,1326,18429761771,/g3t1_4,,success
Status,1327,18441511536,/g3t1_2,,running
Status,1328,18442031210,/g3t1_2,,success
Status,1330,18461871592,/g3t1_2,,running
Status,1331,18462425966,/g3t1_2,,success
Status,1332,18481754623,/g3t1_2,,running
Status,1333,18482100897,/g3t1_2,,success
Status,1334,18501850785,/g3t1_2,,running
Status,1335,18502366487,/g3t1_2,,success
Status,1336,18505679262,/g4t1,,success
Status,1337,18516956814,/g3t1_4,,running
Status,1338,18521866296,/g3t1_2,,running
Status,1339,18522262543,/g3t1_2,,success
Status,1340,18524720254,/g3t1_4,,success
Status,1341,18542206537,/g3t1_2,,running
Status,1342,18542631957,/g3t1_2,,success
Status,1343,18562499942,/g3t1_2,,running
Status,1344,18562563512,/g3t1_2,,success
Status,1345,18582301667,/g3t1_2,,running
Status,1346,18582705887,/g3t1_2,,success
Status,1347,18600309910,/g3t1_1,,running
Status,1348,18600829098,/g3t1_1,,fail
Status,1349,18602280597,/g3t1_2,,running
Status,1350,18602811945,/g3t1_2,,success
Status,1351,18605796361,/g4t1,,success
Status,1352,18617095603,/g3t1_4,,running
Status,1353,18622412408,/g3t1_2,,running
Status,1354,18622922256,/g3t1_2,,success
Status,1355,18626075695,/g3t1_4,,success
Status,1356,18642985009,/g3t1_2,,running
Status,1357,18643058481,/g3t1_2,,success
Status,1359,18662384923,/g3t1_2,,running
Status,1360,18662657906,/g3t1_2,,success
Status,1361,18682975763,/g3t1_2,,running
Status,1362,18683023000,/g3t1_2,,success
Status,1363,18703213114,/g3t1_2,,running
Status,1364,18703288105,/g3t1_2,,success
Status,1365,18705922924,/g4t1,,success
Status,1366,18717050197,/g3t1_4,,running
Status,1367,18723043021,/g3t1_2,,running
Status,1368,18723431490,/g3t1_2,,success
Status,1369,18725018511,/g3t1_4,,success
Status,1370,18742996048,/g3t1_2,,running
Status,1371,18743129659,/g3t1_2,,success
Status,1372,18762783800,/g3t1_2,,running
Status,1373,18762804224,/g3t1_2,,success
Status,1374,18782907667,/g3t1_2,,running
Status,1375,18782931818,/g3t1_2,,success
Status,1376,18801775941,/g3t1_3,,running
Status,1377,18801798581,/g3t1_3,,success
Status,1378,18802931019,/g3t1_2,,running
Status,1379,18802947973,/g3t1_2,,success
Status,1380,18805267166,/g4t1,,success
Status,1381,18816487193,/g3t1_4,,running
Status,1382,18820156884,/g3t1_4,,success
Status,1383,18822996608,/g3t1_2,,running
Status,1384,18823103748,/g3t1_2,,success
Status,1385,18843561707,/g3t1_2,,running
Status,1386,18843675996,/g3t1_2,,success
Status,1388,18863315104,/g3t1_2,,running
Status,1389,18863333804,/g3t1_2,,success
Status,1390,18883356898,/g3t1_2,,running
Status,1391,18883447835,/g3t1_2,,success
Status,1392,18903536970,/g3t1_2,,running
Status,1393,18903713506,/g3t1_2,,success
Status,1394,18905417380,/g4t1,,success
Status,1395,18916646690,/g3t1_4,,running
Status,1396,18921911748,/g3t1_4,,success
Status,1397,18923375291,/g3t1_2,,running
Status,1398,18923590920,/g3t1_2,,success
Status,1399,18943946904,/g3t1_2,,running
Status,1400,18943987699,/g3t1_2,,success
Status,1401,18964400144,/g3t1_2,,running
Status,1402,18964705305,/g3t1_2,,success
Status,1403,18984484610,/g3t1_2,,running
Status,1404,18984560686,/g3t1_2,,success
Status,1405,19004895728,/g3t1_2,,running
Status,1406,19004972975,/g3t1_2,,success
Status,1407,19006137516,/g4t1,,success
Status,1408,19017121317,/g3t1_4,,running
Status,1409,19024686208,/g3t1_2,,running
Status,1410,19025257517,/g3t1_2,,success
Status,1411,19028466761,/g3t1_4,,success
Status,1413,19044210925,/g3t1_2,,running
Status,1414,19044354050,/g3t1_2,,success
Status,1415,19064351501,/g3t1_2,,running
Status,1416,19064406773,/g3t1_2,,success
Status,1417,19084404939,/g3t1_2,,running
Status,1418,19084477192,/g3t1_2,,success
Status,1419,19100401920,/g3t1_1,,running
Status,1420,19100437162,/g3t1_1,,fail
Status,1421,19104641890,/g3t1_2,,running
Status,1422,19105089911,/g3t1_2,,success
Status,1423,19105789628,/g4t1,,success
Status,1424,19117468634,/g3t1_4,,running
Status,1425,19125050941,/g3t1_2,,running
Status,1426,19125770097,/g3t1_2,,success
Status,1427,19125838369,/g3t1_4,,success
Status,1428,19145163086,/g3t1_2,,running
Status,1429,19145545912,/g3t1_2,,success
Status,1430,19165369979,/g3t1_2,,running
Status,1431,19165573366,/g3t1_2,,success
Status,1432,19185678146,/g3t1_2,,running
Status,1433,19185738975,/g3t1_2,,success
Status,1434,19205694248,/g3t1_2,,running
Status,1435,19205767012,/g3t1_2,,success
Status,1436,19206354045,/g4t1,,success
Status,1437,19217689500,/g3t1_4,,running
Status,1438,19225648295,/g3t1_4,,success
Status,1439,19225723436,/g3t1_2,,running
Status,1440,19226259096,/g3t1_2,,success
Status,1442,19245700437,/g3t1_2,,running
Status,1443,19246171858,/g3t1_2,,success
Status,1444,19266128932,/g3t1_2,,running
Status,1445,19266190806,/g3t1_2,,success
Status,1446,19286051286,/g3t1_2,,running
Status,1447,19286290562,/g3t1_2,,success
Status,1448,19306216349,/g3t1_2,,running
Status,1449,19306551395,/g4t1,,success
Status,1450,19306601528,/g3t1_2,,success
Status,1451,19317873216,/g3t1_4,,running
Status,1452,19326160629,/g3t1_4,,success
Status,1453,19326239242,/g3t1_2,,running
Status,1454,19326531602,/g3t1_2,,success
Status,1455,19346300208,/g3t1_2,,running
Status,1456,19346583734,/g3t1_2,,success
Status,1457,19366646605,/g3t1_2,,running
Status,1458,19366974193,/g3t1_2,,success
Status,1459,19386789190,/g3t1_2,,running
Status,1460,19387242249,/g3t1_2,,success
Status,1461,19406682896,/g4t1,,success
Status,1462,19406752063,/g3t1_2,,running
Status,1463,19407133813,/g3t1_2,,success
Status,1464,19417837662,/g3t1_4,,running
Status,1465,19425234130,/g3t1_4,,success
Status,1466,19426912187,/g3t1_2,,running
Status,1467,19427655316,/g3t1_2,,success
Status,1469,19446989009,/g3t1_2,,running
Status,1470,19447280171,/g3t1_2,,success
Status,1471,19467051264,/g3t1_2,,running
Status,1472,19467328805,/g3t1_2,,success
Status,1473,19486968042,/g3t1_2,,running
Status,1474,19487206566,/g3t1_2,,success
Status,1475,19506466267,/g4t1,,success
Status,1476,19506865264,/g3t1_2,,running
Status,1477,19507355877,/g3t1_2,,success
Status,1478,19517772298,/g3t1_4,,running
Status,1479,19522766554,/g3t1_4,,success
Status,1480,19527002094,/g3t1_2,,running
Status,1481,19527195074,/g3t1_2,,success
Status,1482,19547318076,/g3t1_2,,running
Status,1483,19547456132,/g3t1_2,,success
Status,1484,19567950545,/g3t1_2,,running
Status,1485,19568034187,/g3t1_2,,success
Status,1486,19588090956,/g3t1_2,,running
Status,1487,19588467320,/g3t1_2,,success
Status,1488,19601025717,/g3t1_1,,running
Status,1489,19601090932,/g3t1_1,,fail
Status,1490,19606922548,/g4t1,,success
Status,1491,19607997851,/g3t1_2,,running
Status,1492,19608666116,/g3t1_2,,success
Status,1493,19618290669,/g3t1_4,,running
Status,1494,19625833037,/g3t1_4,,success
Status,1495,19628005766,/g3t1_2,,running
Status,1496,19628754996,/g3t1_2,,success
Status,1498,19648251605,/g3t1_2,,running
Status,1499,19648566191,/g3t1_2,,success
Status,1500,19668523689,/g3t1_2,,running
Status,1501,19668789322,/g3t1_2,,success
Status,1502,19688561031,/g3t1_2,,running
Status,1503,19688933765,/g3t1_2,,success
Status,1504,19707229488,/g4t1,,success
Status,1505,19708646988,/g3t1_2,,running
Status,1506,19708899150,/g3t1_2,,success
Status,1507,19718246554,/g3t1_4,,running
Status,1508,19726163723,/g3t1_4,,success
Status,1509,19728695130,/g3t1_2,,running
Status,1510,19728935368,/g3t1_2,,success
Status,1511,19748862135,/g3t1_2,,running
Status,1512,19749106597,/g3t1_2,,success
