
Status,1,20507151927,/g4t1,,init
Status,3,25618884795,/g3t1_4,,init
Status,5,25637370765,/g3t1_4,,init
Status,6,25637395864,/g3t1_4,,running
Status,7,25642645137,/g3t1_4,,success
Status,8,26637640570,/g3t1_4,,running
Status,9,26647246095,/g3t1_4,,success
Status,10,27637689176,/g3t1_4,,running
Status,11,27643696556,/g3t1_4,,success
Status,12,28637876697,/g3t1_4,,running
Status,13,28647697453,/g3t1_4,,success
Status,14,29638033043,/g3t1_4,,running
Status,15,29643924442,/g3t1_4,,success
Status,16,30638134500,/g3t1_4,,running
Status,17,30644322280,/g3t1_4,,success
Status,18,31638727978,/g3t1_4,,running
Status,19,31653501862,/g3t1_4,,success
Status,20,32638501992,/g3t1_4,,running
Status,21,32644643094,/g3t1_4,,success
Status,22,33638654174,/g3t1_4,,running
Status,23,33645741714,/g3t1_4,,success
Status,24,34638712384,/g3t1_4,,running
Status,25,34645196400,/g3t1_4,,success
Status,26,35638836664,/g3t1_4,,running
Status,27,35644887358,/g3t1_4,,success
Status,28,36638902360,/g3t1_4,,running
Status,29,36644706401,/g3t1_4,,success
Status,30,37639028886,/g3t1_4,,running
Status,31,37645830199,/g3t1_4,,success
Status,32,38639250129,/g3t1_4,,running
Status,33,38645392824,/g3t1_4,,success
Status,34,39639262939,/g3t1_4,,running
Status,35,39645187548,/g3t1_4,,success
Status,36,40639402958,/g3t1_4,,running
Status,37,40645528010,/g3t1_4,,success
Status,38,41639554291,/g3t1_4,,running
Status,39,41646400771,/g3t1_4,,success
Status,40,42639584445,/g3t1_4,,running
Status,41,42645695678,/g3t1_4,,success
Status,42,43639735683,/g3t1_4,,running
Status,43,43646718050,/g3t1_4,,success
Status,44,44639867029,/g3t1_4,,running
Status,45,44646611492,/g3t1_4,,success
Status,46,45639962031,/g3t1_4,,running
Status,47,45646217153,/g3t1_4,,success
Status,48,46640003683,/g3t1_4,,running
Status,49,46646223844,/g3t1_4,,success
Status,50,47640161030,/g3t1_4,,running
Status,51,47646745834,/g3t1_4,,success
Status,52,48640190783,/g3t1_4,,running
Status,53,48646268389,/g3t1_4,,success
Status,54,49640568880,/g3t1_4,,running
Status,55,49647929307,/g3t1_4,,success
Status,56,50640746153,/g3t1_4,,running
Status,57,50648136272,/g3t1_4,,success
Status,58,51640444993,/g3t1_4,,running
Status,59,51649026340,/g3t1_4,,success
Status,60,52640969098,/g3t1_4,,running
Status,61,52652055752,/g3t1_4,,success
Status,62,53641131161,/g3t1_4,,running
Status,63,53651756633,/g3t1_4,,success
Status,64,54641126965,/g3t1_4,,running
Status,65,54651657526,/g3t1_4,,success
Status,69,55641246086,/g3t1_4,,running
Status,70,55652471365,/g3t1_4,,success
Status,76,56641148446,/g3t1_4,,running
Status,77,56656189964,/g3t1_4,,success
Status,83,57641274218,/g3t1_4,,running
Status,84,57648220694,/g3t1_4,,success
Status,90,58641385734,/g3t1_4,,running
Status,91,58658697907,/g3t1_4,,success
Status,97,59641520479,/g3t1_4,,running
Status,98,59655872765,/g3t1_4,,success
Status,104,60641684764,/g3t1_4,,running
Status,105,60655444170,/g3t1_4,,success
Status,111,61641820473,/g3t1_4,,running
Status,112,61653306392,/g3t1_4,,success
Status,118,62641918516,/g3t1_4,,running
Status,119,62656408945,/g3t1_4,,success
Status,125,63642024396,/g3t1_4,,running
Status,126,63648031885,/g3t1_4,,success
Status,132,64642508767,/g3t1_4,,running
Status,133,64652431356,/g3t1_4,,success
Status,139,65642295946,/g3t1_4,,running
Status,140,65649730348,/g3t1_4,,success
Status,146,66642468375,/g3t1_4,,running
Status,147,66649869735,/g3t1_4,,success
Status,153,67642535390,/g3t1_4,,running
Status,154,67648147654,/g3t1_4,,success
Status,160,68642693377,/g3t1_4,,running
Status,161,68655512230,/g3t1_4,,success
Status,167,69643036809,/g3t1_4,,running
Status,168,69657264530,/g3t1_4,,success
Status,174,70643000885,/g3t1_4,,running
Status,175,70650497357,/g3t1_4,,success
Status,181,71643185383,/g3t1_4,,running
Status,182,71652052691,/g3t1_4,,success
Status,188,72643202593,/g3t1_4,,running
Status,189,72650949592,/g3t1_4,,success
Status,195,73643278847,/g3t1_4,,running
Status,196,73651216865,/g3t1_4,,success
Status,202,74643435087,/g3t1_4,,running
Status,203,74653897319,/g3t1_4,,success
Status,209,75643524705,/g3t1_4,,running
Status,210,75652355949,/g3t1_4,,success
Status,216,76643636097,/g3t1_4,,running
Status,217,76652251414,/g3t1_4,,success
Status,223,77643837067,/g3t1_4,,running
Status,224,77654898682,/g3t1_4,,success
Status,230,78643926998,/g3t1_4,,running
Status,231,78649774961,/g3t1_4,,success
Status,237,79644096223,/g3t1_4,,running
Status,238,79649864128,/g3t1_4,,success
Status,244,80644230056,/g3t1_4,,running
Status,245,80650307749,/g3t1_4,,success
Status,251,81644358828,/g3t1_4,,running
Status,252,81654024116,/g3t1_4,,success
Status,258,82644519691,/g3t1_4,,running
Status,259,82653830838,/g3t1_4,,success
Status,265,83644682713,/g3t1_4,,running
Status,266,83654835821,/g3t1_4,,success
Status,272,84644844442,/g3t1_4,,running
Status,273,84655915854,/g3t1_4,,success
Status,279,85644925374,/g3t1_4,,running
Status,280,85651022720,/g3t1_4,,success
Status,286,86645068984,/g3t1_4,,running
Status,287,86651331314,/g3t1_4,,success
Status,293,87645223509,/g3t1_4,,running
Status,294,87651726642,/g3t1_4,,success
Status,300,88645537146,/g3t1_4,,running
Status,301,88656675488,/g3t1_4,,success
Status,307,89645522846,/g3t1_4,,running
Status,308,89654198780,/g3t1_4,,success
Status,314,90645668958,/g3t1_4,,running
Status,315,90653534640,/g3t1_4,,success
Status,321,91645815764,/g3t1_4,,running
Status,322,91653733654,/g3t1_4,,success
Status,328,92645909004,/g3t1_4,,running
Status,329,92654170016,/g3t1_4,,success
Status,335,93646098617,/g3t1_4,,running
Status,336,93652152150,/g3t1_4,,success
Status,342,94646233526,/g3t1_4,,running
Status,343,94654802657,/g3t1_4,,success
Status,349,95646332363,/g3t1_4,,running
Status,350,95652446486,/g3t1_4,,success
Status,356,96646527586,/g3t1_4,,running
Status,357,96654444828,/g3t1_4,,success
Status,363,97646629801,/g3t1_4,,running
Status,364,97652934773,/g3t1_4,,success
Status,370,98646776340,/g3t1_4,,running
Status,371,98655845469,/g3t1_4,,success
Status,377,99646892817,/g3t1_4,,running
Status,378,99655610074,/g3t1_4,,success
Status,384,100647289319,/g3t1_4,,running
Status,385,100657452302,/g3t1_4,,success
Status,391,101647287600,/g3t1_4,,running
Status,392,101655990181,/g3t1_4,,success
Status,398,102647361658,/g3t1_4,,running
Status,399,102654578401,/g3t1_4,,success
Status,405,103647362280,/g3t1_4,,running
Status,406,103653354371,/g3t1_4,,success
Status,412,104647549457,/g3t1_4,,running
Status,413,104655359240,/g3t1_4,,success
Status,419,105647621925,/g3t1_4,,running
Status,420,105655659342,/g3t1_4,,success
Status,426,106647771833,/g3t1_4,,running
Status,427,106653696705,/g3t1_4,,success
Status,433,107647802937,/g3t1_4,,running
Status,434,107653865230,/g3t1_4,,success
Status,440,108648012684,/g3t1_4,,running
Status,441,108654943953,/g3t1_4,,success
Status,447,109648135312,/g3t1_4,,running
Status,448,109654084231,/g3t1_4,,success
Status,454,110648245952,/g3t1_4,,running
Status,455,110654122846,/g3t1_4,,success
Status,461,111648385145,/g3t1_4,,running
Status,462,111654575017,/g3t1_4,,success
Status,468,112648507975,/g3t1_4,,running
Status,469,112654087580,/g3t1_4,,success
Status,475,113648700261,/g3t1_4,,running
Status,476,113656908838,/g3t1_4,,success
Status,482,114648715507,/g3t1_4,,running
Status,483,114654765297,/g3t1_4,,success
Status,489,115648855401,/g3t1_4,,running
Status,490,115654682251,/g3t1_4,,success
Status,496,116648994212,/g3t1_4,,running
Status,497,116654972518,/g3t1_4,,success
Status,503,117649163601,/g3t1_4,,running
Status,504,117655473939,/g3t1_4,,success
Status,510,118649477572,/g3t1_4,,running
Status,511,118661550089,/g3t1_4,,success
Status,517,119649537656,/g3t1_4,,running
Status,518,119655447855,/g3t1_4,,success
Status,524,120649565366,/g3t1_4,,running
Status,525,120655404704,/g3t1_4,,success
Status,531,121649678001,/g3t1_4,,running
Status,532,121655435486,/g3t1_4,,success
Status,538,122649961115,/g3t1_4,,running
Status,539,122655921531,/g3t1_4,,success
Status,545,123649927762,/g3t1_4,,running
Status,546,123655822193,/g3t1_4,,success
Status,552,124650245812,/g3t1_4,,running
Status,553,124656560826,/g3t1_4,,success
Status,559,125650212692,/g3t1_4,,running
Status,560,125656371768,/g3t1_4,,success
Status,566,126650353840,/g3t1_4,,running
Status,567,126656654380,/g3t1_4,,success
Status,573,127650509969,/g3t1_4,,running
Status,574,127656504303,/g3t1_4,,success
Status,580,128650645249,/g3t1_4,,running
Status,581,128656654774,/g3t1_4,,success
Status,587,129650814013,/g3t1_4,,running
Status,588,129656831798,/g3t1_4,,success
Status,594,130650933216,/g3t1_4,,running
Status,595,130656866195,/g3t1_4,,success
Status,601,131651161076,/g3t1_4,,running
Status,602,131657069842,/g3t1_4,,success
Status,608,132651283431,/g3t1_4,,running
Status,609,132657355934,/g3t1_4,,success
Status,615,133651371337,/g3t1_4,,running
Status,616,133657170696,/g3t1_4,,success
Status,622,134651466180,/g3t1_4,,running
Status,623,134657363398,/g3t1_4,,success
Status,629,135651550941,/g3t1_4,,running
Status,630,135657572776,/g3t1_4,,success
Status,636,136651610159,/g3t1_4,,running
Status,637,136657869254,/g3t1_4,,success
Status,643,137651742585,/g3t1_4,,running
Status,644,137657810346,/g3t1_4,,success
Status,650,138651775470,/g3t1_4,,running
Status,651,138658016239,/g3t1_4,,success
Status,657,139651890373,/g3t1_4,,running
Status,658,139657962718,/g3t1_4,,success
Status,664,140651971772,/g3t1_4,,running
Status,665,140658179709,/g3t1_4,,success
Status,671,141652093212,/g3t1_4,,running
Status,672,141661331674,/g3t1_4,,success
Status,678,142652232302,/g3t1_4,,running
Status,679,142664127331,/g3t1_4,,success
Status,685,143652292518,/g3t1_4,,running
Status,686,143663038295,/g3t1_4,,success
Status,692,144652425954,/g3t1_4,,running
Status,693,144661756197,/g3t1_4,,success
Status,699,145652524460,/g3t1_4,,running
Status,700,145661784440,/g3t1_4,,success
Status,706,146652663490,/g3t1_4,,running
Status,707,146662522643,/g3t1_4,,success
Status,713,147652785788,/g3t1_4,,running
Status,714,147661998404,/g3t1_4,,success
Status,720,148652844933,/g3t1_4,,running
Status,721,148660846456,/g3t1_4,,success
Status,727,149652926750,/g3t1_4,,running
Status,728,149660706085,/g3t1_4,,success
Status,734,150653047343,/g3t1_4,,running
Status,735,150660701639,/g3t1_4,,success
Status,741,151653209680,/g3t1_4,,running
Status,742,151659908915,/g3t1_4,,success
Status,748,152653313546,/g3t1_4,,running
Status,749,152659817236,/g3t1_4,,success
Status,755,153653625934,/g3t1_4,,running
Status,756,153659642056,/g3t1_4,,success
Status,762,154653600729,/g3t1_4,,running
Status,763,154660078113,/g3t1_4,,success
Status,769,155653782995,/g3t1_4,,running
Status,770,155659535072,/g3t1_4,,success
Status,776,156653883525,/g3t1_4,,running
Status,777,156659967490,/g3t1_4,,success
Status,783,157654025306,/g3t1_4,,running
Status,784,157659750326,/g3t1_4,,success
Status,790,158654090877,/g3t1_4,,running
Status,791,158660153541,/g3t1_4,,success
Status,797,159654248013,/g3t1_4,,running
Status,798,159660062829,/g3t1_4,,success
Status,804,160654320727,/g3t1_4,,running
Status,805,160660331566,/g3t1_4,,success
Status,811,161654445050,/g3t1_4,,running
Status,812,161662030284,/g3t1_4,,success
Status,818,162654560621,/g3t1_4,,running
Status,819,162660318417,/g3t1_4,,success
Status,825,163654678281,/g3t1_4,,running
Status,826,163660385651,/g3t1_4,,success
Status,832,164654795094,/g3t1_4,,running
Status,833,164660847877,/g3t1_4,,success
Status,839,165654865792,/g3t1_4,,running
Status,840,165660973164,/g3t1_4,,success
Status,846,166654983095,/g3t1_4,,running
Status,847,166660902484,/g3t1_4,,success
Status,853,167655159760,/g3t1_4,,running
Status,854,167661327159,/g3t1_4,,success
Status,860,168655279142,/g3t1_4,,running
Status,861,168661251053,/g3t1_4,,success
Status,867,169655399461,/g3t1_4,,running
Status,868,169661442693,/g3t1_4,,success
Status,874,170655546864,/g3t1_4,,running
Status,875,170661613303,/g3t1_4,,success
Status,881,171655686051,/g3t1_4,,running
Status,882,171661727212,/g3t1_4,,success
Status,888,172655827384,/g3t1_4,,running
Status,889,172661939542,/g3t1_4,,success
Status,895,173655927314,/g3t1_4,,running
Status,896,173661883208,/g3t1_4,,success
Status,902,174656088754,/g3t1_4,,running
Status,903,174662348951,/g3t1_4,,success
Status,909,175656175287,/g3t1_4,,running
Status,910,175662610259,/g3t1_4,,success
Status,916,176656310752,/g3t1_4,,running
Status,917,176662591489,/g3t1_4,,success
Status,923,177656412965,/g3t1_4,,running
Status,924,177663018258,/g3t1_4,,success
Status,930,178656522749,/g3t1_4,,running
Status,931,178665765030,/g3t1_4,,success
Status,937,179656609953,/g3t1_4,,running
Status,938,179664157955,/g3t1_4,,success
Status,944,180656765195,/g3t1_4,,running
Status,945,180663423559,/g3t1_4,,success
Status,951,181656945318,/g3t1_4,,running
Status,952,181663413939,/g3t1_4,,success
Status,958,182657052942,/g3t1_4,,running
Status,959,182663607509,/g3t1_4,,success
Status,965,183657212270,/g3t1_4,,running
Status,966,183663835412,/g3t1_4,,success
Status,972,184657316058,/g3t1_4,,running
Status,973,184663662744,/g3t1_4,,success
Status,979,185657422339,/g3t1_4,,running
Status,980,185663726947,/g3t1_4,,success
Status,986,186657594763,/g3t1_4,,running
Status,987,186664095540,/g3t1_4,,success
Status,993,187657742391,/g3t1_4,,running
Status,994,187664492689,/g3t1_4,,success
Status,1000,188657891047,/g3t1_4,,running
Status,1001,188664568654,/g3t1_4,,success
Status,1007,189658156288,/g3t1_4,,running
Status,1008,189665064503,/g3t1_4,,success
Status,1014,190658078013,/g3t1_4,,running
Status,1015,190664957228,/g3t1_4,,success
Status,1021,191658230012,/g3t1_4,,running
Status,1022,191665101284,/g3t1_4,,success
Status,1028,192658306969,/g3t1_4,,running
Status,1029,192664840329,/g3t1_4,,success
Status,1035,193658450089,/g3t1_4,,running
Status,1036,193665006451,/g3t1_4,,success
Status,1042,194658567369,/g3t1_4,,running
Status,1043,194665502400,/g3t1_4,,success
Status,1049,195658682189,/g3t1_4,,running
Status,1050,195666168725,/g3t1_4,,success
Status,1056,196658781836,/g3t1_4,,running
Status,1057,196665560640,/g3t1_4,,success
Status,1063,197658832534,/g3t1_4,,running
Status,1064,197665813632,/g3t1_4,,success
Status,1070,198658969049,/g3t1_4,,running
Status,1071,198665865429,/g3t1_4,,success
Status,1077,199659557121,/g3t1_4,,running
Status,1078,199666480070,/g3t1_4,,success
Status,1084,200659135474,/g3t1_4,,running
Status,1085,200665977403,/g3t1_4,,success
Status,1091,201659861521,/g3t1_4,,running
Status,1092,201667450313,/g3t1_4,,success
Status,1098,202660099207,/g3t1_4,,running
Status,1099,202668757615,/g3t1_4,,success
Status,1105,203660063653,/g3t1_4,,running
Status,1106,203668459333,/g3t1_4,,success
Status,1112,204660189038,/g3t1_4,,running
Status,1113,204668404482,/g3t1_4,,success
Status,1117,205659670961,/g3t1_4,,running
Status,1118,205666124783,/g3t1_4,,success
Status,1119,206659710473,/g3t1_4,,running
Status,1120,206666251799,/g3t1_4,,success
Status,1121,207659879970,/g3t1_4,,running
Status,1122,207666533409,/g3t1_4,,success
Status,1123,208659961668,/g3t1_4,,running
Status,1124,208666540392,/g3t1_4,,success
Status,1125,209660148687,/g3t1_4,,running
Status,1126,209667323488,/g3t1_4,,success
Status,1127,210660258838,/g3t1_4,,running
Status,1128,210667111722,/g3t1_4,,success
Status,1129,211660243071,/g3t1_4,,running
Status,1130,211666858952,/g3t1_4,,success
Status,1131,212660340507,/g3t1_4,,running
Status,1132,212666557387,/g3t1_4,,success
Status,1133,213660504119,/g3t1_4,,running
Status,1134,213667994236,/g3t1_4,,success
Status,1135,214660615089,/g3t1_4,,running
Status,1136,214668507733,/g3t1_4,,success
Status,1137,215660774579,/g3t1_4,,running
Status,1138,215667774723,/g3t1_4,,success
Status,1139,216660918132,/g3t1_4,,running
Status,1140,216667717979,/g3t1_4,,success
Status,1141,217661035867,/g3t1_4,,running
Status,1142,217667586886,/g3t1_4,,success
Status,1143,218661201452,/g3t1_4,,running
Status,1144,218667607062,/g3t1_4,,success
Status,1145,219661269679,/g3t1_4,,running
Status,1146,219668150517,/g3t1_4,,success
Status,1147,220661415478,/g3t1_4,,running
Status,1148,220667771650,/g3t1_4,,success
Status,1149,221661535726,/g3t1_4,,running
Status,1150,221668387634,/g3t1_4,,success
Status,1151,222661686023,/g3t1_4,,running
Status,1152,222668146237,/g3t1_4,,success
Status,1153,223661724490,/g3t1_4,,running
Status,1154,223668355985,/g3t1_4,,success
Status,1155,224661854425,/g3t1_4,,running
Status,1156,224668375877,/g3t1_4,,success
Status,1157,225661983004,/g3t1_4,,running
Status,1158,225668247747,/g3t1_4,,success
Status,1159,226662121018,/g3t1_4,,running
Status,1160,226668555634,/g3t1_4,,success
Status,1161,227662243382,/g3t1_4,,running
Status,1162,227669007146,/g3t1_4,,success
Status,1163,228662403140,/g3t1_4,,running
Status,1164,228668948132,/g3t1_4,,success
Status,1165,229662514172,/g3t1_4,,running
Status,1166,229668826119,/g3t1_4,,success
Status,1167,230662646843,/g3t1_4,,running
Status,1168,230669104396,/g3t1_4,,success
Status,1169,231662794943,/g3t1_4,,running
Status,1170,231669490776,/g3t1_4,,success
