
Status,1,20567850339,g4t1,,init
Status,4,26080842616,g3t1_1,,init
Status,5,26102231941,g3t1_1,,init
Status,6,26102361836,g3t1_1,,running
Status,7,26103413965,g3t1_1,,success
Status,9,26382352902,g3t1_2,,init
Status,10,26391524737,g3t1_2,,init
Status,11,26391552396,g3t1_2,,running
Status,12,26394564600,g3t1_2,,success
Status,13,26591594955,g3t1_2,,running
Status,14,26592190868,g3t1_2,,success
Status,16,26784312114,g3t1_4,,init
Status,17,26791702978,g3t1_2,,running
Status,18,26792465795,g3t1_2,,success
Status,19,26799090225,g3t1_4,,init
Status,20,26799137706,g3t1_4,,running
Status,21,26801995750,g3t1_4,,success
Status,22,26992020918,g3t1_2,,running
Status,23,26993451818,g3t1_2,,success
Status,24,27192194042,g3t1_2,,running
Status,25,27193492659,g3t1_2,,success
Status,26,27392315140,g3t1_2,,running
Status,27,27393669766,g3t1_2,,success
Status,28,27592329653,g3t1_2,,running
Status,29,27593747314,g3t1_2,,success
Status,30,27597051930,g4t1,,success
Status,31,27792467587,g3t1_2,,running
Status,32,27793822342,g3t1_2,,success
Status,33,27799434180,g3t1_4,,running
Status,34,27807152069,g3t1_4,,success
Status,35,27992497852,g3t1_2,,running
Status,36,27993926665,g3t1_2,,success
Status,37,28192534749,g3t1_2,,running
Status,38,28193642134,g3t1_2,,success
Status,39,28392720499,g3t1_2,,running
Status,40,28393824502,g3t1_2,,success
Status,41,28593068955,g3t1_2,,running
Status,42,28594217872,g3t1_2,,success
Status,43,28597130394,g4t1,,success
Status,44,28792871630,g3t1_2,,running
Status,45,28794131255,g3t1_2,,success
Status,46,28799596295,g3t1_4,,running
Status,47,28806202677,g3t1_4,,success
Status,48,28992959796,g3t1_2,,running
Status,49,28994150158,g3t1_2,,success
Status,50,29193457903,g3t1_2,,running
Status,51,29195032163,g3t1_2,,success
Status,52,29393568783,g3t1_2,,running
Status,53,29395154246,g3t1_2,,success
Status,54,29593562409,g3t1_2,,running
Status,55,29594769112,g3t1_2,,success
Status,56,29597100826,g4t1,,success
Status,57,29793246107,g3t1_2,,running
Status,58,29794415478,g3t1_2,,success
Status,59,29799601443,g3t1_4,,running
Status,60,29805975484,g3t1_4,,success
Status,61,29993641969,g3t1_2,,running
Status,62,29993669449,g3t1_2,,success
Status,63,30193737114,g3t1_2,,running
Status,64,30193769888,g3t1_2,,success
Status,65,30393234693,g3t1_2,,running
Status,66,30393877925,g3t1_2,,success
Status,67,30593628210,g3t1_2,,running
Status,68,30593812769,g3t1_2,,success
Status,69,30596756550,g4t1,,success
Status,70,30793357181,g3t1_2,,running
Status,71,30793857630,g3t1_2,,success
Status,72,30799413019,g3t1_4,,running
Status,73,30802811284,g3t1_4,,success
Status,74,30993951121,g3t1_2,,running
Status,75,30993978558,g3t1_2,,success
Status,76,31102624618,g3t1_1,,running
Status,77,31103657090,g3t1_1,,success
Status,78,31193870435,g3t1_2,,running
Status,79,31195059601,g3t1_2,,success
Status,80,31394333498,g3t1_2,,running
Status,81,31395498598,g3t1_2,,success
Status,82,31594359443,g3t1_2,,running
Status,83,31595564843,g3t1_2,,success
Status,84,31597168751,g4t1,,success
Status,85,31794179153,g3t1_2,,running
Status,86,31795512339,g3t1_2,,success
Status,87,31799776346,g3t1_4,,running
Status,88,31809387158,g3t1_4,,success
Status,89,31994225637,g3t1_2,,running
Status,90,31995429834,g3t1_2,,success
Status,91,32194282655,g3t1_2,,running
Status,92,32195504078,g3t1_2,,success
Status,93,32394772367,g3t1_2,,running
Status,94,32396089951,g3t1_2,,success
Status,95,32595336199,g3t1_2,,running
Status,96,32595841267,g3t1_2,,success
Status,97,32597333508,g4t1,,success
Status,98,32795086810,g3t1_2,,running
Status,99,32796465591,g3t1_2,,success
Status,100,32799839483,g3t1_4,,running
Status,101,32808853370,g3t1_4,,success
Status,102,32994603183,g3t1_2,,running
Status,103,32995729608,g3t1_2,,success
Status,104,33195162207,g3t1_2,,running
Status,105,33196788801,g3t1_2,,success
Status,106,33395305981,g3t1_2,,running
Status,107,33396934886,g3t1_2,,success
Status,108,33595282834,g3t1_2,,running
Status,109,33596544232,g3t1_2,,success
Status,110,33597341922,g4t1,,success
Status,111,33795444041,g3t1_2,,running
Status,112,33796813271,g3t1_2,,success
Status,113,33799849737,g3t1_4,,running
Status,114,33806398373,g3t1_4,,success
Status,115,33995139434,g3t1_2,,running
Status,116,33996422736,g3t1_2,,success
Status,117,34196588422,g3t1_2,,running
Status,118,34197217357,g3t1_2,,success
Status,119,34395774198,g3t1_2,,running
Status,120,34397023454,g3t1_2,,success
Status,121,34596336164,g3t1_2,,running
Status,122,34597582905,g4t1,,success
Status,123,34597630775,g3t1_2,,success
Status,124,34795273633,g3t1_2,,running
Status,125,34795932218,g3t1_2,,success
Status,126,34799784003,g3t1_4,,running
Status,127,34803751259,g3t1_4,,success
Status,128,34995665451,g3t1_2,,running
Status,129,34997097157,g3t1_2,,success
Status,130,35195762780,g3t1_2,,running
Status,131,35197140472,g3t1_2,,success
Status,132,35396269767,g3t1_2,,running
Status,133,35397661581,g3t1_2,,success
Status,134,35596261090,g3t1_2,,running
Status,135,35597556569,g4t1,,success
Status,136,35597618294,g3t1_2,,success
Status,137,35796458749,g3t1_2,,running
Status,138,35797282158,g3t1_2,,success
Status,139,35799999798,g3t1_4,,running
Status,140,35806500420,g3t1_4,,success
Status,141,35996249587,g3t1_2,,running
Status,142,35997562644,g3t1_2,,success
Status,143,36102675824,g3t1_1,,running
Status,144,36103962560,g3t1_1,,success
Status,145,36196297389,g3t1_2,,running
Status,146,36197628964,g3t1_2,,success
Status,147,36396370444,g3t1_2,,running
Status,148,36397842771,g3t1_2,,success
Status,149,36597254777,g3t1_2,,running
Status,150,36597984197,g4t1,,success
Status,151,36598572097,g3t1_2,,success
Status,152,36797258497,g3t1_2,,running
Status,153,36798597250,g3t1_2,,success
Status,154,36800125231,g3t1_4,,running
Status,155,36805906353,g3t1_4,,success
Status,156,36997570940,g3t1_2,,running
Status,157,36997853112,g3t1_2,,success
Status,158,37197257993,g3t1_2,,running
Status,159,37198608727,g3t1_2,,success
Status,160,37397631824,g3t1_2,,running
Status,161,37399108389,g3t1_2,,success
Status,162,37597404512,g3t1_2,,running
Status,163,37598358284,g4t1,,success
Status,164,37598784453,g3t1_2,,success
Status,165,37797137250,g3t1_2,,running
Status,166,37798255672,g3t1_2,,success
Status,167,37800235932,g3t1_4,,running
Status,168,37806276157,g3t1_4,,success
Status,169,37997215611,g3t1_2,,running
Status,170,37998318742,g3t1_2,,success
Status,171,38197328283,g3t1_2,,running
Status,172,38198390347,g3t1_2,,success
Status,173,38397759211,g3t1_2,,running
Status,174,38399031284,g3t1_2,,success
Status,175,38598429321,g3t1_2,,running
Status,176,38599153829,g4t1,,success
Status,177,38599239298,g3t1_2,,success
Status,178,38797781977,g3t1_2,,running
Status,179,38797911315,g3t1_2,,success
Status,180,38799975637,g3t1_4,,running
Status,181,38802658792,g3t1_4,,success
Status,182,38998198524,g3t1_2,,running
Status,183,38998228522,g3t1_2,,success
Status,184,39198021347,g3t1_2,,running
Status,185,39198052290,g3t1_2,,success
Status,186,39398943684,g3t1_2,,running
Status,187,39399005025,g3t1_2,,success
Status,188,39597684611,g3t1_2,,running
Status,189,39597758974,g4t1,,success
Status,190,39598257342,g3t1_2,,success
Status,191,39798913303,g3t1_2,,running
Status,192,39799080001,g3t1_2,,success
Status,193,39800253624,g3t1_4,,running
Status,194,39806150909,g3t1_4,,success
Status,195,39998072046,g3t1_2,,running
Status,196,39999295814,g3t1_2,,success
Status,197,40198552637,g3t1_2,,running
Status,198,40199717202,g3t1_2,,success
Status,199,40398761874,g3t1_2,,running
Status,200,40400086738,g3t1_2,,success
Status,201,40598763102,g4t1,,success
Status,202,40598830975,g3t1_2,,running
Status,203,40600160025,g3t1_2,,success
Status,204,40798564144,g3t1_2,,running
Status,205,40799823875,g3t1_2,,success
Status,206,40800405992,g3t1_4,,running
Status,207,40806665497,g3t1_4,,success
Status,208,40998625651,g3t1_2,,running
Status,209,40999777237,g3t1_2,,success
Status,210,41102817383,g3t1_1,,running
Status,211,41104070716,g3t1_1,,success
Status,212,41199098333,g3t1_2,,running
Status,213,41200535471,g3t1_2,,success
Status,214,41399464516,g3t1_2,,running
Status,215,41401032900,g3t1_2,,success
Status,216,41598676641,g4t1,,success
Status,217,41599378326,g3t1_2,,running
Status,218,41600416281,g3t1_2,,success
Status,219,41799101286,g3t1_2,,running
Status,220,41800508646,g3t1_2,,success
Status,221,41800614235,g3t1_4,,running
Status,222,41807296655,g3t1_4,,success
Status,223,42000349827,g3t1_2,,running
Status,224,42000747706,g3t1_2,,success
Status,225,42199226789,g3t1_2,,running
Status,226,42200230663,g3t1_2,,success
Status,227,42399390959,g3t1_2,,running
Status,228,42400616946,g3t1_2,,success
Status,229,42598592523,g4t1,,success
Status,230,42599351514,g3t1_2,,running
Status,231,42600685409,g3t1_2,,success
Status,232,42799291912,g3t1_2,,running
Status,233,42799708885,g3t1_2,,success
Status,234,42800248513,g3t1_4,,running
Status,235,42802483787,g3t1_4,,success
Status,236,42999669877,g3t1_2,,running
Status,237,43000996636,g3t1_2,,success
Status,238,43200221306,g3t1_2,,running
Status,239,43201642438,g3t1_2,,success
Status,240,43400369820,g3t1_2,,running
Status,241,43401827589,g3t1_2,,success
Status,242,43598967595,g4t1,,success
Status,243,43599880345,g3t1_2,,running
Status,244,43601141049,g3t1_2,,success
Status,245,43800111989,g3t1_2,,running
Status,246,43800741151,g3t1_4,,running
Status,247,43801443735,g3t1_2,,success
Status,248,43807399486,g3t1_4,,success
Status,249,44000257557,g3t1_2,,running
Status,250,44001400818,g3t1_2,,success
Status,251,44200805460,g3t1_2,,running
Status,252,44202376089,g3t1_2,,success
Status,253,44401020108,g3t1_2,,running
Status,254,44402364400,g3t1_2,,success
Status,255,44598945382,g4t1,,success
Status,256,44600731597,g3t1_2,,running
Status,257,44601924066,g3t1_2,,success
Status,258,44800929026,g3t1_2,,running
Status,259,44800994404,g3t1_4,,running
Status,260,44802033714,g3t1_2,,success
Status,261,44810349707,g3t1_4,,success
Status,262,45001042708,g3t1_2,,running
Status,263,45002346854,g3t1_2,,success
Status,264,45201161147,g3t1_2,,running
Status,265,45202497036,g3t1_2,,success
Status,266,45401321308,g3t1_2,,running
Status,267,45402732230,g3t1_2,,success
Status,268,45599369386,g4t1,,success
Status,269,45600927623,g3t1_2,,running
Status,270,45602167361,g3t1_2,,success
Status,271,45802503570,g3t1_4,,running
Status,272,45802594603,g3t1_2,,running
Status,273,45803860535,g3t1_2,,success
Status,274,45808422877,g3t1_4,,success
Status,275,46001491799,g3t1_2,,running
Status,276,46002795942,g3t1_2,,success
Status,277,46102850284,g3t1_1,,running
Status,278,46104023439,g3t1_1,,success
Status,279,46201230599,g3t1_2,,running
Status,280,46202461885,g3t1_2,,success
Status,281,46401305441,g3t1_2,,running
Status,282,46402541534,g3t1_2,,success
Status,283,46599353884,g4t1,,success
Status,284,46601347732,g3t1_2,,running
Status,285,46602615909,g3t1_2,,success
Status,286,46801297489,g3t1_4,,running
Status,287,46801515734,g3t1_2,,running
Status,288,46803430083,g3t1_2,,success
Status,289,46808736233,g3t1_4,,success
Status,290,47001950542,g3t1_2,,running
Status,291,47003191289,g3t1_2,,success
Status,292,47202130388,g3t1_2,,running
Status,293,47203565578,g3t1_2,,success
Status,294,47402156393,g3t1_2,,running
Status,295,47403282647,g3t1_2,,success
Status,296,47599408872,g4t1,,success
Status,297,47601787742,g3t1_2,,running
Status,298,47603073325,g3t1_2,,success
Status,299,47801103265,g3t1_4,,running
Status,300,47801883491,g3t1_2,,running
Status,301,47803252476,g3t1_2,,success
Status,302,47808860046,g3t1_4,,success
Status,303,48001774947,g3t1_2,,running
Status,304,48002315035,g3t1_2,,success
Status,305,48201841290,g3t1_2,,running
Status,306,48202273027,g3t1_2,,success
Status,307,48402394007,g3t1_2,,running
Status,308,48403346879,g3t1_2,,success
Status,309,48599424532,g4t1,,success
Status,310,48602277489,g3t1_2,,running
Status,311,48603488946,g3t1_2,,success
Status,312,48801133816,g3t1_4,,running
Status,313,48802277341,g3t1_2,,running
Status,314,48804120653,g3t1_2,,success
Status,315,48809456728,g3t1_4,,success
Status,316,49002920837,g3t1_2,,running
Status,317,49004453866,g3t1_2,,success
Status,318,49202252649,g3t1_2,,running
Status,319,49202943970,g3t1_2,,success
Status,320,49402315035,g3t1_2,,running
Status,321,49402787766,g3t1_2,,success
Status,322,49598745989,g4t1,,success
Status,323,49602412761,g3t1_2,,running
Status,324,49603184148,g3t1_2,,success
Status,325,49801368755,g3t1_4,,running
Status,326,49802792550,g3t1_2,,running
Status,327,49804522915,g3t1_2,,success
Status,328,49810603393,g3t1_4,,success
Status,329,50002861657,g3t1_2,,running
Status,330,50003968680,g3t1_2,,success
Status,331,50202811064,g3t1_2,,running
Status,332,50203743197,g3t1_2,,success
Status,333,50403088647,g3t1_2,,running
Status,334,50404335658,g3t1_2,,success
Status,336,50529160996,g4t1,,status
Status,337,50602798832,g3t1_2,,running
Status,338,50603233102,g3t1_2,,success
Status,339,50801042894,g3t1_4,,running
Status,340,50802844278,g3t1_2,,running
Status,341,50803505075,g3t1_2,,success
Status,342,50804389776,g3t1_4,,success
Status,343,51003245665,g3t1_2,,running
Status,344,51004438686,g3t1_2,,success
Status,345,51103048637,g3t1_1,,running
Status,346,51104333235,g3t1_1,,success
Status,347,51203110640,g3t1_2,,running
Status,348,51204047298,g3t1_2,,success
Status,349,51403165464,g3t1_2,,running
Status,350,51403638750,g3t1_2,,success
Status,351,51603225872,g3t1_2,,running
Status,352,51603746072,g3t1_2,,success
Status,353,51801645478,g3t1_4,,running
Status,354,51803297142,g3t1_2,,running
Status,355,51804336559,g3t1_2,,success
Status,356,51804799705,g3t1_4,,success
Status,358,51806166586,g3t1_4,,status
Status,359,52003493298,g3t1_2,,running
Status,360,52004466568,g3t1_2,,success
