
Status,2,3467108885,/g4t1,,init
Status,3,8578343266,/g3t1_1,,init
Status,5,8592483593,/g3t1_1,,init
Status,6,8592506567,/g3t1_1,,running
Status,7,8603296698,/g3t1_1,,success
Status,8,8642611109,/g3t1_1,,running
Status,9,8782758484,/g3t1_2,,init
Status,11,8782859123,/g3t1_3,,init
Status,13,8792125171,/g3t1_2,,init
Status,14,8792137923,/g3t1_2,,running
Status,15,8792717574,/g3t1_3,,init
Status,16,8792731201,/g3t1_3,,running
Status,74,13605042223,/g3t1_1,,success
Status,75,13605110831,/g3t1_1,,running
Status,76,13609208910,/g3t1_2,,success
Status,77,13609682494,/g3t1_2,,running
Status,78,13609929039,/g3t1_3,,success
Status,79,13610240676,/g3t1_3,,running
Status,83,13689787845,/g4t1,,success
Status,84,13789828777,/g4t1,,success
Status,88,13890252451,/g4t1,,success
Status,89,13990509118,/g4t1,,success
Status,93,14090589814,/g4t1,,success
Status,94,14190851315,/g4t1,,success
Status,98,14290910813,/g4t1,,success
Status,99,14391075984,/g4t1,,success
Status,103,14491243906,/g4t1,,success
Status,104,14591438510,/g4t1,,success
Status,108,14691642524,/g4t1,,success
Status,109,14791786362,/g4t1,,success
Status,113,14891894737,/g4t1,,success
Status,114,14992011158,/g4t1,,success
Status,118,15092194790,/g4t1,,success
Status,119,15192296210,/g4t1,,success
Status,123,15291900367,/g4t1,,success
Status,124,15392661874,/g4t1,,success
Status,128,15492664257,/g4t1,,success
Status,129,15592876320,/g4t1,,success
Status,130,15693100552,/g4t1,,success
Status,131,15793263381,/g4t1,,success
Status,132,15893460530,/g4t1,,success
Status,133,15993437061,/g4t1,,success
Status,134,16093558413,/g4t1,,success
Status,135,16193686877,/g4t1,,success
Status,136,16293828016,/g4t1,,success
Status,137,16393827779,/g4t1,,success
Status,141,16493902050,/g4t1,,success
Status,142,16594094805,/g4t1,,success
Status,146,16694199879,/g4t1,,success
Status,147,16794329608,/g4t1,,success
Status,151,16894324522,/g4t1,,success
Status,152,16994464236,/g4t1,,success
Status,156,17094585621,/g4t1,,success
Status,157,17194829464,/g4t1,,success
Status,161,17295045255,/g4t1,,success
Status,162,17395377085,/g4t1,,success
Status,166,17495672184,/g4t1,,success
Status,167,17595737420,/g4t1,,success
Status,171,17695691150,/g4t1,,success
Status,172,17795787387,/g4t1,,success
Status,176,17895403201,/g4t1,,success
Status,177,17995994487,/g4t1,,success
Status,181,18096478068,/g4t1,,success
Status,182,18196328029,/g4t1,,success
Status,186,18296468599,/g4t1,,success
Status,187,18395794178,/g4t1,,success
Status,191,18496671333,/g4t1,,success
Status,192,18596615495,/g4t1,,success
Status,193,18605268979,/g3t1_1,,fail
Status,194,18605330985,/g3t1_1,,running
Status,195,18605356320,/g3t1_3,,fail
Status,196,18605385548,/g3t1_2,,success
Status,197,18605554349,/g3t1_3,,running
Status,198,18605585683,/g3t1_2,,running
Status,202,18697066079,/g4t1,,success
Status,203,18797228792,/g4t1,,success
Status,207,18897370845,/g4t1,,success
Status,208,18997639974,/g4t1,,success
Status,212,19097392255,/g4t1,,success
Status,213,19197504144,/g4t1,,success
Status,217,19297914254,/g4t1,,success
Status,218,19397941190,/g4t1,,success
Status,222,19498110898,/g4t1,,success
Status,223,19597388411,/g4t1,,success
Status,224,19698242811,/g4t1,,success
Status,225,19798346770,/g4t1,,success
Status,226,19898832090,/g4t1,,success
Status,227,19999189912,/g4t1,,success
Status,228,20099241332,/g4t1,,success
Status,229,20199312085,/g4t1,,success
Status,230,20299839416,/g4t1,,success
Status,231,20399918117,/g4t1,,success
Status,235,20500145973,/g4t1,,success
Status,236,20600234709,/g4t1,,success
Status,240,20700382384,/g4t1,,success
Status,241,20800366593,/g4t1,,success
Status,245,20900538887,/g4t1,,success
Status,246,21000546408,/g4t1,,success
Status,250,21100788937,/g4t1,,success
Status,251,21200915946,/g4t1,,success
Status,255,21301250265,/g4t1,,success
Status,256,21401443018,/g4t1,,success
Status,260,21500620389,/g4t1,,success
Status,261,21601722627,/g4t1,,success
Status,265,21701566157,/g4t1,,success
Status,266,21801670776,/g4t1,,success
Status,270,21901828240,/g4t1,,success
Status,271,22002212209,/g4t1,,success
Status,275,22102016091,/g4t1,,success
Status,276,22202211070,/g4t1,,success
Status,280,22302296881,/g4t1,,success
Status,281,22402481511,/g4t1,,success
Status,285,22502670901,/g4t1,,success
Status,286,22602846729,/g4t1,,success
Status,290,22702870306,/g4t1,,success
Status,291,22803400227,/g4t1,,success
Status,295,22903550611,/g4t1,,success
Status,296,23003570719,/g4t1,,success
Status,300,23103675763,/g4t1,,success
Status,301,23203956036,/g4t1,,success
Status,305,23303961232,/g4t1,,success
Status,306,23404193530,/g4t1,,success
Status,310,23504289367,/g4t1,,success
Status,311,23605147147,/g3t1_1,,success
Status,312,23605236993,/g4t1,,success
Status,313,23605902932,/g3t1_3,,fail
Status,314,23605978689,/g3t1_3,,running
Status,315,23606081028,/g3t1_2,,success
Status,316,23606109682,/g3t1_2,,running
Status,317,23606141385,/g3t1_1,,running
Status,318,23704652524,/g4t1,,success
Status,319,23804605558,/g4t1,,success
Status,320,23904723485,/g4t1,,success
Status,321,24005184815,/g4t1,,success
Status,322,24105168658,/g4t1,,success
Status,323,24205256084,/g4t1,,success
Status,324,24305372903,/g4t1,,success
Status,325,24405430468,/g4t1,,success
Status,329,24505801906,/g4t1,,success
Status,330,24605829893,/g4t1,,success
Status,334,24705925328,/g4t1,,success
Status,335,24805347494,/g4t1,,success
Status,339,24906068331,/g4t1,,success
Status,340,25006547782,/g4t1,,success
Status,344,25106417263,/g4t1,,success
Status,345,25206518677,/g4t1,,success
Status,349,25306778061,/g4t1,,success
Status,350,25407212557,/g4t1,,success
Status,354,25507173605,/g4t1,,success
Status,355,25607184119,/g4t1,,success
Status,359,25707264127,/g4t1,,success
Status,360,25807459835,/g4t1,,success
Status,364,25907663748,/g4t1,,success
Status,365,26008110162,/g4t1,,success
Status,369,26108027373,/g4t1,,success
Status,370,26208090004,/g4t1,,success
Status,374,26308293605,/g4t1,,success
Status,375,26408740602,/g4t1,,success
Status,379,26508659524,/g4t1,,success
Status,380,26608610370,/g4t1,,success
Status,384,26708826995,/g4t1,,success
Status,385,26809053815,/g4t1,,success
Status,389,26909100973,/g4t1,,success
Status,390,27009178427,/g4t1,,success
Status,394,27109506918,/g4t1,,success
Status,395,27209733256,/g4t1,,success
Status,399,27309410459,/g4t1,,success
Status,400,27410099931,/g4t1,,success
Status,404,27510400542,/g4t1,,success
Status,405,27610217347,/g4t1,,success
Status,406,27710426685,/g4t1,,success
Status,407,27810671631,/g4t1,,success
Status,408,27911082043,/g4t1,,success
Status,409,28011280822,/g4t1,,success
Status,410,28111476518,/g4t1,,success
Status,411,28211414005,/g4t1,,success
Status,412,28311788885,/g4t1,,success
Status,413,28411817391,/g4t1,,success
Status,417,28512025880,/g4t1,,success
Status,418,28605742087,/g3t1_1,,success
Status,419,28606013683,/g3t1_2,,success
Status,420,28606076716,/g3t1_2,,running
Status,421,28606153659,/g3t1_3,,success
Status,422,28606369828,/g3t1_1,,running
Status,423,28606402591,/g3t1_3,,running
Status,424,28612234687,/g4t1,,success
Status,428,28712370193,/g4t1,,success
Status,429,28812569363,/g4t1,,success
Status,433,28911882257,/g4t1,,success
Status,434,29012816543,/g4t1,,success
Status,438,29112830442,/g4t1,,success
Status,439,29212695289,/g4t1,,success
Status,443,29312880802,/g4t1,,success
Status,444,29412895211,/g4t1,,success
Status,448,29513026118,/g4t1,,success
Status,449,29613378404,/g4t1,,success
Status,453,29713294736,/g4t1,,success
Status,454,29813317881,/g4t1,,success
Status,458,29913340188,/g4t1,,success
Status,459,30013798015,/g4t1,,success
Status,463,30114015108,/g4t1,,success
Status,464,30213958473,/g4t1,,success
Status,468,30314094764,/g4t1,,success
Status,469,30414401040,/g4t1,,success
Status,473,30514718922,/g4t1,,success
Status,474,30614938156,/g4t1,,success
Status,478,30714714211,/g4t1,,success
Status,479,30815278826,/g4t1,,success
Status,483,30914938051,/g4t1,,success
Status,484,31015323594,/g4t1,,success
Status,488,31114649383,/g4t1,,success
Status,489,31215331839,/g4t1,,success
Status,490,31315538463,/g4t1,,success
Status,491,31415527666,/g4t1,,success
Status,492,31515206994,/g4t1,,success
Status,493,31615350225,/g4t1,,success
Status,494,31716404605,/g4t1,,success
Status,495,31816135507,/g4t1,,success
Status,496,31916555220,/g4t1,,success
Status,497,32016485323,/g4t1,,success
Status,498,32116648515,/g4t1,,success
Status,499,32216393959,/g4t1,,success
Status,500,32317057515,/g4t1,,success
Status,501,32417089483,/g4t1,,success
Status,502,32517075261,/g4t1,,success
Status,503,32617190557,/g4t1,,success
Status,504,32717299233,/g4t1,,success
Status,505,32817428111,/g4t1,,success
Status,506,32917546215,/g4t1,,success
Status,507,33017930578,/g4t1,,success
Status,508,33117937694,/g4t1,,success
Status,509,33217948896,/g4t1,,success
Status,510,33318161963,/g4t1,,success
Status,511,33418297051,/g4t1,,success
Status,512,33518404094,/g4t1,,success
Status,513,33605245868,/g3t1_3,,success
Status,514,33605363115,/g3t1_3,,running
Status,515,33605682596,/g3t1_1,,success
Status,516,33605757699,/g3t1_1,,running
Status,517,33605794918,/g3t1_2,,fail
Status,518,33605827815,/g3t1_2,,running
Status,519,33618479336,/g4t1,,success
Status,520,33718583629,/g4t1,,success
Status,521,33817863385,/g4t1,,success
Status,522,33919356548,/g4t1,,success
Status,523,34019190609,/g4t1,,success
Status,524,34119439486,/g4t1,,success
Status,525,34219519502,/g4t1,,success
Status,526,34319647850,/g4t1,,success
Status,527,34420068897,/g4t1,,success
Status,528,34520325421,/g4t1,,success
Status,529,34620583292,/g4t1,,success
Status,530,34720683520,/g4t1,,success
Status,531,34820859811,/g4t1,,success
Status,532,34921005868,/g4t1,,success
Status,533,35021078079,/g4t1,,success
Status,534,35121222590,/g4t1,,success
Status,535,35221178641,/g4t1,,success
Status,536,35321573517,/g4t1,,success
Status,537,35421908837,/g4t1,,success
Status,538,35521999549,/g4t1,,success
Status,539,35622095508,/g4t1,,success
Status,540,35722316249,/g4t1,,success
Status,541,35822392936,/g4t1,,success
Status,542,35922262637,/g4t1,,success
Status,543,36022803665,/g4t1,,success
Status,544,36122623924,/g4t1,,success
Status,545,36222091054,/g4t1,,success
Status,546,36323449738,/g4t1,,success
Status,547,36423678221,/g4t1,,success
Status,548,36524131662,/g4t1,,success
Status,549,36624275499,/g4t1,,success
Status,550,36724541221,/g4t1,,success
Status,551,36824444742,/g4t1,,success
Status,552,36923756614,/g4t1,,success
Status,553,37024650091,/g4t1,,success
Status,554,37124808182,/g4t1,,success
Status,555,37224688709,/g4t1,,success
Status,556,37325037445,/g4t1,,success
Status,557,37425336725,/g4t1,,success
Status,558,37525551598,/g4t1,,success
Status,559,37625389989,/g4t1,,success
Status,560,37725462132,/g4t1,,success
Status,561,37825648154,/g4t1,,success
Status,562,37925907360,/g4t1,,success
Status,563,38025921470,/g4t1,,success
Status,564,38126104746,/g4t1,,success
Status,565,38226197960,/g4t1,,success
Status,566,38326393420,/g4t1,,success
Status,567,38426504079,/g4t1,,success
Status,568,38526628012,/g4t1,,success
Status,569,38605611022,/g3t1_1,,success
Status,570,38605701395,/g3t1_1,,running
Status,571,38605827251,/g3t1_3,,fail
Status,572,38605873698,/g3t1_3,,running
Status,573,38605915540,/g3t1_2,,success
Status,574,38605948752,/g3t1_2,,running
Status,575,38626826933,/g4t1,,success
Status,576,38727116489,/g4t1,,success
Status,577,38826320459,/g4t1,,success
Status,578,38927466397,/g4t1,,success
Status,579,39026905943,/g4t1,,success
Status,580,39127941934,/g4t1,,success
Status,581,39227962828,/g4t1,,success
Status,582,39328468690,/g4t1,,success
Status,583,39428720190,/g4t1,,success
Status,584,39528945656,/g4t1,,success
Status,585,39628938497,/g4t1,,success
Status,586,39729093931,/g4t1,,success
Status,587,39829288960,/g4t1,,success
Status,588,39929215249,/g4t1,,success
Status,589,40029317559,/g4t1,,success
Status,590,40129708537,/g4t1,,success
Status,591,40229922281,/g4t1,,success
Status,592,40329418639,/g4t1,,success
Status,593,40430032907,/g4t1,,success
Status,594,40530427877,/g4t1,,success
Status,595,40630640653,/g4t1,,success
Status,596,40730822154,/g4t1,,success
Status,597,40830862890,/g4t1,,success
Status,598,40931158511,/g4t1,,success
Status,599,41031210479,/g4t1,,success
Status,600,41131545756,/g4t1,,success
Status,601,41231481670,/g4t1,,success
Status,602,41331974460,/g4t1,,success
Status,603,41432233897,/g4t1,,success
Status,604,41532420583,/g4t1,,success
Status,605,41632496679,/g4t1,,success
Status,606,41732721035,/g4t1,,success
Status,607,41832854417,/g4t1,,success
Status,608,41932901802,/g4t1,,success
Status,609,42032965700,/g4t1,,success
Status,610,42133141117,/g4t1,,success
Status,611,42233063680,/g4t1,,success
Status,612,42333438866,/g4t1,,success
Status,613,42433746003,/g4t1,,success
Status,614,42533954947,/g4t1,,success
Status,615,42634115266,/g4t1,,success
Status,616,42734242627,/g4t1,,success
Status,617,42834464020,/g4t1,,success
Status,618,42934474830,/g4t1,,success
Status,619,43034733481,/g4t1,,success
Status,620,43134657991,/g4t1,,success
Status,621,43234118680,/g4t1,,success
Status,622,43334764885,/g4t1,,success
Status,623,43435137606,/g4t1,,success
Status,624,43535278234,/g4t1,,success
Status,625,43605178846,/g3t1_2,,success
Status,626,43605273079,/g3t1_2,,running
Status,627,43605738725,/g3t1_1,,success
Status,628,43605861882,/g3t1_1,,running
Status,629,43606045517,/g3t1_3,,fail
Status,630,43606096416,/g3t1_3,,running
Status,631,43635630004,/g4t1,,success
Status,632,43735544697,/g4t1,,success
Status,633,43835539525,/g4t1,,success
Status,634,43935939752,/g4t1,,success
Status,635,44035947016,/g4t1,,success
Status,636,44136174250,/g4t1,,success
Status,637,44236359043,/g4t1,,success
Status,638,44336424337,/g4t1,,success
Status,639,44436465328,/g4t1,,success
Status,640,44536572276,/g4t1,,success
Status,641,44636771796,/g4t1,,success
Status,642,44736873888,/g4t1,,success
Status,643,44837034401,/g4t1,,success
Status,644,44937147253,/g4t1,,success
Status,645,45037375146,/g4t1,,success
Status,646,45137462684,/g4t1,,success
Status,647,45237553088,/g4t1,,success
Status,648,45337701388,/g4t1,,success
Status,649,45437838879,/g4t1,,success
Status,650,45538100020,/g4t1,,success
Status,651,45638390623,/g4t1,,success
Status,652,45738341088,/g4t1,,success
Status,653,45838395421,/g4t1,,success
Status,654,45938464033,/g4t1,,success
Status,655,46038586414,/g4t1,,success
Status,656,46138728658,/g4t1,,success
Status,657,46238900130,/g4t1,,success
Status,658,46339106176,/g4t1,,success
Status,659,46439225785,/g4t1,,success
Status,660,46539516498,/g4t1,,success
Status,661,46639695669,/g4t1,,success
Status,662,46740103723,/g4t1,,success
Status,663,46840338302,/g4t1,,success
Status,664,46940745028,/g4t1,,success
Status,665,47040853895,/g4t1,,success
Status,666,47140985161,/g4t1,,success
Status,667,47241058627,/g4t1,,success
Status,668,47341383360,/g4t1,,success
Status,669,47441607426,/g4t1,,success
Status,670,47541785775,/g4t1,,success
Status,671,47641862366,/g4t1,,success
Status,672,47742036746,/g4t1,,success
Status,673,47842232032,/g4t1,,success
Status,674,47942363978,/g4t1,,success
Status,675,48042596759,/g4t1,,success
Status,676,48142906017,/g4t1,,success
Status,677,48242564211,/g4t1,,success
Status,678,48343074999,/g4t1,,success
Status,679,48443368649,/g4t1,,success
Status,680,48543490262,/g4t1,,success
Status,681,48606127338,/g3t1_2,,success
Status,682,48606309568,/g3t1_2,,running
Status,683,48606369187,/g3t1_1,,success
Status,684,48606489681,/g3t1_1,,running
Status,685,48606516439,/g3t1_3,,success
Status,686,48606540846,/g3t1_3,,running
Status,687,48643305233,/g4t1,,success
Status,688,48743895906,/g4t1,,success
Status,689,48843956680,/g4t1,,success
Status,690,48943618792,/g4t1,,success
Status,691,49044487048,/g4t1,,success
Status,692,49144578572,/g4t1,,success
Status,693,49244679450,/g4t1,,success
Status,694,49344703075,/g4t1,,success
Status,695,49444915831,/g4t1,,success
Status,696,49545068835,/g4t1,,success
Status,697,49645315434,/g4t1,,success
Status,698,49745512350,/g4t1,,success
Status,699,49845599276,/g4t1,,success
Status,700,49945832754,/g4t1,,success
Status,701,50046106528,/g4t1,,success
Status,702,50146098932,/g4t1,,success
Status,703,50246384005,/g4t1,,success
Status,704,50346534841,/g4t1,,success
Status,705,50446828769,/g4t1,,success
Status,706,50547277800,/g4t1,,success
Status,707,50647415145,/g4t1,,success
Status,708,50747771845,/g4t1,,success
Status,709,50847866262,/g4t1,,success
Status,710,50948132319,/g4t1,,success
Status,711,51048605119,/g4t1,,success
Status,712,51148618083,/g4t1,,success
Status,713,51248764786,/g4t1,,success
Status,714,51348651550,/g4t1,,success
Status,715,51448826329,/g4t1,,success
Status,716,51548738922,/g4t1,,success
Status,717,51648920052,/g4t1,,success
Status,718,51749051159,/g4t1,,success
Status,719,51849191102,/g4t1,,success
Status,720,51949347169,/g4t1,,success
Status,721,52048809048,/g4t1,,success
Status,722,52149345340,/g4t1,,success
Status,723,52249583370,/g4t1,,success
Status,724,52350116301,/g4t1,,success
Status,725,52450360682,/g4t1,,success
Status,726,52550683424,/g4t1,,success
Status,727,52650632539,/g4t1,,success
Status,728,52751030100,/g4t1,,success
Status,729,52851444173,/g4t1,,success
Status,730,52951584278,/g4t1,,success
Status,731,53051530054,/g4t1,,success
Status,732,53151983626,/g4t1,,success
Status,733,53251795478,/g4t1,,success
Status,734,53351187346,/g4t1,,success
Status,735,53452278465,/g4t1,,success
Status,736,53552285721,/g4t1,,success
Status,737,53606105008,/g3t1_2,,success
Status,738,53606237588,/g3t1_2,,running
Status,739,53606270162,/g3t1_1,,success
Status,740,53606355147,/g3t1_1,,running
Status,741,53606376276,/g3t1_3,,success
Status,742,53606398250,/g3t1_3,,running
Status,743,53652626370,/g4t1,,success
Status,744,53752436473,/g4t1,,success
Status,745,53852633078,/g4t1,,success
Status,746,53952137755,/g4t1,,success
Status,747,54052773306,/g4t1,,success
Status,748,54152240546,/g4t1,,success
Status,749,54252292484,/g4t1,,success
Status,750,54353132909,/g4t1,,success
Status,751,54453331597,/g4t1,,success
Status,752,54553172837,/g4t1,,success
Status,753,54653346122,/g4t1,,success
Status,754,54753346297,/g4t1,,success
Status,755,54853692616,/g4t1,,success
Status,756,54953795066,/g4t1,,success
Status,757,55053761407,/g4t1,,success
Status,758,55153977025,/g4t1,,success
Status,759,55254081776,/g4t1,,success
Status,760,55354267360,/g4t1,,success
Status,761,55454319677,/g4t1,,success
Status,762,55554497107,/g4t1,,success
Status,763,55654669780,/g4t1,,success
Status,764,55754885683,/g4t1,,success
Status,765,55855154920,/g4t1,,success
Status,766,55955124352,/g4t1,,success
Status,767,56055302952,/g4t1,,success
Status,768,56155391038,/g4t1,,success
Status,769,56255573042,/g4t1,,success
Status,770,56355684620,/g4t1,,success
Status,771,56455840358,/g4t1,,success
Status,772,56554957823,/g4t1,,success
Status,773,56655899550,/g4t1,,success
Status,774,56756241037,/g4t1,,success
Status,775,56856255354,/g4t1,,success
Status,776,56956223217,/g4t1,,success
Status,777,57056263828,/g4t1,,success
Status,778,57155982546,/g4t1,,success
Status,779,57255854590,/g4t1,,success
Status,780,57356290584,/g4t1,,success
Status,781,57456835252,/g4t1,,success
Status,782,57557060221,/g4t1,,success
Status,783,57657354755,/g4t1,,success
Status,784,57757092229,/g4t1,,success
Status,785,57857900588,/g4t1,,success
Status,786,57958004266,/g4t1,,success
Status,787,58058273484,/g4t1,,success
Status,788,58158531476,/g4t1,,success
Status,789,58258605294,/g4t1,,success
Status,790,58358826418,/g4t1,,success
Status,791,58459248193,/g4t1,,success
Status,792,58559314931,/g4t1,,success
Status,793,58606212515,/g3t1_2,,success
Status,794,58606300682,/g3t1_2,,running
Status,795,58606431715,/g3t1_3,,success
Status,796,58606467352,/g3t1_3,,running
Status,797,58607166120,/g3t1_1,,success
Status,798,58607266602,/g3t1_1,,running
Status,799,58659090976,/g4t1,,success
Status,800,58758712294,/g4t1,,success
Status,801,58858819426,/g4t1,,success
Status,802,58959845876,/g4t1,,success
Status,803,59059918654,/g4t1,,success
Status,804,59159988085,/g4t1,,success
Status,805,59260132040,/g4t1,,success
Status,806,59360363034,/g4t1,,success
Status,807,59460227393,/g4t1,,success
Status,808,59560444176,/g4t1,,success
Status,809,59659880576,/g4t1,,success
Status,810,59760578731,/g4t1,,success
Status,811,59860236843,/g4t1,,success
Status,815,59960199938,/g4t1,,success
Status,816,60061060813,/g4t1,,success
Status,817,60161107786,/g4t1,,success
Status,818,60261250699,/g4t1,,success
Status,819,60361392443,/g4t1,,success
Status,820,60461600243,/g4t1,,success
Status,821,60561720290,/g4t1,,success
Status,822,60661881758,/g4t1,,success
Status,823,60761626958,/g4t1,,success
Status,824,60861874486,/g4t1,,success
Status,825,60962056642,/g4t1,,success
Status,826,61062222922,/g4t1,,success
Status,827,61162358965,/g4t1,,success
Status,828,61261907441,/g4t1,,success
Status,829,61361958642,/g4t1,,success
Status,830,61461996484,/g4t1,,success
Status,831,61561965911,/g4t1,,success
Status,832,61662086868,/g4t1,,success
Status,833,61762789078,/g4t1,,success
Status,834,61863186492,/g4t1,,success
Status,835,61962415763,/g4t1,,success
Status,836,62062756678,/g4t1,,success
Status,837,62163291972,/g4t1,,success
Status,838,62262771022,/g4t1,,success
Status,839,62363491814,/g4t1,,success
Status,840,62463071312,/g4t1,,success
Status,841,62563025546,/g4t1,,success
Status,842,62663015579,/g4t1,,success
Status,843,62763120974,/g4t1,,success
Status,844,62863157916,/g4t1,,success
Status,845,62963294630,/g4t1,,success
Status,846,63063335837,/g4t1,,success
Status,847,63164128479,/g4t1,,success
Status,848,63263641884,/g4t1,,success
Status,849,63363592014,/g4t1,,success
Status,850,63463692801,/g4t1,,success
Status,851,63563811497,/g4t1,,success
Status,852,63604645823,/g3t1_3,,success
Status,853,63604689626,/g3t1_3,,running
Status,854,63604701250,/g3t1_2,,success
Status,855,63604722620,/g3t1_2,,running
Status,856,63604758278,/g3t1_1,,success
Status,857,63604777979,/g3t1_1,,running
Status,858,63663984702,/g4t1,,success
Status,859,63764041066,/g4t1,,success
Status,860,63864007683,/g4t1,,success
Status,861,63964156858,/g4t1,,success
Status,862,64064187583,/g4t1,,success
Status,863,64164222756,/g4t1,,success
Status,864,64264283275,/g4t1,,success
Status,865,64364457472,/g4t1,,success
Status,866,64464563670,/g4t1,,success
Status,867,64564656534,/g4t1,,success
Status,868,64664724233,/g4t1,,success
Status,869,64764851198,/g4t1,,success
Status,870,64865473952,/g4t1,,success
Status,871,64965784206,/g4t1,,success
Status,875,65065063001,/g4t1,,success
Status,876,65165141892,/g4t1,,success
Status,877,65265204743,/g4t1,,success
Status,878,65365306362,/g4t1,,success
Status,879,65465411851,/g4t1,,success
Status,880,65565471886,/g4t1,,success
Status,881,65666241574,/g4t1,,success
Status,882,65766335599,/g4t1,,success
Status,883,65866520385,/g4t1,,success
Status,884,65966702019,/g4t1,,success
Status,885,66066903029,/g4t1,,success
Status,886,66166366848,/g4t1,,success
Status,887,66267231969,/g4t1,,success
Status,888,66366555975,/g4t1,,success
Status,889,66466618828,/g4t1,,success
Status,890,66566642136,/g4t1,,success
Status,891,66666692602,/g4t1,,success
Status,892,66766847224,/g4t1,,success
Status,893,66867638503,/g4t1,,success
Status,894,66967771420,/g4t1,,success
Status,895,67067724042,/g4t1,,success
Status,896,67167923892,/g4t1,,success
Status,897,67268082379,/g4t1,,success
Status,898,67368394917,/g4t1,,success
Status,899,67468458318,/g4t1,,success
Status,900,67568608231,/g4t1,,success
Status,901,67668588279,/g4t1,,success
Status,902,67768616700,/g4t1,,success
Status,903,67868783876,/g4t1,,success
Status,904,67968994408,/g4t1,,success
Status,905,68069014847,/g4t1,,success
Status,906,68169175285,/g4t1,,success
Status,907,68269291049,/g4t1,,success
Status,908,68369371493,/g4t1,,success
Status,909,68469526871,/g4t1,,success
Status,910,68569617474,/g4t1,,success
Status,911,68605921146,/g3t1_3,,fail
Status,912,68606023820,/g3t1_3,,running
Status,913,68606500436,/g3t1_2,,success
Status,914,68606552995,/g3t1_2,,running
Status,915,68606576048,/g3t1_1,,success
Status,916,68606600188,/g3t1_1,,running
Status,917,68669873797,/g4t1,,success
Status,918,68770114230,/g4t1,,success
Status,919,68870213512,/g4t1,,success
Status,920,68970218126,/g4t1,,success
Status,921,69070371584,/g4t1,,success
Status,922,69170565058,/g4t1,,success
Status,923,69270537485,/g4t1,,success
Status,924,69370889822,/g4t1,,success
Status,925,69470858934,/g4t1,,success
Status,926,69570912938,/g4t1,,success
Status,927,69671132018,/g4t1,,success
Status,928,69771177766,/g4t1,,success
Status,929,69871410302,/g4t1,,success
Status,930,69971601471,/g4t1,,success
Status,931,70071956311,/g4t1,,success
Status,935,70172012181,/g4t1,,success
Status,936,70272069868,/g4t1,,success
Status,937,70372260056,/g4t1,,success
Status,938,70472354877,/g4t1,,success
Status,939,70572427134,/g4t1,,success
Status,940,70672519620,/g4t1,,success
Status,941,70772652033,/g4t1,,success
Status,942,70872712513,/g4t1,,success
Status,943,70972752960,/g4t1,,success
Status,944,71072797993,/g4t1,,success
Status,945,71172357191,/g4t1,,success
Status,946,71272403236,/g4t1,,success
Status,947,71372513275,/g4t1,,success
Status,948,71472597019,/g4t1,,success
Status,949,71573201410,/g4t1,,success
Status,950,71673465247,/g4t1,,success
Status,951,71773104655,/g4t1,,success
Status,952,71873153573,/g4t1,,success
Status,953,71973781473,/g4t1,,success
Status,954,72074011882,/g4t1,,success
Status,955,72174231206,/g4t1,,success
Status,956,72274371303,/g4t1,,success
Status,957,72374516668,/g4t1,,success
Status,958,72474653006,/g4t1,,success
Status,959,72574451463,/g4t1,,success
Status,960,72675033278,/g4t1,,success
Status,961,72775080793,/g4t1,,success
Status,962,72874449415,/g4t1,,success
Status,963,72974570756,/g4t1,,success
Status,964,73075254461,/g4t1,,success
Status,965,73175520759,/g4t1,,success
Status,966,73275607741,/g4t1,,success
Status,967,73375808662,/g4t1,,success
Status,968,73475855248,/g4t1,,success
Status,969,73575920190,/g4t1,,success
Status,970,73606427521,/g3t1_3,,success
Status,971,73606485896,/g3t1_1,,success
Status,972,73606511613,/g3t1_1,,running
Status,973,73606615047,/g3t1_3,,running
Status,974,73607192032,/g3t1_2,,success
Status,975,73607283137,/g3t1_2,,running
Status,976,73676203751,/g4t1,,success
Status,977,73776155580,/g4t1,,success
Status,978,73875602326,/g4t1,,success
Status,979,73976581341,/g4t1,,success
Status,980,74076817462,/g4t1,,success
Status,981,74176667868,/g4t1,,success
Status,982,74276644216,/g4t1,,success
Status,983,74376810935,/g4t1,,success
Status,984,74476926902,/g4t1,,success
Status,985,74577001741,/g4t1,,success
Status,986,74677147147,/g4t1,,success
Status,987,74777217307,/g4t1,,success
Status,988,74877258223,/g4t1,,success
Status,989,74977410038,/g4t1,,success
Status,990,75077522513,/g4t1,,success
Status,991,75177655549,/g4t1,,success
Status,995,75277729035,/g4t1,,success
Status,996,75377792494,/g4t1,,success
Status,997,75477915037,/g4t1,,success
Status,998,75577987556,/g4t1,,success
Status,999,75677322917,/g4t1,,success
Status,1000,75777422589,/g4t1,,success
Status,1001,75878342376,/g4t1,,success
Status,1002,75978340947,/g4t1,,success
Status,1003,76077623418,/g4t1,,success
Status,1004,76177718417,/g4t1,,success
Status,1005,76277789396,/g4t1,,success
Status,1006,76378470159,/g4t1,,success
Status,1007,76478631483,/g4t1,,success
Status,1008,76578814886,/g4t1,,success
Status,1009,76678883251,/g4t1,,success
Status,1010,76779125644,/g4t1,,success
Status,1011,76879365445,/g4t1,,success
Status,1012,76979539296,/g4t1,,success
Status,1013,77079609727,/g4t1,,success
Status,1014,77179631099,/g4t1,,success
Status,1015,77279115743,/g4t1,,success
Status,1016,77379815631,/g4t1,,success
Status,1017,77480006466,/g4t1,,success
Status,1018,77580103552,/g4t1,,success
Status,1019,77680160040,/g4t1,,success
Status,1020,77779695302,/g4t1,,success
Status,1021,77880236095,/g4t1,,success
Status,1022,77980480245,/g4t1,,success
Status,1023,78080531985,/g4t1,,success
Status,1024,78180513529,/g4t1,,success
Status,1025,78280670997,/g4t1,,success
Status,1026,78380857236,/g4t1,,success
Status,1027,78480974668,/g4t1,,success
Status,1028,78581083745,/g4t1,,success
Status,1029,78606226314,/g3t1_1,,success
Status,1030,78606290158,/g3t1_1,,running
Status,1031,78606409853,/g3t1_3,,fail
Status,1032,78606448172,/g3t1_3,,running
Status,1033,78606895051,/g3t1_2,,success
Status,1034,78607201271,/g3t1_2,,running
Status,1035,78681429808,/g4t1,,success
Status,1036,78781459511,/g4t1,,success
Status,1037,78881616227,/g4t1,,success
Status,1038,78981655652,/g4t1,,success
Status,1039,79081106169,/g4t1,,success
Status,1040,79181681950,/g4t1,,success
Status,1041,79281923735,/g4t1,,success
Status,1042,79382123687,/g4t1,,success
Status,1043,79481522388,/g4t1,,success
Status,1044,79582323925,/g4t1,,success
Status,1045,79682488329,/g4t1,,success
Status,1046,79781983805,/g4t1,,success
Status,1047,79882618294,/g4t1,,success
Status,1048,79983129437,/g4t1,,success
Status,1049,80083026758,/g4t1,,success
Status,1050,80183173251,/g4t1,,success
Status,1051,80283232962,/g4t1,,success
Status,1055,80383527680,/g4t1,,success
Status,1056,80482789485,/g4t1,,success
Status,1057,80583501128,/g4t1,,success
Status,1058,80683095806,/g4t1,,success
Status,1059,80783807111,/g4t1,,success
Status,1060,80883281700,/g4t1,,success
Status,1061,80983152018,/g4t1,,success
Status,1062,81083284430,/g4t1,,success
Status,1063,81183378633,/g4t1,,success
Status,1064,81283783650,/g4t1,,success
Status,1065,81383840970,/g4t1,,success
Status,1066,81483776652,/g4t1,,success
Status,1067,81583874720,/g4t1,,success
Status,1068,81684334901,/g4t1,,success
Status,1069,81784618352,/g4t1,,success
Status,1070,81884337430,/g4t1,,success
Status,1071,81984824638,/g4t1,,success
Status,1072,82085080201,/g4t1,,success
Status,1073,82185209927,/g4t1,,success
Status,1074,82285418117,/g4t1,,success
Status,1075,82385520492,/g4t1,,success
Status,1076,82485648294,/g4t1,,success
Status,1077,82585780695,/g4t1,,success
Status,1078,82685929349,/g4t1,,success
Status,1079,82786030901,/g4t1,,success
Status,1080,82885806417,/g4t1,,success
Status,1081,82986267617,/g4t1,,success
Status,1082,83086468573,/g4t1,,success
Status,1083,83186580391,/g4t1,,success
Status,1084,83286764006,/g4t1,,success
Status,1085,83386891476,/g4t1,,success
Status,1086,83486956198,/g4t1,,success
Status,1087,83587156538,/g4t1,,success
Status,1088,83606414606,/g3t1_3,,fail
Status,1089,83606525703,/g3t1_3,,running
Status,1090,83606717656,/g3t1_1,,success
Status,1091,83606752103,/g3t1_1,,running
Status,1092,83606777745,/g3t1_2,,success
Status,1093,83606831031,/g3t1_2,,running
Status,1094,83687297723,/g4t1,,success
Status,1095,83787209144,/g4t1,,success
Status,1096,83887332463,/g4t1,,success
Status,1097,83987830107,/g4t1,,success
Status,1098,84087030921,/g4t1,,success
Status,1099,84187017278,/g4t1,,success
Status,1100,84287145440,/g4t1,,success
Status,1101,84387191416,/g4t1,,success
Status,1102,84487957273,/g4t1,,success
Status,1103,84588027282,/g4t1,,success
Status,1104,84688240215,/g4t1,,success
Status,1105,84787808719,/g4t1,,success
Status,1106,84888260651,/g4t1,,success
Status,1107,84988309231,/g4t1,,success
Status,1108,85088917903,/g4t1,,success
Status,1109,85188953796,/g4t1,,success
Status,1110,85289037762,/g4t1,,success
Status,1111,85389265295,/g4t1,,success
Status,1115,85489261662,/g4t1,,success
Status,1116,85589405218,/g4t1,,success
Status,1117,85689409930,/g4t1,,success
Status,1118,85789650891,/g4t1,,success
Status,1119,85889752616,/g4t1,,success
Status,1120,85989920349,/g4t1,,success
Status,1121,86090001337,/g4t1,,success
Status,1122,86190012139,/g4t1,,success
Status,1123,86290222109,/g4t1,,success
Status,1124,86390434699,/g4t1,,success
Status,1125,86490505878,/g4t1,,success
Status,1126,86590748376,/g4t1,,success
Status,1127,86690768099,/g4t1,,success
Status,1128,86790924484,/g4t1,,success
Status,1129,86891111895,/g4t1,,success
Status,1130,86990537284,/g4t1,,success
Status,1131,87091213644,/g4t1,,success
Status,1132,87191626711,/g4t1,,success
Status,1133,87291589679,/g4t1,,success
Status,1134,87391771641,/g4t1,,success
Status,1135,87491912602,/g4t1,,success
Status,1136,87592106198,/g4t1,,success
Status,1137,87692244366,/g4t1,,success
Status,1138,87792361426,/g4t1,,success
Status,1139,87892478840,/g4t1,,success
Status,1140,87991906702,/g4t1,,success
Status,1141,88092650231,/g4t1,,success
Status,1142,88192962716,/g4t1,,success
Status,1143,88292923657,/g4t1,,success
Status,1144,88393209221,/g4t1,,success
Status,1145,88493218731,/g4t1,,success
Status,1146,88592647248,/g4t1,,success
Status,1147,88605549843,/g3t1_2,,success
Status,1148,88605609744,/g3t1_2,,running
Status,1149,88605787099,/g3t1_1,,success
Status,1150,88605828007,/g3t1_1,,running
Status,1151,88606204892,/g3t1_3,,success
Status,1152,88606245930,/g3t1_3,,running
Status,1153,88693647606,/g4t1,,success
Status,1154,88793592801,/g4t1,,success
Status,1155,88893767371,/g4t1,,success
Status,1156,88994022575,/g4t1,,success
Status,1157,89094206733,/g4t1,,success
Status,1158,89194411898,/g4t1,,success
Status,1159,89294583562,/g4t1,,success
Status,1160,89394597826,/g4t1,,success
Status,1161,89494760615,/g4t1,,success
Status,1162,89594911369,/g4t1,,success
Status,1163,89694956055,/g4t1,,success
Status,1164,89795480533,/g4t1,,success
Status,1165,89895257999,/g4t1,,success
Status,1166,89995371667,/g4t1,,success
Status,1167,90095596808,/g4t1,,success
Status,1168,90195716330,/g4t1,,success
Status,1169,90295783228,/g4t1,,success
Status,1170,90396010755,/g4t1,,success
Status,1171,90496256271,/g4t1,,success
Status,1175,90596519779,/g4t1,,success
Status,1176,90696820048,/g4t1,,success
Status,1177,90796891810,/g4t1,,success
Status,1178,90896848109,/g4t1,,success
Status,1179,90996785893,/g4t1,,success
Status,1180,91096124667,/g4t1,,success
Status,1181,91197067252,/g4t1,,success
Status,1182,91296995468,/g4t1,,success
Status,1183,91397198636,/g4t1,,success
Status,1184,91497509178,/g4t1,,success
Status,1185,91597694201,/g4t1,,success
Status,1186,91697795817,/g4t1,,success
Status,1187,91799240596,/g4t1,,success
Status,1188,91898698460,/g4t1,,success
Status,1189,91998646735,/g4t1,,success
Status,1190,92098739596,/g4t1,,success
Status,1191,92198958470,/g4t1,,success
Status,1192,92299111078,/g4t1,,success
Status,1193,92399346369,/g4t1,,success
Status,1194,92499491144,/g4t1,,success
Status,1195,92599653715,/g4t1,,success
Status,1196,92699964591,/g4t1,,success
Status,1197,92799952854,/g4t1,,success
Status,1198,92900076056,/g4t1,,success
Status,1199,93000248207,/g4t1,,success
Status,1200,93099751177,/g4t1,,success
Status,1201,93200106164,/g4t1,,success
Status,1202,93299674020,/g4t1,,success
Status,1203,93399756602,/g4t1,,success
Status,1204,93500534558,/g4t1,,success
Status,1205,93600608506,/g4t1,,success
Status,1206,93606332011,/g3t1_1,,fail
Status,1207,93606430610,/g3t1_1,,running
Status,1208,93606500782,/g3t1_2,,success
Status,1209,93606525062,/g3t1_2,,running
Status,1210,93606546539,/g3t1_3,,success
Status,1211,93606570445,/g3t1_3,,running
Status,1212,93700485926,/g4t1,,success
Status,1213,93800905367,/g4t1,,success
Status,1214,93900902603,/g4t1,,success
Status,1215,94001131449,/g4t1,,success
Status,1216,94101348346,/g4t1,,success
Status,1217,94200617332,/g4t1,,success
Status,1218,94301286275,/g4t1,,success
Status,1219,94401470972,/g4t1,,success
Status,1220,94501561681,/g4t1,,success
Status,1221,94601640595,/g4t1,,success
Status,1222,94701804567,/g4t1,,success
Status,1223,94801940160,/g4t1,,success
Status,1224,94901926407,/g4t1,,success
Status,1225,95002013369,/g4t1,,success
Status,1226,95102075633,/g4t1,,success
Status,1227,95202176986,/g4t1,,success
Status,1228,95302268961,/g4t1,,success
Status,1229,95402361417,/g4t1,,success
Status,1230,95502478263,/g4t1,,success
Status,1231,95602506861,/g4t1,,success
Status,1235,95702587897,/g4t1,,success
Status,1236,95802699849,/g4t1,,success
Status,1237,95902721249,/g4t1,,success
Status,1238,96002828079,/g4t1,,success
Status,1239,96102889051,/g4t1,,success
Status,1240,96203069209,/g4t1,,success
Status,1241,96303171913,/g4t1,,success
Status,1242,96403264339,/g4t1,,success
Status,1243,96503295894,/g4t1,,success
Status,1244,96603668595,/g4t1,,success
Status,1245,96703644513,/g4t1,,success
Status,1246,96803842288,/g4t1,,success
Status,1247,96903479316,/g4t1,,success
Status,1248,97003942538,/g4t1,,success
Status,1249,97104098065,/g4t1,,success
Status,1250,97204265145,/g4t1,,success
Status,1251,97304365572,/g4t1,,success
Status,1252,97404478177,/g4t1,,success
Status,1253,97504700328,/g4t1,,success
Status,1254,97604828304,/g4t1,,success
Status,1255,97704855110,/g4t1,,success
Status,1256,97805056336,/g4t1,,success
Status,1257,97905115863,/g4t1,,success
Status,1258,98005266904,/g4t1,,success
Status,1259,98105299442,/g4t1,,success
Status,1260,98205463683,/g4t1,,success
Status,1261,98304888090,/g4t1,,success
Status,1262,98405637911,/g4t1,,success
Status,1263,98505707117,/g4t1,,success
Status,1264,98606408744,/g4t1,,success
Status,1265,98607428913,/g3t1_3,,fail
Status,1266,98607497955,/g3t1_3,,running
Status,1267,98607541764,/g3t1_1,,success
Status,1268,98607664413,/g3t1_1,,running
Status,1269,98607690907,/g3t1_2,,success
Status,1270,98607717854,/g3t1_2,,running
Status,1271,98706241548,/g4t1,,success
Status,1272,98806202341,/g4t1,,success
Status,1273,98906095185,/g4t1,,success
Status,1274,99006283851,/g4t1,,success
Status,1275,99106394703,/g4t1,,success
Status,1276,99206446831,/g4t1,,success
Status,1277,99306363610,/g4t1,,success
Status,1278,99406622115,/g4t1,,success
Status,1279,99506750763,/g4t1,,success
Status,1280,99607051885,/g4t1,,success
Status,1281,99707309420,/g4t1,,success
Status,1282,99807542480,/g4t1,,success
Status,1283,99907558277,/g4t1,,success
Status,1284,100007685824,/g4t1,,success
Status,1285,100107840688,/g4t1,,success
Status,1286,100207910829,/g4t1,,success
Status,1287,100308087887,/g4t1,,success
Status,1288,100407454870,/g4t1,,success
Status,1289,100508297360,/g4t1,,success
Status,1290,100608435132,/g4t1,,success
Status,1291,100708765604,/g4t1,,success
Status,1295,100808650428,/g4t1,,success
Status,1296,100908777289,/g4t1,,success
Status,1297,101008087603,/g4t1,,success
Status,1298,101108149613,/g4t1,,success
Status,1299,101208858626,/g4t1,,success
Status,1300,101308440827,/g4t1,,success
Status,1301,101409291872,/g4t1,,success
Status,1302,101509170378,/g4t1,,success
Status,1303,101609486666,/g4t1,,success
Status,1304,101709874843,/g4t1,,success
Status,1305,101809870202,/g4t1,,success
Status,1306,101909841086,/g4t1,,success
Status,1307,102009904143,/g4t1,,success
Status,1308,102110083251,/g4t1,,success
Status,1309,102210255521,/g4t1,,success
Status,1310,102310375589,/g4t1,,success
Status,1311,102410420137,/g4t1,,success
Status,1312,102510824282,/g4t1,,success
Status,1313,102611154178,/g4t1,,success
Status,1314,102711303045,/g4t1,,success
Status,1315,102811197876,/g4t1,,success
Status,1316,102911206357,/g4t1,,success
Status,1317,103011410490,/g4t1,,success
Status,1318,103111617511,/g4t1,,success
Status,1319,103211760156,/g4t1,,success
Status,1320,103311943814,/g4t1,,success
Status,1321,103411311233,/g4t1,,success
Status,1322,103512117891,/g4t1,,success
Status,1323,103606928770,/g3t1_2,,success
Status,1324,103607163657,/g3t1_2,,running
Status,1325,103607243583,/g3t1_3,,success
Status,1326,103607269007,/g3t1_3,,running
Status,1327,103607698767,/g3t1_1,,success
Status,1328,103607841240,/g3t1_1,,running
Status,1329,103612131543,/g4t1,,success
Status,1330,103712233610,/g4t1,,success
Status,1331,103812345454,/g4t1,,success
Status,1332,103913430817,/g4t1,,success
Status,1333,104012078151,/g4t1,,success
Status,1334,104113118006,/g4t1,,success
Status,1335,104213110761,/g4t1,,success
Status,1336,104313077220,/g4t1,,success
Status,1337,104413089874,/g4t1,,success
Status,1338,104513126941,/g4t1,,success
Status,1339,104613298966,/g4t1,,success
Status,1340,104713475559,/g4t1,,success
Status,1341,104813356658,/g4t1,,success
Status,1342,104913456506,/g4t1,,success
Status,1343,105013654666,/g4t1,,success
Status,1344,105113890187,/g4t1,,success
Status,1345,105214020376,/g4t1,,success
Status,1346,105313339782,/g4t1,,success
Status,1347,105414104044,/g4t1,,success
Status,1348,105514249745,/g4t1,,success
Status,1349,105614372914,/g4t1,,success
Status,1350,105714458304,/g4t1,,success
Status,1351,105814490259,/g4t1,,success
Status,1355,105914611218,/g4t1,,success
Status,1356,106014751320,/g4t1,,success
Status,1357,106114857413,/g4t1,,success
Status,1358,106215068051,/g4t1,,success
Status,1359,106315190535,/g4t1,,success
Status,1360,106415347052,/g4t1,,success
Status,1361,106515552741,/g4t1,,success
Status,1362,106615629201,/g4t1,,success
Status,1363,106715745456,/g4t1,,success
Status,1364,106816050208,/g4t1,,success
Status,1365,106916201676,/g4t1,,success
Status,1366,107016251164,/g4t1,,success
Status,1367,107116375103,/g4t1,,success
Status,1368,107216325527,/g4t1,,success
Status,1369,107316506093,/g4t1,,success
Status,1370,107416527833,/g4t1,,success
Status,1371,107516425094,/g4t1,,success
Status,1372,107617272887,/g4t1,,success
Status,1373,107717502013,/g4t1,,success
Status,1374,107817688624,/g4t1,,success
Status,1375,107917051470,/g4t1,,success
Status,1376,108018055257,/g4t1,,success
Status,1377,108118345118,/g4t1,,success
Status,1378,108218613191,/g4t1,,success
Status,1379,108318797515,/g4t1,,success
Status,1380,108418944122,/g4t1,,success
Status,1381,108518260819,/g4t1,,success
Status,1382,108609069674,/g3t1_1,,success
Status,1383,108609171034,/g3t1_1,,running
Status,1384,108609216990,/g3t1_3,,success
Status,1385,108609261209,/g3t1_3,,running
Status,1386,108609943168,/g3t1_2,,success
Status,1387,108610028103,/g3t1_2,,running
Status,1388,108618775070,/g4t1,,success
Status,1389,108719512276,/g4t1,,success
Status,1390,108819938869,/g4t1,,success
Status,1391,108919820268,/g4t1,,success
Status,1392,109020032587,/g4t1,,success
Status,1393,109120276617,/g4t1,,success
Status,1394,109220654366,/g4t1,,success
Status,1395,109320541301,/g4t1,,success
Status,1396,109420797747,/g4t1,,success
Status,1397,109520725471,/g4t1,,success
Status,1398,109620924504,/g4t1,,success
Status,1399,109721157980,/g4t1,,success
Status,1400,109821250868,/g4t1,,success
Status,1401,109921263920,/g4t1,,success
Status,1402,110021430354,/g4t1,,success
Status,1403,110121642939,/g4t1,,success
Status,1404,110221849078,/g4t1,,success
Status,1405,110322058026,/g4t1,,success
Status,1406,110422388801,/g4t1,,success
Status,1407,110522291087,/g4t1,,success
Status,1408,110622329136,/g4t1,,success
Status,1409,110723086709,/g4t1,,success
Status,1410,110823276358,/g4t1,,success
Status,1411,110923222830,/g4t1,,success
Status,1415,111023406848,/g4t1,,success
Status,1416,111123952095,/g4t1,,success
Status,1417,111224016924,/g4t1,,success
Status,1418,111324484847,/g4t1,,success
Status,1419,111424524964,/g4t1,,success
Status,1420,111524810866,/g4t1,,success
Status,1421,111624805104,/g4t1,,success
Status,1422,111724989999,/g4t1,,success
Status,1423,111824561228,/g4t1,,success
Status,1424,111924723639,/g4t1,,success
Status,1425,112024958811,/g4t1,,success
Status,1426,112124404258,/g4t1,,success
Status,1427,112225064418,/g4t1,,success
Status,1428,112325637407,/g4t1,,success
Status,1429,112425962203,/g4t1,,success
Status,1430,112525942195,/g4t1,,success
Status,1431,112625611239,/g4t1,,success
Status,1432,112725027852,/g4t1,,success
Status,1433,112825081710,/g4t1,,success
Status,1434,112925157437,/g4t1,,success
Status,1435,113025285055,/g4t1,,success
Status,1436,113125556824,/g4t1,,success
Status,1437,113226237471,/g4t1,,success
Status,1438,113326300217,/g4t1,,success
Status,1439,113426405898,/g4t1,,success
Status,1440,113525884965,/g4t1,,success
Status,1441,113605797192,/g3t1_3,,fail
Status,1442,113605830173,/g3t1_3,,running
Status,1443,113606071490,/g3t1_2,,success
Status,1444,113606104917,/g3t1_2,,running
Status,1445,113606134645,/g3t1_1,,success
Status,1446,113606150574,/g3t1_1,,running
Status,1447,113626030968,/g4t1,,success
Status,1448,113726019173,/g4t1,,success
Status,1449,113826174680,/g4t1,,success
Status,1450,113926181801,/g4t1,,success
Status,1451,114026271903,/g4t1,,success
Status,1452,114126376098,/g4t1,,success
Status,1453,114227146085,/g4t1,,success
Status,1454,114327329807,/g4t1,,success
Status,1455,114426898871,/g4t1,,success
Status,1456,114526867102,/g4t1,,success
Status,1457,114626937627,/g4t1,,success
Status,1458,114727102837,/g4t1,,success
Status,1459,114827100940,/g4t1,,success
Status,1460,114927726951,/g4t1,,success
Status,1461,115028305339,/g4t1,,success
Status,1462,115127682484,/g4t1,,success
Status,1463,115227528037,/g4t1,,success
Status,1464,115327590397,/g4t1,,success
Status,1465,115427666557,/g4t1,,success
Status,1466,115527667004,/g4t1,,success
Status,1467,115627843139,/g4t1,,success
Status,1468,115727833524,/g4t1,,success
Status,1469,115827884836,/g4t1,,success
Status,1470,115928578052,/g4t1,,success
Status,1471,116028801584,/g4t1,,success
Status,1475,116128933794,/g4t1,,success
Status,1476,116229054710,/g4t1,,success
Status,1477,116328551543,/g4t1,,success
Status,1478,116428555939,/g4t1,,success
Status,1479,116528595789,/g4t1,,success
Status,1480,116628639668,/g4t1,,success
Status,1481,116728741932,/g4t1,,success
Status,1482,116829351382,/g4t1,,success
Status,1483,116929501104,/g4t1,,success
Status,1484,117029682950,/g4t1,,success
Status,1485,117129875357,/g4t1,,success
Status,1486,117230052294,/g4t1,,success
Status,1487,117330097447,/g4t1,,success
Status,1488,117430291553,/g4t1,,success
Status,1489,117530483525,/g4t1,,success
Status,1490,117629898698,/g4t1,,success
Status,1491,117730813986,/g4t1,,success
Status,1492,117830286549,/g4t1,,success
Status,1493,117930253725,/g4t1,,success
Status,1494,118030278429,/g4t1,,success
Status,1495,118130942394,/g4t1,,success
Status,1496,118231172063,/g4t1,,success
Status,1497,118331248397,/g4t1,,success
Status,1498,118431556031,/g4t1,,success
Status,1499,118531596726,/g4t1,,success
Status,1500,118607183419,/g3t1_2,,success
Status,1501,118607262965,/g3t1_2,,running
Status,1502,118607595215,/g3t1_1,,success
Status,1503,118607706440,/g3t1_1,,running
Status,1504,118608148262,/g3t1_3,,fail
Status,1505,118608222302,/g3t1_3,,running
Status,1506,118631854384,/g4t1,,success
Status,1507,118731005631,/g4t1,,success
Status,1508,118831752949,/g4t1,,success
Status,1509,118932006788,/g4t1,,success
Status,1510,119032159556,/g4t1,,success
Status,1511,119131788841,/g4t1,,success
Status,1512,119231882442,/g4t1,,success
Status,1513,119331708303,/g4t1,,success
Status,1514,119431766559,/g4t1,,success
Status,1515,119531792337,/g4t1,,success
Status,1516,119631783785,/g4t1,,success
Status,1517,119731904618,/g4t1,,success
Status,1518,119831985009,/g4t1,,success
Status,1519,119931998811,/g4t1,,success
Status,1520,120032043144,/g4t1,,success
Status,1521,120132191022,/g4t1,,success
Status,1522,120232315879,/g4t1,,success
Status,1523,120332406365,/g4t1,,success
Status,1524,120432411247,/g4t1,,success
Status,1525,120532440371,/g4t1,,success
Status,1526,120632533306,/g4t1,,success
Status,1527,120733556907,/g4t1,,success
Status,1528,120832839570,/g4t1,,success
Status,1529,120932915280,/g4t1,,success
Status,1530,121032927739,/g4t1,,success
Status,1531,121133029663,/g4t1,,success
Status,1535,121233102978,/g4t1,,success
Status,1536,121333143974,/g4t1,,success
Status,1537,121434167562,/g4t1,,success
Status,1538,121533401253,/g4t1,,success
Status,1539,121633437930,/g4t1,,success
Status,1540,121733774075,/g4t1,,success
Status,1541,121833581972,/g4t1,,success
Status,1542,121933785336,/g4t1,,success
Status,1543,122034448045,/g4t1,,success
Status,1544,122134405208,/g4t1,,success
Status,1545,122234010610,/g4t1,,success
Status,1546,122334650809,/g4t1,,success
Status,1547,122434232114,/g4t1,,success
Status,1548,122534926998,/g4t1,,success
Status,1549,122635117781,/g4t1,,success
Status,1550,122735171713,/g4t1,,success
Status,1551,122835302169,/g4t1,,success
Status,1552,122934772347,/g4t1,,success
Status,1553,123034808164,/g4t1,,success
Status,1554,123134845636,/g4t1,,success
Status,1555,123235017180,/g4t1,,success
Status,1556,123335054587,/g4t1,,success
Status,1557,123435185347,/g4t1,,success
Status,1558,123535265770,/g4t1,,success
Status,1559,123605789207,/g3t1_3,,fail
Status,1560,123605820792,/g3t1_3,,running
Status,1561,123606033872,/g3t1_2,,success
Status,1562,123606051238,/g3t1_2,,running
Status,1563,123606065269,/g3t1_1,,success
Status,1564,123606075824,/g3t1_1,,running
Status,1565,123635464534,/g4t1,,success
Status,1566,123735489594,/g4t1,,success
Status,1567,123835566048,/g4t1,,success
Status,1568,123935569307,/g4t1,,success
Status,1569,124035614754,/g4t1,,success
Status,1570,124135610072,/g4t1,,success
Status,1571,124235726939,/g4t1,,success
Status,1572,124335737338,/g4t1,,success
Status,1573,124435838144,/g4t1,,success
Status,1574,124536034657,/g4t1,,success
Status,1575,124637291921,/g4t1,,success
Status,1576,124737403494,/g4t1,,success
Status,1577,124837498472,/g4t1,,success
Status,1578,124937642366,/g4t1,,success
Status,1579,125037750126,/g4t1,,success
Status,1580,125137860854,/g4t1,,success
Status,1581,125237910951,/g4t1,,success
Status,1582,125337998702,/g4t1,,success
Status,1583,125438438877,/g4t1,,success
Status,1584,125538437432,/g4t1,,success
Status,1585,125638690362,/g4t1,,success
Status,1586,125738522674,/g4t1,,success
Status,1587,125838778267,/g4t1,,success
Status,1588,125938884003,/g4t1,,success
Status,1589,126038946847,/g4t1,,success
Status,1590,126139165982,/g4t1,,success
Status,1591,126239364728,/g4t1,,success
Status,1595,126339587150,/g4t1,,success
Status,1596,126438960973,/g4t1,,success
Status,1597,126538672937,/g4t1,,success
Status,1598,126638721442,/g4t1,,success
Status,1599,126739640968,/g4t1,,success
Status,1600,126838997600,/g4t1,,success
Status,1601,126939884538,/g4t1,,success
Status,1602,127040109199,/g4t1,,success
Status,1603,127140420055,/g4t1,,success
Status,1604,127240698366,/g4t1,,success
Status,1605,127340959219,/g4t1,,success
Status,1606,127440996441,/g4t1,,success
Status,1607,127539889824,/g4t1,,success
Status,1608,127639976615,/g4t1,,success
Status,1609,127740049171,/g4t1,,success
Status,1610,127840194846,/g4t1,,success
Status,1611,127940341920,/g4t1,,success
Status,1612,128040400848,/g4t1,,success
Status,1613,128140973591,/g4t1,,success
Status,1614,128240656577,/g4t1,,success
Status,1615,128340725391,/g4t1,,success
Status,1616,128440706126,/g4t1,,success
Status,1617,128540835607,/g4t1,,success
Status,1618,128606293031,/g3t1_1,,success
Status,1619,128606328668,/g3t1_1,,running
Status,1620,128606341325,/g3t1_2,,success
Status,1621,128606353240,/g3t1_2,,running
Status,1622,128606364764,/g3t1_3,,success
Status,1623,128606377889,/g3t1_3,,running
Status,1624,128641620306,/g4t1,,success
Status,1625,128741684885,/g4t1,,success
Status,1626,128841883931,/g4t1,,success
Status,1627,128941687076,/g4t1,,success
Status,1628,129041347655,/g4t1,,success
Status,1629,129141422200,/g4t1,,success
Status,1630,129241588047,/g4t1,,success
Status,1631,129342193599,/g4t1,,success
Status,1632,129442392076,/g4t1,,success
Status,1633,129542553476,/g4t1,,success
Status,1634,129642616872,/g4t1,,success
Status,1635,129742761929,/g4t1,,success
Status,1636,129843163926,/g4t1,,success
Status,1637,129943436829,/g4t1,,success
Status,1638,130044046394,/g4t1,,success
Status,1639,130143945790,/g4t1,,success
Status,1640,130244252135,/g4t1,,success
Status,1641,130344410030,/g4t1,,success
Status,1642,130444555627,/g4t1,,success
Status,1643,130544369781,/g4t1,,success
Status,1644,130644498809,/g4t1,,success
Status,1645,130744502026,/g4t1,,success
Status,1646,130844705609,/g4t1,,success
Status,1647,130944956721,/g4t1,,success
Status,1648,131044399001,/g4t1,,success
Status,1649,131144425438,/g4t1,,success
Status,1650,131244517421,/g4t1,,success
Status,1651,131344526093,/g4t1,,success
Status,1655,131444717455,/g4t1,,success
Status,1656,131544737803,/g4t1,,success
Status,1657,131644762087,/g4t1,,success
Status,1658,131745388105,/g4t1,,success
Status,1659,131845589757,/g4t1,,success
Status,1660,131945795838,/g4t1,,success
Status,1661,132046222321,/g4t1,,success
Status,1662,132146658797,/g4t1,,success
Status,1663,132246812176,/g4t1,,success
Status,1664,132346729174,/g4t1,,success
Status,1665,132446826040,/g4t1,,success
Status,1666,132546890876,/g4t1,,success
Status,1667,132646943751,/g4t1,,success
Status,1668,132747728851,/g4t1,,success
Status,1669,132847806573,/g4t1,,success
Status,1670,132947799874,/g4t1,,success
Status,1671,133048138876,/g4t1,,success
Status,1672,133147401203,/g4t1,,success
Status,1673,133248427208,/g4t1,,success
Status,1674,133348279468,/g4t1,,success
Status,1675,133448329193,/g4t1,,success
Status,1676,133547691254,/g4t1,,success
Status,1677,133606127668,/g3t1_1,,success
Status,1678,133606156640,/g3t1_1,,running
Status,1679,133606197674,/g3t1_3,,success
Status,1680,133606207800,/g3t1_3,,running
Status,1681,133606217356,/g3t1_2,,success
Status,1682,133606226384,/g3t1_2,,running
Status,1683,133647804161,/g4t1,,success
Status,1684,133747780594,/g4t1,,success
Status,1685,133847917788,/g4t1,,success
Status,1686,133948042087,/g4t1,,success
Status,1687,134048071272,/g4t1,,success
Status,1688,134148158987,/g4t1,,success
Status,1689,134248884506,/g4t1,,success
Status,1690,134348485106,/g4t1,,success
Status,1691,134448502597,/g4t1,,success
Status,1692,134548578684,/g4t1,,success
Status,1693,134649199390,/g4t1,,success
Status,1694,134749532667,/g4t1,,success
Status,1695,134849757904,/g4t1,,success
Status,1696,134949191836,/g4t1,,success
Status,1697,135049888494,/g4t1,,success
Status,1698,135150108195,/g4t1,,success
Status,1699,135249579533,/g4t1,,success
Status,1700,135349511865,/g4t1,,success
Status,1701,135449637402,/g4t1,,success
Status,1702,135550333316,/g4t1,,success
Status,1703,135650574294,/g4t1,,success
Status,1704,135751357289,/g4t1,,success
Status,1705,135851606496,/g4t1,,success
Status,1706,135951358653,/g4t1,,success
Status,1707,136051531937,/g4t1,,success
Status,1708,136151645647,/g4t1,,success
Status,1709,136250777322,/g4t1,,success
Status,1710,136351677617,/g4t1,,success
Status,1711,136452407043,/g4t1,,success
Status,1715,136552538168,/g4t1,,success
Status,1716,136652831745,/g4t1,,success
Status,1717,136752831754,/g4t1,,success
Status,1718,136853054635,/g4t1,,success
Status,1719,136953020202,/g4t1,,success
Status,1720,137053299172,/g4t1,,success
Status,1721,137153534793,/g4t1,,success
Status,1722,137253723061,/g4t1,,success
Status,1723,137353890434,/g4t1,,success
Status,1724,137454156318,/g4t1,,success
Status,1725,137554415873,/g4t1,,success
Status,1726,137654549682,/g4t1,,success
Status,1727,137754683012,/g4t1,,success
Status,1728,137854813803,/g4t1,,success
Status,1729,137955097918,/g4t1,,success
Status,1730,138055270796,/g4t1,,success
Status,1731,138155032040,/g4t1,,success
Status,1732,138255105952,/g4t1,,success
Status,1733,138355145047,/g4t1,,success
Status,1734,138455323047,/g4t1,,success
Status,1735,138555471685,/g4t1,,success
Status,1736,138608553503,/g3t1_2,,success
Status,1737,138608618451,/g3t1_2,,running
Status,1738,138608814433,/g3t1_1,,success
Status,1739,138608852516,/g3t1_1,,running
Status,1740,138608994970,/g3t1_3,,success
Status,1741,138609097842,/g3t1_3,,running
Status,1742,138655566604,/g4t1,,success
Status,1743,138756009013,/g4t1,,success
Status,1744,138856111807,/g4t1,,success
Status,1745,138956318227,/g4t1,,success
Status,1746,139056204273,/g4t1,,success
Status,1747,139156179804,/g4t1,,success
Status,1748,139255567796,/g4t1,,success
Status,1749,139355683265,/g4t1,,success
Status,1750,139456422260,/g4t1,,success
Status,1751,139556758957,/g4t1,,success
Status,1752,139656491197,/g4t1,,success
Status,1753,139757010189,/g4t1,,success
Status,1754,139857242178,/g4t1,,success
Status,1755,139957398654,/g4t1,,success
Status,1756,140057665470,/g4t1,,success
Status,1757,140157932255,/g4t1,,success
Status,1758,140258211455,/g4t1,,success
Status,1759,140358403171,/g4t1,,success
Status,1760,140458777861,/g4t1,,success
Status,1761,140558923127,/g4t1,,success
Status,1762,140659480401,/g4t1,,success
Status,1763,140759736140,/g4t1,,success
Status,1764,140859993067,/g4t1,,success
Status,1765,140960066701,/g4t1,,success
Status,1766,141060302013,/g4t1,,success
Status,1767,141160578228,/g4t1,,success
Status,1768,141260813073,/g4t1,,success
Status,1769,141360911179,/g4t1,,success
Status,1770,141460993611,/g4t1,,success
Status,1771,141561158977,/g4t1,,success
Status,1775,141661317009,/g4t1,,success
Status,1776,141760478862,/g4t1,,success
Status,1777,141861510157,/g4t1,,success
Status,1778,141961802861,/g4t1,,success
Status,1779,142062062024,/g4t1,,success
Status,1780,142162323079,/g4t1,,success
Status,1781,142262677577,/g4t1,,success
Status,1782,142362846638,/g4t1,,success
Status,1783,142462726622,/g4t1,,success
Status,1784,142563347195,/g4t1,,success
Status,1785,142663734310,/g4t1,,success
Status,1786,142763917689,/g4t1,,success
Status,1787,142864053248,/g4t1,,success
Status,1788,142964216216,/g4t1,,success
Status,1789,143064479579,/g4t1,,success
Status,1790,143164644200,/g4t1,,success
Status,1791,143264770812,/g4t1,,success
Status,1792,143364920099,/g4t1,,success
Status,1793,143465112806,/g4t1,,success
Status,1794,143565300785,/g4t1,,success
Status,1795,143608925921,/g3t1_2,,success
Status,1796,143609005933,/g3t1_2,,running
Status,1797,143609033028,/g3t1_3,,success
Status,1798,143609058121,/g3t1_3,,running
Status,1799,143609085145,/g3t1_1,,fail
Status,1800,143609137546,/g3t1_1,,running
Status,1801,143665394448,/g4t1,,success
Status,1802,143765780204,/g4t1,,success
Status,1803,143865740398,/g4t1,,success
Status,1804,143966038332,/g4t1,,success
Status,1805,144066381338,/g4t1,,success
Status,1806,144166360724,/g4t1,,success
Status,1807,144266663353,/g4t1,,success
Status,1808,144366508885,/g4t1,,success
Status,1809,144466017440,/g4t1,,success
Status,1810,144567208007,/g4t1,,success
Status,1811,144667262550,/g4t1,,success
Status,1812,144767293456,/g4t1,,success
Status,1813,144867320584,/g4t1,,success
Status,1814,144967383517,/g4t1,,success
Status,1815,145068139377,/g4t1,,success
Status,1816,145168320762,/g4t1,,success
Status,1817,145268531553,/g4t1,,success
Status,1818,145368673608,/g4t1,,success
Status,1819,145468872969,/g4t1,,success
Status,1820,145568992322,/g4t1,,success
Status,1821,145669165085,/g4t1,,success
Status,1822,145769316061,/g4t1,,success
Status,1823,145869438648,/g4t1,,success
Status,1824,145969577327,/g4t1,,success
Status,1825,146069805860,/g4t1,,success
Status,1826,146170024265,/g4t1,,success
Status,1827,146270246014,/g4t1,,success
Status,1828,146370224044,/g4t1,,success
Status,1829,146470558004,/g4t1,,success
Status,1830,146570920264,/g4t1,,success
Status,1831,146670829732,/g4t1,,success
Status,1835,146771207136,/g4t1,,success
Status,1836,146871220993,/g4t1,,success
Status,1837,146971489562,/g4t1,,success
Status,1838,147071913550,/g4t1,,success
Status,1839,147172123355,/g4t1,,success
Status,1840,147272256175,/g4t1,,success
Status,1841,147372331123,/g4t1,,success
Status,1842,147472536495,/g4t1,,success
Status,1843,147572748569,/g4t1,,success
Status,1844,147672944676,/g4t1,,success
Status,1845,147772958052,/g4t1,,success
Status,1846,147873034250,/g4t1,,success
Status,1847,147973256714,/g4t1,,success
Status,1848,148073586752,/g4t1,,success
Status,1849,148174001708,/g4t1,,success
Status,1850,148274070291,/g4t1,,success
Status,1851,148374022517,/g4t1,,success
Status,1852,148474257889,/g4t1,,success
Status,1853,148574331726,/g4t1,,success
Status,1854,148608684464,/g3t1_3,,fail
Status,1855,148608792756,/g3t1_3,,running
Status,1856,148608852750,/g3t1_1,,success
Status,1857,148608947855,/g3t1_1,,running
Status,1858,148609543454,/g3t1_2,,success
Status,1859,148609619339,/g3t1_2,,running
Status,1860,148674591423,/g4t1,,success
Status,1861,148774733198,/g4t1,,success
Status,1862,148874752988,/g4t1,,success
Status,1863,148975140710,/g4t1,,success
Status,1864,149075440025,/g4t1,,success
Status,1865,149175454784,/g4t1,,success
Status,1866,149275743608,/g4t1,,success
Status,1867,149375564323,/g4t1,,success
