
Status,2,20498316150,/g4t1,,init
Status,3,25613280945,/g3t1_1,,init
Status,5,25618891699,/g3t1_1,,init
Status,6,25618906386,/g3t1_1,,running
Status,7,25620144364,/g3t1_1,,success
Status,8,25713862884,/g3t1_2,,init
Status,10,25718090627,/g3t1_2,,init
Status,11,25718108277,/g3t1_2,,running
Status,12,25719140914,/g3t1_2,,success
Status,14,25917711448,/g3t1_3,,init
Status,15,25918251239,/g3t1_2,,running
Status,16,25918339371,/g3t1_2,,success
Status,17,25921691463,/g3t1_3,,init
Status,18,25921704188,/g3t1_3,,running
Status,19,25922669602,/g3t1_3,,success
Status,21,26018169758,/g3t1_4,,init
Status,22,26023582295,/g3t1_4,,init
Status,23,26023594336,/g3t1_4,,running
Status,24,26025377695,/g3t1_4,,success
Status,25,26119012792,/g3t1_2,,running
Status,26,26119527682,/g3t1_2,,success
Status,27,26319512386,/g3t1_2,,running
Status,28,26320372704,/g3t1_2,,success
Status,29,26507865551,/g4t1,,success
Status,30,26519427420,/g3t1_2,,running
Status,31,26519700223,/g3t1_2,,success
Status,32,26719697724,/g3t1_2,,running
Status,33,26720134592,/g3t1_2,,success
Status,34,26919359776,/g3t1_2,,running
Status,35,26919739394,/g3t1_2,,success
Status,36,27024559152,/g3t1_4,,running
Status,37,27035189982,/g3t1_4,,success
Status,38,27119855288,/g3t1_2,,running
Status,39,27120266094,/g3t1_2,,success
Status,40,27319932458,/g3t1_2,,running
Status,41,27320526975,/g3t1_2,,success
Status,42,27508004551,/g4t1,,success
Status,43,27519975883,/g3t1_2,,running
Status,44,27520250523,/g3t1_2,,success
Status,45,27720385910,/g3t1_2,,running
Status,46,27721027961,/g3t1_2,,success
Status,47,27920314598,/g3t1_2,,running
Status,48,27920724226,/g3t1_2,,success
Status,49,28024595785,/g3t1_4,,running
Status,50,28032164782,/g3t1_4,,success
Status,51,28120522167,/g3t1_2,,running
Status,52,28120918872,/g3t1_2,,success
Status,53,28320831349,/g3t1_2,,running
Status,54,28321645543,/g3t1_2,,success
Status,55,28508099956,/g4t1,,success
Status,56,28520918225,/g3t1_2,,running
Status,57,28520985015,/g3t1_2,,success
Status,58,28721033737,/g3t1_2,,running
Status,59,28721406504,/g3t1_2,,success
Status,60,28921295959,/g3t1_2,,running
Status,61,28921958922,/g3t1_2,,success
Status,62,29025012285,/g3t1_4,,running
Status,63,29033259619,/g3t1_4,,success
Status,64,29121513020,/g3t1_2,,running
Status,65,29121944749,/g3t1_2,,success
Status,66,29321705063,/g3t1_2,,running
Status,67,29322107190,/g3t1_2,,success
Status,68,29508376351,/g4t1,,success
Status,69,29521715016,/g3t1_2,,running
Status,70,29522199138,/g3t1_2,,success
Status,71,29722109150,/g3t1_2,,running
Status,72,29722434883,/g3t1_2,,success
Status,73,29922232135,/g3t1_2,,running
Status,74,29923150335,/g3t1_2,,success
Status,75,30025044904,/g3t1_4,,running
Status,76,30037208739,/g3t1_4,,success
Status,77,30122347174,/g3t1_2,,running
Status,78,30122751307,/g3t1_2,,success
Status,79,30323015745,/g3t1_2,,running
Status,80,30323705190,/g3t1_2,,success
Status,81,30508294274,/g4t1,,success
Status,82,30522445434,/g3t1_2,,running
Status,83,30523044046,/g3t1_2,,success
Status,84,30620175429,/g3t1_1,,running
Status,85,30620635756,/g3t1_1,,success
Status,86,30722985253,/g3t1_2,,running
Status,87,30723497110,/g3t1_2,,success
Status,89,30922932027,/g3t1_2,,running
Status,90,30923502514,/g3t1_2,,success
Status,91,31025097303,/g3t1_4,,running
Status,92,31034696792,/g3t1_4,,success
Status,93,31123052161,/g3t1_2,,running
Status,94,31123847992,/g3t1_2,,success
Status,95,31323547308,/g3t1_2,,running
Status,96,31323991332,/g3t1_2,,success
Status,97,31508951188,/g4t1,,success
Status,98,31523403025,/g3t1_2,,running
Status,99,31524065930,/g3t1_2,,success
Status,100,31723694692,/g3t1_2,,running
Status,101,31724068949,/g3t1_2,,success
Status,102,31923886615,/g3t1_2,,running
Status,103,31925001902,/g3t1_2,,success
Status,104,32025278337,/g3t1_4,,running
Status,105,32031764160,/g3t1_4,,success
Status,106,32124037590,/g3t1_2,,running
Status,107,32125141651,/g3t1_2,,success
Status,108,32324053081,/g3t1_2,,running
Status,109,32324535197,/g3t1_2,,success
Status,110,32508716479,/g4t1,,success
Status,111,32524096253,/g3t1_2,,running
Status,112,32524690543,/g3t1_2,,success
Status,113,32724991994,/g3t1_2,,running
Status,114,32725086170,/g3t1_2,,success
Status,115,32924529734,/g3t1_2,,running
Status,116,32925391384,/g3t1_2,,success
Status,117,33025581128,/g3t1_4,,running
Status,118,33033906119,/g3t1_4,,success
Status,119,33124608342,/g3t1_2,,running
Status,120,33125197611,/g3t1_2,,success
Status,121,33325002326,/g3t1_2,,running
Status,122,33325421279,/g3t1_2,,success
Status,123,33508941353,/g4t1,,success
Status,124,33525058645,/g3t1_2,,running
Status,125,33525727853,/g3t1_2,,success
Status,126,33725395456,/g3t1_2,,running
Status,127,33726191003,/g3t1_2,,success
Status,128,33925670542,/g3t1_2,,running
Status,129,33926463471,/g3t1_2,,success
Status,130,34025478975,/g3t1_4,,running
Status,131,34033214782,/g3t1_4,,success
Status,132,34125762531,/g3t1_2,,running
Status,133,34126579264,/g3t1_2,,success
Status,134,34326143568,/g3t1_2,,running
Status,135,34327131506,/g3t1_2,,success
Status,136,34509180801,/g4t1,,success
Status,137,34525958307,/g3t1_2,,running
Status,138,34526716991,/g3t1_2,,success
Status,139,34726270819,/g3t1_2,,running
Status,140,34726742379,/g3t1_2,,success
Status,141,34926960261,/g3t1_2,,running
Status,142,34927902566,/g3t1_2,,success
Status,143,35025877190,/g3t1_4,,running
Status,144,35033961215,/g3t1_4,,success
Status,145,35127093960,/g3t1_2,,running
Status,146,35127799669,/g3t1_2,,success
Status,147,35327224995,/g3t1_2,,running
Status,148,35327746812,/g3t1_2,,success
Status,149,35509229375,/g4t1,,success
Status,150,35527184034,/g3t1_2,,running
Status,151,35527661520,/g3t1_2,,success
Status,152,35619347403,/g3t1_1,,running
Status,153,35619780729,/g3t1_1,,success
Status,154,35727416523,/g3t1_2,,running
Status,155,35728294331,/g3t1_2,,success
Status,157,35922881113,/g3t1_3,,running
Status,158,35923639254,/g3t1_3,,success
Status,159,35927465439,/g3t1_2,,running
Status,160,35928066835,/g3t1_2,,success
Status,161,36026037585,/g3t1_4,,running
Status,162,36033258097,/g3t1_4,,success
Status,163,36127678183,/g3t1_2,,running
Status,164,36128384037,/g3t1_2,,success
Status,165,36327903783,/g3t1_2,,running
Status,166,36328366177,/g3t1_2,,success
Status,167,36509340297,/g4t1,,success
Status,168,36528022277,/g3t1_2,,running
Status,169,36528391946,/g3t1_2,,success
Status,170,36728050194,/g3t1_2,,running
Status,171,36728471523,/g3t1_2,,success
Status,172,36928467596,/g3t1_2,,running
Status,173,36929331275,/g3t1_2,,success
Status,174,37026769756,/g3t1_4,,running
Status,175,37034104263,/g3t1_4,,success
Status,176,37128450790,/g3t1_2,,running
Status,177,37128855733,/g3t1_2,,success
Status,178,37328810695,/g3t1_2,,running
Status,179,37329432124,/g3t1_2,,success
Status,180,37509718735,/g4t1,,success
Status,181,37528687722,/g3t1_2,,running
Status,182,37529557791,/g3t1_2,,success
Status,183,37728840239,/g3t1_2,,running
Status,184,37729375764,/g3t1_2,,success
Status,185,37929148565,/g3t1_2,,running
Status,186,37929659408,/g3t1_2,,success
Status,187,38026593514,/g3t1_4,,running
Status,188,38034225135,/g3t1_4,,success
Status,189,38129411037,/g3t1_2,,running
Status,190,38130072499,/g3t1_2,,success
Status,191,38329823183,/g3t1_2,,running
Status,192,38330113208,/g3t1_2,,success
Status,193,38509660601,/g4t1,,success
Status,194,38529822200,/g3t1_2,,running
Status,195,38530832111,/g3t1_2,,success
Status,196,38729995597,/g3t1_2,,running
Status,197,38730466685,/g3t1_2,,success
Status,198,38930264724,/g3t1_2,,running
Status,199,38931339661,/g3t1_2,,success
Status,200,39026836971,/g3t1_4,,running
Status,201,39034556909,/g3t1_4,,success
Status,202,39130502023,/g3t1_2,,running
Status,203,39130954942,/g3t1_2,,success
Status,204,39330703001,/g3t1_2,,running
Status,205,39331596692,/g3t1_2,,success
Status,206,39509977148,/g4t1,,success
Status,207,39530739831,/g3t1_2,,running
Status,208,39531633389,/g3t1_2,,success
Status,209,39731192315,/g3t1_2,,running
Status,210,39731999106,/g3t1_2,,success
Status,211,39931612024,/g3t1_2,,running
Status,212,39931936744,/g3t1_2,,success
Status,213,40027204821,/g3t1_4,,running
Status,214,40035620624,/g3t1_4,,success
Status,215,40131314774,/g3t1_2,,running
Status,216,40131574777,/g3t1_2,,success
Status,217,40331740308,/g3t1_2,,running
Status,218,40332626981,/g3t1_2,,success
Status,219,40510174509,/g4t1,,success
Status,220,40532023524,/g3t1_2,,running
Status,221,40532809120,/g3t1_2,,success
Status,222,40620467481,/g3t1_1,,running
Status,223,40621218285,/g3t1_1,,success
Status,224,40731960275,/g3t1_2,,running
Status,225,40732448315,/g3t1_2,,success
Status,226,40932449029,/g3t1_2,,running
Status,227,40933238369,/g3t1_2,,success
Status,230,41027252282,/g3t1_4,,running
Status,231,41037679326,/g3t1_4,,success
Status,232,41132174193,/g3t1_2,,running
Status,233,41132858284,/g3t1_2,,success
Status,234,41332801659,/g3t1_2,,running
Status,235,41332880613,/g3t1_2,,success
Status,236,41510694986,/g4t1,,success
Status,237,41532666227,/g3t1_2,,running
Status,238,41532733682,/g3t1_2,,success
Status,239,41732779969,/g3t1_2,,running
Status,240,41733459556,/g3t1_2,,success
Status,241,41933301826,/g3t1_2,,running
Status,242,41933367616,/g3t1_2,,success
Status,243,42027536461,/g3t1_4,,running
Status,244,42034912396,/g3t1_4,,success
Status,245,42132937676,/g3t1_2,,running
Status,246,42133516171,/g3t1_2,,success
Status,247,42333306121,/g3t1_2,,running
Status,248,42333717104,/g3t1_2,,success
Status,249,42510716766,/g4t1,,success
Status,250,42533545586,/g3t1_2,,running
Status,251,42534043433,/g3t1_2,,success
Status,252,42733592612,/g3t1_2,,running
Status,253,42734131068,/g3t1_2,,success
Status,254,42934075594,/g3t1_2,,running
Status,255,42934628717,/g3t1_2,,success
Status,256,43027630480,/g3t1_4,,running
Status,257,43035205921,/g3t1_4,,success
Status,258,43133850860,/g3t1_2,,running
Status,259,43134391253,/g3t1_2,,success
Status,260,43334100483,/g3t1_2,,running
Status,261,43334758675,/g3t1_2,,success
Status,262,43510898459,/g4t1,,success
Status,263,43534463141,/g3t1_2,,running
Status,264,43535674423,/g3t1_2,,success
Status,265,43734805133,/g3t1_2,,running
Status,266,43735784171,/g3t1_2,,success
Status,267,43934882070,/g3t1_2,,running
Status,268,43935622304,/g3t1_2,,success
Status,269,44027794356,/g3t1_4,,running
Status,270,44035765570,/g3t1_4,,success
Status,271,44134927208,/g3t1_2,,running
Status,272,44135852223,/g3t1_2,,success
Status,273,44334190374,/g3t1_2,,running
Status,274,44334296956,/g3t1_2,,success
Status,275,44509879216,/g4t1,,success
Status,276,44534450957,/g3t1_2,,running
Status,277,44534727833,/g3t1_2,,success
Status,278,44735619517,/g3t1_2,,running
Status,279,44736161043,/g3t1_2,,success
Status,280,44935934230,/g3t1_2,,running
Status,281,44936196801,/g3t1_2,,success
Status,282,45027779636,/g3t1_4,,running
Status,283,45035301258,/g3t1_4,,success
Status,284,45135138997,/g3t1_2,,running
Status,285,45135462581,/g3t1_2,,success
Status,286,45336024096,/g3t1_2,,running
Status,287,45336469344,/g3t1_2,,success
Status,288,45511220533,/g4t1,,success
Status,289,45536297690,/g3t1_2,,running
Status,290,45537254951,/g3t1_2,,success
Status,291,45620154442,/g3t1_1,,running
Status,292,45620469538,/g3t1_1,,success
Status,293,45736741993,/g3t1_2,,running
Status,294,45736996510,/g3t1_2,,success
Status,295,45923282269,/g3t1_3,,running
Status,296,45924038742,/g3t1_3,,success
Status,297,45936886820,/g3t1_2,,running
Status,298,45937022004,/g3t1_2,,success
Status,299,46028200769,/g3t1_4,,running
Status,300,46041100118,/g3t1_4,,success
Status,302,46136536826,/g3t1_2,,running
Status,303,46137027840,/g3t1_2,,success
Status,304,46336698177,/g3t1_2,,running
Status,305,46336962045,/g3t1_2,,success
Status,306,46511451010,/g4t1,,success
Status,307,46536920852,/g3t1_2,,running
Status,308,46537266922,/g3t1_2,,success
Status,309,46737427780,/g3t1_2,,running
Status,310,46737945324,/g3t1_2,,success
Status,311,46937659223,/g3t1_2,,running
Status,312,46938679515,/g3t1_2,,success
Status,313,47027856103,/g3t1_4,,running
Status,314,47037968052,/g3t1_4,,success
Status,315,47137820321,/g3t1_2,,running
Status,316,47138906830,/g3t1_2,,success
Status,317,47338120307,/g3t1_2,,running
Status,318,47338687127,/g3t1_2,,success
Status,319,47511520851,/g4t1,,success
Status,320,47538218820,/g3t1_2,,running
Status,321,47538851666,/g3t1_2,,success
Status,322,47737661651,/g3t1_2,,running
Status,323,47737984505,/g3t1_2,,success
Status,324,47938278656,/g3t1_2,,running
Status,325,47938732133,/g3t1_2,,success
Status,326,48028133083,/g3t1_4,,running
Status,327,48039663539,/g3t1_4,,success
Status,328,48138868538,/g3t1_2,,running
Status,329,48139474555,/g3t1_2,,success
Status,330,48339384600,/g3t1_2,,running
Status,331,48339634768,/g3t1_2,,success
Status,332,48512154058,/g4t1,,success
Status,333,48538822446,/g3t1_2,,running
Status,334,48539523725,/g3t1_2,,success
Status,335,48739442319,/g3t1_2,,running
Status,336,48740117990,/g3t1_2,,success
Status,337,48939657245,/g3t1_2,,running
Status,338,48940368567,/g3t1_2,,success
Status,339,49028857934,/g3t1_4,,running
Status,340,49036576979,/g3t1_4,,success
Status,341,49139620615,/g3t1_2,,running
Status,342,49139940207,/g3t1_2,,success
Status,343,49340022194,/g3t1_2,,running
Status,344,49340735552,/g3t1_2,,success
Status,345,49511972380,/g4t1,,success
Status,346,49540071113,/g3t1_2,,running
Status,347,49540161801,/g3t1_2,,success
Status,348,49740224405,/g3t1_2,,running
Status,349,49740859210,/g3t1_2,,success
Status,350,49940200490,/g3t1_2,,running
Status,351,49940779116,/g3t1_2,,success
Status,352,50028465725,/g3t1_4,,running
Status,353,50036338165,/g3t1_4,,success
Status,354,50140264370,/g3t1_2,,running
Status,355,50141036199,/g3t1_2,,success
Status,356,50340496535,/g3t1_2,,running
Status,357,50341152283,/g3t1_2,,success
Status,358,50512342282,/g4t1,,success
Status,359,50540475563,/g3t1_2,,running
Status,360,50541293561,/g3t1_2,,success
Status,361,50620679712,/g3t1_1,,running
Status,362,50621435700,/g3t1_1,,success
Status,363,50740886251,/g3t1_2,,running
Status,364,50741514181,/g3t1_2,,success
Status,365,50941178614,/g3t1_2,,running
Status,366,50942026582,/g3t1_2,,success
Status,367,51028633591,/g3t1_4,,running
Status,368,51036457579,/g3t1_4,,success
Status,369,51141176460,/g3t1_2,,running
Status,370,51141631598,/g3t1_2,,success
Status,372,51342027090,/g3t1_2,,running
Status,373,51342106721,/g3t1_2,,success
Status,374,51512401879,/g4t1,,success
Status,375,51541808986,/g3t1_2,,running
Status,376,51542642522,/g3t1_2,,success
Status,377,51742096478,/g3t1_2,,running
Status,378,51742450814,/g3t1_2,,success
Status,379,51942632838,/g3t1_2,,running
Status,380,51943014589,/g3t1_2,,success
Status,381,52028918998,/g3t1_4,,running
Status,382,52036073273,/g3t1_4,,success
Status,383,52142714561,/g3t1_2,,running
Status,384,52142784367,/g3t1_2,,success
Status,385,52342815835,/g3t1_2,,running
Status,386,52343153185,/g3t1_2,,success
Status,387,52512512023,/g4t1,,success
Status,388,52542582038,/g3t1_2,,running
Status,389,52543319377,/g3t1_2,,success
Status,390,52743121737,/g3t1_2,,running
Status,391,52743989575,/g3t1_2,,success
Status,392,52943396200,/g3t1_2,,running
Status,393,52944261045,/g3t1_2,,success
Status,394,53028966647,/g3t1_4,,running
Status,395,53036101430,/g3t1_4,,success
Status,396,53143389018,/g3t1_2,,running
Status,397,53144046628,/g3t1_2,,success
Status,398,53343665313,/g3t1_2,,running
Status,399,53344353812,/g3t1_2,,success
Status,400,53512665234,/g4t1,,success
Status,401,53543574165,/g3t1_2,,running
Status,402,53543833006,/g3t1_2,,success
Status,403,53743801407,/g3t1_2,,running
Status,404,53744790586,/g3t1_2,,success
Status,405,53944055224,/g3t1_2,,running
Status,406,53944634223,/g3t1_2,,success
Status,407,54029595760,/g3t1_4,,running
Status,408,54037587134,/g3t1_4,,success
Status,409,54144176915,/g3t1_2,,running
Status,410,54145059727,/g3t1_2,,success
Status,411,54344261019,/g3t1_2,,running
Status,412,54344582498,/g3t1_2,,success
Status,413,54512873320,/g4t1,,success
Status,414,54544514998,/g3t1_2,,running
Status,415,54545282964,/g3t1_2,,success
Status,416,54744310047,/g3t1_2,,running
Status,417,54744716459,/g3t1_2,,success
Status,418,54945051726,/g3t1_2,,running
Status,419,54945123532,/g3t1_2,,success
Status,420,55029544304,/g3t1_4,,running
Status,421,55037754405,/g3t1_4,,success
Status,422,55144804763,/g3t1_2,,running
Status,423,55145549114,/g3t1_2,,success
Status,424,55345378384,/g3t1_2,,running
Status,425,55345832136,/g3t1_2,,success
Status,426,55512841490,/g4t1,,success
Status,427,55545103645,/g3t1_2,,running
Status,428,55545751819,/g3t1_2,,success
Status,429,55620744940,/g3t1_1,,running
Status,430,55621007123,/g3t1_1,,success
Status,431,55745600843,/g3t1_2,,running
Status,432,55746476284,/g3t1_2,,success
Status,433,55923317315,/g3t1_3,,running
Status,434,55924213853,/g3t1_3,,success
Status,435,55945201058,/g3t1_2,,running
Status,436,55945892590,/g3t1_2,,success
Status,437,56029546874,/g3t1_4,,running
Status,438,56037669256,/g3t1_4,,success
Status,439,56145451491,/g3t1_2,,running
Status,440,56145849205,/g3t1_2,,success
Status,444,56346055279,/g3t1_2,,running
Status,445,56346816117,/g3t1_2,,success
Status,446,56513123310,/g4t1,,success
Status,447,56545776135,/g3t1_2,,running
Status,448,56546051778,/g3t1_2,,success
Status,449,56746474859,/g3t1_2,,running
Status,450,56746984227,/g3t1_2,,fail
Status,451,56946405643,/g3t1_2,,running
Status,452,56946999181,/g3t1_2,,success
Status,453,57029894105,/g3t1_4,,running
Status,454,57038011545,/g3t1_4,,success
Status,455,57146854443,/g3t1_2,,running
Status,456,57146928183,/g3t1_2,,fail
Status,457,57346864866,/g3t1_2,,running
Status,458,57347332922,/g3t1_2,,fail
Status,459,57513081515,/g4t1,,success
Status,460,57546987416,/g3t1_2,,running
Status,461,57547061796,/g3t1_2,,fail
Status,462,57747377746,/g3t1_2,,running
Status,463,57747985798,/g3t1_2,,success
Status,464,57947402577,/g3t1_2,,running
Status,465,57948307094,/g3t1_2,,success
Status,466,58029942876,/g3t1_4,,running
Status,467,58037476594,/g3t1_4,,success
Status,468,58147746609,/g3t1_2,,running
Status,469,58147812517,/g3t1_2,,fail
Status,470,58348142693,/g3t1_2,,running
Status,471,58348494238,/g3t1_2,,success
Status,472,58513382107,/g4t1,,success
Status,473,58547855586,/g3t1_2,,running
Status,474,58548507609,/g3t1_2,,success
Status,475,58747902782,/g3t1_2,,running
Status,476,58748382629,/g3t1_2,,success
Status,477,58948331719,/g3t1_2,,running
Status,478,58948959804,/g3t1_2,,success
Status,479,59030191899,/g3t1_4,,running
Status,480,59037737274,/g3t1_4,,success
Status,481,59148623897,/g3t1_2,,running
Status,482,59149246299,/g3t1_2,,success
Status,483,59348791672,/g3t1_2,,running
Status,484,59349730467,/g3t1_2,,success
Status,485,59513660221,/g4t1,,success
Status,486,59548866092,/g3t1_2,,running
Status,487,59548938080,/g3t1_2,,fail
Status,488,59748842098,/g3t1_2,,running
Status,489,59749634027,/g3t1_2,,success
Status,490,59949416503,/g3t1_2,,running
Status,491,59950058121,/g3t1_2,,success
Status,492,60029800461,/g3t1_4,,running
Status,493,60035102849,/g3t1_4,,success
Status,494,60149108122,/g3t1_2,,running
Status,495,60149929949,/g3t1_2,,success
Status,496,60349756366,/g3t1_2,,running
Status,497,60350062095,/g3t1_2,,success
Status,498,60513787682,/g4t1,,success
Status,499,60549629846,/g3t1_2,,running
Status,500,60550118770,/g3t1_2,,success
Status,501,60620810641,/g3t1_1,,running
Status,502,60621477250,/g3t1_1,,success
Status,503,60750142661,/g3t1_2,,running
Status,504,60750666759,/g3t1_2,,success
Status,505,60950066023,/g3t1_2,,running
Status,506,60950725657,/g3t1_2,,success
Status,507,61030500780,/g3t1_4,,running
Status,508,61037356823,/g3t1_4,,success
Status,509,61149899138,/g3t1_2,,running
Status,510,61150810649,/g3t1_2,,success
Status,512,61350446758,/g3t1_2,,running
Status,513,61350584380,/g3t1_2,,fail
Status,514,61513952866,/g4t1,,success
Status,515,61550486200,/g3t1_2,,running
Status,516,61550619781,/g3t1_2,,fail
Status,517,61751031827,/g3t1_2,,running
Status,518,61751599012,/g3t1_2,,fail
Status,519,61951194946,/g3t1_2,,running
Status,520,61951274557,/g3t1_2,,fail
Status,521,62030869177,/g3t1_4,,running
Status,522,62039351983,/g3t1_4,,success
Status,523,62151095952,/g3t1_2,,running
Status,524,62151158796,/g3t1_2,,fail
Status,525,62351212048,/g3t1_2,,running
Status,526,62351555544,/g3t1_2,,fail
Status,527,62514163145,/g4t1,,success
Status,528,62551252949,/g3t1_2,,running
Status,529,62551522104,/g3t1_2,,success
Status,530,62751798817,/g3t1_2,,running
Status,531,62751892090,/g3t1_2,,fail
Status,532,62951791478,/g3t1_2,,running
Status,533,62952125675,/g3t1_2,,fail
Status,534,63030930181,/g3t1_4,,running
Status,535,63038296844,/g3t1_4,,success
Status,536,63151825681,/g3t1_2,,running
Status,537,63152306361,/g3t1_2,,fail
Status,538,63352128949,/g3t1_2,,running
Status,539,63352209640,/g3t1_2,,fail
Status,540,63514397276,/g4t1,,success
Status,541,63551894076,/g3t1_2,,running
Status,542,63552444686,/g3t1_2,,success
Status,543,63752055403,/g3t1_2,,running
Status,544,63752429498,/g3t1_2,,fail
Status,545,63952412024,/g3t1_2,,running
Status,546,63952831041,/g3t1_2,,success
Status,547,64030926361,/g3t1_4,,running
Status,548,64038349028,/g3t1_4,,success
Status,549,64152342988,/g3t1_2,,running
Status,550,64152967252,/g3t1_2,,success
Status,551,64352933695,/g3t1_2,,running
Status,552,64353593042,/g3t1_2,,success
Status,553,64515009078,/g4t1,,success
Status,554,64552622708,/g3t1_2,,running
Status,555,64553249677,/g3t1_2,,success
Status,556,64752741583,/g3t1_2,,running
Status,557,64752985176,/g3t1_2,,success
Status,558,64953071143,/g3t1_2,,running
Status,559,64953541929,/g3t1_2,,success
Status,560,65030991728,/g3t1_4,,running
Status,561,65042112695,/g3t1_4,,success
Status,562,65153263778,/g3t1_2,,running
Status,563,65153674298,/g3t1_2,,success
Status,564,65353249410,/g3t1_2,,running
Status,565,65353854357,/g3t1_2,,success
Status,566,65513679684,/g4t1,,success
Status,567,65553189510,/g3t1_2,,running
Status,568,65553375667,/g3t1_2,,success
Status,569,65620442982,/g3t1_1,,running
Status,570,65620781657,/g3t1_1,,success
Status,571,65753051235,/g3t1_2,,running
Status,572,65753498270,/g3t1_2,,success
Status,573,65923221439,/g3t1_3,,running
Status,574,65923989018,/g3t1_3,,success
Status,575,65953522884,/g3t1_2,,running
Status,576,65953786388,/g3t1_2,,fail
Status,577,66030361830,/g3t1_4,,running
Status,578,66032530513,/g3t1_4,,success
Status,579,66153229274,/g3t1_2,,running
Status,580,66153405092,/g3t1_2,,success
Status,581,66354066988,/g3t1_2,,running
Status,582,66354132980,/g3t1_2,,fail
Status,584,66514034359,/g4t1,,success
Status,585,66553413619,/g3t1_2,,running
Status,586,66553438501,/g3t1_2,,fail
Status,587,66753357949,/g3t1_2,,running
Status,588,66753455499,/g3t1_2,,success
Status,589,66953375044,/g3t1_2,,running
Status,590,66953389518,/g3t1_2,,success
Status,591,67030406078,/g3t1_4,,running
Status,592,67032707477,/g3t1_4,,success
Status,593,67154083020,/g3t1_2,,running
Status,594,67154109813,/g3t1_2,,success
Status,595,67353722132,/g3t1_2,,running
Status,596,67353741611,/g3t1_2,,fail
Status,597,67513771844,/g4t1,,success
Status,598,67553856593,/g3t1_2,,running
Status,599,67553877062,/g3t1_2,,fail
Status,600,67754044837,/g3t1_2,,running
Status,601,67754423007,/g3t1_2,,success
Status,602,67954605728,/g3t1_2,,running
Status,603,67955292380,/g3t1_2,,success
Status,604,68031102332,/g3t1_4,,running
Status,605,68036435308,/g3t1_4,,success
Status,606,68154605872,/g3t1_2,,running
Status,607,68155117280,/g3t1_2,,success
Status,608,68355126490,/g3t1_2,,running
Status,609,68355748441,/g3t1_2,,success
Status,610,68514735329,/g4t1,,success
Status,611,68555217533,/g3t1_2,,running
Status,612,68555520902,/g3t1_2,,success
Status,613,68755465668,/g3t1_2,,running
Status,614,68755746679,/g3t1_2,,success
Status,615,68955543353,/g3t1_2,,running
Status,616,68956167823,/g3t1_2,,success
Status,617,69031791376,/g3t1_4,,running
Status,618,69039079310,/g3t1_4,,success
Status,619,69155644032,/g3t1_2,,running
Status,620,69155937594,/g3t1_2,,success
Status,621,69355181999,/g3t1_2,,running
Status,622,69355320882,/g3t1_2,,success
Status,623,69514719274,/g4t1,,success
Status,624,69555705898,/g3t1_2,,running
Status,625,69556444992,/g3t1_2,,fail
Status,626,69755951204,/g3t1_2,,running
Status,627,69756014107,/g3t1_2,,success
Status,628,69956242810,/g3t1_2,,running
Status,629,69956302335,/g3t1_2,,fail
Status,630,70031651961,/g3t1_4,,running
Status,631,70036746251,/g3t1_4,,success
Status,632,70156215586,/g3t1_2,,running
Status,633,70156546982,/g3t1_2,,fail
Status,634,70356194269,/g3t1_2,,running
Status,635,70356255599,/g3t1_2,,fail
Status,636,70513951669,/g4t1,,success
Status,637,70556514840,/g3t1_2,,running
Status,638,70556578109,/g3t1_2,,fail
Status,639,70620578980,/g3t1_1,,running
Status,640,70620703044,/g3t1_1,,success
Status,641,70755957587,/g3t1_2,,running
Status,642,70755979505,/g3t1_2,,fail
Status,643,70956539475,/g3t1_2,,running
Status,644,70956865308,/g3t1_2,,fail
Status,645,71032099333,/g3t1_4,,running
Status,646,71042256831,/g3t1_4,,success
Status,647,71156083125,/g3t1_2,,running
Status,648,71156106051,/g3t1_2,,fail
Status,649,71356850672,/g3t1_2,,running
Status,650,71357651573,/g3t1_2,,success
Status,653,71514032797,/g4t1,,success
Status,654,71556494296,/g3t1_2,,running
Status,655,71556537419,/g3t1_2,,success
Status,656,71756525203,/g3t1_2,,running
Status,657,71756558458,/g3t1_2,,fail
Status,658,71957276365,/g3t1_2,,running
Status,659,71957974329,/g3t1_2,,success
Status,660,72031950489,/g3t1_4,,running
Status,661,72041119078,/g3t1_4,,success
Status,662,72157579797,/g3t1_2,,running
Status,663,72158087945,/g3t1_2,,success
Status,664,72357450605,/g3t1_2,,running
Status,665,72358310628,/g3t1_2,,success
Status,666,72514133110,/g4t1,,success
Status,667,72556825871,/g3t1_2,,running
Status,668,72557002210,/g3t1_2,,success
Status,669,72757627773,/g3t1_2,,running
Status,670,72758228517,/g3t1_2,,success
Status,671,72957749526,/g3t1_2,,running
Status,672,72958081892,/g3t1_2,,success
Status,673,73031437459,/g3t1_4,,running
Status,674,73034293485,/g3t1_4,,success
Status,675,73157685469,/g3t1_2,,running
Status,676,73158156028,/g3t1_2,,success
Status,677,73357951832,/g3t1_2,,running
Status,678,73358649057,/g3t1_2,,success
Status,679,73515146243,/g4t1,,success
Status,680,73558121100,/g3t1_2,,running
Status,681,73558699688,/g3t1_2,,success
Status,682,73757715204,/g3t1_2,,running
Status,683,73757739500,/g3t1_2,,success
Status,684,73958293925,/g3t1_2,,running
Status,685,73959215654,/g3t1_2,,success
Status,686,74032134021,/g3t1_4,,running
Status,687,74039700858,/g3t1_4,,success
Status,688,74158034128,/g3t1_2,,running
Status,689,74158096186,/g3t1_2,,success
Status,690,74358932712,/g3t1_2,,running
Status,691,74359003287,/g3t1_2,,fail
Status,692,74515391340,/g4t1,,success
Status,693,74559102426,/g3t1_2,,running
Status,694,74559448717,/g3t1_2,,fail
Status,695,74759160280,/g3t1_2,,running
Status,696,74759751092,/g3t1_2,,success
Status,697,74959440762,/g3t1_2,,running
Status,698,74959499607,/g3t1_2,,fail
Status,699,75032102310,/g3t1_4,,running
Status,700,75036623008,/g3t1_4,,success
Status,701,75158674966,/g3t1_2,,running
Status,702,75158812403,/g3t1_2,,success
Status,703,75359551012,/g3t1_2,,running
Status,704,75359620329,/g3t1_2,,fail
Status,705,75515715963,/g4t1,,success
Status,706,75559727357,/g3t1_2,,running
Status,707,75560477457,/g3t1_2,,fail
Status,708,75621519812,/g3t1_1,,running
Status,709,75621922332,/g3t1_1,,success
Status,710,75760072003,/g3t1_2,,running
Status,711,75760145407,/g3t1_2,,fail
Status,712,75923337226,/g3t1_3,,running
Status,713,75924139682,/g3t1_3,,success
Status,714,75960016141,/g3t1_2,,running
Status,715,75960799377,/g3t1_2,,success
Status,716,76032653106,/g3t1_4,,running
Status,717,76039750049,/g3t1_4,,success
Status,718,76160018550,/g3t1_2,,running
Status,719,76160450337,/g3t1_2,,success
Status,720,76360611688,/g3t1_2,,running
Status,721,76360981960,/g3t1_2,,success
Status,722,76515701257,/g4t1,,success
Status,724,76560336779,/g3t1_2,,running
Status,725,76560795788,/g3t1_2,,success
Status,726,76760804328,/g3t1_2,,running
Status,727,76761260183,/g3t1_2,,success
Status,728,76960114275,/g3t1_2,,running
Status,729,76960211667,/g3t1_2,,fail
Status,730,77032336932,/g3t1_4,,running
Status,731,77037352478,/g3t1_4,,success
Status,732,77160791154,/g3t1_2,,running
Status,733,77160854790,/g3t1_2,,fail
Status,734,77361047605,/g3t1_2,,running
Status,735,77361130297,/g3t1_2,,success
Status,736,77515837838,/g4t1,,success
Status,737,77560914323,/g3t1_2,,running
Status,738,77561166788,/g3t1_2,,fail
Status,739,77761137486,/g3t1_2,,running
Status,740,77761198939,/g3t1_2,,fail
Status,741,77961610369,/g3t1_2,,running
Status,742,77962090065,/g3t1_2,,fail
Status,743,78032663024,/g3t1_4,,running
Status,744,78040118583,/g3t1_4,,success
Status,745,78161254162,/g3t1_2,,running
Status,746,78161451697,/g3t1_2,,fail
Status,747,78361664824,/g3t1_2,,running
Status,748,78361834961,/g3t1_2,,fail
Status,749,78515730136,/g4t1,,success
Status,750,78561776108,/g3t1_2,,running
Status,751,78562726083,/g3t1_2,,success
Status,752,78762188912,/g3t1_2,,running
Status,753,78762279097,/g3t1_2,,fail
Status,754,78962242925,/g3t1_2,,running
Status,755,78962376870,/g3t1_2,,fail
Status,756,79032496019,/g3t1_4,,running
Status,757,79037213532,/g3t1_4,,success
Status,758,79162776655,/g3t1_2,,running
Status,759,79163116396,/g3t1_2,,success
Status,760,79363099617,/g3t1_2,,running
Status,761,79363175792,/g3t1_2,,fail
Status,762,79516087377,/g4t1,,success
Status,763,79562791864,/g3t1_2,,running
Status,764,79563090658,/g3t1_2,,fail
Status,765,79763050153,/g3t1_2,,running
Status,766,79763460485,/g3t1_2,,success
Status,767,79963578885,/g3t1_2,,running
Status,768,79963668619,/g3t1_2,,success
Status,769,80033253292,/g3t1_4,,running
Status,770,80040857584,/g3t1_4,,success
Status,771,80162840649,/g3t1_2,,running
Status,772,80163249839,/g3t1_2,,success
Status,773,80363831461,/g3t1_2,,running
Status,774,80364736104,/g3t1_2,,success
Status,775,80516194446,/g4t1,,success
Status,776,80563715839,/g3t1_2,,running
Status,777,80564119839,/g3t1_2,,success
Status,778,80621440331,/g3t1_1,,running
Status,779,80622065912,/g3t1_1,,success
Status,780,80763830029,/g3t1_2,,running
Status,781,80764157622,/g3t1_2,,success
Status,782,80963773362,/g3t1_2,,running
Status,783,80964177456,/g3t1_2,,success
Status,784,81033252053,/g3t1_4,,fail
Status,785,81164037408,/g3t1_2,,running
Status,786,81164595255,/g3t1_2,,success
Status,787,81364367836,/g3t1_2,,running
Status,788,81365261004,/g3t1_2,,success
Status,789,81516125762,/g4t1,,success
Status,790,81564537295,/g3t1_2,,running
Status,791,81564635940,/g3t1_2,,success
Status,793,81764376176,/g3t1_2,,running
Status,794,81765090901,/g3t1_2,,success
Status,795,81964470884,/g3t1_2,,running
Status,796,81964732747,/g3t1_2,,fail
Status,797,82032609897,/g3t1_4,,fail
Status,798,82164869385,/g3t1_2,,running
Status,799,82164927661,/g3t1_2,,fail
Status,800,82364881741,/g3t1_2,,running
Status,801,82364950989,/g3t1_2,,fail
Status,802,82516658224,/g4t1,,success
Status,803,82565005720,/g3t1_2,,running
Status,804,82565796839,/g3t1_2,,success
Status,805,82765496481,/g3t1_2,,running
Status,806,82765587959,/g3t1_2,,fail
Status,807,82965448701,/g3t1_2,,running
Status,808,82965510748,/g3t1_2,,fail
Status,809,83033332542,/g3t1_4,,fail
Status,810,83165920033,/g3t1_2,,running
Status,811,83165981383,/g3t1_2,,success
Status,812,83365694649,/g3t1_2,,running
Status,813,83366100404,/g3t1_2,,success
Status,814,83516737904,/g4t1,,success
Status,815,83565959708,/g3t1_2,,running
Status,816,83566388319,/g3t1_2,,success
Status,817,83766403038,/g3t1_2,,running
Status,818,83766896247,/g3t1_2,,fail
Status,819,83966390685,/g3t1_2,,running
Status,820,83966831427,/g3t1_2,,success
Status,821,84033507078,/g3t1_4,,fail
Status,822,84166924183,/g3t1_2,,running
Status,823,84167626929,/g3t1_2,,success
Status,824,84367123444,/g3t1_2,,running
Status,825,84367211202,/g3t1_2,,fail
Status,826,84516901206,/g4t1,,success
Status,827,84566785217,/g3t1_2,,running
Status,828,84567204883,/g3t1_2,,fail
Status,829,84767011747,/g3t1_2,,running
Status,830,84767362833,/g3t1_2,,fail
Status,831,84967092114,/g3t1_2,,running
Status,832,84967886726,/g3t1_2,,success
Status,833,85033814341,/g3t1_4,,fail
Status,834,85167991315,/g3t1_2,,running
Status,835,85168477132,/g3t1_2,,fail
Status,836,85367710222,/g3t1_2,,running
Status,837,85367766319,/g3t1_2,,fail
Status,838,85516918784,/g4t1,,success
Status,839,85567715630,/g3t1_2,,running
Status,840,85567942689,/g3t1_2,,fail
Status,841,85621074336,/g3t1_1,,running
Status,842,85621346773,/g3t1_1,,success
Status,843,85768196433,/g3t1_2,,running
Status,844,85768292299,/g3t1_2,,fail
Status,845,85923366455,/g3t1_3,,running
Status,846,85923800782,/g3t1_3,,success
Status,847,85968092881,/g3t1_2,,running
Status,848,85968156639,/g3t1_2,,success
Status,849,86033934806,/g3t1_4,,fail
Status,850,86168268355,/g3t1_2,,running
Status,851,86168571645,/g3t1_2,,fail
Status,852,86368495553,/g3t1_2,,running
Status,853,86368572988,/g3t1_2,,fail
Status,854,86516538797,/g4t1,,success
Status,855,86568346791,/g3t1_2,,running
Status,856,86568902165,/g3t1_2,,success
Status,861,86768265446,/g3t1_2,,running
Status,862,86768306586,/g3t1_2,,fail
Status,863,86968646907,/g3t1_2,,running
Status,864,86969372835,/g3t1_2,,success
Status,865,87034075235,/g3t1_4,,fail
Status,866,87168829430,/g3t1_2,,running
Status,867,87169169261,/g3t1_2,,fail
Status,868,87368816746,/g3t1_2,,running
Status,869,87369195507,/g3t1_2,,success
Status,870,87517434597,/g4t1,,success
Status,871,87568930655,/g3t1_2,,running
Status,872,87569555097,/g3t1_2,,success
Status,873,87768738665,/g3t1_2,,running
Status,874,87769176563,/g3t1_2,,success
Status,875,87969285140,/g3t1_2,,running
Status,876,87969587553,/g3t1_2,,success
Status,877,88034112724,/g3t1_4,,fail
Status,878,88169318357,/g3t1_2,,running
Status,879,88169657467,/g3t1_2,,success
Status,880,88369019395,/g3t1_2,,running
Status,881,88369050263,/g3t1_2,,fail
Status,882,88517483543,/g4t1,,success
Status,883,88569607807,/g3t1_2,,running
Status,884,88569746452,/g3t1_2,,fail
Status,885,88769797154,/g3t1_2,,running
Status,886,88769857976,/g3t1_2,,fail
Status,887,88969812693,/g3t1_2,,running
Status,888,88970270637,/g3t1_2,,success
Status,889,89034050724,/g3t1_4,,fail
Status,890,89170308140,/g3t1_2,,running
Status,891,89170799707,/g3t1_2,,success
Status,892,89370792702,/g3t1_2,,running
Status,893,89370916461,/g3t1_2,,fail
Status,894,89517646709,/g4t1,,success
Status,895,89570283678,/g3t1_2,,running
Status,896,89570811524,/g3t1_2,,success
Status,897,89770611576,/g3t1_2,,running
Status,898,89771354319,/g3t1_2,,success
Status,899,89970651510,/g3t1_2,,running
Status,900,89971385689,/g3t1_2,,success
Status,901,90034525204,/g3t1_4,,fail
Status,902,90170987691,/g3t1_2,,running
Status,903,90171629690,/g3t1_2,,success
Status,904,90371462817,/g3t1_2,,running
Status,905,90371844715,/g3t1_2,,fail
Status,906,90518094245,/g4t1,,success
Status,907,90571462180,/g3t1_2,,running
Status,908,90571764542,/g3t1_2,,fail
Status,909,90621692592,/g3t1_1,,running
Status,910,90622189858,/g3t1_1,,fail
Status,911,90771681621,/g3t1_2,,running
Status,912,90772177516,/g3t1_2,,success
Status,913,90971931640,/g3t1_2,,running
Status,914,90972316500,/g3t1_2,,fail
Status,915,91034128841,/g3t1_4,,fail
Status,916,91171334916,/g3t1_2,,running
Status,917,91172005761,/g3t1_2,,fail
Status,918,91371251276,/g3t1_2,,running
Status,919,91371268712,/g3t1_2,,fail
Status,920,91517533751,/g4t1,,success
Status,921,91571269292,/g3t1_2,,running
Status,922,91571319721,/g3t1_2,,fail
Status,924,91771414446,/g3t1_2,,running
Status,925,91771621916,/g3t1_2,,success
Status,926,91972231214,/g3t1_2,,running
Status,927,91972560319,/g3t1_2,,fail
Status,928,92034173137,/g3t1_4,,fail
Status,929,92172390739,/g3t1_2,,running
Status,930,92173272509,/g3t1_2,,success
Status,931,92373036455,/g3t1_2,,running
Status,932,92373319045,/g3t1_2,,success
Status,933,92517168054,/g4t1,,success
Status,934,92571827541,/g3t1_2,,running
Status,935,92571862100,/g3t1_2,,fail
Status,936,92772467446,/g3t1_2,,running
Status,937,92772820267,/g3t1_2,,fail
Status,938,92973418154,/g3t1_2,,running
Status,939,92973490588,/g3t1_2,,success
Status,940,93035073689,/g3t1_4,,fail
Status,941,93172927547,/g3t1_2,,running
Status,942,93173459854,/g3t1_2,,success
Status,943,93372886940,/g3t1_2,,running
Status,944,93373526113,/g3t1_2,,fail
Status,945,93518078179,/g4t1,,success
Status,946,93573369616,/g3t1_2,,running
Status,947,93573440227,/g3t1_2,,fail
Status,948,93773804027,/g3t1_2,,running
Status,949,93773877530,/g3t1_2,,fail
Status,950,93972929804,/g3t1_2,,running
Status,951,93972950729,/g3t1_2,,fail
Status,952,94035246862,/g3t1_4,,fail
Status,953,94173640472,/g3t1_2,,running
Status,954,94173876687,/g3t1_2,,fail
Status,955,94373724115,/g3t1_2,,running
Status,956,94374033703,/g3t1_2,,fail
Status,957,94518327783,/g4t1,,success
Status,958,94573938862,/g3t1_2,,running
Status,959,94573999754,/g3t1_2,,fail
Status,960,94774084216,/g3t1_2,,running
Status,961,94774143312,/g3t1_2,,fail
Status,962,94974024404,/g3t1_2,,running
Status,963,94974304003,/g3t1_2,,fail
Status,964,95035180377,/g3t1_4,,fail
Status,965,95174438152,/g3t1_2,,running
Status,966,95174719459,/g3t1_2,,fail
Status,967,95374994279,/g3t1_2,,running
Status,968,95375368183,/g3t1_2,,fail
Status,969,95517560842,/g4t1,,success
Status,970,95574131199,/g3t1_2,,running
Status,971,95574171392,/g3t1_2,,success
Status,972,95621666297,/g3t1_1,,running
Status,973,95622188333,/g3t1_1,,fail
Status,974,95774667405,/g3t1_2,,running
Status,975,95775238509,/g3t1_2,,success
Status,976,95923675863,/g3t1_3,,running
Status,977,95924243740,/g3t1_3,,fail
Status,978,95975083133,/g3t1_2,,running
Status,979,95975412164,/g3t1_2,,fail
Status,980,96035519984,/g3t1_4,,fail
Status,981,96175868808,/g3t1_2,,running
Status,982,96176156171,/g3t1_2,,fail
Status,983,96375883931,/g3t1_2,,running
Status,984,96376586011,/g3t1_2,,success
Status,985,96518653125,/g4t1,,success
Status,986,96575289734,/g3t1_2,,running
Status,987,96575648663,/g3t1_2,,success
Status,988,96775842096,/g3t1_2,,running
Status,989,96776403494,/g3t1_2,,fail
Status,991,96975873853,/g3t1_2,,running
Status,992,96976499987,/g3t1_2,,success
Status,993,97035047273,/g3t1_4,,fail
Status,994,97176236050,/g3t1_2,,running
Status,995,97176776186,/g3t1_2,,fail
Status,996,97375664775,/g3t1_2,,running
Status,997,97375687124,/g3t1_2,,fail
Status,998,97518276598,/g4t1,,success
Status,999,97575827465,/g3t1_2,,running
Status,1000,97575989459,/g3t1_2,,success
Status,1001,97776492410,/g3t1_2,,running
Status,1002,97776741899,/g3t1_2,,success
Status,1003,97976638116,/g3t1_2,,running
Status,1004,97977303431,/g3t1_2,,success
Status,1005,98035727117,/g3t1_4,,fail
Status,1006,98176770245,/g3t1_2,,running
Status,1007,98177289629,/g3t1_2,,success
Status,1008,98376704583,/g3t1_2,,running
Status,1009,98376914852,/g3t1_2,,fail
Status,1010,98518126943,/g4t1,,success
Status,1011,98576447921,/g3t1_2,,running
Status,1012,98576554621,/g3t1_2,,success
Status,1013,98776392962,/g3t1_2,,running
Status,1014,98776417215,/g3t1_2,,fail
Status,1015,98977251442,/g3t1_2,,running
Status,1016,98977895791,/g3t1_2,,success
Status,1017,99035657400,/g3t1_4,,running
Status,1018,99044699906,/g3t1_4,,success
Status,1019,99176599609,/g3t1_2,,running
Status,1020,99176620512,/g3t1_2,,fail
Status,1021,99376747867,/g3t1_2,,running
Status,1022,99376767817,/g3t1_2,,fail
Status,1023,99518103954,/g4t1,,success
Status,1024,99576614811,/g3t1_2,,running
Status,1025,99577201254,/g3t1_2,,success
Status,1026,99776827837,/g3t1_2,,running
Status,1027,99777011383,/g3t1_2,,fail
Status,1028,99976854133,/g3t1_2,,running
Status,1029,99976877587,/g3t1_2,,fail
Status,1030,100035190596,/g3t1_4,,running
Status,1031,100037324781,/g3t1_4,,success
Status,1032,100177731194,/g3t1_2,,running
Status,1033,100178021227,/g3t1_2,,fail
Status,1034,100377209469,/g3t1_2,,running
Status,1035,100377233248,/g3t1_2,,fail
Status,1036,100518263015,/g4t1,,success
Status,1037,100577214867,/g3t1_2,,running
Status,1038,100577271066,/g3t1_2,,success
Status,1039,100621101479,/g3t1_1,,running
Status,1040,100621219588,/g3t1_1,,fail
Status,1041,100777420291,/g3t1_2,,running
Status,1042,100777440762,/g3t1_2,,success
Status,1043,100977323009,/g3t1_2,,running
Status,1044,100977419367,/g3t1_2,,fail
Status,1045,101035493426,/g3t1_4,,running
Status,1046,101040350439,/g3t1_4,,success
Status,1047,101177555524,/g3t1_2,,running
Status,1048,101177655457,/g3t1_2,,fail
Status,1049,101378406400,/g3t1_2,,running
Status,1050,101379388182,/g3t1_2,,fail
Status,1051,101518419101,/g4t1,,success
Status,1052,101577868783,/g3t1_2,,running
Status,1053,101578257742,/g3t1_2,,success
Status,1054,101777849909,/g3t1_2,,running
Status,1055,101778014940,/g3t1_2,,success
Status,1058,101977909234,/g3t1_2,,running
Status,1059,101977930869,/g3t1_2,,fail
Status,1060,102036148090,/g3t1_4,,running
Status,1061,102043887738,/g3t1_4,,success
Status,1062,102178710078,/g3t1_2,,running
Status,1063,102179051236,/g3t1_2,,fail
Status,1064,102379167685,/g3t1_2,,running
Status,1065,102379256624,/g3t1_2,,fail
Status,1066,102519194774,/g4t1,,success
Status,1067,102579391135,/g3t1_2,,running
Status,1068,102579624938,/g3t1_2,,fail
Status,1069,102779355130,/g3t1_2,,running
Status,1070,102779632175,/g3t1_2,,fail
Status,1071,102979339213,/g3t1_2,,running
Status,1072,102979564369,/g3t1_2,,fail
Status,1073,103035546472,/g3t1_4,,running
Status,1074,103038344044,/g3t1_4,,success
Status,1075,103179821525,/g3t1_2,,running
Status,1076,103179900988,/g3t1_2,,fail
Status,1077,103379839195,/g3t1_2,,running
Status,1078,103379929200,/g3t1_2,,success
Status,1079,103519332872,/g4t1,,success
Status,1080,103579271717,/g3t1_2,,running
Status,1081,103579642381,/g3t1_2,,success
Status,1082,103779513284,/g3t1_2,,running
Status,1083,103779826311,/g3t1_2,,success
Status,1084,103979938711,/g3t1_2,,running
Status,1085,103980241689,/g3t1_2,,fail
Status,1086,104036258814,/g3t1_4,,running
Status,1087,104045033667,/g3t1_4,,success
Status,1088,104180059477,/g3t1_2,,running
Status,1089,104180344099,/g3t1_2,,fail
Status,1090,104380201324,/g3t1_2,,running
Status,1091,104380469000,/g3t1_2,,fail
Status,1092,104519468506,/g4t1,,success
Status,1093,104580569840,/g3t1_2,,running
Status,1094,104580983425,/g3t1_2,,fail
Status,1095,104780592896,/g3t1_2,,running
Status,1096,104781151377,/g3t1_2,,fail
Status,1097,104980657908,/g3t1_2,,running
Status,1098,104980985941,/g3t1_2,,fail
Status,1099,105035721553,/g3t1_4,,running
Status,1100,105038647480,/g3t1_4,,success
Status,1101,105180704043,/g3t1_2,,running
Status,1102,105181144935,/g3t1_2,,fail
Status,1103,105380913013,/g3t1_2,,running
Status,1104,105381029831,/g3t1_2,,fail
Status,1105,105519433884,/g4t1,,success
Status,1106,105581176162,/g3t1_2,,running
Status,1107,105581238146,/g3t1_2,,fail
Status,1108,105621913571,/g3t1_1,,running
Status,1109,105622383581,/g3t1_1,,success
Status,1110,105781298845,/g3t1_2,,running
Status,1111,105781552003,/g3t1_2,,success
Status,1112,105923620885,/g3t1_3,,running
Status,1113,105923893852,/g3t1_3,,fail
Status,1114,105981141103,/g3t1_2,,running
Status,1115,105981181331,/g3t1_2,,success
Status,1116,106036174095,/g3t1_4,,running
Status,1117,106041900971,/g3t1_4,,success
Status,1118,106181422055,/g3t1_2,,running
Status,1119,106181802538,/g3t1_2,,fail
Status,1120,106381188894,/g3t1_2,,running
Status,1121,106381353710,/g3t1_2,,fail
Status,1122,106519855479,/g4t1,,success
Status,1123,106581410252,/g3t1_2,,running
Status,1124,106581459927,/g3t1_2,,fail
Status,1125,106781639475,/g3t1_2,,running
Status,1126,106782098834,/g3t1_2,,success
Status,1128,106981863394,/g3t1_2,,running
Status,1129,106982613785,/g3t1_2,,success
Status,1130,107036827332,/g3t1_4,,running
Status,1131,107044440683,/g3t1_4,,success
Status,1132,107182133698,/g3t1_2,,running
Status,1133,107182199905,/g3t1_2,,fail
Status,1134,107382203604,/g3t1_2,,running
Status,1135,107383016825,/g3t1_2,,success
Status,1136,107519896331,/g4t1,,success
Status,1137,107582252494,/g3t1_2,,running
Status,1138,107582845797,/g3t1_2,,success
Status,1139,107782492508,/g3t1_2,,running
Status,1140,107782779736,/g3t1_2,,fail
Status,1141,107982775947,/g3t1_2,,running
Status,1142,107982831751,/g3t1_2,,fail
Status,1143,108036874794,/g3t1_4,,running
Status,1144,108045366803,/g3t1_4,,success
Status,1145,108182701739,/g3t1_2,,running
Status,1146,108182956182,/g3t1_2,,fail
Status,1147,108383192517,/g3t1_2,,running
Status,1148,108383263157,/g3t1_2,,fail
Status,1149,108520426018,/g4t1,,success
Status,1150,108583261726,/g3t1_2,,running
Status,1151,108583550909,/g3t1_2,,success
Status,1152,108783252048,/g3t1_2,,running
Status,1153,108783627243,/g3t1_2,,success
Status,1154,108983650733,/g3t1_2,,running
Status,1155,108983711832,/g3t1_2,,fail
Status,1156,109036840665,/g3t1_4,,running
Status,1157,109044339997,/g3t1_4,,success
Status,1158,109183720157,/g3t1_2,,running
Status,1159,109183976430,/g3t1_2,,fail
Status,1160,109383732759,/g3t1_2,,running
Status,1161,109383988998,/g3t1_2,,fail
Status,1162,109520420834,/g4t1,,success
Status,1163,109584002170,/g3t1_2,,running
Status,1164,109584227988,/g3t1_2,,fail
Status,1165,109784082608,/g3t1_2,,running
Status,1166,109784415572,/g3t1_2,,success
Status,1167,109984585662,/g3t1_2,,running
Status,1168,109984656387,/g3t1_2,,fail
Status,1169,110037014300,/g3t1_4,,running
Status,1170,110044668964,/g3t1_4,,success
Status,1171,110184620119,/g3t1_2,,running
Status,1172,110184680226,/g3t1_2,,fail
Status,1173,110384927930,/g3t1_2,,running
Status,1174,110385272109,/g3t1_2,,fail
Status,1175,110520366739,/g4t1,,success
Status,1176,110584792756,/g3t1_2,,running
Status,1177,110585023625,/g3t1_2,,fail
Status,1178,110621572193,/g3t1_1,,running
Status,1179,110621592847,/g3t1_1,,fail
Status,1180,110785203286,/g3t1_2,,running
Status,1181,110785273194,/g3t1_2,,fail
Status,1182,110985160718,/g3t1_2,,running
Status,1183,110985226113,/g3t1_2,,fail
Status,1184,111037124098,/g3t1_4,,running
Status,1185,111044116161,/g3t1_4,,success
Status,1186,111184619154,/g3t1_2,,running
Status,1187,111184830173,/g3t1_2,,fail
Status,1188,111385202775,/g3t1_2,,running
Status,1189,111385647682,/g3t1_2,,success
Status,1190,111520688752,/g4t1,,success
Status,1191,111585525673,/g3t1_2,,running
Status,1192,111585863757,/g3t1_2,,success
Status,1193,111785745800,/g3t1_2,,running
Status,1194,111785812271,/g3t1_2,,fail
Status,1195,111986010489,/g3t1_2,,running
Status,1196,111986066907,/g3t1_2,,fail
Status,1198,112037340503,/g3t1_4,,running
Status,1199,112044784749,/g3t1_4,,success
Status,1200,112185964655,/g3t1_2,,running
Status,1201,112186234187,/g3t1_2,,success
Status,1202,112386200190,/g3t1_2,,running
Status,1203,112386263326,/g3t1_2,,fail
Status,1204,112521036086,/g4t1,,success
Status,1205,112586487170,/g3t1_2,,running
Status,1206,112586586341,/g3t1_2,,fail
Status,1207,112786446121,/g3t1_2,,running
Status,1208,112787317544,/g3t1_2,,success
Status,1209,112986728974,/g3t1_2,,running
Status,1210,112986786481,/g3t1_2,,fail
Status,1211,113037915371,/g3t1_4,,running
Status,1212,113045174337,/g3t1_4,,success
Status,1213,113187060283,/g3t1_2,,running
Status,1214,113187392387,/g3t1_2,,fail
Status,1215,113386786976,/g3t1_2,,running
Status,1216,113386909161,/g3t1_2,,fail
Status,1217,113521120497,/g4t1,,success
Status,1218,113587059962,/g3t1_2,,running
Status,1219,113587133586,/g3t1_2,,fail
Status,1220,113787388527,/g3t1_2,,running
Status,1221,113787451811,/g3t1_2,,fail
Status,1222,113987860276,/g3t1_2,,running
Status,1223,113988197314,/g3t1_2,,success
Status,1224,114037879453,/g3t1_4,,running
Status,1225,114045341571,/g3t1_4,,success
Status,1226,114188103024,/g3t1_2,,running
Status,1227,114188165898,/g3t1_2,,fail
Status,1228,114388072021,/g3t1_2,,running
Status,1229,114388132885,/g3t1_2,,fail
Status,1230,114521192087,/g4t1,,success
Status,1231,114588114279,/g3t1_2,,running
Status,1232,114588349287,/g3t1_2,,fail
Status,1233,114787996599,/g3t1_2,,running
Status,1234,114788609471,/g3t1_2,,fail
Status,1235,114988622804,/g3t1_2,,running
Status,1236,114988715870,/g3t1_2,,fail
Status,1237,115037877710,/g3t1_4,,running
Status,1238,115045804953,/g3t1_4,,success
Status,1239,115188738374,/g3t1_2,,running
Status,1240,115188954254,/g3t1_2,,fail
Status,1241,115388897745,/g3t1_2,,running
Status,1242,115388971946,/g3t1_2,,fail
Status,1243,115521251943,/g4t1,,success
Status,1244,115588691829,/g3t1_2,,running
Status,1245,115588925574,/g3t1_2,,fail
Status,1246,115622150069,/g3t1_1,,running
Status,1247,115622460598,/g3t1_1,,fail
Status,1248,115789064653,/g3t1_2,,running
Status,1249,115789133844,/g3t1_2,,fail
Status,1250,115923936864,/g3t1_3,,running
Status,1251,115924006510,/g3t1_3,,fail
Status,1252,115988963792,/g3t1_2,,running
Status,1253,115989016961,/g3t1_2,,fail
Status,1254,116037828076,/g3t1_4,,running
Status,1255,116045503207,/g3t1_4,,success
Status,1256,116189364255,/g3t1_2,,running
Status,1257,116189811008,/g3t1_2,,success
Status,1258,116389766199,/g3t1_2,,running
Status,1259,116390219183,/g3t1_2,,success
Status,1260,116521704106,/g4t1,,success
Status,1261,116589403737,/g3t1_2,,running
Status,1262,116589925425,/g3t1_2,,success
Status,1263,116789610559,/g3t1_2,,running
Status,1264,116790178902,/g3t1_2,,success
Status,1265,116990040974,/g3t1_2,,running
Status,1266,116990718183,/g3t1_2,,success
Status,1267,117037961795,/g3t1_4,,running
Status,1268,117047553650,/g3t1_4,,success
Status,1272,117189913988,/g3t1_2,,running
Status,1273,117190143133,/g3t1_2,,success
Status,1274,117390419260,/g3t1_2,,running
Status,1275,117390673625,/g3t1_2,,fail
Status,1276,117521979010,/g4t1,,success
Status,1277,117590076756,/g3t1_2,,running
Status,1278,117590424521,/g3t1_2,,fail
Status,1279,117790625008,/g3t1_2,,running
Status,1280,117791061783,/g3t1_2,,success
Status,1281,117990185230,/g3t1_2,,running
Status,1282,117990481145,/g3t1_2,,fail
Status,1283,118038385642,/g3t1_4,,running
Status,1284,118053302141,/g3t1_4,,success
Status,1285,118190610781,/g3t1_2,,running
Status,1286,118190810262,/g3t1_2,,fail
Status,1287,118390709310,/g3t1_2,,running
Status,1288,118390784088,/g3t1_2,,fail
Status,1289,118521844776,/g4t1,,success
Status,1290,118590984502,/g3t1_2,,running
Status,1291,118591045870,/g3t1_2,,fail
Status,1292,118791251083,/g3t1_2,,running
Status,1293,118792399667,/g3t1_2,,success
Status,1294,118991711864,/g3t1_2,,running
Status,1295,118992288909,/g3t1_2,,success
Status,1296,119038383388,/g3t1_4,,running
Status,1297,119046104330,/g3t1_4,,success
Status,1298,119191863436,/g3t1_2,,running
Status,1299,119192538632,/g3t1_2,,success
Status,1300,119391878979,/g3t1_2,,running
Status,1301,119392257443,/g3t1_2,,success
Status,1302,119522243409,/g4t1,,success
Status,1303,119592068951,/g3t1_2,,running
Status,1304,119592294844,/g3t1_2,,fail
Status,1305,119792047431,/g3t1_2,,running
Status,1306,119792286152,/g3t1_2,,fail
Status,1307,119992110458,/g3t1_2,,running
Status,1308,119992454071,/g3t1_2,,fail
Status,1309,120038693866,/g3t1_4,,running
Status,1310,120046063847,/g3t1_4,,success
Status,1311,120192391342,/g3t1_2,,running
Status,1312,120192464381,/g3t1_2,,fail
Status,1313,120392724870,/g3t1_2,,running
Status,1314,120392804976,/g3t1_2,,fail
Status,1315,120522599584,/g4t1,,success
Status,1316,120592893795,/g3t1_2,,running
Status,1317,120592956152,/g3t1_2,,fail
Status,1318,120622295525,/g3t1_1,,running
Status,1319,120622629544,/g3t1_1,,fail
Status,1320,120792838915,/g3t1_2,,running
Status,1321,120792904371,/g3t1_2,,fail
Status,1322,120993016604,/g3t1_2,,running
Status,1323,120993079189,/g3t1_2,,fail
Status,1324,121038495738,/g3t1_4,,running
Status,1325,121049630462,/g3t1_4,,success
Status,1326,121193833739,/g3t1_2,,running
Status,1327,121194185833,/g3t1_2,,fail
Status,1328,121393757562,/g3t1_2,,running
Status,1329,121393830309,/g3t1_2,,fail
Status,1330,121522824255,/g4t1,,success
Status,1331,121593015111,/g3t1_2,,running
Status,1332,121593152626,/g3t1_2,,fail
Status,1333,121794133104,/g3t1_2,,running
Status,1334,121794205116,/g3t1_2,,fail
Status,1335,121993954334,/g3t1_2,,running
Status,1336,121994015465,/g3t1_2,,fail
Status,1337,122039035945,/g3t1_4,,running
Status,1338,122047755309,/g3t1_4,,success
Status,1340,122194016289,/g3t1_2,,running
Status,1341,122194352456,/g3t1_2,,fail
Status,1342,122394452692,/g3t1_2,,running
Status,1343,122394633727,/g3t1_2,,fail
Status,1344,122523020805,/g4t1,,success
Status,1345,122594482175,/g3t1_2,,running
Status,1346,122594771716,/g3t1_2,,fail
Status,1347,122794668221,/g3t1_2,,running
Status,1348,122794728748,/g3t1_2,,fail
Status,1349,122994695780,/g3t1_2,,running
Status,1350,122995122198,/g3t1_2,,success
Status,1351,123038310432,/g3t1_4,,running
Status,1352,123041817461,/g3t1_4,,success
Status,1353,123194694865,/g3t1_2,,running
Status,1354,123195100275,/g3t1_2,,success
Status,1355,123395031411,/g3t1_2,,running
Status,1356,123395124464,/g3t1_2,,fail
Status,1357,123523382609,/g4t1,,success
Status,1358,123595452746,/g3t1_2,,running
Status,1359,123595529194,/g3t1_2,,fail
Status,1360,123795833096,/g3t1_2,,running
Status,1361,123795911906,/g3t1_2,,fail
Status,1362,123995881185,/g3t1_2,,running
Status,1363,123996343408,/g3t1_2,,fail
Status,1364,124039000912,/g3t1_4,,running
Status,1365,124046012319,/g3t1_4,,success
Status,1366,124195742019,/g3t1_2,,running
Status,1367,124196285195,/g3t1_2,,success
Status,1368,124395949282,/g3t1_2,,running
Status,1369,124396010574,/g3t1_2,,fail
Status,1370,124523317726,/g4t1,,success
Status,1371,124596245416,/g3t1_2,,running
Status,1372,124596400996,/g3t1_2,,fail
Status,1373,124796464048,/g3t1_2,,running
Status,1374,124796529746,/g3t1_2,,fail
Status,1375,124996625516,/g3t1_2,,running
Status,1376,124996864922,/g3t1_2,,fail
Status,1377,125039303202,/g3t1_4,,running
Status,1378,125047029401,/g3t1_4,,success
Status,1379,125196854374,/g3t1_2,,running
Status,1380,125196915801,/g3t1_2,,fail
Status,1381,125396862645,/g3t1_2,,running
Status,1382,125396926608,/g3t1_2,,fail
Status,1383,125523191232,/g4t1,,success
Status,1384,125596958880,/g3t1_2,,running
Status,1385,125597262690,/g3t1_2,,fail
Status,1386,125622581043,/g3t1_1,,running
Status,1387,125622979513,/g3t1_1,,fail
Status,1388,125797113070,/g3t1_2,,running
Status,1389,125797862842,/g3t1_2,,fail
Status,1390,125924653885,/g3t1_3,,running
Status,1391,125925293260,/g3t1_3,,success
Status,1392,125997578047,/g3t1_2,,running
Status,1393,125997640657,/g3t1_2,,success
Status,1394,126039699387,/g3t1_4,,running
Status,1395,126048715947,/g3t1_4,,success
Status,1396,126197921829,/g3t1_2,,running
Status,1397,126198265279,/g3t1_2,,success
Status,1398,126397925604,/g3t1_2,,running
Status,1399,126398259136,/g3t1_2,,fail
Status,1400,126523999186,/g4t1,,success
Status,1401,126598293855,/g3t1_2,,running
Status,1402,126598355257,/g3t1_2,,fail
Status,1403,126798335775,/g3t1_2,,running
Status,1404,126798428764,/g3t1_2,,fail
Status,1405,126998732678,/g3t1_2,,running
Status,1406,126999133982,/g3t1_2,,success
Status,1407,127039540117,/g3t1_4,,running
Status,1408,127047612104,/g3t1_4,,success
Status,1409,127199010804,/g3t1_2,,running
Status,1410,127199446606,/g3t1_2,,fail
Status,1412,127398799639,/g3t1_2,,running
Status,1413,127399202871,/g3t1_2,,fail
Status,1414,127523932523,/g4t1,,success
Status,1415,127599215554,/g3t1_2,,running
Status,1416,127599280151,/g3t1_2,,fail
Status,1417,127799300195,/g3t1_2,,running
Status,1418,127799634181,/g3t1_2,,fail
Status,1419,127999505075,/g3t1_2,,running
Status,1420,127999572451,/g3t1_2,,fail
Status,1421,128039789414,/g3t1_4,,running
Status,1422,128048011142,/g3t1_4,,success
Status,1423,128199551788,/g3t1_2,,running
Status,1424,128199610883,/g3t1_2,,fail
Status,1425,128399705594,/g3t1_2,,running
Status,1426,128399795961,/g3t1_2,,fail
Status,1427,128524203110,/g4t1,,success
Status,1428,128599881008,/g3t1_2,,running
Status,1429,128600249197,/g3t1_2,,fail
Status,1430,128799939386,/g3t1_2,,fail
Status,1431,129000161665,/g3t1_2,,fail
Status,1432,129039717296,/g3t1_4,,running
Status,1433,129047307583,/g3t1_4,,success
Status,1434,129200224143,/g3t1_2,,fail
Status,1435,129400527062,/g3t1_2,,fail
Status,1436,129524296591,/g4t1,,success
Status,1437,129600552979,/g3t1_2,,fail
Status,1438,129800669054,/g3t1_2,,fail
Status,1439,130000861812,/g3t1_2,,fail
Status,1440,130039871822,/g3t1_4,,running
Status,1441,130047814124,/g3t1_4,,success
Status,1442,130200644148,/g3t1_2,,fail
Status,1443,130401332318,/g3t1_2,,fail
Status,1444,130524142704,/g4t1,,success
Status,1445,130601415976,/g3t1_2,,fail
Status,1446,130622646673,/g3t1_1,,running
Status,1447,130622969735,/g3t1_1,,fail
Status,1448,130801567923,/g3t1_2,,fail
Status,1449,131001840662,/g3t1_2,,fail
Status,1450,131040186448,/g3t1_4,,running
Status,1451,131049189420,/g3t1_4,,success
Status,1452,131201946401,/g3t1_2,,fail
Status,1453,131402291514,/g3t1_2,,fail
Status,1454,131524510275,/g4t1,,success
Status,1455,131601609614,/g3t1_2,,fail
Status,1456,131802442200,/g3t1_2,,fail
Status,1457,132002738657,/g3t1_2,,fail
Status,1458,132040859195,/g3t1_4,,running
Status,1459,132049188705,/g3t1_4,,success
Status,1460,132202975008,/g3t1_2,,fail
Status,1463,132403037959,/g3t1_2,,fail
Status,1464,132524907146,/g4t1,,success
Status,1465,132603322437,/g3t1_2,,fail
Status,1466,132803489018,/g3t1_2,,fail
Status,1467,133003987113,/g3t1_2,,fail
Status,1468,133040474468,/g3t1_4,,running
Status,1469,133047785074,/g3t1_4,,success
Status,1470,133203943980,/g3t1_2,,fail
Status,1471,133403758481,/g3t1_2,,fail
Status,1472,133524800272,/g4t1,,success
Status,1473,133604034328,/g3t1_2,,fail
Status,1474,133804176987,/g3t1_2,,fail
Status,1475,134004394808,/g3t1_2,,fail
Status,1476,134040369725,/g3t1_4,,running
Status,1477,134048933538,/g3t1_4,,success
Status,1478,134204665113,/g3t1_2,,fail
Status,1479,134404866961,/g3t1_2,,fail
Status,1480,134525002807,/g4t1,,success
Status,1481,134604845045,/g3t1_2,,fail
Status,1482,134804940040,/g3t1_2,,fail
Status,1483,135005372766,/g3t1_2,,fail
Status,1484,135040528901,/g3t1_4,,running
Status,1485,135048574607,/g3t1_4,,success
Status,1486,135205547970,/g3t1_2,,fail
Status,1487,135405781121,/g3t1_2,,fail
Status,1488,135525168736,/g4t1,,success
Status,1489,135605870850,/g3t1_2,,fail
Status,1490,135623191419,/g3t1_1,,running
Status,1491,135623515722,/g3t1_1,,fail
Status,1492,135806093514,/g3t1_2,,fail
Status,1493,135924538484,/g3t1_3,,running
Status,1494,135925468343,/g3t1_3,,success
Status,1495,136006390276,/g3t1_2,,fail
Status,1496,136040762467,/g3t1_4,,running
Status,1497,136047986832,/g3t1_4,,success
Status,1498,136206623700,/g3t1_2,,fail
Status,1499,136406789195,/g3t1_2,,fail
Status,1500,136525388452,/g4t1,,success
Status,1501,136606824199,/g3t1_2,,fail
Status,1502,136807204123,/g3t1_2,,fail
Status,1503,137007593981,/g3t1_2,,fail
Status,1504,137040844654,/g3t1_4,,running
Status,1505,137053987742,/g3t1_4,,success
Status,1506,137207597660,/g3t1_2,,fail
Status,1508,137407692087,/g3t1_2,,fail
Status,1509,137525223994,/g4t1,,success
Status,1510,137607648327,/g3t1_2,,fail
Status,1511,137807675246,/g3t1_2,,fail
Status,1512,138007981172,/g3t1_2,,fail
Status,1513,138041266762,/g3t1_4,,running
Status,1514,138050996165,/g3t1_4,,success
Status,1515,138208261958,/g3t1_2,,fail
Status,1516,138407821921,/g3t1_2,,fail
Status,1517,138525552916,/g4t1,,success
Status,1518,138608369999,/g3t1_2,,fail
Status,1519,138808492073,/g3t1_2,,fail
Status,1520,139008652076,/g3t1_2,,fail
Status,1521,139041132113,/g3t1_4,,running
Status,1522,139053495015,/g3t1_4,,success
Status,1523,139208815819,/g3t1_2,,fail
Status,1524,139409110229,/g3t1_2,,fail
Status,1525,139525913791,/g4t1,,success
Status,1526,139609224895,/g3t1_2,,fail
Status,1527,139809337108,/g3t1_2,,fail
Status,1528,140009743704,/g3t1_2,,fail
Status,1529,140041214300,/g3t1_4,,running
Status,1530,140050093710,/g3t1_4,,success
Status,1531,140209976421,/g3t1_2,,fail
Status,1532,140410316660,/g3t1_2,,fail
Status,1533,140526110295,/g4t1,,success
Status,1534,140610315265,/g3t1_2,,fail
Status,1535,140623209910,/g3t1_1,,running
Status,1536,140623493774,/g3t1_1,,fail
Status,1537,140810642684,/g3t1_2,,fail
Status,1538,141011098828,/g3t1_2,,fail
Status,1539,141041741879,/g3t1_4,,running
Status,1540,141051355985,/g3t1_4,,success
Status,1541,141211017559,/g3t1_2,,fail
Status,1542,141411409821,/g3t1_2,,fail
Status,1543,141526334411,/g4t1,,success
