
Status,2,3596254359,/g4t1,,init
Status,3,8613142305,/g3t1_1,,init
Status,5,8620474483,/g3t1_1,,init
Status,6,8620501804,/g3t1_1,,running
Status,7,8621111029,/g3t1_1,,success
Status,8,8670528244,/g3t1_1,,running
Status,9,8671088951,/g3t1_1,,success
Status,10,8720647322,/g3t1_1,,running
Status,11,8720995475,/g3t1_1,,success
Status,12,8770769543,/g3t1_1,,running
Status,13,8771298223,/g3t1_1,,success
Status,15,8817799592,/g3t1_2,,init
Status,16,8820620843,/g3t1_1,,running
Status,17,8883638175,/g3t1_1,,success
Status,18,8883749024,/g3t1_1,,running
Status,19,8885011222,/g3t1_1,,success
Status,20,8890160650,/g3t1_2,,init
Status,21,8890180233,/g3t1_2,,running
Status,22,8890895115,/g3t1_2,,success
Status,24,8918297715,/g3t1_3,,init
Status,25,8924649482,/g3t1_3,,init
Status,26,8924669218,/g3t1_3,,running
Status,27,8925259492,/g3t1_3,,success
Status,28,8933617168,/g3t1_1,,running
Status,29,8934836715,/g3t1_1,,success
Status,30,8940586700,/g3t1_2,,running
Status,31,8941333312,/g3t1_2,,success
Status,32,8974895326,/g3t1_3,,running
Status,33,8975717288,/g3t1_3,,success
Status,34,8983537914,/g3t1_1,,running
Status,35,8984262393,/g3t1_1,,success
Status,36,8990637085,/g3t1_2,,running
Status,37,8991375527,/g3t1_2,,success
Status,41,9014670823,/g4t1,,success
Status,42,9025357343,/g3t1_3,,running
Status,43,9027008809,/g3t1_3,,success
Status,44,9034193302,/g3t1_1,,running
Status,45,9035804302,/g3t1_1,,success
Status,46,9041065447,/g3t1_2,,running
Status,47,9042775989,/g3t1_2,,success
Status,48,9075562631,/g3t1_3,,running
Status,49,9077387396,/g3t1_3,,success
Status,50,9084304855,/g3t1_1,,running
Status,51,9085843070,/g3t1_1,,success
Status,52,9091268262,/g3t1_2,,running
Status,53,9092748606,/g3t1_2,,success
Status,54,9114620819,/g4t1,,success
Status,55,9125489984,/g3t1_3,,running
Status,56,9126912140,/g3t1_3,,success
Status,57,9134455272,/g3t1_1,,running
Status,58,9136438437,/g3t1_1,,success
Status,59,9141308374,/g3t1_2,,running
Status,60,9143153894,/g3t1_2,,success
Status,61,9175699391,/g3t1_3,,running
Status,62,9177201822,/g3t1_3,,success
Status,63,9184509629,/g3t1_1,,running
Status,64,9186114609,/g3t1_1,,success
Status,65,9191417521,/g3t1_2,,running
Status,66,9192945021,/g3t1_2,,success
Status,70,9215196863,/g4t1,,success
Status,71,9225848744,/g3t1_3,,running
Status,72,9227542966,/g3t1_3,,success
Status,73,9234741819,/g3t1_1,,running
Status,74,9236312204,/g3t1_1,,success
Status,75,9241684436,/g3t1_2,,running
Status,76,9243508812,/g3t1_2,,success
Status,77,9275994707,/g3t1_3,,running
Status,78,9277609755,/g3t1_3,,success
Status,79,9284799791,/g3t1_1,,running
Status,80,9286659072,/g3t1_1,,success
Status,81,9291663125,/g3t1_2,,running
Status,82,9293167369,/g3t1_2,,success
Status,83,9315651569,/g4t1,,fail
Status,84,9326125393,/g3t1_3,,running
Status,85,9327787305,/g3t1_3,,success
Status,86,9334777773,/g3t1_1,,running
Status,87,9336387018,/g3t1_1,,success
Status,88,9341771556,/g3t1_2,,running
Status,89,9343610678,/g3t1_2,,success
Status,90,9376286702,/g3t1_3,,running
Status,91,9377745633,/g3t1_3,,success
Status,92,9384894237,/g3t1_1,,running
Status,93,9386840295,/g3t1_1,,success
Status,94,9391781297,/g3t1_2,,running
Status,95,9393349793,/g3t1_2,,success
Status,99,9415383312,/g4t1,,fail
Status,100,9426397068,/g3t1_3,,running
Status,101,9427995412,/g3t1_3,,success
Status,102,9435112575,/g3t1_1,,running
Status,103,9436905920,/g3t1_1,,success
Status,104,9442204697,/g3t1_2,,running
Status,105,9444109201,/g3t1_2,,success
Status,106,9476134210,/g3t1_3,,running
Status,107,9477175080,/g3t1_3,,success
Status,108,9484901804,/g3t1_1,,running
Status,109,9485651665,/g3t1_1,,success
Status,110,9491689697,/g3t1_2,,running
Status,111,9492554763,/g3t1_2,,success
Status,112,9515894132,/g4t1,,fail
Status,113,9526790584,/g3t1_3,,running
Status,114,9528464017,/g3t1_3,,success
Status,115,9535420017,/g3t1_1,,running
Status,116,9537231263,/g3t1_1,,success
Status,117,9542314248,/g3t1_2,,running
Status,118,9544311310,/g3t1_2,,success
Status,119,9576852180,/g3t1_3,,running
Status,120,9578790581,/g3t1_3,,success
Status,121,9585390169,/g3t1_1,,running
Status,122,9587399424,/g3t1_1,,success
Status,123,9592281266,/g3t1_2,,running
Status,124,9593817815,/g3t1_2,,success
Status,128,9615836102,/g4t1,,fail
Status,129,9626931340,/g3t1_3,,running
Status,130,9628672552,/g3t1_3,,success
Status,131,9635747919,/g3t1_1,,running
Status,132,9638202252,/g3t1_1,,success
Status,133,9642454684,/g3t1_2,,running
Status,134,9644309736,/g3t1_2,,success
Status,135,9677214440,/g3t1_3,,running
Status,136,9679082114,/g3t1_3,,success
Status,137,9685785475,/g3t1_1,,running
Status,138,9687889029,/g3t1_1,,success
Status,139,9692528428,/g3t1_2,,running
Status,140,9694454949,/g3t1_2,,success
Status,141,9716156023,/g4t1,,fail
Status,142,9727201505,/g3t1_3,,running
Status,143,9728855536,/g3t1_3,,success
Status,144,9735911430,/g3t1_1,,running
Status,145,9738093841,/g3t1_1,,success
Status,146,9742725726,/g3t1_2,,running
Status,147,9744540912,/g3t1_2,,success
Status,148,9777352528,/g3t1_3,,running
Status,149,9779492771,/g3t1_3,,success
Status,150,9786149382,/g3t1_1,,running
Status,151,9787988899,/g3t1_1,,success
Status,152,9792753950,/g3t1_2,,running
Status,153,9795152309,/g3t1_2,,success
Status,157,9816063775,/g4t1,,fail
Status,158,9827518384,/g3t1_3,,running
Status,159,9829430189,/g3t1_3,,success
Status,160,9836184512,/g3t1_1,,running
Status,161,9838101000,/g3t1_1,,success
Status,162,9842990385,/g3t1_2,,running
Status,163,9845452111,/g3t1_2,,success
Status,164,9877627705,/g3t1_3,,running
Status,165,9879683770,/g3t1_3,,success
Status,166,9886533975,/g3t1_1,,running
Status,167,9888513604,/g3t1_1,,success
Status,168,9892997355,/g3t1_2,,running
Status,169,9894848949,/g3t1_2,,success
Status,170,9916251420,/g4t1,,fail
Status,171,9927609989,/g3t1_3,,running
Status,172,9929414702,/g3t1_3,,success
Status,173,9936399670,/g3t1_1,,running
Status,174,9938433063,/g3t1_1,,success
Status,175,9943062786,/g3t1_2,,running
Status,176,9945047666,/g3t1_2,,success
Status,177,9977901336,/g3t1_3,,running
Status,178,9979989035,/g3t1_3,,success
Status,179,9986734370,/g3t1_1,,running
Status,180,9988782566,/g3t1_1,,success
Status,181,9993179750,/g3t1_2,,running
Status,182,9995306297,/g3t1_2,,success
Status,186,10016321906,/g4t1,,fail
Status,187,10027982909,/g3t1_3,,running
Status,188,10029424234,/g3t1_3,,success
Status,189,10036364093,/g3t1_1,,running
Status,190,10037342580,/g3t1_1,,success
Status,191,10042959807,/g3t1_2,,running
Status,192,10044122961,/g3t1_2,,success
Status,193,10077751765,/g3t1_3,,running
Status,194,10079162741,/g3t1_3,,success
Status,195,10086730724,/g3t1_1,,running
Status,196,10088078010,/g3t1_1,,success
Status,197,10093202542,/g3t1_2,,running
Status,198,10094810927,/g3t1_2,,success
Status,199,10116604309,/g4t1,,fail
Status,200,10128044695,/g3t1_3,,running
Status,201,10130291351,/g3t1_3,,success
Status,202,10136788422,/g3t1_1,,running
Status,203,10138819742,/g3t1_1,,success
Status,204,10143452159,/g3t1_2,,running
Status,205,10145222306,/g3t1_2,,success
Status,206,10178380937,/g3t1_3,,running
Status,207,10180391159,/g3t1_3,,success
Status,208,10187141341,/g3t1_1,,running
Status,209,10189176966,/g3t1_1,,success
Status,210,10193518218,/g3t1_2,,running
Status,211,10195997710,/g3t1_2,,success
Status,215,10216523641,/g4t1,,fail
Status,216,10228457542,/g3t1_3,,running
Status,217,10230559131,/g3t1_3,,success
Status,218,10237227616,/g3t1_1,,running
Status,219,10238782364,/g3t1_1,,success
Status,220,10243726931,/g3t1_2,,running
Status,221,10245533745,/g3t1_2,,success
Status,222,10278407376,/g3t1_3,,running
Status,223,10279986929,/g3t1_3,,success
Status,224,10287007877,/g3t1_1,,running
Status,225,10288050308,/g3t1_1,,success
Status,226,10293456597,/g3t1_2,,running
Status,227,10295069937,/g3t1_2,,success
Status,228,10316399261,/g4t1,,fail
Status,229,10328764208,/g3t1_3,,running
Status,230,10331136780,/g3t1_3,,success
Status,231,10337280226,/g3t1_1,,running
Status,232,10338779697,/g3t1_1,,success
Status,233,10343713693,/g3t1_2,,running
Status,234,10345444490,/g3t1_2,,success
Status,235,10378941072,/g3t1_3,,running
Status,236,10381228981,/g3t1_3,,success
Status,237,10387406799,/g3t1_1,,running
Status,238,10388794305,/g3t1_1,,success
Status,239,10393863935,/g3t1_2,,running
Status,240,10395429545,/g3t1_2,,success
Status,244,10416779359,/g4t1,,fail
Status,245,10429089200,/g3t1_3,,running
Status,246,10431725182,/g3t1_3,,success
Status,247,10437547429,/g3t1_1,,running
Status,248,10439129063,/g3t1_1,,success
Status,249,10444095627,/g3t1_2,,running
Status,250,10445575500,/g3t1_2,,success
Status,251,10478910733,/g3t1_3,,running
Status,252,10480950121,/g3t1_3,,success
Status,253,10487551373,/g3t1_1,,running
Status,254,10489063414,/g3t1_1,,success
Status,255,10494149511,/g3t1_2,,running
Status,256,10496377505,/g3t1_2,,success
Status,257,10516831072,/g4t1,,fail
Status,258,10529351144,/g3t1_3,,running
Status,259,10531557234,/g3t1_3,,success
Status,260,10538052770,/g3t1_1,,running
Status,261,10539728864,/g3t1_1,,success
Status,262,10544251724,/g3t1_2,,running
Status,263,10545701669,/g3t1_2,,success
Status,264,10579256165,/g3t1_3,,running
Status,265,10581088072,/g3t1_3,,success
Status,266,10587934891,/g3t1_1,,running
Status,267,10589482669,/g3t1_1,,success
Status,268,10594460902,/g3t1_2,,running
Status,269,10596580494,/g3t1_2,,success
Status,273,10617009571,/g4t1,,fail
Status,274,10629511035,/g3t1_3,,running
Status,275,10631729375,/g3t1_3,,success
Status,276,10638347983,/g3t1_1,,running
Status,277,10640024376,/g3t1_1,,success
Status,278,10644503130,/g3t1_2,,running
Status,279,10646042321,/g3t1_2,,success
Status,280,10679310917,/g3t1_3,,running
Status,281,10681473784,/g3t1_3,,success
Status,282,10688290371,/g3t1_1,,running
Status,283,10689937174,/g3t1_1,,success
Status,284,10694690491,/g3t1_2,,running
Status,285,10696876212,/g3t1_2,,success
Status,286,10717221977,/g4t1,,fail
Status,287,10729717159,/g3t1_3,,running
Status,288,10732091883,/g3t1_3,,success
Status,289,10738481743,/g3t1_1,,running
Status,290,10740559899,/g3t1_1,,success
Status,291,10744817936,/g3t1_2,,running
Status,292,10746628460,/g3t1_2,,success
Status,293,10779703867,/g3t1_3,,running
Status,294,10781589218,/g3t1_3,,success
Status,295,10788618710,/g3t1_1,,running
Status,296,10790123581,/g3t1_1,,success
Status,297,10794824809,/g3t1_2,,running
Status,298,10796744614,/g3t1_2,,success
Status,302,10817348972,/g4t1,,fail
Status,303,10829915418,/g3t1_3,,running
Status,304,10832527731,/g3t1_3,,success
Status,305,10838887160,/g3t1_1,,running
Status,306,10840804724,/g3t1_1,,success
Status,307,10845264494,/g3t1_2,,running
Status,308,10847026506,/g3t1_2,,success
Status,309,10879758623,/g3t1_3,,running
Status,310,10881097174,/g3t1_3,,success
Status,311,10888781991,/g3t1_1,,running
Status,312,10889890053,/g3t1_1,,success
Status,313,10895057889,/g3t1_2,,running
Status,314,10896297877,/g3t1_2,,success
Status,315,10917165800,/g4t1,,fail
Status,316,10930472395,/g3t1_3,,running
Status,317,10932743020,/g3t1_3,,success
Status,318,10938992872,/g3t1_1,,running
Status,319,10940741606,/g3t1_1,,success
Status,320,10945357141,/g3t1_2,,running
Status,321,10947704445,/g3t1_2,,success
Status,322,10980366249,/g3t1_3,,running
Status,323,10982202627,/g3t1_3,,success
Status,324,10989303169,/g3t1_1,,running
Status,325,10991398100,/g3t1_1,,success
Status,326,10995452608,/g3t1_2,,running
Status,327,10996943996,/g3t1_2,,success
Status,331,11017566927,/g4t1,,fail
Status,332,11030828495,/g3t1_3,,running
Status,333,11032870555,/g3t1_3,,success
Status,334,11039322941,/g3t1_1,,running
Status,335,11041232709,/g3t1_1,,success
Status,336,11045660069,/g3t1_2,,running
Status,337,11047723430,/g3t1_2,,success
Status,338,11080620616,/g3t1_3,,running
Status,339,11082648596,/g3t1_3,,success
Status,340,11089603618,/g3t1_1,,running
Status,341,11091740758,/g3t1_1,,success
Status,342,11095757597,/g3t1_2,,running
Status,343,11098028839,/g3t1_2,,success
Status,344,11117665090,/g4t1,,fail
Status,345,11131023004,/g3t1_3,,running
Status,346,11133249623,/g3t1_3,,success
Status,347,11139604308,/g3t1_1,,running
Status,348,11141353475,/g3t1_1,,success
Status,349,11145809915,/g3t1_2,,running
Status,350,11148419998,/g3t1_2,,success
Status,351,11180921238,/g3t1_3,,running
Status,352,11183038713,/g3t1_3,,success
Status,353,11190109981,/g3t1_1,,running
Status,354,11191871995,/g3t1_1,,success
Status,355,11196002082,/g3t1_2,,running
Status,356,11198360686,/g3t1_2,,success
Status,360,11217653529,/g4t1,,fail
Status,361,11230855745,/g3t1_3,,running
Status,362,11231895461,/g3t1_3,,success
Status,363,11239831435,/g3t1_1,,running
Status,364,11241183365,/g3t1_1,,success
Status,365,11246165538,/g3t1_2,,running
Status,366,11247632469,/g3t1_2,,success
Status,367,11280935010,/g3t1_3,,running
Status,368,11282431502,/g3t1_3,,success
Status,369,11289775494,/g3t1_1,,running
Status,370,11290852240,/g3t1_1,,success
Status,371,11295934913,/g3t1_2,,running
Status,372,11296929574,/g3t1_2,,success
Status,373,11317387297,/g4t1,,fail
Status,374,11331170586,/g3t1_3,,running
Status,375,11333114373,/g3t1_3,,success
Status,376,11340308340,/g3t1_1,,running
Status,377,11342316583,/g3t1_1,,success
Status,378,11346649429,/g3t1_2,,running
Status,379,11348919631,/g3t1_2,,success
Status,380,11381625498,/g3t1_3,,running
Status,381,11383293750,/g3t1_3,,success
Status,382,11390807125,/g3t1_1,,running
Status,383,11392867722,/g3t1_1,,success
Status,384,11396434807,/g3t1_2,,running
Status,385,11398262809,/g3t1_2,,success
Status,389,11418112997,/g4t1,,fail
Status,390,11431635441,/g3t1_3,,running
Status,391,11433370068,/g3t1_3,,success
Status,392,11441704780,/g3t1_1,,running
Status,393,11443014603,/g3t1_1,,success
Status,394,11446606160,/g3t1_2,,running
Status,395,11448958539,/g3t1_2,,success
Status,396,11482156369,/g3t1_3,,running
Status,397,11483940948,/g3t1_3,,success
Status,398,11490939294,/g3t1_1,,running
Status,399,11492685793,/g3t1_1,,success
Status,400,11496636442,/g3t1_2,,running
Status,401,11498301706,/g3t1_2,,success
Status,402,11518161683,/g4t1,,fail
Status,403,11531712909,/g3t1_3,,running
Status,404,11533691800,/g3t1_3,,success
Status,405,11540959467,/g3t1_1,,running
Status,406,11543041303,/g3t1_1,,success
Status,407,11547279582,/g3t1_2,,running
Status,408,11549389900,/g3t1_2,,success
Status,409,11582392528,/g3t1_3,,running
Status,410,11583800414,/g3t1_3,,success
Status,411,11590679034,/g3t1_1,,running
Status,412,11591866605,/g3t1_1,,success
Status,413,11596600481,/g3t1_2,,running
Status,414,11597589124,/g3t1_2,,success
Status,415,11617563880,/g4t1,,fail
Status,416,11631811789,/g3t1_3,,running
Status,417,11633021400,/g3t1_3,,success
Status,418,11640905160,/g3t1_1,,running
Status,419,11642024103,/g3t1_1,,success
Status,420,11646648352,/g3t1_2,,running
Status,421,11648205707,/g3t1_2,,success
Status,422,11682198262,/g3t1_3,,running
Status,423,11683597905,/g3t1_3,,success
Status,424,11691050019,/g3t1_1,,running
Status,425,11692522987,/g3t1_1,,success
Status,426,11697033488,/g3t1_2,,running
Status,427,11698384351,/g3t1_2,,success
Status,428,11718091144,/g4t1,,fail
Status,429,11732272809,/g3t1_3,,running
Status,430,11733722017,/g3t1_3,,success
Status,431,11741133507,/g3t1_1,,running
Status,432,11742821615,/g3t1_1,,success
Status,433,11747410639,/g3t1_2,,running
Status,434,11748874620,/g3t1_2,,success
Status,435,11782511998,/g3t1_3,,running
Status,436,11783953883,/g3t1_3,,success
Status,437,11791155213,/g3t1_1,,running
Status,438,11792886548,/g3t1_1,,success
Status,439,11797254999,/g3t1_2,,running
Status,440,11798653170,/g3t1_2,,success
Status,441,11818486643,/g4t1,,fail
Status,442,11832714244,/g3t1_3,,running
Status,443,11834534963,/g3t1_3,,success
Status,444,11841670021,/g3t1_1,,running
Status,445,11843637978,/g3t1_1,,success
Status,446,11847680127,/g3t1_2,,running
Status,447,11850000191,/g3t1_2,,success
Status,448,11883046976,/g3t1_3,,running
Status,449,11884849641,/g3t1_3,,success
Status,450,11891593466,/g3t1_1,,running
Status,451,11893507471,/g3t1_1,,success
Status,452,11897558820,/g3t1_2,,running
Status,453,11899741245,/g3t1_2,,success
Status,454,11918634615,/g4t1,,fail
Status,455,11933005272,/g3t1_3,,running
Status,456,11934869015,/g3t1_3,,success
Status,457,11941733687,/g3t1_1,,running
Status,458,11943769724,/g3t1_1,,success
Status,459,11948015402,/g3t1_2,,running
Status,460,11950697224,/g3t1_2,,success
Status,461,11983079317,/g3t1_3,,running
Status,462,11984685455,/g3t1_3,,success
Status,463,11991858988,/g3t1_1,,running
Status,464,11993708265,/g3t1_1,,success
Status,465,11997809068,/g3t1_2,,running
Status,466,11999608414,/g3t1_2,,success
Status,467,12018792847,/g4t1,,fail
Status,468,12033295845,/g3t1_3,,running
Status,469,12034934839,/g3t1_3,,success
Status,470,12042214535,/g3t1_1,,running
Status,471,12044277155,/g3t1_1,,success
Status,472,12047966931,/g3t1_2,,running
Status,473,12049808652,/g3t1_2,,success
Status,474,12083315379,/g3t1_3,,running
Status,475,12085140858,/g3t1_3,,success
Status,476,12092111234,/g3t1_1,,running
Status,477,12093810499,/g3t1_1,,success
Status,478,12098520536,/g3t1_2,,running
Status,479,12100578942,/g3t1_2,,success
Status,480,12119010259,/g4t1,,fail
Status,481,12133502773,/g3t1_3,,running
Status,482,12135320488,/g3t1_3,,success
Status,483,12142380614,/g3t1_1,,running
Status,484,12144278209,/g3t1_1,,success
Status,485,12148591370,/g3t1_2,,running
Status,486,12150561844,/g3t1_2,,success
Status,487,12183578856,/g3t1_3,,running
Status,488,12185546803,/g3t1_3,,success
Status,489,12192504611,/g3t1_1,,running
Status,490,12194177540,/g3t1_1,,success
Status,491,12198805769,/g3t1_2,,running
Status,492,12201197976,/g3t1_2,,success
Status,493,12219150642,/g4t1,,fail
Status,494,12233938603,/g3t1_3,,running
Status,495,12236182241,/g3t1_3,,success
Status,496,12242450182,/g3t1_1,,running
Status,497,12244627675,/g3t1_1,,success
Status,498,12248762476,/g3t1_2,,running
Status,499,12250821316,/g3t1_2,,success
Status,500,12283757882,/g3t1_3,,running
Status,501,12285758486,/g3t1_3,,success
Status,502,12292849421,/g3t1_1,,running
Status,503,12295111171,/g3t1_1,,success
Status,504,12298874754,/g3t1_2,,running
Status,505,12300663639,/g3t1_2,,success
Status,506,12319138539,/g4t1,,fail
Status,507,12334071559,/g3t1_3,,running
Status,508,12336041166,/g3t1_3,,success
Status,509,12343081230,/g3t1_1,,running
Status,510,12344620592,/g3t1_1,,success
Status,511,12349158341,/g3t1_2,,running
Status,512,12351193644,/g3t1_2,,success
Status,513,12384035946,/g3t1_3,,running
Status,514,12386465799,/g3t1_3,,success
Status,515,12393164819,/g3t1_1,,running
Status,516,12395141971,/g3t1_1,,success
Status,517,12399565518,/g3t1_2,,running
Status,521,12402165590,/g3t1_2,,success
Status,522,12419096692,/g4t1,,fail
Status,523,12434358543,/g3t1_3,,running
Status,524,12436186284,/g3t1_3,,success
Status,525,12443225756,/g3t1_1,,running
Status,526,12445189115,/g3t1_1,,success
Status,527,12449665351,/g3t1_2,,running
Status,528,12451350779,/g3t1_2,,success
Status,529,12484246323,/g3t1_3,,running
Status,530,12486395943,/g3t1_3,,success
Status,531,12493214701,/g3t1_1,,running
Status,532,12495293515,/g3t1_1,,success
Status,533,12499630152,/g3t1_2,,running
Status,534,12502040303,/g3t1_2,,success
Status,535,12519373484,/g4t1,,fail
Status,536,12534991199,/g3t1_3,,running
Status,537,12537080549,/g3t1_3,,success
Status,538,12543220015,/g3t1_1,,running
Status,539,12545202991,/g3t1_1,,success
Status,540,12549433016,/g3t1_2,,running
Status,541,12551909377,/g3t1_2,,success
Status,542,12584204186,/g3t1_3,,running
Status,543,12585077231,/g3t1_3,,success
Status,544,12592973245,/g3t1_1,,running
Status,545,12593590437,/g3t1_1,,success
Status,546,12599295815,/g3t1_2,,running
Status,550,12600317941,/g3t1_2,,success
Status,551,12618947232,/g4t1,,fail
Status,552,12634405609,/g3t1_3,,running
Status,553,12635690617,/g3t1_3,,success
Status,554,12643609887,/g3t1_1,,running
Status,555,12644981267,/g3t1_1,,success
Status,556,12649761553,/g3t1_2,,running
Status,557,12651442177,/g3t1_2,,success
Status,558,12684648325,/g3t1_3,,running
Status,559,12686209659,/g3t1_3,,success
Status,560,12693616771,/g3t1_1,,running
Status,561,12695193035,/g3t1_1,,success
Status,562,12700054664,/g3t1_2,,running
Status,563,12701718266,/g3t1_2,,success
Status,564,12719397829,/g4t1,,fail
Status,565,12734933414,/g3t1_3,,running
Status,566,12736647026,/g3t1_3,,success
Status,567,12743843368,/g3t1_1,,running
Status,568,12745295451,/g3t1_1,,success
Status,569,12749950861,/g3t1_2,,running
Status,570,12752147949,/g3t1_2,,success
Status,571,12785094471,/g3t1_3,,running
Status,572,12787075789,/g3t1_3,,success
Status,573,12793920752,/g3t1_1,,running
Status,574,12796149557,/g3t1_1,,success
Status,577,12800244848,/g3t1_2,,running
Status,579,12802456551,/g3t1_2,,success
Status,580,12819843450,/g4t1,,fail
Status,581,12835262404,/g3t1_3,,running
Status,582,12836994649,/g3t1_3,,success
Status,583,12844179831,/g3t1_1,,running
Status,584,12845917169,/g3t1_1,,success
Status,585,12850178876,/g3t1_2,,running
Status,586,12852684364,/g3t1_2,,success
Status,587,12885308185,/g3t1_3,,running
Status,588,12887210154,/g3t1_3,,success
Status,589,12894152255,/g3t1_1,,running
Status,590,12896208617,/g3t1_1,,success
Status,591,12900745061,/g3t1_2,,running
Status,592,12902667812,/g3t1_2,,success
Status,593,12919769648,/g4t1,,fail
Status,594,12935629893,/g3t1_3,,running
Status,595,12937251356,/g3t1_3,,success
Status,596,12944231440,/g3t1_1,,running
Status,597,12946146857,/g3t1_1,,success
Status,598,12950532551,/g3t1_2,,running
Status,599,12952460430,/g3t1_2,,success
Status,600,12985244190,/g3t1_3,,running
Status,601,12986457937,/g3t1_3,,success
Status,602,12994113587,/g3t1_1,,running
Status,603,12995408628,/g3t1_1,,success
Status,607,13000400180,/g3t1_2,,running
Status,608,13001638780,/g3t1_2,,success
Status,609,13019591001,/g4t1,,fail
Status,610,13035444345,/g3t1_3,,running
Status,611,13036603671,/g3t1_3,,success
Status,612,13044371076,/g3t1_1,,running
Status,613,13045625044,/g3t1_1,,success
Status,614,13050535116,/g3t1_2,,running
Status,615,13051862949,/g3t1_2,,success
Status,616,13085837410,/g3t1_3,,running
Status,617,13087351986,/g3t1_3,,success
Status,618,13094603827,/g3t1_1,,running
Status,619,13096213458,/g3t1_1,,success
Status,620,13100704944,/g3t1_2,,running
Status,621,13102299582,/g3t1_2,,success
Status,622,13119261092,/g4t1,,fail
Status,623,13135286004,/g3t1_3,,running
Status,624,13135840928,/g3t1_3,,success
Status,625,13144269230,/g3t1_1,,running
Status,626,13144875032,/g3t1_1,,success
Status,627,13150284957,/g3t1_2,,running
Status,628,13150854055,/g3t1_2,,success
Status,629,13185299091,/g3t1_3,,running
Status,630,13185935275,/g3t1_3,,success
Status,631,13194281154,/g3t1_1,,running
Status,632,13194889080,/g3t1_1,,success
Status,636,13200333399,/g3t1_2,,running
Status,637,13200857003,/g3t1_2,,success
Status,638,13219841401,/g4t1,,fail
Status,639,13235558406,/g3t1_3,,running
Status,640,13236160193,/g3t1_3,,success
Status,641,13244829311,/g3t1_1,,running
Status,642,13246975366,/g3t1_1,,success
Status,643,13250549301,/g3t1_2,,running
Status,644,13251283629,/g3t1_2,,success
Status,645,13285595293,/g3t1_3,,running
Status,646,13286214240,/g3t1_3,,success
Status,647,13295032407,/g3t1_1,,running
Status,648,13295208779,/g3t1_1,,success
Status,649,13300567514,/g3t1_2,,running
Status,650,13301208349,/g3t1_2,,success
Status,651,13319408548,/g4t1,,fail
Status,652,13335755416,/g3t1_3,,running
Status,653,13336544607,/g3t1_3,,success
Status,654,13344637841,/g3t1_1,,running
Status,655,13345200248,/g3t1_1,,success
Status,656,13350635385,/g3t1_2,,running
Status,657,13351338669,/g3t1_2,,success
Status,658,13386562268,/g3t1_3,,running
Status,659,13388368461,/g3t1_3,,success
Status,660,13394876288,/g3t1_1,,running
Status,661,13396212328,/g3t1_1,,success
Status,665,13400708974,/g3t1_2,,running
Status,666,13401787019,/g3t1_2,,success
Status,667,13419545313,/g4t1,,fail
Status,668,13436087301,/g3t1_3,,running
Status,669,13436692896,/g3t1_3,,success
Status,670,13445054125,/g3t1_1,,running
Status,671,13445633529,/g3t1_1,,success
Status,672,13450870923,/g3t1_2,,running
Status,673,13451478892,/g3t1_2,,success
Status,674,13486720877,/g3t1_3,,running
Status,675,13488745049,/g3t1_3,,success
Status,676,13495504940,/g3t1_1,,running
Status,677,13497596796,/g3t1_1,,success
Status,678,13501379411,/g3t1_2,,running
Status,679,13503328869,/g3t1_2,,success
Status,680,13520445568,/g4t1,,fail
Status,681,13536747210,/g3t1_3,,running
Status,682,13538871620,/g3t1_3,,success
Status,683,13545551107,/g3t1_1,,running
Status,684,13547586498,/g3t1_1,,success
Status,685,13551627805,/g3t1_2,,running
Status,686,13553316993,/g3t1_2,,success
Status,687,13586923723,/g3t1_3,,running
Status,688,13588374529,/g3t1_3,,success
Status,689,13596052894,/g3t1_1,,running
Status,690,13598297325,/g3t1_1,,success
Status,694,13601703545,/g3t1_2,,running
Status,695,13604052115,/g3t1_2,,success
Status,696,13620589631,/g4t1,,fail
Status,697,13637133296,/g3t1_3,,running
Status,698,13639044163,/g3t1_3,,success
Status,699,13646234117,/g3t1_1,,running
Status,700,13648422292,/g3t1_1,,success
Status,701,13651742951,/g3t1_2,,running
Status,702,13654223588,/g3t1_2,,success
Status,703,13687137500,/g3t1_3,,running
Status,704,13689296110,/g3t1_3,,success
Status,705,13696171240,/g3t1_1,,running
Status,706,13698776918,/g3t1_1,,success
Status,707,13701840919,/g3t1_2,,running
Status,708,13703772710,/g3t1_2,,success
Status,709,13720639913,/g4t1,,fail
Status,710,13737338922,/g3t1_3,,running
Status,711,13739263768,/g3t1_3,,success
Status,712,13746347081,/g3t1_1,,running
Status,713,13748658010,/g3t1_1,,success
Status,714,13752080132,/g3t1_2,,running
Status,715,13754099898,/g3t1_2,,success
Status,716,13787131552,/g3t1_3,,running
Status,717,13788412260,/g3t1_3,,success
Status,718,13796141789,/g3t1_1,,running
Status,719,13797414911,/g3t1_1,,success
Status,723,13801778382,/g3t1_2,,running
Status,724,13803168865,/g3t1_2,,success
Status,725,13820309051,/g4t1,,fail
Status,726,13837747456,/g3t1_3,,running
Status,727,13839502329,/g3t1_3,,success
Status,728,13846879016,/g3t1_1,,running
Status,729,13849129658,/g3t1_1,,success
Status,730,13852142016,/g3t1_2,,running
Status,731,13854527041,/g3t1_2,,success
Status,732,13887691149,/g3t1_3,,running
Status,733,13889579737,/g3t1_3,,success
Status,734,13896828143,/g3t1_1,,running
Status,735,13899153699,/g3t1_1,,success
Status,736,13902317769,/g3t1_2,,running
Status,737,13904267825,/g3t1_2,,success
Status,738,13920762570,/g4t1,,fail
Status,739,13937864025,/g3t1_3,,running
Status,740,13939530125,/g3t1_3,,success
Status,741,13947071072,/g3t1_1,,running
Status,742,13949339815,/g3t1_1,,success
Status,743,13952371048,/g3t1_2,,running
Status,744,13954275114,/g3t1_2,,success
Status,745,13987946343,/g3t1_3,,running
Status,746,13989847802,/g3t1_3,,success
Status,747,13996979780,/g3t1_1,,running
Status,748,13999089770,/g3t1_1,,success
Status,752,14002633292,/g3t1_2,,running
Status,753,14004820460,/g3t1_2,,success
Status,754,14020907335,/g4t1,,fail
Status,755,14038266539,/g3t1_3,,running
Status,756,14040186440,/g3t1_3,,success
Status,757,14047309457,/g3t1_1,,running
Status,758,14049455124,/g3t1_1,,success
Status,759,14052352432,/g3t1_2,,running
Status,760,14054444427,/g3t1_2,,success
Status,761,14088204747,/g3t1_3,,running
Status,762,14090250485,/g3t1_3,,success
Status,763,14097301719,/g3t1_1,,running
Status,764,14099669003,/g3t1_1,,success
Status,765,14102791332,/g3t1_2,,running
Status,766,14104574178,/g3t1_2,,success
Status,767,14121150626,/g4t1,,fail
Status,768,14138486488,/g3t1_3,,running
Status,769,14140341086,/g3t1_3,,success
Status,770,14147381556,/g3t1_1,,running
Status,771,14149325863,/g3t1_1,,success
Status,772,14152761537,/g3t1_2,,running
Status,773,14154853408,/g3t1_2,,success
Status,774,14188437700,/g3t1_3,,running
Status,775,14190254115,/g3t1_3,,success
Status,776,14197371395,/g3t1_1,,running
Status,777,14199491494,/g3t1_1,,success
Status,781,14202878868,/g3t1_2,,running
Status,782,14204997001,/g3t1_2,,success
Status,783,14221239485,/g4t1,,fail
Status,784,14238845398,/g3t1_3,,running
Status,785,14240897066,/g3t1_3,,success
Status,786,14247657047,/g3t1_1,,running
Status,787,14249696081,/g3t1_1,,success
Status,788,14253076613,/g3t1_2,,running
Status,789,14255129252,/g3t1_2,,success
Status,790,14288752808,/g3t1_3,,running
Status,791,14290789797,/g3t1_3,,success
Status,792,14297574589,/g3t1_1,,running
Status,793,14299549326,/g3t1_1,,success
Status,794,14303190231,/g3t1_2,,running
Status,795,14304793343,/g3t1_2,,success
Status,796,14321422478,/g4t1,,fail
Status,797,14339104718,/g3t1_3,,running
Status,798,14340932038,/g3t1_3,,success
Status,799,14347737766,/g3t1_1,,running
Status,800,14349716159,/g3t1_1,,success
Status,801,14353370916,/g3t1_2,,running
Status,802,14355267944,/g3t1_2,,success
Status,803,14389001122,/g3t1_3,,running
Status,804,14391369072,/g3t1_3,,success
Status,805,14398097975,/g3t1_1,,running
Status,806,14399950031,/g3t1_1,,success
Status,810,14403377587,/g3t1_2,,running
Status,811,14405303535,/g3t1_2,,success
Status,812,14421565564,/g4t1,,fail
Status,813,14439246512,/g3t1_3,,running
Status,814,14441295819,/g3t1_3,,success
Status,815,14448232840,/g3t1_1,,running
Status,816,14450323750,/g3t1_1,,success
Status,817,14453461566,/g3t1_2,,running
Status,818,14455319787,/g3t1_2,,success
Status,819,14489302854,/g3t1_3,,running
Status,820,14491140832,/g3t1_3,,success
Status,821,14498390396,/g3t1_1,,running
Status,822,14500560967,/g3t1_1,,success
Status,823,14503624480,/g3t1_2,,running
Status,824,14505309400,/g3t1_2,,success
Status,825,14521703248,/g4t1,,fail
Status,826,14539414741,/g3t1_3,,running
Status,827,14541236588,/g3t1_3,,success
Status,828,14548462796,/g3t1_1,,running
Status,829,14550271038,/g3t1_1,,success
Status,830,14553844559,/g3t1_2,,running
Status,831,14555910626,/g3t1_2,,success
Status,832,14589499625,/g3t1_3,,running
Status,833,14591515276,/g3t1_3,,success
Status,834,14598630656,/g3t1_1,,running
Status,835,14600423231,/g3t1_1,,success
Status,839,14604035282,/g3t1_2,,running
Status,840,14606063482,/g3t1_2,,success
Status,841,14621584825,/g4t1,,fail
Status,842,14639737405,/g3t1_3,,running
Status,843,14641536410,/g3t1_3,,success
Status,844,14648731926,/g3t1_1,,running
Status,845,14651414932,/g3t1_1,,success
Status,846,14654116923,/g3t1_2,,running
Status,847,14656108464,/g3t1_2,,success
Status,848,14689764572,/g3t1_3,,running
Status,849,14691757347,/g3t1_3,,success
Status,850,14698688823,/g3t1_1,,running
Status,851,14700921109,/g3t1_1,,success
Status,852,14704298708,/g3t1_2,,running
Status,853,14706119657,/g3t1_2,,success
Status,854,14721813316,/g4t1,,fail
Status,855,14739914932,/g3t1_3,,running
Status,856,14742009864,/g3t1_3,,success
Status,857,14749095595,/g3t1_1,,running
Status,858,14751513967,/g3t1_1,,success
Status,859,14754155226,/g3t1_2,,running
Status,860,14756143858,/g3t1_2,,success
Status,861,14790150076,/g3t1_3,,running
Status,862,14791966462,/g3t1_3,,success
Status,863,14799043541,/g3t1_1,,running
Status,864,14800723004,/g3t1_1,,success
Status,868,14804418835,/g3t1_2,,running
Status,869,14806058309,/g3t1_2,,success
Status,870,14822091643,/g4t1,,fail
Status,871,14840211336,/g3t1_3,,running
Status,872,14841915129,/g3t1_3,,success
Status,873,14849433325,/g3t1_1,,running
Status,874,14851295046,/g3t1_1,,success
Status,875,14854422784,/g3t1_2,,running
Status,876,14856543009,/g3t1_2,,success
Status,877,14890411805,/g3t1_3,,running
Status,878,14892545334,/g3t1_3,,success
Status,879,14899408439,/g3t1_1,,running
Status,880,14901133076,/g3t1_1,,success
Status,881,14904989081,/g3t1_2,,running
Status,882,14907327290,/g3t1_2,,success
Status,883,14922044303,/g4t1,,fail
Status,884,14940577977,/g3t1_3,,running
Status,885,14942248854,/g3t1_3,,success
Status,886,14949490399,/g3t1_1,,running
Status,887,14951247076,/g3t1_1,,success
Status,888,14954838710,/g3t1_2,,running
Status,889,14956518990,/g3t1_2,,success
Status,890,14990480251,/g3t1_3,,running
Status,891,14992394702,/g3t1_3,,success
Status,892,14999569877,/g3t1_1,,running
Status,895,15001436244,/g3t1_1,,success
Status,897,15004712566,/g3t1_2,,running
Status,898,15006832811,/g3t1_2,,success
Status,899,15022307379,/g4t1,,fail
Status,900,15041113360,/g3t1_3,,running
Status,901,15043034923,/g3t1_3,,success
Status,902,15049158894,/g3t1_1,,running
Status,903,15049928137,/g3t1_1,,success
Status,904,15054561654,/g3t1_2,,running
Status,905,15055519086,/g3t1_2,,success
Status,906,15090493761,/g3t1_3,,running
Status,907,15091287753,/g3t1_3,,success
Status,908,15099346485,/g3t1_1,,running
Status,909,15100402329,/g3t1_1,,success
Status,910,15104556997,/g3t1_2,,running
Status,911,15105509732,/g3t1_2,,success
Status,912,15121814430,/g4t1,,fail
Status,913,15141017293,/g3t1_3,,running
Status,914,15143020731,/g3t1_3,,success
Status,915,15149777963,/g3t1_1,,running
Status,916,15151336111,/g3t1_1,,success
Status,917,15155148009,/g3t1_2,,running
Status,918,15157248010,/g3t1_2,,success
Status,919,15191059389,/g3t1_3,,running
Status,920,15192884593,/g3t1_3,,success
Status,921,15200053026,/g3t1_1,,running
Status,925,15202128214,/g3t1_1,,success
Status,926,15205079074,/g3t1_2,,running
Status,927,15206969549,/g3t1_2,,success
Status,928,15222616898,/g4t1,,fail
Status,929,15241330047,/g3t1_3,,running
Status,930,15243083834,/g3t1_3,,success
Status,931,15250126068,/g3t1_1,,running
Status,932,15251983200,/g3t1_1,,success
Status,933,15255158397,/g3t1_2,,running
Status,934,15256982222,/g3t1_2,,success
Status,935,15291339265,/g3t1_3,,running
Status,936,15293400463,/g3t1_3,,success
Status,937,15300557411,/g3t1_1,,running
Status,938,15302910959,/g3t1_1,,success
Status,939,15305213753,/g3t1_2,,running
Status,940,15307220442,/g3t1_2,,success
Status,941,15322739138,/g4t1,,fail
Status,942,15341461439,/g3t1_3,,running
Status,943,15343317061,/g3t1_3,,success
Status,944,15350321465,/g3t1_1,,running
Status,945,15352330488,/g3t1_1,,success
Status,946,15355547833,/g3t1_2,,running
Status,947,15357331298,/g3t1_2,,success
Status,948,15391298713,/g3t1_3,,running
Status,949,15392438117,/g3t1_3,,success
Status,950,15400471187,/g3t1_1,,running
Status,954,15402824048,/g3t1_1,,success
Status,955,15405548703,/g3t1_2,,running
Status,956,15407340996,/g3t1_2,,success
Status,957,15423006510,/g4t1,,fail
Status,958,15441763715,/g3t1_3,,running
Status,959,15443918365,/g3t1_3,,success
Status,960,15450637475,/g3t1_1,,running
Status,961,15452526072,/g3t1_1,,success
Status,962,15455753765,/g3t1_2,,running
Status,963,15457646645,/g3t1_2,,success
Status,964,15491546115,/g3t1_3,,running
Status,965,15492931140,/g3t1_3,,success
Status,966,15500111257,/g3t1_1,,running
Status,967,15500657944,/g3t1_1,,success
Status,968,15505169399,/g3t1_2,,running
Status,969,15505820426,/g3t1_2,,success
Status,970,15522271708,/g4t1,,fail
Status,971,15541725988,/g3t1_3,,running
Status,972,15543801893,/g3t1_3,,success
Status,973,15551018526,/g3t1_1,,running
Status,974,15552654831,/g3t1_1,,success
Status,975,15555812847,/g3t1_2,,running
Status,976,15557786036,/g3t1_2,,success
Status,977,15591548219,/g3t1_3,,running
Status,978,15592888405,/g3t1_3,,success
Status,979,15600376109,/g3t1_1,,running
Status,980,15601043846,/g3t1_1,,success
Status,981,15605547316,/g3t1_2,,running
Status,982,15605986210,/g3t1_2,,success
Status,983,15622277675,/g4t1,,fail
Status,984,15641879397,/g3t1_3,,running
Status,985,15643911323,/g3t1_3,,success
Status,986,15650828532,/g3t1_1,,running
Status,987,15652792239,/g3t1_1,,success
Status,988,15656179456,/g3t1_2,,running
Status,989,15658211670,/g3t1_2,,success
Status,990,15692288757,/g3t1_3,,running
Status,991,15694071890,/g3t1_3,,success
Status,992,15700975021,/g3t1_1,,running
Status,993,15703066081,/g3t1_1,,success
Status,994,15706079767,/g3t1_2,,running
Status,995,15707638978,/g3t1_2,,success
Status,996,15723326760,/g4t1,,fail
Status,997,15742441907,/g3t1_3,,running
Status,998,15744404662,/g3t1_3,,success
Status,999,15751202483,/g3t1_1,,running
Status,1000,15752831145,/g3t1_1,,success
Status,1001,15756362075,/g3t1_2,,running
Status,1002,15758177775,/g3t1_2,,success
Status,1003,15792507561,/g3t1_3,,running
Status,1004,15794251916,/g3t1_3,,success
Status,1005,15801183483,/g3t1_1,,running
Status,1006,15802786663,/g3t1_1,,success
Status,1007,15806518917,/g3t1_2,,running
Status,1008,15808482278,/g3t1_2,,success
Status,1009,15823280255,/g4t1,,fail
Status,1010,15842667268,/g3t1_3,,running
Status,1011,15844684621,/g3t1_3,,success
Status,1012,15851429292,/g3t1_1,,running
Status,1013,15853246117,/g3t1_1,,success
Status,1014,15856523418,/g3t1_2,,running
Status,1015,15858508514,/g3t1_2,,success
Status,1016,15892353218,/g3t1_3,,running
Status,1017,15893608722,/g3t1_3,,success
Status,1018,15901191426,/g3t1_1,,running
Status,1019,15902359635,/g3t1_1,,success
Status,1020,15906412961,/g3t1_2,,running
Status,1021,15907733864,/g3t1_2,,success
Status,1022,15922951538,/g4t1,,fail
Status,1023,15942528068,/g3t1_3,,running
Status,1024,15943775946,/g3t1_3,,success
Status,1025,15951440348,/g3t1_1,,running
Status,1026,15952446167,/g3t1_1,,success
Status,1027,15956603640,/g3t1_2,,running
Status,1028,15957567916,/g3t1_2,,success
Status,1029,15992779459,/g3t1_3,,running
Status,1030,15994344389,/g3t1_3,,success
Status,1031,16001741282,/g3t1_1,,running
Status,1032,16003045995,/g3t1_1,,success
Status,1033,16006950836,/g3t1_2,,running
Status,1034,16008641284,/g3t1_2,,success
Status,1035,16023520283,/g4t1,,fail
Status,1036,16043091329,/g3t1_3,,running
Status,1037,16045102686,/g3t1_3,,success
Status,1038,16051907916,/g3t1_1,,running
Status,1039,16053679750,/g3t1_1,,success
Status,1040,16056950518,/g3t1_2,,running
Status,1041,16058853454,/g3t1_2,,success
Status,1042,16093028279,/g3t1_3,,running
Status,1043,16095093092,/g3t1_3,,success
Status,1044,16102596695,/g3t1_1,,running
Status,1045,16104454250,/g3t1_1,,success
Status,1046,16107216098,/g3t1_2,,running
Status,1047,16109038517,/g3t1_2,,success
Status,1048,16123455394,/g4t1,,fail
Status,1049,16143328706,/g3t1_3,,running
Status,1050,16145461033,/g3t1_3,,success
Status,1051,16152074254,/g3t1_1,,running
Status,1052,16154085159,/g3t1_1,,success
Status,1053,16157140307,/g3t1_2,,running
Status,1054,16159094393,/g3t1_2,,success
Status,1055,16193187060,/g3t1_3,,running
Status,1056,16195007143,/g3t1_3,,success
Status,1057,16202250859,/g3t1_1,,running
Status,1058,16204549576,/g3t1_1,,success
Status,1059,16207293027,/g3t1_2,,running
Status,1060,16208955099,/g3t1_2,,success
Status,1061,16223570375,/g4t1,,fail
Status,1062,16243495023,/g3t1_3,,running
Status,1063,16245167110,/g3t1_3,,success
Status,1064,16252354473,/g3t1_1,,running
Status,1065,16254015618,/g3t1_1,,success
Status,1066,16257493141,/g3t1_2,,running
Status,1067,16259344469,/g3t1_2,,success
Status,1068,16293461995,/g3t1_3,,running
Status,1069,16295495977,/g3t1_3,,success
Status,1070,16302533298,/g3t1_1,,running
Status,1071,16304134495,/g3t1_1,,success
Status,1072,16307500905,/g3t1_2,,running
Status,1073,16309206037,/g3t1_2,,success
Status,1074,16323852555,/g4t1,,fail
Status,1075,16343762655,/g3t1_3,,running
Status,1076,16345347307,/g3t1_3,,success
Status,1077,16352725762,/g3t1_1,,running
Status,1078,16354694770,/g3t1_1,,success
Status,1079,16357595096,/g3t1_2,,running
Status,1080,16359461041,/g3t1_2,,success
Status,1081,16393802283,/g3t1_3,,running
Status,1082,16396036272,/g3t1_3,,success
Status,1086,16403140190,/g3t1_1,,running
Status,1087,16404857700,/g3t1_1,,success
Status,1088,16407892024,/g3t1_2,,running
Status,1089,16409766263,/g3t1_2,,success
Status,1090,16423969567,/g4t1,,fail
Status,1091,16443610781,/g3t1_3,,running
Status,1092,16445061921,/g3t1_3,,success
Status,1093,16452653352,/g3t1_1,,running
Status,1094,16454052602,/g3t1_1,,success
Status,1095,16457510550,/g3t1_2,,running
Status,1096,16459024839,/g3t1_2,,success
Status,1097,16493452977,/g3t1_3,,running
Status,1098,16494110741,/g3t1_3,,success
Status,1099,16502848835,/g3t1_1,,running
Status,1100,16504684689,/g3t1_1,,success
Status,1101,16508007356,/g3t1_2,,running
Status,1102,16509658548,/g3t1_2,,success
Status,1103,16523865570,/g4t1,,fail
Status,1104,16544129491,/g3t1_3,,running
Status,1105,16546338188,/g3t1_3,,success
Status,1106,16553104835,/g3t1_1,,running
Status,1107,16555067131,/g3t1_1,,success
Status,1108,16558189012,/g3t1_2,,running
Status,1109,16560076004,/g3t1_2,,success
Status,1110,16594473996,/g3t1_3,,running
Status,1111,16596803862,/g3t1_3,,success
Status,1115,16603122340,/g3t1_1,,running
Status,1116,16605385673,/g3t1_1,,success
Status,1117,16608065507,/g3t1_2,,running
Status,1118,16609579662,/g3t1_2,,success
Status,1119,16624049242,/g4t1,,fail
Status,1120,16644048170,/g3t1_3,,running
Status,1121,16645366222,/g3t1_3,,success
Status,1122,16653017523,/g3t1_1,,running
Status,1123,16654474747,/g3t1_1,,success
Status,1124,16658032050,/g3t1_2,,running
Status,1125,16659254487,/g3t1_2,,success
Status,1126,16694341447,/g3t1_3,,running
Status,1127,16695783892,/g3t1_3,,success
Status,1128,16703007608,/g3t1_1,,running
Status,1129,16704409951,/g3t1_1,,success
Status,1130,16707924795,/g3t1_2,,running
Status,1131,16708985085,/g3t1_2,,success
Status,1132,16724288862,/g4t1,,fail
Status,1133,16744627681,/g3t1_3,,running
Status,1134,16746496765,/g3t1_3,,success
Status,1135,16753341403,/g3t1_1,,running
Status,1136,16755325476,/g3t1_1,,success
Status,1137,16758544073,/g3t1_2,,running
Status,1138,16760281426,/g3t1_2,,success
Status,1139,16794776581,/g3t1_3,,running
Status,1140,16797412484,/g3t1_3,,success
Status,1144,16803586781,/g3t1_1,,running
Status,1145,16805558464,/g3t1_1,,success
Status,1146,16808438435,/g3t1_2,,running
Status,1147,16810386805,/g3t1_2,,success
Status,1148,16824322678,/g4t1,,fail
Status,1149,16844880238,/g3t1_3,,running
Status,1150,16847267576,/g3t1_3,,success
Status,1151,16853788014,/g3t1_1,,running
Status,1152,16855538436,/g3t1_1,,success
Status,1153,16858680747,/g3t1_2,,running
Status,1154,16860726925,/g3t1_2,,success
Status,1155,16895121299,/g3t1_3,,running
Status,1156,16897255224,/g3t1_3,,success
Status,1157,16903988256,/g3t1_1,,running
Status,1158,16905917833,/g3t1_1,,success
Status,1159,16908707838,/g3t1_2,,running
Status,1160,16910292545,/g3t1_2,,success
Status,1161,16924616358,/g4t1,,fail
Status,1162,16945190492,/g3t1_3,,running
Status,1163,16946832549,/g3t1_3,,success
Status,1164,16954113470,/g3t1_1,,running
Status,1165,16955978178,/g3t1_1,,success
Status,1166,16958986618,/g3t1_2,,running
Status,1167,16960936355,/g3t1_2,,success
Status,1168,16995362767,/g3t1_3,,running
Status,1169,16997783949,/g3t1_3,,success
Status,1173,17004370290,/g3t1_1,,running
Status,1174,17006265296,/g3t1_1,,success
Status,1175,17008839129,/g3t1_2,,running
Status,1176,17011152511,/g3t1_2,,success
Status,1177,17024118685,/g4t1,,fail
Status,1178,17045103409,/g3t1_3,,running
Status,1179,17046243341,/g3t1_3,,success
Status,1180,17054045045,/g3t1_1,,running
Status,1181,17055404939,/g3t1_1,,success
Status,1182,17058937843,/g3t1_2,,running
Status,1183,17060029132,/g3t1_2,,success
Status,1184,17095316717,/g3t1_3,,running
Status,1185,17096734255,/g3t1_3,,success
Status,1186,17104274939,/g3t1_1,,running
Status,1187,17105633230,/g3t1_1,,success
Status,1188,17109084080,/g3t1_2,,running
Status,1189,17110647296,/g3t1_2,,success
Status,1190,17124569358,/g4t1,,fail
Status,1191,17145465985,/g3t1_3,,running
Status,1192,17147318974,/g3t1_3,,success
Status,1193,17154518367,/g3t1_1,,running
Status,1194,17155791344,/g3t1_1,,success
Status,1195,17159343785,/g3t1_2,,running
Status,1196,17160775122,/g3t1_2,,success
Status,1197,17195729774,/g3t1_3,,running
Status,1198,17197829505,/g3t1_3,,success
Status,1202,17204415749,/g3t1_1,,running
Status,1203,17206376519,/g3t1_1,,success
Status,1204,17209298015,/g3t1_2,,running
Status,1205,17211158514,/g3t1_2,,success
Status,1206,17224697885,/g4t1,,fail
Status,1207,17245778349,/g3t1_3,,running
Status,1208,17247475981,/g3t1_3,,success
Status,1209,17254820058,/g3t1_1,,running
Status,1210,17256216234,/g3t1_1,,success
Status,1211,17259561678,/g3t1_2,,running
Status,1212,17261546208,/g3t1_2,,success
Status,1213,17296038897,/g3t1_3,,running
Status,1214,17298032034,/g3t1_3,,success
Status,1215,17304769391,/g3t1_1,,running
Status,1216,17306249016,/g3t1_1,,success
Status,1217,17309583821,/g3t1_2,,running
Status,1218,17311125303,/g3t1_2,,success
Status,1219,17324627774,/g4t1,,fail
Status,1220,17346061012,/g3t1_3,,running
Status,1221,17348181287,/g3t1_3,,success
Status,1222,17355119538,/g3t1_1,,running
Status,1223,17356761391,/g3t1_1,,success
Status,1224,17359723108,/g3t1_2,,running
Status,1225,17361791151,/g3t1_2,,success
Status,1226,17396383004,/g3t1_3,,running
Status,1227,17398705238,/g3t1_3,,success
Status,1231,17405008756,/g3t1_1,,running
Status,1232,17407389761,/g3t1_1,,success
Status,1233,17409829192,/g3t1_2,,running
Status,1234,17411716781,/g3t1_2,,success
Status,1235,17424996032,/g4t1,,fail
Status,1236,17446245014,/g3t1_3,,running
Status,1237,17448072242,/g3t1_3,,success
Status,1238,17455250785,/g3t1_1,,running
Status,1239,17457151436,/g3t1_1,,success
Status,1240,17459999148,/g3t1_2,,running
Status,1241,17462269786,/g3t1_2,,success
Status,1242,17496666156,/g3t1_3,,running
Status,1243,17498937255,/g3t1_3,,success
Status,1244,17505374890,/g3t1_1,,running
Status,1245,17507040290,/g3t1_1,,success
Status,1246,17510169214,/g3t1_2,,running
Status,1247,17511756760,/g3t1_2,,success
Status,1248,17525064392,/g4t1,,fail
Status,1249,17546587789,/g3t1_3,,running
Status,1250,17548601508,/g3t1_3,,success
Status,1251,17555490233,/g3t1_1,,running
Status,1252,17557466028,/g3t1_1,,success
Status,1253,17560228770,/g3t1_2,,running
Status,1254,17561813203,/g3t1_2,,success
Status,1255,17596880102,/g3t1_3,,running
Status,1256,17599027132,/g3t1_3,,success
Status,1260,17605430688,/g3t1_1,,running
Status,1261,17607599499,/g3t1_1,,success
Status,1262,17611851348,/g3t1_2,,running
Status,1263,17612579287,/g3t1_2,,success
Status,1264,17625263451,/g4t1,,fail
Status,1265,17646990737,/g3t1_3,,running
Status,1266,17648778615,/g3t1_3,,success
Status,1267,17655867470,/g3t1_1,,running
Status,1268,17657505087,/g3t1_1,,success
Status,1269,17660839390,/g3t1_2,,running
Status,1270,17663071452,/g3t1_2,,success
Status,1271,17696457749,/g3t1_3,,running
Status,1272,17697048991,/g3t1_3,,success
Status,1273,17705304078,/g3t1_1,,running
Status,1274,17705929155,/g3t1_1,,success
Status,1275,17710092691,/g3t1_2,,running
Status,1276,17710743974,/g3t1_2,,success
Status,1277,17725211477,/g4t1,,fail
Status,1278,17746985780,/g3t1_3,,running
Status,1279,17748721567,/g3t1_3,,success
Status,1280,17755923896,/g3t1_1,,running
Status,1281,17757925428,/g3t1_1,,success
Status,1282,17760712685,/g3t1_2,,running
Status,1283,17762651326,/g3t1_2,,success
Status,1284,17797311460,/g3t1_3,,running
Status,1285,17799243348,/g3t1_3,,success
Status,1289,17805895466,/g3t1_1,,running
Status,1290,17808074216,/g3t1_1,,success
Status,1291,17810846444,/g3t1_2,,running
Status,1292,17813127420,/g3t1_2,,success
Status,1293,17825322998,/g4t1,,fail
Status,1294,17847280686,/g3t1_3,,running
Status,1295,17849115511,/g3t1_3,,success
Status,1296,17856256971,/g3t1_1,,running
Status,1297,17858037157,/g3t1_1,,success
Status,1298,17860998160,/g3t1_2,,running
Status,1299,17863252241,/g3t1_2,,success
Status,1300,17897503252,/g3t1_3,,running
Status,1301,17899720620,/g3t1_3,,success
Status,1302,17906346045,/g3t1_1,,running
Status,1303,17908196740,/g3t1_1,,success
Status,1304,17911029661,/g3t1_2,,running
Status,1305,17912747263,/g3t1_2,,success
Status,1306,17925716961,/g4t1,,fail
Status,1307,17947578953,/g3t1_3,,running
Status,1308,17949357203,/g3t1_3,,success
Status,1309,17956449970,/g3t1_1,,running
Status,1310,17958130275,/g3t1_1,,success
Status,1311,17961129684,/g3t1_2,,running
Status,1312,17963223708,/g3t1_2,,success
Status,1313,17997710408,/g3t1_3,,running
Status,1314,17999670400,/g3t1_3,,success
Status,1318,18006532333,/g3t1_1,,running
Status,1319,18008497141,/g3t1_1,,success
Status,1320,18011239476,/g3t1_2,,running
Status,1321,18013004193,/g3t1_2,,success
Status,1322,18025508194,/g4t1,,fail
Status,1323,18047623188,/g3t1_3,,running
Status,1324,18049486447,/g3t1_3,,success
Status,1325,18056848331,/g3t1_1,,running
Status,1326,18058962449,/g3t1_1,,success
Status,1327,18061469147,/g3t1_2,,running
Status,1328,18063700468,/g3t1_2,,success
Status,1329,18097761116,/g3t1_3,,running
Status,1330,18100065698,/g3t1_3,,success
Status,1331,18106836272,/g3t1_1,,running
Status,1332,18108454789,/g3t1_1,,success
Status,1333,18111482449,/g3t1_2,,running
Status,1334,18113416990,/g3t1_2,,success
Status,1335,18125802375,/g4t1,,fail
Status,1336,18147936234,/g3t1_3,,running
Status,1337,18149612464,/g3t1_3,,success
Status,1338,18156977360,/g3t1_1,,running
Status,1339,18158866556,/g3t1_1,,success
Status,1340,18161432171,/g3t1_2,,running
Status,1341,18164049449,/g3t1_2,,success
Status,1342,18198197706,/g3t1_3,,running
Status,1343,18199952613,/g3t1_3,,success
Status,1347,18207012083,/g3t1_1,,running
Status,1348,18208711380,/g3t1_1,,success
Status,1349,18211502055,/g3t1_2,,running
Status,1350,18213243120,/g3t1_2,,success
Status,1351,18225769719,/g4t1,,fail
Status,1352,18248270619,/g3t1_3,,running
Status,1353,18249780091,/g3t1_3,,success
Status,1354,18257154691,/g3t1_1,,running
Status,1355,18259005182,/g3t1_1,,success
Status,1356,18261782134,/g3t1_2,,running
Status,1357,18264260599,/g3t1_2,,success
Status,1358,18298409212,/g3t1_3,,running
Status,1359,18300053425,/g3t1_3,,success
Status,1360,18307143838,/g3t1_1,,running
Status,1361,18309257016,/g3t1_1,,success
Status,1362,18311976325,/g3t1_2,,running
Status,1363,18313810983,/g3t1_2,,success
Status,1364,18326158910,/g4t1,,fail
Status,1365,18348392116,/g3t1_3,,running
Status,1366,18350147847,/g3t1_3,,success
Status,1367,18357393121,/g3t1_1,,running
Status,1368,18359206606,/g3t1_1,,success
Status,1369,18362288509,/g3t1_2,,running
Status,1370,18364693879,/g3t1_2,,success
Status,1371,18398593163,/g3t1_3,,running
Status,1372,18400578310,/g3t1_3,,success
Status,1376,18407549244,/g3t1_1,,running
Status,1377,18409304127,/g3t1_1,,success
Status,1378,18412166805,/g3t1_2,,running
Status,1379,18414158348,/g3t1_2,,success
Status,1380,18426285736,/g4t1,,fail
Status,1381,18448429284,/g3t1_3,,running
Status,1382,18449745121,/g3t1_3,,success
Status,1383,18457292589,/g3t1_1,,running
Status,1384,18458771877,/g3t1_1,,success
Status,1385,18462194905,/g3t1_2,,running
Status,1386,18463557397,/g3t1_2,,success
Status,1387,18498642589,/g3t1_3,,running
Status,1388,18499788526,/g3t1_3,,success
Status,1389,18507370035,/g3t1_1,,running
Status,1390,18508715264,/g3t1_1,,success
Status,1391,18512138360,/g3t1_2,,running
Status,1392,18513196457,/g3t1_2,,success
Status,1393,18526106773,/g4t1,,fail
Status,1394,18548925094,/g3t1_3,,running
Status,1395,18550679028,/g3t1_3,,success
Status,1396,18557738324,/g3t1_1,,running
Status,1397,18559812194,/g3t1_1,,success
Status,1398,18562584338,/g3t1_2,,running
Status,1399,18564664538,/g3t1_2,,success
Status,1400,18599096716,/g3t1_3,,running
Status,1401,18600719579,/g3t1_3,,success
Status,1405,18607984508,/g3t1_1,,running
Status,1406,18609848812,/g3t1_1,,success
Status,1407,18612783617,/g3t1_2,,running
Status,1408,18615403762,/g3t1_2,,success
Status,1409,18626321483,/g4t1,,fail
Status,1410,18649308781,/g3t1_3,,running
Status,1411,18651067142,/g3t1_3,,success
Status,1412,18657894092,/g3t1_1,,running
Status,1413,18660303627,/g3t1_1,,success
Status,1414,18662644047,/g3t1_2,,running
Status,1415,18665003682,/g3t1_2,,success
Status,1416,18699295244,/g3t1_3,,running
Status,1417,18700890942,/g3t1_3,,success
Status,1418,18708215238,/g3t1_1,,running
Status,1419,18710113075,/g3t1_1,,success
Status,1420,18712785485,/g3t1_2,,running
Status,1421,18714780531,/g3t1_2,,success
Status,1422,18726620857,/g4t1,,fail
Status,1423,18749574181,/g3t1_3,,running
Status,1424,18751513313,/g3t1_3,,success
Status,1425,18758377167,/g3t1_1,,running
Status,1426,18760023543,/g3t1_1,,success
Status,1427,18763022506,/g3t1_2,,running
Status,1428,18764640652,/g3t1_2,,success
Status,1429,18799466333,/g3t1_3,,running
Status,1430,18801055208,/g3t1_3,,success
Status,1434,18808517498,/g3t1_1,,running
Status,1435,18810521396,/g3t1_1,,success
Status,1436,18813412786,/g3t1_2,,running
Status,1437,18815417272,/g3t1_2,,success
Status,1438,18826511554,/g4t1,,fail
Status,1439,18849661402,/g3t1_3,,running
Status,1440,18851645224,/g3t1_3,,success
Status,1441,18858445336,/g3t1_1,,running
Status,1442,18860740874,/g3t1_1,,success
Status,1443,18863080776,/g3t1_2,,running
Status,1444,18864974153,/g3t1_2,,success
Status,1445,18899753926,/g3t1_3,,running
Status,1446,18901410711,/g3t1_3,,success
Status,1447,18908700326,/g3t1_1,,running
Status,1448,18911020905,/g3t1_1,,success
Status,1449,18913460388,/g3t1_2,,running
Status,1450,18915881070,/g3t1_2,,success
Status,1451,18927079183,/g4t1,,fail
Status,1452,18949900769,/g3t1_3,,running
Status,1453,18951659495,/g3t1_3,,success
Status,1454,18958792989,/g3t1_1,,running
Status,1455,18960717376,/g3t1_1,,success
Status,1456,18963711925,/g3t1_2,,running
Status,1457,18966079009,/g3t1_2,,success
Status,1458,18999951017,/g3t1_3,,running
Status,1459,19001485221,/g3t1_3,,success
Status,1463,19008861601,/g3t1_1,,running
Status,1464,19010630384,/g3t1_1,,success
Status,1465,19013896702,/g3t1_2,,running
Status,1466,19015728744,/g3t1_2,,success
Status,1467,19026977109,/g4t1,,fail
Status,1468,19050227539,/g3t1_3,,running
Status,1469,19052110892,/g3t1_3,,success
Status,1470,19059003805,/g3t1_1,,running
Status,1471,19061144457,/g3t1_1,,success
Status,1472,19063896988,/g3t1_2,,running
Status,1473,19066993986,/g3t1_2,,success
Status,1474,19099884862,/g3t1_3,,running
Status,1475,19100733365,/g3t1_3,,success
Status,1476,19108754384,/g3t1_1,,running
Status,1477,19109829991,/g3t1_1,,success
Status,1478,19113544902,/g3t1_2,,running
Status,1479,19114291379,/g3t1_2,,success
Status,1480,19126368346,/g4t1,,fail
Status,1481,19149881828,/g3t1_3,,running
Status,1482,19150865326,/g3t1_3,,success
Status,1483,19159205319,/g3t1_1,,running
Status,1484,19160798585,/g3t1_1,,success
Status,1485,19163830800,/g3t1_2,,running
Status,1486,19165757290,/g3t1_2,,success
Status,1487,19200513149,/g3t1_3,,running
Status,1488,19202103271,/g3t1_3,,success
Status,1492,19209323495,/g3t1_1,,running
Status,1493,19211436621,/g3t1_1,,success
Status,1494,19214175097,/g3t1_2,,running
Status,1495,19216050408,/g3t1_2,,success
Status,1496,19227022505,/g4t1,,fail
Status,1497,19250818761,/g3t1_3,,running
Status,1498,19252484977,/g3t1_3,,success
Status,1499,19259403366,/g3t1_1,,running
Status,1500,19261019704,/g3t1_1,,success
Status,1501,19264146189,/g3t1_2,,running
Status,1502,19266097209,/g3t1_2,,success
Status,1503,19300818618,/g3t1_3,,running
Status,1504,19302560791,/g3t1_3,,success
Status,1505,19309512022,/g3t1_1,,running
Status,1506,19311605409,/g3t1_1,,success
Status,1507,19314689618,/g3t1_2,,running
Status,1508,19317082256,/g3t1_2,,success
Status,1509,19327318881,/g4t1,,fail
Status,1510,19351120792,/g3t1_3,,running
Status,1511,19352659406,/g3t1_3,,success
Status,1512,19359834113,/g3t1_1,,running
Status,1513,19361748147,/g3t1_1,,success
Status,1514,19364332944,/g3t1_2,,running
Status,1515,19366035532,/g3t1_2,,success
Status,1516,19400996417,/g3t1_3,,running
Status,1517,19402886843,/g3t1_3,,success
Status,1521,19409910385,/g3t1_1,,running
Status,1522,19412141306,/g3t1_1,,success
Status,1523,19414723766,/g3t1_2,,running
Status,1524,19416494552,/g3t1_2,,success
Status,1525,19427347588,/g4t1,,fail
Status,1526,19451263935,/g3t1_3,,running
Status,1527,19453196227,/g3t1_3,,success
Status,1528,19460801502,/g3t1_1,,running
Status,1529,19461715948,/g3t1_1,,success
Status,1530,19464762378,/g3t1_2,,running
Status,1531,19467055027,/g3t1_2,,success
Status,1532,19501206915,/g3t1_3,,running
Status,1533,19503117762,/g3t1_3,,success
Status,1534,19510304864,/g3t1_1,,running
Status,1535,19512509375,/g3t1_1,,success
Status,1536,19514847978,/g3t1_2,,running
Status,1537,19517174437,/g3t1_2,,success
Status,1538,19527156380,/g4t1,,fail
Status,1539,19550810179,/g3t1_3,,running
Status,1540,19551469946,/g3t1_3,,success
Status,1541,19559692187,/g3t1_1,,running
Status,1542,19560412958,/g3t1_1,,success
Status,1543,19564244334,/g3t1_2,,running
Status,1544,19565073086,/g3t1_2,,success
Status,1545,19601352952,/g3t1_3,,running
Status,1546,19603308987,/g3t1_3,,success
Status,1547,19610012089,/g3t1_1,,running
Status,1548,19611105828,/g3t1_1,,success
Status,1549,19614498953,/g3t1_2,,running
Status,1550,19615545033,/g3t1_2,,success
Status,1551,19626881862,/g4t1,,fail
Status,1552,19651018657,/g3t1_3,,running
Status,1553,19651659331,/g3t1_3,,success
Status,1554,19659803872,/g3t1_1,,running
Status,1555,19660587318,/g3t1_1,,success
Status,1556,19664498839,/g3t1_2,,running
Status,1557,19665082223,/g3t1_2,,success
Status,1558,19701799196,/g3t1_3,,running
Status,1559,19703731223,/g3t1_3,,success
Status,1560,19710484190,/g3t1_1,,running
Status,1561,19712602007,/g3t1_1,,success
Status,1562,19715156546,/g3t1_2,,running
Status,1563,19717666502,/g3t1_2,,success
Status,1564,19727608391,/g4t1,,fail
Status,1565,19751932413,/g3t1_3,,running
Status,1566,19753723859,/g3t1_3,,success
Status,1567,19760538882,/g3t1_1,,running
Status,1568,19762626524,/g3t1_1,,success
Status,1569,19765143919,/g3t1_2,,running
Status,1570,19767798200,/g3t1_2,,success
Status,1571,19802071820,/g3t1_3,,running
Status,1572,19803708939,/g3t1_3,,success
Status,1573,19810843606,/g3t1_1,,running
Status,1574,19812674608,/g3t1_1,,success
Status,1575,19815544174,/g3t1_2,,running
Status,1576,19817922179,/g3t1_2,,success
Status,1577,19827881849,/g4t1,,fail
Status,1578,19852278092,/g3t1_3,,running
Status,1579,19853804397,/g3t1_3,,success
Status,1580,19860851191,/g3t1_1,,running
Status,1581,19862692849,/g3t1_1,,success
Status,1582,19865540471,/g3t1_2,,running
Status,1583,19867887821,/g3t1_2,,success
Status,1584,19902310055,/g3t1_3,,running
Status,1585,19904223246,/g3t1_3,,success
Status,1586,19910790597,/g3t1_1,,running
Status,1587,19913123267,/g3t1_1,,success
Status,1588,19915599756,/g3t1_2,,running
Status,1589,19917552710,/g3t1_2,,success
Status,1590,19927898629,/g4t1,,fail
Status,1591,19952507942,/g3t1_3,,running
Status,1592,19954300204,/g3t1_3,,success
Status,1593,19961151400,/g3t1_1,,running
Status,1594,19963285226,/g3t1_1,,success
Status,1595,19965693759,/g3t1_2,,running
Status,1596,19967350627,/g3t1_2,,success
Status,1597,20002719460,/g3t1_3,,running
Status,1598,20004432885,/g3t1_3,,success
Status,1599,20011212740,/g3t1_1,,running
Status,1600,20013150389,/g3t1_1,,success
Status,1601,20016847514,/g3t1_2,,running
Status,1602,20017869936,/g3t1_2,,success
Status,1603,20028045046,/g4t1,,fail
Status,1604,20052186142,/g3t1_3,,running
Status,1605,20052833944,/g3t1_3,,success
Status,1606,20060629012,/g3t1_1,,running
Status,1607,20061385263,/g3t1_1,,success
Status,1608,20065252375,/g3t1_2,,running
Status,1609,20065861801,/g3t1_2,,success
Status,1610,20102582184,/g3t1_3,,running
Status,1611,20104084546,/g3t1_3,,success
Status,1612,20110848728,/g3t1_1,,running
Status,1613,20111705072,/g3t1_1,,success
Status,1614,20115474561,/g3t1_2,,running
Status,1615,20115944919,/g3t1_2,,success
Status,1616,20127787231,/g4t1,,fail
Status,1617,20152271285,/g3t1_3,,running
Status,1618,20152976708,/g3t1_3,,success
Status,1619,20160872620,/g3t1_1,,running
Status,1620,20161503325,/g3t1_1,,success
Status,1621,20166211997,/g3t1_2,,running
Status,1622,20167451165,/g3t1_2,,success
Status,1623,20202461486,/g3t1_3,,running
Status,1624,20203300360,/g3t1_3,,success
Status,1625,20211561395,/g3t1_1,,running
Status,1626,20212226582,/g3t1_1,,success
Status,1627,20215711008,/g3t1_2,,running
Status,1628,20216490812,/g3t1_2,,success
Status,1629,20227880965,/g4t1,,fail
Status,1630,20253143646,/g3t1_3,,running
Status,1631,20254819746,/g3t1_3,,success
Status,1632,20261835039,/g3t1_1,,running
Status,1633,20263879025,/g3t1_1,,success
Status,1634,20266330628,/g3t1_2,,running
Status,1635,20268119490,/g3t1_2,,success
Status,1636,20303183084,/g3t1_3,,running
Status,1637,20304992560,/g3t1_3,,success
Status,1638,20311887689,/g3t1_1,,running
Status,1639,20313773442,/g3t1_1,,success
Status,1640,20316235226,/g3t1_2,,running
Status,1641,20317795881,/g3t1_2,,success
Status,1642,20328543736,/g4t1,,fail
Status,1643,20353137403,/g3t1_3,,running
Status,1644,20354170418,/g3t1_3,,success
Status,1645,20361894897,/g3t1_1,,running
