
Status,1,20807583305,g4t1,,init
Status,4,25819774607,g3t1_4,,init
Status,5,25834626956,g3t1_4,,init
Status,6,25834669488,g3t1_4,,running
Status,7,25838067261,g3t1_4,,success
Status,8,26835360599,g3t1_4,,running
Status,9,26842868325,g3t1_4,,success
Status,10,27835393936,g3t1_4,,running
Status,11,27842420517,g3t1_4,,success
Status,12,28835188461,g3t1_4,,running
Status,13,28842083192,g3t1_4,,success
Status,14,29834904269,g3t1_4,,running
Status,15,29838438726,g3t1_4,,success
Status,16,30835297765,g3t1_4,,running
Status,17,30846676951,g3t1_4,,success
Status,18,31835478199,g3t1_4,,running
Status,19,31845484496,g3t1_4,,success
Status,20,32835502481,g3t1_4,,running
Status,21,32843013921,g3t1_4,,success
Status,22,33836020957,g3t1_4,,running
Status,23,33842374343,g3t1_4,,success
Status,24,34836125781,g3t1_4,,running
Status,25,34842570004,g3t1_4,,success
Status,26,35835725807,g3t1_4,,running
Status,27,35842006739,g3t1_4,,success
Status,28,36835860660,g3t1_4,,running
Status,29,36842350172,g3t1_4,,success
Status,30,37836335108,g3t1_4,,running
Status,31,37844242868,g3t1_4,,success
Status,32,38836129148,g3t1_4,,running
Status,33,38843745631,g3t1_4,,success
Status,34,39835744511,g3t1_4,,running
Status,35,39838610599,g3t1_4,,success
Status,36,40837042322,g3t1_4,,running
Status,37,40842763417,g3t1_4,,success
Status,38,41836185046,g3t1_4,,running
Status,39,41842894622,g3t1_4,,success
Status,40,42837310055,g3t1_4,,running
Status,41,42843436950,g3t1_4,,success
Status,42,43836159579,g3t1_4,,running
Status,43,43839613692,g3t1_4,,success
Status,44,44836233330,g3t1_4,,running
Status,45,44838959322,g3t1_4,,success
Status,46,45836542326,g3t1_4,,running
Status,47,45843127961,g3t1_4,,success
Status,48,46837128429,g3t1_4,,running
Status,49,46843683658,g3t1_4,,success
Status,50,47837116979,g3t1_4,,running
Status,51,47840292042,g3t1_4,,success
Status,52,48837266748,g3t1_4,,running
Status,53,48844275462,g3t1_4,,success
Status,54,49836948649,g3t1_4,,running
Status,55,49846300030,g3t1_4,,success
Status,56,50837331075,g3t1_4,,running
Status,57,50840402110,g3t1_4,,success
Status,58,51837140472,g3t1_4,,running
Status,59,51842481721,g3t1_4,,success
Status,60,52837271976,g3t1_4,,running
Status,61,52844467674,g3t1_4,,success
Status,62,53837043683,g3t1_4,,running
Status,63,53840280904,g3t1_4,,success
Status,64,54837527152,g3t1_4,,running
Status,65,54844618959,g3t1_4,,success
Status,69,55837499308,g3t1_4,,running
Status,70,55843388374,g3t1_4,,success
Status,76,56837831555,g3t1_4,,running
Status,77,56845625081,g3t1_4,,success
Status,83,57838624336,g3t1_4,,running
Status,84,57848332505,g3t1_4,,success
Status,90,58838207969,g3t1_4,,running
Status,91,58848112072,g3t1_4,,success
Status,97,59838392189,g3t1_4,,running
Status,98,59845142141,g3t1_4,,success
Status,104,60838075269,g3t1_4,,running
Status,105,60844509945,g3t1_4,,success
Status,111,61838979205,g3t1_4,,running
Status,112,61844016868,g3t1_4,,success
Status,118,62838285902,g3t1_4,,running
Status,119,62845042696,g3t1_4,,success
Status,125,63838289570,g3t1_4,,running
Status,126,63844200859,g3t1_4,,success
Status,132,64838487800,g3t1_4,,running
Status,133,64845529743,g3t1_4,,success
Status,139,65838844025,g3t1_4,,running
Status,140,65846209867,g3t1_4,,success
Status,146,66840098589,g3t1_4,,running
Status,147,66845702026,g3t1_4,,success
Status,153,67838665758,g3t1_4,,running
Status,154,67845697964,g3t1_4,,success
Status,160,68838877512,g3t1_4,,running
Status,161,68845725454,g3t1_4,,success
Status,167,69838906563,g3t1_4,,running
Status,168,69846124394,g3t1_4,,success
Status,174,70840304467,g3t1_4,,running
Status,175,70846555718,g3t1_4,,success
Status,181,71839599034,g3t1_4,,running
Status,182,71846717003,g3t1_4,,success
Status,188,72839200074,g3t1_4,,running
Status,189,72846075686,g3t1_4,,success
Status,195,73840200070,g3t1_4,,running
Status,196,73842809156,g3t1_4,,success
Status,202,74839388292,g3t1_4,,running
Status,203,74846097455,g3t1_4,,success
Status,209,75839394105,g3t1_4,,running
Status,210,75843853048,g3t1_4,,success
Status,216,76839709786,g3t1_4,,running
Status,217,76846758228,g3t1_4,,success
Status,223,77840686650,g3t1_4,,running
Status,224,77846730775,g3t1_4,,success
Status,230,78840844372,g3t1_4,,running
Status,231,78849277149,g3t1_4,,success
Status,237,79840376266,g3t1_4,,running
Status,238,79846224344,g3t1_4,,success
Status,244,80840167882,g3t1_4,,running
Status,245,80846870730,g3t1_4,,success
Status,251,81841595146,g3t1_4,,running
Status,252,81850174209,g3t1_4,,success
Status,258,82840999313,g3t1_4,,running
Status,259,82851911161,g3t1_4,,success
Status,265,83841322175,g3t1_4,,running
Status,266,83849353304,g3t1_4,,success
Status,272,84840557740,g3t1_4,,running
Status,273,84847007707,g3t1_4,,success
Status,279,85840561821,g3t1_4,,running
Status,280,85847851369,g3t1_4,,success
Status,286,86840332861,g3t1_4,,running
Status,287,86842729998,g3t1_4,,success
Status,293,87841248597,g3t1_4,,running
Status,294,87847465209,g3t1_4,,success
Status,300,88841605086,g3t1_4,,running
Status,301,88846906591,g3t1_4,,success
Status,307,89841467372,g3t1_4,,running
Status,308,89849003918,g3t1_4,,success
Status,314,90841603897,g3t1_4,,running
Status,315,90848626266,g3t1_4,,success
Status,321,91841129311,g3t1_4,,running
Status,322,91848578984,g3t1_4,,success
Status,328,92841156461,g3t1_4,,running
Status,329,92844030566,g3t1_4,,success
Status,335,93842075268,g3t1_4,,running
Status,336,93849949740,g3t1_4,,success
Status,342,94842187584,g3t1_4,,running
Status,343,94846593687,g3t1_4,,success
Status,349,95842381637,g3t1_4,,running
Status,350,95848371434,g3t1_4,,success
Status,356,96841642209,g3t1_4,,running
Status,357,96847722853,g3t1_4,,success
Status,363,97842374639,g3t1_4,,running
Status,364,97846910233,g3t1_4,,success
Status,370,98842586843,g3t1_4,,running
Status,371,98847805291,g3t1_4,,success
Status,377,99841837062,g3t1_4,,running
Status,378,99847845934,g3t1_4,,success
Status,384,100843007046,g3t1_4,,running
Status,385,100848941628,g3t1_4,,success
Status,391,101842086605,g3t1_4,,running
Status,392,101848569846,g3t1_4,,success
Status,398,102842196372,g3t1_4,,running
Status,399,102848320668,g3t1_4,,success
Status,405,103842256792,g3t1_4,,running
Status,406,103849240653,g3t1_4,,success
Status,412,104842404636,g3t1_4,,running
Status,413,104848639599,g3t1_4,,success
Status,419,105842424336,g3t1_4,,running
Status,420,105848480907,g3t1_4,,success
Status,426,106842530754,g3t1_4,,running
Status,427,106848669736,g3t1_4,,success
Status,433,107842580919,g3t1_4,,running
Status,434,107849014749,g3t1_4,,success
Status,440,108842671851,g3t1_4,,running
Status,441,108849236979,g3t1_4,,success
Status,447,109843150530,g3t1_4,,running
Status,448,109850870741,g3t1_4,,success
Status,454,110842788299,g3t1_4,,running
Status,455,110852829442,g3t1_4,,success
Status,461,111843346807,g3t1_4,,running
Status,462,111850184255,g3t1_4,,success
Status,468,112843986517,g3t1_4,,running
Status,469,112850275952,g3t1_4,,success
Status,475,113842998017,g3t1_4,,running
Status,476,113848001515,g3t1_4,,success
Status,482,114843138949,g3t1_4,,running
Status,483,114849140686,g3t1_4,,success
Status,489,115843300764,g3t1_4,,running
Status,490,115849975923,g3t1_4,,success
Status,496,116843335955,g3t1_4,,running
Status,497,116850222014,g3t1_4,,success
Status,503,117843417625,g3t1_4,,running
Status,504,117849633115,g3t1_4,,success
Status,510,118844450312,g3t1_4,,running
Status,511,118851045507,g3t1_4,,success
Status,517,119844836568,g3t1_4,,running
Status,518,119850953321,g3t1_4,,success
Status,524,120844450388,g3t1_4,,running
Status,525,120849798588,g3t1_4,,success
Status,531,121843882014,g3t1_4,,running
Status,532,121850879737,g3t1_4,,success
Status,538,122844858977,g3t1_4,,running
Status,539,122850795187,g3t1_4,,success
Status,545,123843833452,g3t1_4,,running
Status,546,123847820546,g3t1_4,,success
Status,548,123893483272,g4t1,,status
Status,554,124844326550,g3t1_4,,running
Status,555,124847456430,g3t1_4,,success
Status,561,125844118196,g3t1_4,,running
Status,562,125851075159,g3t1_4,,success
Status,568,126844425449,g3t1_4,,running
Status,569,126851148086,g3t1_4,,success
Status,575,127844438035,g3t1_4,,running
Status,576,127851495710,g3t1_4,,success
Status,582,128844461120,g3t1_4,,running
Status,583,128849980103,g3t1_4,,success
Status,589,129844581914,g3t1_4,,running
Status,590,129850040265,g3t1_4,,success
Status,596,130844704818,g3t1_4,,running
Status,597,130849934756,g3t1_4,,success
Status,603,131845009589,g3t1_4,,running
Status,604,131851851707,g3t1_4,,success
Status,610,132845481890,g3t1_4,,running
Status,611,132852304012,g3t1_4,,success
Status,617,133845643931,g3t1_4,,running
Status,618,133851630013,g3t1_4,,success
Status,624,134845610066,g3t1_4,,running
Status,625,134851114160,g3t1_4,,success
Status,631,135845258986,g3t1_4,,running
Status,632,135850022911,g3t1_4,,success
Status,638,136845398272,g3t1_4,,running
Status,639,136852361052,g3t1_4,,success
Status,645,137845551906,g3t1_4,,running
Status,646,137852524124,g3t1_4,,success
Status,652,138845437181,g3t1_4,,running
Status,653,138851036562,g3t1_4,,success
Status,659,139845429347,g3t1_4,,running
Status,660,139849536103,g3t1_4,,success
Status,666,140845654218,g3t1_4,,running
Status,667,140853867987,g3t1_4,,success
Status,673,141845766424,g3t1_4,,running
Status,674,141852101395,g3t1_4,,success
Status,680,142845948788,g3t1_4,,running
Status,681,142852079716,g3t1_4,,success
Status,687,143846978487,g3t1_4,,running
Status,688,143852916574,g3t1_4,,success
