
Status,1,20561687695,/g4t1,,init
Status,4,26171609068,/g3t1_4,,init
Status,5,26190149525,/g3t1_4,,init
Status,6,26190182437,/g3t1_4,,running
Status,7,26195508013,/g3t1_4,,success
Status,8,26390381424,/g3t1_4,,running
Status,9,26396535602,/g3t1_4,,success
Status,10,26590515886,/g3t1_4,,running
Status,11,26596773277,/g3t1_4,,success
Status,12,26790670180,/g3t1_4,,running
Status,13,26804695183,/g3t1_4,,success
Status,14,26990792442,/g3t1_4,,running
Status,15,26997098212,/g3t1_4,,success
Status,16,27191078519,/g3t1_4,,running
Status,17,27197438444,/g3t1_4,,success
Status,18,27391072039,/g3t1_4,,running
Status,19,27400316577,/g3t1_4,,success
Status,20,27591222037,/g3t1_4,,running
Status,21,27597441878,/g3t1_4,,success
Status,22,27791685329,/g3t1_4,,running
Status,23,27802642397,/g3t1_4,,success
Status,24,27991471511,/g3t1_4,,running
Status,25,28001231802,/g3t1_4,,success
Status,26,28191606873,/g3t1_4,,running
Status,27,28197988454,/g3t1_4,,success
Status,28,28391752643,/g3t1_4,,running
Status,29,28398262492,/g3t1_4,,success
Status,30,28591773536,/g3t1_4,,running
Status,31,28600581442,/g3t1_4,,success
Status,32,28791840937,/g3t1_4,,running
Status,33,28797955325,/g3t1_4,,success
Status,34,28992164541,/g3t1_4,,running
Status,35,29004777204,/g3t1_4,,success
Status,36,29192251234,/g3t1_4,,running
Status,37,29200275637,/g3t1_4,,success
Status,38,29392108055,/g3t1_4,,running
Status,39,29398306546,/g3t1_4,,success
Status,40,29592266410,/g3t1_4,,running
Status,41,29603261745,/g3t1_4,,success
Status,42,29792369019,/g3t1_4,,running
Status,43,29803607674,/g3t1_4,,success
Status,44,29992524705,/g3t1_4,,running
Status,45,29998602283,/g3t1_4,,success
Status,46,30192646748,/g3t1_4,,running
Status,47,30201097339,/g3t1_4,,success
Status,48,30392805583,/g3t1_4,,running
Status,49,30404666317,/g3t1_4,,success
Status,50,30592892225,/g3t1_4,,running
Status,51,30598629084,/g3t1_4,,success
Status,52,30793094492,/g3t1_4,,running
Status,53,30805665026,/g3t1_4,,success
Status,54,30993215918,/g3t1_4,,running
Status,55,31006969869,/g3t1_4,,success
Status,56,31193373110,/g3t1_4,,running
Status,57,31199346790,/g3t1_4,,success
Status,58,31393518679,/g3t1_4,,running
Status,59,31407585084,/g3t1_4,,success
Status,60,31593654167,/g3t1_4,,running
Status,61,31600508313,/g3t1_4,,success
Status,62,31793801827,/g3t1_4,,running
Status,63,31801913727,/g3t1_4,,success
Status,64,31993969197,/g3t1_4,,running
Status,65,32007243740,/g3t1_4,,success
Status,66,32194099860,/g3t1_4,,running
Status,67,32200239673,/g3t1_4,,success
Status,68,32394259325,/g3t1_4,,running
Status,69,32400219370,/g3t1_4,,success
Status,70,32594364998,/g3t1_4,,running
Status,71,32602889394,/g3t1_4,,success
Status,72,32794509687,/g3t1_4,,running
Status,73,32803871916,/g3t1_4,,success
Status,74,32994652314,/g3t1_4,,running
Status,75,33000925681,/g3t1_4,,success
Status,76,33194928348,/g3t1_4,,running
Status,77,33203087384,/g3t1_4,,success
Status,78,33394962649,/g3t1_4,,running
Status,79,33403797180,/g3t1_4,,success
Status,80,33595095818,/g3t1_4,,running
Status,81,33600886876,/g3t1_4,,success
Status,82,33795266723,/g3t1_4,,running
Status,83,33805809339,/g3t1_4,,success
Status,84,33995360331,/g3t1_4,,running
Status,85,34005854941,/g3t1_4,,success
Status,86,34195547494,/g3t1_4,,running
Status,87,34201762855,/g3t1_4,,success
Status,88,34395640916,/g3t1_4,,running
Status,89,34406017600,/g3t1_4,,success
Status,90,34595783650,/g3t1_4,,running
Status,91,34602732930,/g3t1_4,,success
Status,92,34795955402,/g3t1_4,,running
Status,93,34802122146,/g3t1_4,,success
Status,94,34996132670,/g3t1_4,,running
Status,95,35005262341,/g3t1_4,,success
Status,96,35196277068,/g3t1_4,,running
Status,97,35202344282,/g3t1_4,,success
Status,98,35396390828,/g3t1_4,,running
Status,99,35402420455,/g3t1_4,,success
Status,100,35596492532,/g3t1_4,,running
Status,101,35602519294,/g3t1_4,,success
Status,102,35796609431,/g3t1_4,,running
Status,103,35806144139,/g3t1_4,,success
Status,104,35996778786,/g3t1_4,,running
Status,105,36008567015,/g3t1_4,,success
Status,106,36196958802,/g3t1_4,,running
Status,107,36202930430,/g3t1_4,,success
Status,108,36397038491,/g3t1_4,,running
Status,109,36411581746,/g3t1_4,,success
Status,110,36597546488,/g3t1_4,,running
Status,111,36604075142,/g3t1_4,,success
Status,112,36797374004,/g3t1_4,,running
Status,113,36809442941,/g3t1_4,,success
Status,114,36997505902,/g3t1_4,,running
Status,115,37003511387,/g3t1_4,,success
Status,116,37197640622,/g3t1_4,,running
Status,117,37203928869,/g3t1_4,,success
Status,118,37397815863,/g3t1_4,,running
Status,119,37411707544,/g3t1_4,,success
Status,120,37598009230,/g3t1_4,,running
Status,121,37604641327,/g3t1_4,,success
Status,122,37798165607,/g3t1_4,,running
Status,123,37805388316,/g3t1_4,,success
Status,124,37998287448,/g3t1_4,,running
Status,125,38005256263,/g3t1_4,,success
Status,126,38198417488,/g3t1_4,,running
Status,127,38204269368,/g3t1_4,,success
Status,128,38398605216,/g3t1_4,,running
Status,129,38405663197,/g3t1_4,,success
Status,130,38598674885,/g3t1_4,,running
Status,131,38604885265,/g3t1_4,,success
Status,132,38798862768,/g3t1_4,,running
Status,133,38807592900,/g3t1_4,,success
Status,134,38999085275,/g3t1_4,,running
Status,135,39009810769,/g3t1_4,,success
Status,136,39199097671,/g3t1_4,,running
Status,137,39205008689,/g3t1_4,,success
Status,138,39399366797,/g3t1_4,,running
Status,139,39407280509,/g3t1_4,,success
Status,140,39599245636,/g3t1_4,,running
Status,141,39605198850,/g3t1_4,,success
Status,142,39799548669,/g3t1_4,,running
Status,143,39806722488,/g3t1_4,,success
Status,144,39999724540,/g3t1_4,,running
Status,145,40008417972,/g3t1_4,,success
Status,146,40199981475,/g3t1_4,,running
Status,147,40208073890,/g3t1_4,,success
Status,148,40399804437,/g3t1_4,,running
Status,149,40405751970,/g3t1_4,,success
Status,150,40599921297,/g3t1_4,,running
Status,151,40606288143,/g3t1_4,,success
Status,152,40800000474,/g3t1_4,,running
Status,153,40805899001,/g3t1_4,,success
Status,154,41000143824,/g3t1_4,,running
Status,155,41005743648,/g3t1_4,,success
Status,156,41200229675,/g3t1_4,,running
Status,157,41205862811,/g3t1_4,,success
Status,158,41400392445,/g3t1_4,,running
Status,159,41406228978,/g3t1_4,,success
Status,160,41600539065,/g3t1_4,,running
Status,161,41606212953,/g3t1_4,,success
Status,162,41800657305,/g3t1_4,,running
Status,163,41807402782,/g3t1_4,,success
Status,164,42000772367,/g3t1_4,,running
Status,165,42006567952,/g3t1_4,,success
Status,166,42201321425,/g3t1_4,,running
Status,167,42208878804,/g3t1_4,,success
Status,168,42401091899,/g3t1_4,,running
Status,169,42406939957,/g3t1_4,,success
Status,170,42601189776,/g3t1_4,,running
Status,171,42607248383,/g3t1_4,,success
Status,172,42801319501,/g3t1_4,,running
Status,173,42809713120,/g3t1_4,,success
Status,174,43001385401,/g3t1_4,,running
Status,175,43009324395,/g3t1_4,,success
Status,176,43201585880,/g3t1_4,,running
Status,177,43207354786,/g3t1_4,,success
Status,178,43401897342,/g3t1_4,,running
Status,179,43411236905,/g3t1_4,,success
Status,180,43601819226,/g3t1_4,,running
Status,181,43608157964,/g3t1_4,,success
Status,182,43802282455,/g3t1_4,,running
Status,183,43809298629,/g3t1_4,,success
Status,184,44001996572,/g3t1_4,,running
Status,185,44016027916,/g3t1_4,,success
Status,186,44202030989,/g3t1_4,,running
Status,187,44208096613,/g3t1_4,,success
Status,188,44402241631,/g3t1_4,,running
Status,189,44409668135,/g3t1_4,,success
Status,190,44602284483,/g3t1_4,,running
Status,191,44608739512,/g3t1_4,,success
Status,192,44802324296,/g3t1_4,,running
Status,193,44811400817,/g3t1_4,,success
Status,194,45002456644,/g3t1_4,,running
Status,195,45013221731,/g3t1_4,,success
Status,196,45202643886,/g3t1_4,,running
Status,197,45209323399,/g3t1_4,,success
Status,198,45402792994,/g3t1_4,,running
Status,199,45413079997,/g3t1_4,,success
Status,200,45587034710,/g4t1,,success
Status,201,45602865177,/g3t1_4,,running
Status,202,45608385663,/g3t1_4,,success
Status,203,45803290736,/g3t1_4,,running
Status,204,45812565570,/g3t1_4,,success
Status,205,46003170658,/g3t1_4,,running
Status,206,46011813531,/g3t1_4,,success
Status,207,46203307324,/g3t1_4,,running
Status,208,46209883984,/g3t1_4,,success
Status,209,46403401281,/g3t1_4,,running
Status,210,46409493384,/g3t1_4,,success
Status,211,46603533272,/g3t1_4,,running
Status,212,46609177303,/g3t1_4,,success
Status,213,46803668510,/g3t1_4,,running
Status,214,46815031074,/g3t1_4,,success
Status,215,47003780126,/g3t1_4,,running
Status,216,47009803863,/g3t1_4,,success
Status,217,47203926198,/g3t1_4,,running
Status,218,47209405440,/g3t1_4,,success
Status,219,47404105962,/g3t1_4,,running
Status,220,47413105056,/g3t1_4,,success
Status,221,47604123992,/g3t1_4,,running
Status,222,47614300807,/g3t1_4,,success
Status,223,47804281183,/g3t1_4,,running
Status,224,47816028044,/g3t1_4,,success
Status,225,48004395928,/g3t1_4,,running
Status,226,48009868254,/g3t1_4,,success
Status,227,48204525464,/g3t1_4,,running
Status,228,48210320389,/g3t1_4,,success
Status,229,48404546365,/g3t1_4,,running
Status,230,48414839714,/g3t1_4,,success
Status,231,48604679572,/g3t1_4,,running
Status,232,48610112590,/g3t1_4,,success
Status,233,48804932212,/g3t1_4,,running
Status,234,48812221920,/g3t1_4,,success
Status,235,49005028469,/g3t1_4,,running
Status,236,49011653200,/g3t1_4,,success
Status,237,49204893512,/g3t1_4,,running
Status,238,49211525126,/g3t1_4,,success
Status,239,49404996376,/g3t1_4,,running
Status,240,49410920124,/g3t1_4,,success
Status,241,49605103740,/g3t1_4,,running
Status,242,49610917297,/g3t1_4,,success
Status,243,49805559017,/g3t1_4,,running
Status,244,49820841975,/g3t1_4,,success
Status,245,50005309944,/g3t1_4,,running
Status,246,50011283967,/g3t1_4,,success
Status,247,50205406102,/g3t1_4,,running
Status,248,50211396278,/g3t1_4,,success
Status,249,50405456044,/g3t1_4,,running
Status,250,50411417743,/g3t1_4,,success
Status,251,50605538042,/g3t1_4,,running
Status,252,50611295766,/g3t1_4,,success
Status,253,50805624526,/g3t1_4,,running
Status,254,50811499740,/g3t1_4,,success
Status,255,51005729174,/g3t1_4,,running
Status,256,51011339869,/g3t1_4,,success
Status,257,51205866528,/g3t1_4,,running
Status,258,51212957280,/g3t1_4,,success
Status,259,51405869245,/g3t1_4,,running
Status,260,51416510763,/g3t1_4,,success
Status,261,51605946729,/g3t1_4,,running
Status,262,51611542452,/g3t1_4,,success
Status,263,51806041549,/g3t1_4,,running
Status,264,51813432783,/g3t1_4,,success
Status,265,52006146452,/g3t1_4,,running
Status,266,52019413852,/g3t1_4,,success
Status,267,52206255554,/g3t1_4,,running
Status,268,52211948408,/g3t1_4,,success
Status,269,52406311566,/g3t1_4,,running
Status,270,52416708657,/g3t1_4,,success
Status,271,52606490894,/g3t1_4,,running
Status,272,52615138019,/g3t1_4,,success
Status,273,52806809360,/g3t1_4,,running
Status,274,52812406641,/g3t1_4,,success
Status,275,53006679269,/g3t1_4,,running
Status,276,53012443844,/g3t1_4,,success
Status,277,53206612108,/g3t1_4,,running
Status,278,53214471574,/g3t1_4,,success
Status,279,53406759938,/g3t1_4,,running
Status,280,53413673978,/g3t1_4,,success
Status,281,53606800597,/g3t1_4,,running
Status,282,53612701202,/g3t1_4,,success
Status,283,53806941957,/g3t1_4,,running
Status,284,53812903095,/g3t1_4,,success
Status,285,54007027962,/g3t1_4,,running
Status,286,54012913244,/g3t1_4,,success
Status,287,54207118696,/g3t1_4,,running
Status,288,54212804704,/g3t1_4,,success
Status,289,54407170829,/g3t1_4,,running
Status,290,54413201002,/g3t1_4,,success
Status,291,54607300037,/g3t1_4,,running
Status,292,54612971059,/g3t1_4,,success
Status,293,54807402888,/g3t1_4,,running
Status,294,54814706798,/g3t1_4,,success
Status,295,55007492951,/g3t1_4,,running
Status,296,55013331748,/g3t1_4,,success
Status,297,55207585012,/g3t1_4,,running
Status,298,55213479191,/g3t1_4,,success
Status,299,55407631728,/g3t1_4,,running
Status,300,55413518746,/g3t1_4,,success
Status,302,55607762448,/g3t1_4,,running
Status,303,55613642699,/g3t1_4,,success
Status,305,55807787379,/g3t1_4,,running
Status,306,55813685905,/g3t1_4,,success
Status,308,56007925279,/g3t1_4,,running
Status,309,56013800265,/g3t1_4,,success
Status,311,56207967987,/g3t1_4,,running
Status,312,56213635917,/g3t1_4,,success
Status,314,56408064891,/g3t1_4,,running
Status,315,56414269854,/g3t1_4,,success
Status,317,56608129624,/g3t1_4,,running
Status,318,56614172784,/g3t1_4,,success
Status,320,56808242871,/g3t1_4,,running
Status,321,56814221499,/g3t1_4,,success
Status,323,57008329286,/g3t1_4,,running
Status,324,57014227440,/g3t1_4,,success
Status,326,57208440800,/g3t1_4,,running
Status,327,57213933682,/g3t1_4,,success
Status,329,57408520927,/g3t1_4,,running
Status,330,57415589064,/g3t1_4,,success
Status,332,57608709602,/g3t1_4,,running
Status,333,57614650145,/g3t1_4,,success
Status,335,57808629436,/g3t1_4,,running
Status,336,57814407388,/g3t1_4,,success
Status,338,58008929922,/g3t1_4,,running
Status,339,58014574204,/g3t1_4,,success
Status,341,58208869571,/g3t1_4,,running
Status,342,58214553904,/g3t1_4,,success
Status,344,58409206789,/g3t1_4,,running
Status,345,58414902586,/g3t1_4,,success
Status,347,58609274985,/g3t1_4,,running
Status,348,58615380755,/g3t1_4,,success
Status,350,58809457299,/g3t1_4,,running
Status,351,58817769664,/g3t1_4,,success
Status,353,59009493136,/g3t1_4,,running
Status,354,59016958521,/g3t1_4,,success
Status,356,59209680417,/g3t1_4,,running
Status,357,59215355864,/g3t1_4,,success
Status,359,59409903823,/g3t1_4,,running
Status,360,59415877616,/g3t1_4,,success
Status,362,59588390017,/g4t1,,success
Status,363,59609603844,/g3t1_4,,running
Status,364,59616296155,/g3t1_4,,success
Status,366,59810132253,/g3t1_4,,running
Status,367,59818307893,/g3t1_4,,success
Status,369,60010323932,/g3t1_4,,running
Status,370,60016597947,/g3t1_4,,success
Status,372,60210378453,/g3t1_4,,running
Status,373,60216348661,/g3t1_4,,success
Status,375,60410426209,/g3t1_4,,running
Status,376,60416299681,/g3t1_4,,success
Status,378,60588432322,/g4t1,,success
Status,379,60610288268,/g3t1_4,,running
Status,380,60616659536,/g3t1_4,,success
Status,382,60810581328,/g3t1_4,,running
Status,383,60816217774,/g3t1_4,,success
Status,385,61010764756,/g3t1_4,,running
Status,386,61016885130,/g3t1_4,,success
Status,388,61210315075,/g3t1_4,,running
Status,389,61216277592,/g3t1_4,,success
Status,391,61410939324,/g3t1_4,,running
Status,392,61416421612,/g3t1_4,,success
Status,394,61610907412,/g3t1_4,,running
Status,395,61616657753,/g3t1_4,,success
Status,397,61810659025,/g3t1_4,,running
Status,398,61817430620,/g3t1_4,,success
Status,400,62010761503,/g3t1_4,,running
Status,401,62016966699,/g3t1_4,,success
Status,403,62210947344,/g3t1_4,,running
Status,404,62217162694,/g3t1_4,,success
Status,406,62410955375,/g3t1_4,,running
Status,407,62417076239,/g3t1_4,,success
Status,409,62611293334,/g3t1_4,,running
Status,410,62617594688,/g3t1_4,,success
Status,412,62811666016,/g3t1_4,,running
Status,413,62820193024,/g3t1_4,,success
Status,415,63011129152,/g3t1_4,,running
Status,416,63017351212,/g3t1_4,,success
Status,418,63211182851,/g3t1_4,,running
Status,419,63217686691,/g3t1_4,,success
Status,421,63411788425,/g3t1_4,,running
Status,422,63417722096,/g3t1_4,,success
Status,424,63611313386,/g3t1_4,,running
Status,425,63618071691,/g3t1_4,,success
Status,427,63811438083,/g3t1_4,,running
Status,428,63817908620,/g3t1_4,,success
Status,430,64012156566,/g3t1_4,,running
Status,431,64024570737,/g3t1_4,,success
Status,433,64211730467,/g3t1_4,,running
Status,434,64218846518,/g3t1_4,,success
Status,436,64411658914,/g3t1_4,,running
Status,437,64417965092,/g3t1_4,,success
Status,439,64611733929,/g3t1_4,,running
Status,440,64618135562,/g3t1_4,,success
Status,442,64811830661,/g3t1_4,,running
Status,443,64817929608,/g3t1_4,,success
Status,445,65011927208,/g3t1_4,,running
Status,446,65018441033,/g3t1_4,,success
Status,448,65213872398,/g3t1_4,,running
Status,449,65226874889,/g3t1_4,,success
Status,451,65412300288,/g3t1_4,,running
Status,452,65418950526,/g3t1_4,,success
Status,454,65612416794,/g3t1_4,,running
Status,455,65618957406,/g3t1_4,,success
Status,457,65812631271,/g3t1_4,,running
Status,458,65819829705,/g3t1_4,,success
Status,460,66012633440,/g3t1_4,,running
Status,461,66019185412,/g3t1_4,,success
Status,463,66212732393,/g3t1_4,,running
Status,464,66219319118,/g3t1_4,,success
Status,466,66412790215,/g3t1_4,,running
Status,467,66419009662,/g3t1_4,,success
Status,469,66612866896,/g3t1_4,,running
Status,470,66619329493,/g3t1_4,,success
Status,472,66813126243,/g3t1_4,,running
Status,473,66822975939,/g3t1_4,,success
Status,475,67013102529,/g3t1_4,,running
Status,476,67023094265,/g3t1_4,,success
Status,478,67213137547,/g3t1_4,,running
Status,479,67219499118,/g3t1_4,,success
Status,481,67413333819,/g3t1_4,,running
Status,482,67423306797,/g3t1_4,,success
Status,484,67613546510,/g3t1_4,,running
Status,485,67619281736,/g3t1_4,,success
Status,487,67813604770,/g3t1_4,,running
Status,488,67821430758,/g3t1_4,,success
Status,490,68013737758,/g3t1_4,,running
Status,491,68020089129,/g3t1_4,,success
Status,493,68213769749,/g3t1_4,,running
Status,494,68220426881,/g3t1_4,,success
Status,496,68413854595,/g3t1_4,,running
Status,497,68422097271,/g3t1_4,,success
Status,499,68613788418,/g3t1_4,,running
Status,500,68619924698,/g3t1_4,,success
Status,502,68813858617,/g3t1_4,,running
Status,503,68820885031,/g3t1_4,,success
Status,505,69014073984,/g3t1_4,,running
Status,506,69020286623,/g3t1_4,,success
Status,508,69214254015,/g3t1_4,,running
Status,509,69220828014,/g3t1_4,,success
Status,511,69414266525,/g3t1_4,,running
Status,512,69420329760,/g3t1_4,,success
Status,514,69614505723,/g3t1_4,,running
Status,515,69620109184,/g3t1_4,,success
Status,517,69814547269,/g3t1_4,,running
Status,518,69821005550,/g3t1_4,,success
Status,520,70014526987,/g3t1_4,,running
Status,521,70020708311,/g3t1_4,,success
Status,523,70214562239,/g3t1_4,,running
Status,524,70220694147,/g3t1_4,,success
Status,526,70414623255,/g3t1_4,,running
Status,527,70421208187,/g3t1_4,,success
Status,529,70614703353,/g3t1_4,,running
Status,530,70620997665,/g3t1_4,,success
Status,532,70814807635,/g3t1_4,,running
Status,533,70821475740,/g3t1_4,,success
Status,535,71014927089,/g3t1_4,,running
Status,536,71021416293,/g3t1_4,,success
Status,538,71214977349,/g3t1_4,,running
Status,539,71221519805,/g3t1_4,,success
Status,541,71415056595,/g3t1_4,,running
Status,542,71421454186,/g3t1_4,,success
Status,544,71615242377,/g3t1_4,,running
Status,545,71621805754,/g3t1_4,,success
Status,547,71815258567,/g3t1_4,,running
Status,548,71821265571,/g3t1_4,,success
Status,550,72015293850,/g3t1_4,,running
Status,551,72021604679,/g3t1_4,,success
Status,553,72215405916,/g3t1_4,,running
Status,554,72221679396,/g3t1_4,,success
Status,556,72415610828,/g3t1_4,,running
Status,557,72422080984,/g3t1_4,,success
Status,559,72615764593,/g3t1_4,,running
Status,560,72626852462,/g3t1_4,,success
Status,562,72815806131,/g3t1_4,,running
Status,563,72825908946,/g3t1_4,,success
Status,565,73015988885,/g3t1_4,,running
Status,566,73026598804,/g3t1_4,,success
Status,568,73215883675,/g3t1_4,,running
Status,569,73228403844,/g3t1_4,,success
Status,571,73415920629,/g3t1_4,,running
Status,572,73422212409,/g3t1_4,,success
Status,574,73616031392,/g3t1_4,,running
Status,575,73622164788,/g3t1_4,,success
Status,577,73816160212,/g3t1_4,,running
Status,578,73822904418,/g3t1_4,,success
Status,580,74016144550,/g3t1_4,,running
Status,581,74025687580,/g3t1_4,,success
Status,583,74216316079,/g3t1_4,,running
Status,584,74226208128,/g3t1_4,,success
Status,586,74416452736,/g3t1_4,,running
Status,587,74425913503,/g3t1_4,,success
Status,589,74617142703,/g3t1_4,,running
Status,590,74626525968,/g3t1_4,,success
Status,592,74816688233,/g3t1_4,,running
Status,593,74823397000,/g3t1_4,,success
Status,595,75016819431,/g3t1_4,,running
Status,596,75023491832,/g3t1_4,,success
Status,598,75216876725,/g3t1_4,,running
Status,599,75223334345,/g3t1_4,,success
