
Status,2,20772695734,g4t1,,init
Status,3,26395762507,g3t1_1,,init
Status,5,26429941283,g3t1_1,,init
Status,6,26429971695,g3t1_1,,running
Status,7,26431013602,g3t1_1,,success
Status,9,26692042557,g3t1_2,,init
Status,10,26700349786,g3t1_2,,init
Status,11,26700380441,g3t1_2,,running
Status,12,26701159609,g3t1_2,,success
Status,13,26792780657,g3t1_4,,init
Status,15,26804389115,g3t1_4,,init
Status,16,26804447601,g3t1_4,,running
Status,17,26807448500,g3t1_4,,success
Status,18,26900772081,g3t1_2,,running
Status,19,26901903485,g3t1_2,,success
Status,20,27100894847,g3t1_2,,running
Status,21,27102288612,g3t1_2,,success
Status,22,27301051750,g3t1_2,,running
Status,23,27302376257,g3t1_2,,success
Status,24,27501145969,g3t1_2,,running
Status,25,27502547218,g3t1_2,,success
Status,26,27701253766,g3t1_2,,running
Status,27,27702589622,g3t1_2,,success
Status,28,27794814352,g4t1,,success
Status,29,27804714432,g3t1_4,,running
Status,30,27812272486,g3t1_4,,success
Status,31,27901218996,g3t1_2,,running
Status,32,27902169249,g3t1_2,,success
Status,33,28101423731,g3t1_2,,running
Status,34,28102667955,g3t1_2,,success
Status,35,28301508416,g3t1_2,,running
Status,36,28302811313,g3t1_2,,success
Status,37,28501622781,g3t1_2,,running
Status,38,28502983189,g3t1_2,,success
Status,39,28701729429,g3t1_2,,running
Status,40,28703084020,g3t1_2,,success
Status,41,28795116762,g4t1,,success
Status,42,28805487217,g3t1_4,,running
Status,43,28813806703,g3t1_4,,success
Status,44,28901736693,g3t1_2,,running
Status,45,28903797320,g3t1_2,,success
Status,46,29101844262,g3t1_2,,running
Status,47,29103168139,g3t1_2,,success
Status,48,29302432889,g3t1_2,,running
Status,49,29303602903,g3t1_2,,success
Status,50,29502595925,g3t1_2,,running
Status,51,29503746813,g3t1_2,,success
Status,52,29702666496,g3t1_2,,running
Status,53,29703863920,g3t1_2,,success
Status,54,29795503412,g4t1,,success
Status,55,29805481087,g3t1_4,,running
Status,56,29814245841,g3t1_4,,success
Status,57,29902397629,g3t1_2,,running
Status,58,29903597195,g3t1_2,,success
Status,59,30102790621,g3t1_2,,running
Status,60,30106820641,g3t1_2,,success
Status,61,30303365432,g3t1_2,,running
Status,62,30303410032,g3t1_2,,success
Status,63,30502822445,g3t1_2,,running
Status,64,30503011593,g3t1_2,,success
Status,65,30702484605,g3t1_2,,running
Status,66,30702982650,g3t1_2,,success
Status,67,30794582780,g4t1,,success
Status,68,30804784392,g3t1_4,,running
Status,69,30807464812,g3t1_4,,success
Status,70,30902828048,g3t1_2,,running
Status,71,30903574129,g3t1_2,,success
Status,72,31102823780,g3t1_2,,running
Status,73,31104225951,g3t1_2,,success
Status,74,31302941795,g3t1_2,,running
Status,75,31304264631,g3t1_2,,success
Status,76,31431236503,g3t1_1,,running
Status,77,31431507916,g3t1_1,,success
Status,78,31503006180,g3t1_2,,running
Status,79,31504309464,g3t1_2,,success
Status,80,31702730265,g3t1_2,,running
Status,81,31703433501,g3t1_2,,success
Status,82,31795128598,g4t1,,success
Status,83,31805051504,g3t1_4,,running
Status,84,31812058062,g3t1_4,,success
Status,85,31903213614,g3t1_2,,running
Status,86,31904617863,g3t1_2,,success
Status,87,32103317843,g3t1_2,,running
Status,88,32104563388,g3t1_2,,success
Status,89,32303411104,g3t1_2,,running
Status,90,32304780604,g3t1_2,,success
Status,91,32503928931,g3t1_2,,running
Status,92,32505493699,g3t1_2,,success
Status,93,32703941459,g3t1_2,,running
Status,94,32705581326,g3t1_2,,success
Status,95,32795617646,g4t1,,success
Status,96,32805914437,g3t1_4,,running
Status,97,32813166464,g3t1_4,,success
Status,98,32903723849,g3t1_2,,running
Status,99,32905069066,g3t1_2,,success
Status,100,33104169225,g3t1_2,,running
Status,101,33105514736,g3t1_2,,success
Status,102,33304161985,g3t1_2,,running
Status,103,33305442634,g3t1_2,,success
Status,104,33504355435,g3t1_2,,running
Status,105,33505744450,g3t1_2,,success
Status,106,33703703760,g3t1_2,,running
Status,107,33704142864,g3t1_2,,success
Status,108,33795198034,g4t1,,success
Status,109,33805239821,g3t1_4,,running
Status,110,33812255296,g3t1_4,,success
Status,111,33904114985,g3t1_2,,running
Status,112,33905398748,g3t1_2,,success
Status,113,34104147035,g3t1_2,,running
Status,114,34105296058,g3t1_2,,success
Status,115,34304148610,g3t1_2,,running
Status,116,34305173582,g3t1_2,,success
Status,117,34504290430,g3t1_2,,running
Status,118,34505109407,g3t1_2,,success
Status,119,34704499313,g3t1_2,,running
Status,120,34706022109,g3t1_2,,success
Status,121,34795351240,g4t1,,success
Status,122,34805436526,g3t1_4,,running
Status,123,34813933853,g3t1_4,,success
Status,124,34904571436,g3t1_2,,running
Status,125,34905817328,g3t1_2,,success
Status,126,35105526750,g3t1_2,,running
Status,127,35105842415,g3t1_2,,success
Status,128,35305093904,g3t1_2,,running
Status,129,35306440390,g3t1_2,,success
Status,130,35505218853,g3t1_2,,running
Status,131,35506659368,g3t1_2,,success
Status,132,35705925722,g3t1_2,,running
Status,133,35706263270,g3t1_2,,success
Status,134,35795973990,g4t1,,success
Status,135,35805901058,g3t1_4,,running
Status,136,35812068336,g3t1_4,,success
Status,137,35904771694,g3t1_2,,running
Status,138,35905239009,g3t1_2,,success
Status,139,36105022460,g3t1_2,,running
Status,140,36106128647,g3t1_2,,success
Status,141,36306125286,g3t1_2,,running
Status,142,36306664226,g3t1_2,,success
Status,143,36430552479,g3t1_1,,running
Status,144,36431807833,g3t1_1,,success
Status,145,36505181226,g3t1_2,,running
Status,146,36506245602,g3t1_2,,success
Status,147,36705379014,g3t1_2,,running
Status,148,36706682014,g3t1_2,,success
Status,149,36795538932,g4t1,,success
Status,150,36806330583,g3t1_4,,running
Status,151,36814020555,g3t1_4,,success
Status,152,36905571219,g3t1_2,,running
Status,153,36906818458,g3t1_2,,success
Status,154,37106005077,g3t1_2,,running
Status,155,37107598638,g3t1_2,,success
Status,156,37306207487,g3t1_2,,running
Status,157,37307227584,g3t1_2,,success
Status,158,37505949742,g3t1_2,,running
Status,159,37507298217,g3t1_2,,success
Status,160,37706402651,g3t1_2,,running
Status,161,37707642920,g3t1_2,,success
Status,162,37796110325,g4t1,,success
Status,163,37806566960,g3t1_4,,running
Status,164,37813599347,g3t1_4,,success
Status,165,37906146613,g3t1_2,,running
Status,166,37907196070,g3t1_2,,success
Status,167,38106258845,g3t1_2,,running
Status,168,38107730162,g3t1_2,,success
Status,169,38306320343,g3t1_2,,running
Status,170,38307335121,g3t1_2,,success
Status,171,38506672059,g3t1_2,,running
Status,172,38507995582,g3t1_2,,success
Status,173,38707366655,g3t1_2,,running
Status,174,38708310233,g3t1_2,,success
Status,175,38796461486,g4t1,,success
Status,176,38806782670,g3t1_4,,running
Status,177,38814317423,g3t1_4,,success
Status,178,38906610074,g3t1_2,,running
Status,179,38908018476,g3t1_2,,success
Status,180,39107129784,g3t1_2,,running
Status,181,39108729622,g3t1_2,,success
Status,182,39307400589,g3t1_2,,running
Status,183,39308427829,g3t1_2,,success
Status,184,39506932795,g3t1_2,,running
Status,185,39508205248,g3t1_2,,success
Status,186,39707409778,g3t1_2,,running
Status,187,39708670695,g3t1_2,,success
Status,188,39796642262,g4t1,,success
Status,189,39806656030,g3t1_4,,running
Status,190,39815173821,g3t1_4,,success
Status,191,39907572389,g3t1_2,,running
Status,192,39909031915,g3t1_2,,success
Status,193,40107729403,g3t1_2,,running
Status,194,40107866595,g3t1_2,,success
Status,195,40308218564,g3t1_2,,running
Status,196,40308523731,g3t1_2,,success
Status,197,40508129744,g3t1_2,,running
Status,198,40509171742,g3t1_2,,success
Status,199,40708003719,g3t1_2,,running
Status,200,40709207023,g3t1_2,,success
Status,201,40796566764,g4t1,,success
Status,202,40806930402,g3t1_4,,running
Status,203,40814587362,g3t1_4,,success
Status,204,40908101395,g3t1_2,,running
Status,205,40909306721,g3t1_2,,success
Status,206,41108292591,g3t1_2,,running
Status,207,41109545723,g3t1_2,,success
Status,208,41308446897,g3t1_2,,running
Status,209,41309674665,g3t1_2,,success
Status,210,41430943375,g3t1_1,,running
Status,211,41432082034,g3t1_1,,success
Status,212,41508190588,g3t1_2,,running
Status,213,41509356981,g3t1_2,,success
Status,214,41708241474,g3t1_2,,running
Status,215,41709425834,g3t1_2,,success
Status,216,41796194398,g4t1,,success
Status,217,41806429779,g3t1_4,,running
Status,218,41816459446,g3t1_4,,success
Status,219,41908329556,g3t1_2,,running
Status,220,41909474279,g3t1_2,,success
Status,221,42108302706,g3t1_2,,running
Status,222,42109493796,g3t1_2,,success
Status,223,42308799988,g3t1_2,,running
Status,224,42310050965,g3t1_2,,success
Status,225,42508939273,g3t1_2,,running
Status,226,42510076783,g3t1_2,,success
Status,227,42709075535,g3t1_2,,running
Status,228,42710381044,g3t1_2,,success
Status,229,42796906890,g4t1,,success
Status,230,42806675604,g3t1_4,,running
Status,231,42814654318,g3t1_4,,success
Status,232,42909189854,g3t1_2,,running
Status,233,42910502636,g3t1_2,,success
Status,234,43108901430,g3t1_2,,running
Status,235,43110149300,g3t1_2,,success
Status,236,43309094512,g3t1_2,,running
Status,237,43310329910,g3t1_2,,success
Status,238,43509986178,g3t1_2,,running
Status,239,43511299979,g3t1_2,,success
Status,240,43709951252,g3t1_2,,running
Status,241,43711372491,g3t1_2,,success
Status,242,43797061744,g4t1,,success
Status,243,43807153832,g3t1_4,,running
Status,244,43814814180,g3t1_4,,success
Status,245,43909813845,g3t1_2,,running
Status,246,43911262637,g3t1_2,,success
Status,247,44109941643,g3t1_2,,running
Status,248,44111316385,g3t1_2,,success
Status,249,44310332039,g3t1_2,,running
Status,250,44311436696,g3t1_2,,success
Status,251,44510276782,g3t1_2,,running
Status,252,44511570268,g3t1_2,,success
Status,253,44710468003,g3t1_2,,running
Status,254,44711705920,g3t1_2,,success
Status,255,44796801649,g4t1,,success
Status,256,44807363199,g3t1_4,,running
Status,257,44816019378,g3t1_4,,success
Status,258,44910108135,g3t1_2,,running
Status,259,44911214282,g3t1_2,,success
Status,260,45110155481,g3t1_2,,running
Status,261,45111369684,g3t1_2,,success
Status,262,45310617694,g3t1_2,,running
Status,263,45311826343,g3t1_2,,success
Status,264,45510327357,g3t1_2,,running
Status,265,45511614123,g3t1_2,,success
Status,266,45710707936,g3t1_2,,running
Status,267,45711861449,g3t1_2,,success
Status,268,45797195804,g4t1,,success
Status,269,45807222678,g3t1_4,,running
Status,270,45815509522,g3t1_4,,success
Status,271,45910882369,g3t1_2,,running
Status,272,45912136449,g3t1_2,,success
Status,273,46110678345,g3t1_2,,running
Status,274,46111751187,g3t1_2,,success
Status,275,46310768830,g3t1_2,,running
Status,276,46312013289,g3t1_2,,success
Status,277,46430707260,g3t1_1,,running
Status,278,46431940192,g3t1_1,,success
Status,279,46511239826,g3t1_2,,running
Status,280,46512827293,g3t1_2,,success
Status,281,46711996191,g3t1_2,,running
Status,282,46712079797,g3t1_2,,success
Status,283,46796698133,g4t1,,success
Status,284,46806849659,g3t1_4,,running
Status,285,46815951366,g3t1_4,,success
Status,286,46910984904,g3t1_2,,running
Status,287,46912072370,g3t1_2,,success
Status,288,47111323045,g3t1_2,,running
Status,289,47112524739,g3t1_2,,success
Status,290,47311138945,g3t1_2,,running
Status,291,47312357608,g3t1_2,,success
Status,292,47511196132,g3t1_2,,running
Status,293,47512347708,g3t1_2,,success
Status,294,47711674067,g3t1_2,,running
Status,295,47713233620,g3t1_2,,success
Status,296,47796991612,g4t1,,success
Status,297,47807702445,g3t1_4,,running
Status,298,47816297356,g3t1_4,,success
Status,299,47911456026,g3t1_2,,running
Status,300,47912593603,g3t1_2,,success
Status,301,48111482797,g3t1_2,,running
Status,302,48112624633,g3t1_2,,success
Status,303,48311530308,g3t1_2,,running
Status,304,48312882167,g3t1_2,,success
Status,305,48512111830,g3t1_2,,running
Status,306,48513865020,g3t1_2,,success
Status,307,48712366003,g3t1_2,,running
Status,308,48713992179,g3t1_2,,success
Status,309,48796963585,g4t1,,success
Status,310,48807729433,g3t1_4,,running
Status,311,48816044873,g3t1_4,,success
Status,312,48911976451,g3t1_2,,running
Status,313,48913026387,g3t1_2,,success
Status,314,49112034461,g3t1_2,,running
Status,315,49113329830,g3t1_2,,success
Status,316,49312563127,g3t1_2,,running
Status,317,49314280048,g3t1_2,,success
Status,318,49512562639,g3t1_2,,running
Status,319,49513925049,g3t1_2,,success
Status,320,49712784565,g3t1_2,,running
Status,321,49714113932,g3t1_2,,success
Status,322,49797120049,g4t1,,success
Status,323,49808032114,g3t1_4,,running
Status,324,49815447296,g3t1_4,,success
Status,325,49912567908,g3t1_2,,running
Status,326,49913762022,g3t1_2,,success
Status,327,50112533555,g3t1_2,,running
Status,328,50114026972,g3t1_2,,success
Status,329,50313402977,g3t1_2,,running
Status,330,50314687829,g3t1_2,,success
Status,331,50513085169,g3t1_2,,running
Status,332,50514551548,g3t1_2,,success
Status,333,50713050217,g3t1_2,,running
Status,334,50713830407,g3t1_2,,success
Status,335,50796944385,g4t1,,success
Status,336,50808027137,g3t1_4,,running
Status,337,50812730079,g3t1_4,,success
Status,338,50912845106,g3t1_2,,running
Status,339,50914000576,g3t1_2,,success
Status,340,51113218101,g3t1_2,,running
Status,341,51113245900,g3t1_2,,success
Status,342,51313035142,g3t1_2,,running
Status,343,51314419592,g3t1_2,,success
Status,344,51430730549,g3t1_1,,running
Status,345,51432026437,g3t1_1,,success
Status,346,51514286410,g3t1_2,,running
Status,347,51514344958,g3t1_2,,success
Status,348,51714221313,g3t1_2,,running
Status,349,51714499595,g3t1_2,,success
Status,350,51797880899,g4t1,,success
Status,351,51808033819,g3t1_4,,running
Status,352,51818380872,g3t1_4,,success
Status,353,51913614276,g3t1_2,,running
Status,354,51915012876,g3t1_2,,success
Status,355,52113633615,g3t1_2,,running
Status,356,52114973533,g3t1_2,,success
Status,357,52314061095,g3t1_2,,running
Status,358,52315308220,g3t1_2,,success
Status,359,52514148806,g3t1_2,,running
Status,360,52515314594,g3t1_2,,success
Status,361,52714008733,g3t1_2,,running
Status,362,52715127533,g3t1_2,,success
Status,363,52797673761,g4t1,,success
Status,364,52808344615,g3t1_4,,running
Status,365,52816773351,g3t1_4,,success
Status,366,52913844768,g3t1_2,,running
Status,367,52914878165,g3t1_2,,success
Status,368,53113852693,g3t1_2,,running
Status,369,53114605251,g3t1_2,,success
Status,370,53314124741,g3t1_2,,running
Status,371,53315244704,g3t1_2,,success
Status,372,53514646467,g3t1_2,,running
Status,373,53515888483,g3t1_2,,success
Status,374,53714974461,g3t1_2,,running
Status,375,53716268523,g3t1_2,,success
Status,376,53797858452,g4t1,,success
Status,377,53808247835,g3t1_4,,running
Status,378,53816434873,g3t1_4,,success
Status,379,53914284802,g3t1_2,,running
Status,380,53915233303,g3t1_2,,success
Status,381,54114546084,g3t1_2,,running
Status,382,54115714980,g3t1_2,,success
Status,383,54314580550,g3t1_2,,running
Status,384,54315767242,g3t1_2,,success
Status,385,54515016776,g3t1_2,,running
Status,386,54516478504,g3t1_2,,success
Status,387,54715180679,g3t1_2,,running
Status,388,54716311941,g3t1_2,,success
Status,389,54797595575,g4t1,,success
Status,390,54808455910,g3t1_4,,running
Status,391,54815210782,g3t1_4,,success
Status,392,54914777108,g3t1_2,,running
Status,393,54915935833,g3t1_2,,success
Status,394,55114982092,g3t1_2,,running
Status,395,55116128997,g3t1_2,,success
Status,396,55314943222,g3t1_2,,running
Status,397,55316149881,g3t1_2,,success
Status,398,55515466044,g3t1_2,,running
Status,399,55516850788,g3t1_2,,success
Status,400,55715647293,g3t1_2,,running
Status,401,55717216601,g3t1_2,,success
Status,402,55798050485,g4t1,,success
Status,403,55809237688,g3t1_4,,running
Status,404,55818610753,g3t1_4,,success
Status,405,55915234523,g3t1_2,,running
Status,406,55916460012,g3t1_2,,success
Status,407,56115823513,g3t1_2,,running
Status,408,56117499847,g3t1_2,,success
Status,409,56315571947,g3t1_2,,running
Status,410,56316801796,g3t1_2,,success
Status,411,56431565668,g3t1_1,,running
Status,412,56431778026,g3t1_1,,success
Status,414,56515719365,g3t1_2,,running
Status,415,56516825907,g3t1_2,,success
Status,417,56716055043,g3t1_2,,running
Status,418,56717365138,g3t1_2,,success
Status,419,56798173626,g4t1,,success
Status,420,56808515047,g3t1_4,,running
Status,421,56820467223,g3t1_4,,success
Status,423,56915805976,g3t1_2,,running
Status,424,56916925695,g3t1_2,,success
Status,426,57115933361,g3t1_2,,running
Status,427,57117270880,g3t1_2,,success
Status,429,57315965300,g3t1_2,,running
Status,430,57317168975,g3t1_2,,success
Status,432,57517158450,g3t1_2,,running
Status,433,57517231548,g3t1_2,,success
Status,435,57716163610,g3t1_2,,running
Status,436,57717326027,g3t1_2,,success
Status,437,57797926468,g4t1,,success
Status,438,57808056870,g3t1_4,,running
Status,439,57819142192,g3t1_4,,success
Status,441,57916209481,g3t1_2,,running
Status,442,57917244650,g3t1_2,,success
Status,444,58116171173,g3t1_2,,running
Status,445,58116952517,g3t1_2,,success
Status,447,58316666325,g3t1_2,,running
Status,448,58316719957,g3t1_2,,success
Status,450,58517123540,g3t1_2,,running
Status,451,58518480818,g3t1_2,,success
Status,453,58716672971,g3t1_2,,running
Status,454,58717853519,g3t1_2,,success
Status,455,58798080184,g4t1,,success
Status,456,58808109911,g3t1_4,,running
Status,457,58816681353,g3t1_4,,success
Status,459,58916424725,g3t1_2,,running
Status,460,58916934672,g3t1_2,,success
Status,462,59117033274,g3t1_2,,running
Status,463,59117164260,g3t1_2,,success
Status,465,59195716787,g4t1,,status
Status,467,59316707429,g3t1_2,,running
Status,468,59317404385,g3t1_2,,success
Status,470,59517292265,g3t1_2,,running
Status,471,59517324220,g3t1_2,,success
Status,473,59716815430,g3t1_2,,running
Status,474,59717515292,g3t1_2,,success
Status,475,59808617843,g3t1_4,,running
Status,476,59811970200,g3t1_4,,success
Status,478,59917167054,g3t1_2,,running
Status,479,59918431499,g3t1_2,,success
