
Status,1,3404614623,/g4t1,,init
Status,3,8622867168,/g3t1_1,,init
Status,5,8630109218,/g3t1_1,,init
Status,6,8630126947,/g3t1_1,,running
Status,7,8630543462,/g3t1_1,,success
Status,8,8829455771,/g3t1_2,,init
Status,10,8836256971,/g3t1_2,,init
Status,11,8836270115,/g3t1_2,,running
Status,12,8836690697,/g3t1_2,,success
Status,13,8856612188,/g3t1_2,,running
Status,14,8856692598,/g3t1_2,,success
Status,15,8876619989,/g3t1_2,,running
Status,16,8876650148,/g3t1_2,,success
Status,17,8896765042,/g3t1_2,,running
Status,18,8896781757,/g3t1_2,,success
Status,19,8916703732,/g3t1_2,,running
Status,20,8916758197,/g3t1_2,,success
Status,21,8937026000,/g3t1_2,,running
Status,22,8937045336,/g3t1_2,,success
Status,23,8956919320,/g3t1_2,,running
Status,24,8956937154,/g3t1_2,,success
Status,25,8966381953,/g3t1_3,,init
Status,27,8973686473,/g3t1_3,,init
Status,28,8973703760,/g3t1_3,,running
Status,29,8974052937,/g3t1_3,,success
Status,30,8976974674,/g3t1_2,,running
Status,31,8976986112,/g3t1_2,,success
Status,32,8996997828,/g3t1_2,,running
Status,33,8997108574,/g3t1_2,,success
Status,34,9017076812,/g3t1_2,,running
Status,35,9017093621,/g3t1_2,,success
Status,36,9037205016,/g3t1_2,,running
Status,37,9037412973,/g3t1_2,,success
Status,38,9057235354,/g3t1_2,,running
Status,39,9057346274,/g3t1_2,,success
Status,41,9066811872,/g3t1_4,,init
Status,42,9075103813,/g3t1_4,,init
Status,43,9075124763,/g3t1_4,,running
Status,44,9076289645,/g3t1_4,,success
Status,45,9077302835,/g3t1_2,,running
Status,46,9077322235,/g3t1_2,,success
Status,47,9097574477,/g3t1_2,,running
Status,48,9097595296,/g3t1_2,,success
Status,49,9117625626,/g3t1_2,,running
Status,50,9117739484,/g3t1_2,,success
Status,51,9130870743,/g3t1_1,,running
Status,52,9130911338,/g3t1_1,,success
Status,53,9137903926,/g3t1_2,,running
Status,54,9138113881,/g3t1_2,,success
Status,55,9158378390,/g3t1_2,,running
Status,56,9158733751,/g3t1_2,,success
Status,57,9175870480,/g3t1_4,,running
Status,58,9178333690,/g3t1_2,,running
Status,59,9178905297,/g3t1_2,,success
Status,60,9182800515,/g3t1_4,,success
Status,61,9198585598,/g3t1_2,,running
Status,62,9199009668,/g3t1_2,,success
Status,63,9218580587,/g3t1_2,,running
Status,64,9218912363,/g3t1_2,,success
Status,65,9223516013,/g4t1,,success
Status,66,9238733689,/g3t1_2,,running
Status,67,9239181571,/g3t1_2,,success
Status,68,9259259720,/g3t1_2,,running
Status,69,9259474865,/g3t1_2,,success
Status,70,9275931637,/g3t1_4,,running
Status,71,9278775894,/g3t1_2,,running
Status,72,9279755096,/g3t1_2,,success
Status,73,9282879152,/g3t1_4,,success
Status,74,9299129755,/g3t1_2,,running
Status,75,9299417657,/g3t1_2,,success
Status,76,9319240825,/g3t1_2,,running
Status,77,9319831671,/g3t1_2,,success
Status,78,9323371572,/g4t1,,success
Status,79,9339285711,/g3t1_2,,running
Status,80,9339691097,/g3t1_2,,success
Status,81,9359492442,/g3t1_2,,running
Status,82,9359792576,/g3t1_2,,success
Status,83,9376190222,/g3t1_4,,running
Status,84,9379686025,/g3t1_2,,running
Status,85,9380224941,/g3t1_2,,success
Status,86,9384209729,/g3t1_4,,success
Status,87,9399652559,/g3t1_2,,running
Status,88,9400415290,/g3t1_2,,success
Status,89,9420131958,/g3t1_2,,running
Status,90,9420782590,/g3t1_2,,success
Status,91,9423992543,/g4t1,,success
Status,92,9440262018,/g3t1_2,,running
Status,93,9440347390,/g3t1_2,,success
Status,94,9460387077,/g3t1_2,,running
Status,95,9460525919,/g3t1_2,,success
Status,96,9476523850,/g3t1_4,,running
Status,97,9480171808,/g3t1_2,,running
Status,98,9480690283,/g3t1_2,,success
Status,99,9484721084,/g3t1_4,,success
Status,100,9500648822,/g3t1_2,,running
Status,101,9500710557,/g3t1_2,,success
Status,102,9520767020,/g3t1_2,,running
Status,103,9521234848,/g3t1_2,,success
Status,104,9523651796,/g4t1,,success
Status,105,9541195495,/g3t1_2,,running
Status,106,9541265199,/g3t1_2,,success
Status,107,9561030993,/g3t1_2,,running
Status,108,9561739736,/g3t1_2,,success
Status,109,9576843930,/g3t1_4,,running
Status,110,9580898660,/g3t1_2,,running
Status,111,9581368110,/g3t1_2,,success
Status,112,9584640581,/g3t1_4,,success
Status,113,9601256708,/g3t1_2,,running
Status,114,9601711682,/g3t1_2,,success
Status,115,9621737827,/g3t1_2,,running
Status,116,9621799845,/g3t1_2,,success
Status,117,9623598049,/g4t1,,success
Status,118,9631087025,/g3t1_1,,running
Status,119,9631418033,/g3t1_1,,success
Status,120,9641762477,/g3t1_2,,running
Status,121,9642240338,/g3t1_2,,success
Status,122,9661507383,/g3t1_2,,running
Status,123,9661771675,/g3t1_2,,success
Status,124,9676537889,/g3t1_4,,running
Status,125,9681795993,/g3t1_2,,running
Status,126,9682053348,/g3t1_2,,success
Status,127,9683151740,/g3t1_4,,success
Status,128,9701841697,/g3t1_2,,running
Status,129,9702168528,/g3t1_2,,success
Status,130,9722096324,/g3t1_2,,running
Status,131,9722499370,/g3t1_2,,success
Status,132,9723936820,/g4t1,,success
Status,133,9742433084,/g3t1_2,,running
Status,134,9743130868,/g3t1_2,,success
Status,135,9762433367,/g3t1_2,,running
Status,136,9762838331,/g3t1_2,,success
Status,137,9777077260,/g3t1_4,,running
Status,138,9783242390,/g3t1_2,,running
Status,139,9783321792,/g3t1_2,,success
Status,140,9790918745,/g3t1_4,,success
Status,141,9802485713,/g3t1_2,,running
Status,142,9803021377,/g3t1_2,,success
Status,143,9822735162,/g3t1_2,,running
Status,144,9823139513,/g3t1_2,,success
Status,145,9823833972,/g4t1,,success
Status,146,9843027433,/g3t1_2,,running
Status,147,9843692050,/g3t1_2,,success
Status,148,9863131106,/g3t1_2,,running
Status,149,9863367280,/g3t1_2,,success
Status,150,9876952406,/g3t1_4,,running
Status,151,9883074952,/g3t1_2,,running
Status,152,9883791863,/g3t1_2,,success
Status,153,9884947639,/g3t1_4,,success
Status,154,9903563019,/g3t1_2,,running
Status,155,9904236925,/g3t1_2,,success
Status,156,9923487718,/g3t1_2,,running
Status,157,9923886007,/g3t1_2,,success
Status,158,9923948149,/g4t1,,success
Status,159,9943731888,/g3t1_2,,running
Status,160,9943793726,/g3t1_2,,success
Status,161,9963589736,/g3t1_2,,running
Status,162,9963879649,/g3t1_2,,success
Status,163,9974841785,/g3t1_3,,running
Status,164,9975243718,/g3t1_3,,success
Status,165,9976807844,/g3t1_4,,running
Status,166,9983520320,/g3t1_2,,running
Status,167,9984262941,/g3t1_4,,success
Status,168,9984327470,/g3t1_2,,success
Status,169,10004277485,/g3t1_2,,running
Status,170,10004845368,/g3t1_2,,success
Status,171,10024327980,/g3t1_2,,running
Status,172,10024391767,/g4t1,,success
Status,173,10024512768,/g3t1_2,,success
Status,174,10044267337,/g3t1_2,,running
Status,175,10044683278,/g3t1_2,,success
Status,176,10064255058,/g3t1_2,,running
Status,177,10064321679,/g3t1_2,,success
Status,178,10077167723,/g3t1_4,,running
Status,179,10084059133,/g3t1_4,,success
Status,180,10084131628,/g3t1_2,,running
Status,181,10084631998,/g3t1_2,,success
Status,182,10104388978,/g3t1_2,,running
Status,183,10105228496,/g3t1_2,,success
Status,184,10124390836,/g4t1,,success
Status,185,10124522432,/g3t1_2,,running
Status,186,10125293458,/g3t1_2,,success
Status,187,10131276020,/g3t1_1,,running
Status,188,10131596923,/g3t1_1,,success
Status,189,10144873956,/g3t1_2,,running
Status,190,10145091052,/g3t1_2,,success
Status,191,10164887052,/g3t1_2,,running
Status,192,10165450881,/g3t1_2,,success
Status,193,10177296667,/g3t1_4,,running
Status,194,10184728894,/g3t1_2,,running
Status,195,10186033924,/g3t1_2,,success
Status,196,10191595192,/g3t1_4,,success
Status,197,10205167315,/g3t1_2,,running
Status,198,10205553586,/g3t1_2,,success
Status,199,10224730404,/g4t1,,success
Status,200,10225228972,/g3t1_2,,running
Status,201,10225698113,/g3t1_2,,success
Status,202,10245462229,/g3t1_2,,running
Status,203,10245601589,/g3t1_2,,success
Status,204,10265464383,/g3t1_2,,running
Status,205,10266067040,/g3t1_2,,success
Status,206,10277286997,/g3t1_4,,running
Status,207,10285340774,/g3t1_2,,running
Status,208,10286061524,/g3t1_2,,success
Status,209,10286638478,/g3t1_4,,success
Status,210,10305613448,/g3t1_2,,running
Status,211,10306138833,/g3t1_2,,success
Status,212,10324701184,/g4t1,,success
Status,213,10325497048,/g3t1_2,,running
Status,214,10325960354,/g3t1_2,,success
Status,215,10345902137,/g3t1_2,,running
Status,216,10346038867,/g3t1_2,,success
Status,217,10366002992,/g3t1_2,,running
Status,218,10366464204,/g3t1_2,,success
Status,219,10377530700,/g3t1_4,,running
Status,220,10385138584,/g3t1_4,,success
Status,221,10385995475,/g3t1_2,,running
Status,222,10386360562,/g3t1_2,,success
Status,223,10406552953,/g3t1_2,,running
Status,224,10406634324,/g3t1_2,,success
Status,225,10424864715,/g4t1,,success
Status,226,10426087381,/g3t1_2,,running
Status,227,10426707770,/g3t1_2,,success
Status,228,10446458417,/g3t1_2,,running
Status,229,10446575445,/g3t1_2,,success
Status,230,10466911566,/g3t1_2,,running
Status,231,10466971982,/g3t1_2,,success
Status,232,10477729197,/g3t1_4,,running
Status,233,10485844966,/g3t1_4,,success
Status,234,10487191247,/g3t1_2,,running
Status,235,10487443701,/g3t1_2,,success
Status,236,10507347642,/g3t1_2,,running
Status,237,10507412315,/g3t1_2,,success
Status,238,10524942425,/g4t1,,success
Status,239,10526825494,/g3t1_2,,running
Status,240,10527445030,/g3t1_2,,success
Status,241,10546552069,/g3t1_2,,running
Status,242,10546701809,/g3t1_2,,success
Status,243,10566704314,/g3t1_2,,running
Status,244,10566898112,/g3t1_2,,success
Status,245,10577733248,/g3t1_4,,running
Status,246,10587240299,/g3t1_4,,success
Status,247,10587298829,/g3t1_2,,running
Status,248,10587867956,/g3t1_2,,success
Status,249,10607675210,/g3t1_2,,running
Status,250,10607741918,/g3t1_2,,success
Status,251,10625206423,/g4t1,,success
Status,252,10627438035,/g3t1_2,,running
Status,253,10627827945,/g3t1_2,,success
Status,254,10631207344,/g3t1_1,,running
Status,255,10631851806,/g3t1_1,,success
Status,256,10647724446,/g3t1_2,,running
Status,257,10648203705,/g3t1_2,,success
Status,258,10667793420,/g3t1_2,,running
Status,259,10668308931,/g3t1_2,,success
Status,260,10677824457,/g3t1_4,,running
Status,261,10686094793,/g3t1_4,,success
Status,262,10687705334,/g3t1_2,,running
Status,263,10688684047,/g3t1_2,,success
Status,264,10707983214,/g3t1_2,,running
Status,265,10708353505,/g3t1_2,,success
Status,266,10725575675,/g4t1,,success
Status,267,10727974457,/g3t1_2,,running
Status,268,10728355903,/g3t1_2,,success
Status,269,10748140432,/g3t1_2,,running
Status,270,10748594452,/g3t1_2,,success
Status,271,10768420132,/g3t1_2,,running
Status,272,10768592364,/g3t1_2,,success
Status,273,10777784160,/g3t1_4,,running
Status,274,10785546426,/g3t1_4,,success
Status,275,10788349171,/g3t1_2,,running
Status,276,10788823615,/g3t1_2,,success
Status,277,10808804245,/g3t1_2,,running
Status,278,10809179844,/g3t1_2,,success
Status,279,10825440706,/g4t1,,success
Status,280,10828763383,/g3t1_2,,running
Status,281,10829229796,/g3t1_2,,success
Status,282,10848958973,/g3t1_2,,running
Status,283,10849485574,/g3t1_2,,success
Status,284,10869507291,/g3t1_2,,running
Status,285,10869781007,/g3t1_2,,success
Status,286,10877781905,/g3t1_4,,running
Status,287,10884567805,/g3t1_4,,success
Status,288,10889450611,/g3t1_2,,running
Status,289,10889940899,/g3t1_2,,success
Status,290,10909483088,/g3t1_2,,running
Status,291,10909897835,/g3t1_2,,success
Status,292,10925874273,/g4t1,,success
Status,293,10929494021,/g3t1_2,,running
Status,294,10929954445,/g3t1_2,,success
Status,295,10949744216,/g3t1_2,,running
Status,296,10950040915,/g3t1_2,,success
Status,297,10969984262,/g3t1_2,,running
Status,298,10970050545,/g3t1_2,,success
Status,299,10974579794,/g3t1_3,,running
Status,300,10975242150,/g3t1_3,,success
Status,301,10978048586,/g3t1_4,,running
Status,302,10986910256,/g3t1_4,,success
Status,303,10989927123,/g3t1_2,,running
Status,304,10990124463,/g3t1_2,,success
Status,305,11010029232,/g3t1_2,,running
Status,306,11010431319,/g3t1_2,,success
Status,307,11025958105,/g4t1,,success
Status,308,11030034176,/g3t1_2,,running
Status,309,11030866368,/g3t1_2,,success
Status,310,11050347237,/g3t1_2,,running
Status,311,11050924202,/g3t1_2,,success
Status,312,11070587270,/g3t1_2,,running
Status,313,11070864481,/g3t1_2,,success
Status,314,11078072866,/g3t1_4,,running
Status,315,11085501499,/g3t1_4,,success
Status,316,11090869695,/g3t1_2,,running
Status,317,11091257029,/g3t1_2,,success
Status,318,11110822673,/g3t1_2,,running
Status,319,11111103171,/g3t1_2,,success
Status,320,11125988968,/g4t1,,success
Status,321,11130754614,/g3t1_2,,running
Status,322,11131434868,/g3t1_2,,success
Status,323,11131625910,/g3t1_1,,running
Status,324,11131833359,/g3t1_1,,success
Status,325,11150982188,/g3t1_2,,running
Status,326,11151349198,/g3t1_2,,success
Status,327,11171120972,/g3t1_2,,running
Status,328,11171527169,/g3t1_2,,success
Status,329,11178399867,/g3t1_4,,running
Status,330,11186019414,/g3t1_4,,success
Status,331,11191463280,/g3t1_2,,running
Status,332,11191760270,/g3t1_2,,success
Status,333,11211346054,/g3t1_2,,running
Status,334,11211688700,/g3t1_2,,success
Status,335,11226163665,/g4t1,,success
Status,336,11231451571,/g3t1_2,,running
Status,337,11231966280,/g3t1_2,,success
Status,338,11251624426,/g3t1_2,,running
Status,339,11252157761,/g3t1_2,,success
Status,340,11271942264,/g3t1_2,,running
Status,341,11272007856,/g3t1_2,,success
Status,342,11278587261,/g3t1_4,,running
Status,343,11285845563,/g3t1_4,,success
Status,344,11292130596,/g3t1_2,,running
Status,345,11292564612,/g3t1_2,,success
Status,346,11312260334,/g3t1_2,,running
Status,347,11312625380,/g3t1_2,,success
Status,348,11326223319,/g4t1,,success
Status,349,11332202005,/g3t1_2,,running
Status,350,11333105924,/g3t1_2,,success
Status,351,11352548209,/g3t1_2,,running
Status,352,11352875914,/g3t1_2,,success
Status,353,11372536131,/g3t1_2,,running
Status,354,11372910122,/g3t1_2,,success
Status,355,11378456526,/g3t1_4,,running
Status,356,11386167556,/g3t1_4,,success
Status,357,11392756025,/g3t1_2,,running
Status,358,11393625379,/g3t1_2,,success
Status,359,11413101280,/g3t1_2,,running
Status,360,11413508979,/g3t1_2,,success
Status,361,11426371697,/g4t1,,success
Status,362,11433093212,/g3t1_2,,running
Status,363,11433747348,/g3t1_2,,success
Status,364,11453102408,/g3t1_2,,running
Status,365,11453408006,/g3t1_2,,success
Status,366,11473716920,/g3t1_2,,running
Status,367,11474158487,/g3t1_2,,success
Status,368,11480150719,/g3t1_4,,running
Status,369,11486282595,/g3t1_4,,success
Status,370,11493520855,/g3t1_2,,running
Status,371,11493614341,/g3t1_2,,success
Status,372,11513606790,/g3t1_2,,running
Status,373,11514148474,/g3t1_2,,success
Status,374,11526542437,/g4t1,,success
Status,375,11533641104,/g3t1_2,,running
Status,376,11534039528,/g3t1_2,,success
Status,377,11553845289,/g3t1_2,,running
Status,378,11554233334,/g3t1_2,,success
Status,379,11574128606,/g3t1_2,,running
Status,380,11574312655,/g3t1_2,,success
Status,381,11578785368,/g3t1_4,,running
Status,382,11586267054,/g3t1_4,,success
Status,383,11593591760,/g3t1_2,,running
Status,384,11593840349,/g3t1_2,,success
Status,385,11613844218,/g3t1_2,,running
Status,386,11614153596,/g3t1_2,,success
Status,387,11626109977,/g4t1,,success
Status,388,11631744539,/g3t1_1,,running
Status,389,11632390162,/g3t1_1,,success
Status,390,11634114164,/g3t1_2,,running
Status,391,11634519543,/g3t1_2,,success
Status,392,11654486662,/g3t1_2,,running
Status,393,11654555028,/g3t1_2,,success
Status,394,11674771561,/g3t1_2,,running
Status,395,11675162057,/g3t1_2,,success
Status,396,11678872852,/g3t1_4,,running
Status,397,11686243282,/g3t1_4,,success
Status,398,11694567511,/g3t1_2,,running
Status,399,11694952158,/g3t1_2,,success
Status,400,11714745256,/g3t1_2,,running
Status,401,11715055286,/g3t1_2,,success
Status,402,11726603484,/g4t1,,success
Status,403,11734761175,/g3t1_2,,running
Status,404,11735167440,/g3t1_2,,success
Status,405,11754332533,/g3t1_2,,running
Status,406,11754449679,/g3t1_2,,success
Status,407,11775760534,/g3t1_2,,running
Status,408,11775848148,/g3t1_2,,success
Status,409,11778989397,/g3t1_4,,running
Status,410,11793202996,/g3t1_4,,success
Status,411,11795009223,/g3t1_2,,running
Status,412,11795653770,/g3t1_2,,success
Status,413,11814699878,/g3t1_2,,running
Status,414,11815027388,/g3t1_2,,success
Status,415,11826042702,/g4t1,,success
Status,416,11834695430,/g3t1_2,,running
Status,417,11834823096,/g3t1_2,,success
Status,418,11854706069,/g3t1_2,,running
Status,419,11854842736,/g3t1_2,,success
Status,420,11874831506,/g3t1_2,,running
Status,421,11874923950,/g3t1_2,,success
Status,422,11878349032,/g3t1_4,,running
Status,423,11880205258,/g3t1_4,,success
Status,424,11894999347,/g3t1_2,,running
Status,425,11895122698,/g3t1_2,,success
Status,426,11915108112,/g3t1_2,,running
Status,427,11915237805,/g3t1_2,,success
Status,428,11926531076,/g4t1,,success
Status,429,11936080016,/g3t1_2,,running
Status,430,11936388695,/g3t1_2,,success
Status,431,11956886928,/g3t1_2,,running
Status,432,11956971511,/g3t1_2,,success
Status,433,11975082857,/g3t1_3,,running
Status,434,11975651463,/g3t1_3,,success
Status,435,11976087771,/g3t1_2,,running
Status,436,11976713829,/g3t1_2,,success
Status,437,11979105544,/g3t1_4,,running
Status,438,11986403876,/g3t1_4,,success
Status,439,11996276083,/g3t1_2,,running
Status,440,11996587041,/g3t1_2,,success
Status,441,12016234459,/g3t1_2,,running
Status,442,12016964973,/g3t1_2,,success
Status,443,12027110299,/g4t1,,success
Status,444,12036567279,/g3t1_2,,running
Status,445,12036863250,/g3t1_2,,success
Status,446,12057275340,/g3t1_2,,running
Status,447,12057786350,/g3t1_2,,success
Status,448,12076821477,/g3t1_2,,running
Status,449,12077151264,/g3t1_2,,success
Status,450,12079253313,/g3t1_4,,running
Status,451,12089829722,/g3t1_4,,success
Status,452,12097055182,/g3t1_2,,running
Status,453,12097144789,/g3t1_2,,success
Status,454,12117045635,/g3t1_2,,running
Status,455,12117741017,/g3t1_2,,success
Status,456,12127324813,/g4t1,,success
Status,457,12131639784,/g3t1_1,,running
Status,458,12132031192,/g3t1_1,,success
Status,459,12136978206,/g3t1_2,,running
Status,460,12137271242,/g3t1_2,,success
Status,461,12157716926,/g3t1_2,,running
Status,462,12157783611,/g3t1_2,,success
Status,463,12177577201,/g3t1_2,,running
Status,464,12177815219,/g3t1_2,,success
Status,465,12178983273,/g3t1_4,,running
Status,466,12186010494,/g3t1_4,,success
Status,467,12197903267,/g3t1_2,,running
Status,468,12198282973,/g3t1_2,,success
Status,469,12217952168,/g3t1_2,,running
Status,470,12218298097,/g3t1_2,,success
Status,471,12227035984,/g4t1,,success
Status,472,12237759812,/g3t1_2,,running
Status,473,12238183929,/g3t1_2,,success
Status,474,12257920790,/g3t1_2,,running
Status,475,12258580686,/g3t1_2,,success
Status,476,12277818607,/g3t1_2,,running
Status,477,12278373635,/g3t1_2,,success
Status,478,12279173232,/g3t1_4,,running
Status,479,12287405999,/g3t1_4,,success
Status,480,12298171395,/g3t1_2,,running
Status,481,12298855558,/g3t1_2,,success
Status,482,12318521015,/g3t1_2,,running
Status,483,12319104146,/g3t1_2,,success
Status,484,12327501229,/g4t1,,success
Status,485,12338470059,/g3t1_2,,running
Status,486,12338852663,/g3t1_2,,success
Status,487,12359085167,/g3t1_2,,running
Status,488,12359408178,/g3t1_2,,success
Status,489,12378861012,/g3t1_2,,running
Status,490,12379648577,/g3t1_4,,running
Status,491,12380032264,/g3t1_2,,success
Status,492,12387261530,/g3t1_4,,success
Status,493,12398931644,/g3t1_2,,running
Status,494,12399215376,/g3t1_2,,success
Status,495,12419157847,/g3t1_2,,running
Status,496,12419226744,/g3t1_2,,success
Status,497,12427711034,/g4t1,,success
Status,498,12439429464,/g3t1_2,,running
Status,499,12439938816,/g3t1_2,,success
Status,500,12459617446,/g3t1_2,,running
Status,501,12460006296,/g3t1_2,,success
Status,502,12479628847,/g3t1_2,,running
Status,503,12479841086,/g3t1_4,,running
Status,504,12480191623,/g3t1_2,,success
Status,505,12488219554,/g3t1_4,,success
Status,506,12499780273,/g3t1_2,,running
Status,507,12499842750,/g3t1_2,,success
Status,508,12519761758,/g3t1_2,,running
Status,509,12520634452,/g3t1_2,,success
Status,510,12527958156,/g4t1,,success
Status,511,12539965291,/g3t1_2,,running
Status,512,12540201323,/g3t1_2,,success
Status,513,12559855957,/g3t1_2,,running
Status,514,12560266691,/g3t1_2,,success
Status,515,12579977964,/g3t1_4,,running
Status,516,12580069244,/g3t1_2,,running
Status,517,12580609348,/g3t1_2,,success
Status,518,12588365843,/g3t1_4,,success
Status,519,12600144180,/g3t1_2,,running
Status,520,12600627014,/g3t1_2,,success
Status,521,12620282375,/g3t1_2,,running
Status,522,12620815741,/g3t1_2,,success
Status,523,12628044314,/g4t1,,success
Status,524,12632069926,/g3t1_1,,running
Status,525,12632418710,/g3t1_1,,success
Status,526,12640432534,/g3t1_2,,running
Status,527,12640860401,/g3t1_2,,success
Status,528,12660687678,/g3t1_2,,running
Status,529,12661019843,/g3t1_2,,success
Status,530,12679978186,/g3t1_4,,running
Status,531,12680851687,/g3t1_2,,running
Status,532,12681360619,/g3t1_2,,success
Status,533,12688011046,/g3t1_4,,success
Status,534,12700826058,/g3t1_2,,running
Status,535,12701283382,/g3t1_2,,success
Status,536,12721053068,/g3t1_2,,running
Status,537,12721711364,/g3t1_2,,success
Status,538,12728051564,/g4t1,,success
Status,539,12741182276,/g3t1_2,,running
Status,540,12741550860,/g3t1_2,,success
Status,541,12761369445,/g3t1_2,,running
Status,542,12761863234,/g3t1_2,,success
Status,543,12779955906,/g3t1_4,,running
Status,544,12781277565,/g3t1_2,,running
Status,545,12782023449,/g3t1_2,,success
Status,546,12787320616,/g3t1_4,,success
Status,547,12801014490,/g3t1_2,,running
Status,548,12801376030,/g3t1_2,,success
Status,549,12821077316,/g3t1_2,,running
Status,550,12821198266,/g3t1_2,,success
Status,551,12827445341,/g4t1,,success
Status,552,12841115052,/g3t1_2,,running
Status,553,12841244639,/g3t1_2,,success
Status,554,12861819940,/g3t1_2,,running
Status,555,12862139905,/g3t1_2,,success
Status,556,12880275089,/g3t1_4,,running
Status,557,12881642151,/g3t1_2,,running
Status,558,12882418478,/g3t1_2,,success
Status,559,12890911576,/g3t1_4,,success
Status,560,12901906508,/g3t1_2,,running
Status,561,12902614629,/g3t1_2,,success
Status,562,12922016872,/g3t1_2,,running
Status,563,12922392322,/g3t1_2,,success
Status,564,12927732406,/g4t1,,success
Status,565,12941706128,/g3t1_2,,running
Status,566,12941905800,/g3t1_2,,success
Status,567,12961980272,/g3t1_2,,running
Status,568,12962019332,/g3t1_2,,success
Status,569,12974695892,/g3t1_3,,running
Status,570,12974969788,/g3t1_3,,success
Status,571,12979698561,/g3t1_4,,running
Status,572,12981976486,/g3t1_2,,running
Status,573,12982160344,/g3t1_2,,success
Status,574,12986936092,/g3t1_4,,success
Status,575,13002275364,/g3t1_2,,running
Status,576,13002314839,/g3t1_2,,success
Status,577,13022322393,/g3t1_2,,running
Status,578,13022509743,/g3t1_2,,success
Status,579,13027974868,/g4t1,,success
Status,580,13042454953,/g3t1_2,,running
Status,581,13042663761,/g3t1_2,,success
Status,582,13062759178,/g3t1_2,,running
Status,583,13063312055,/g3t1_2,,success
Status,584,13080021760,/g3t1_4,,running
Status,585,13082802063,/g3t1_2,,running
Status,586,13083021526,/g3t1_2,,success
Status,587,13090746219,/g3t1_4,,success
Status,588,13102918353,/g3t1_2,,running
Status,589,13103177152,/g3t1_2,,success
Status,590,13123338435,/g3t1_2,,running
Status,591,13123635521,/g3t1_2,,success
Status,592,13128688934,/g4t1,,success
Status,593,13131915432,/g3t1_1,,running
Status,594,13132413515,/g3t1_1,,success
Status,595,13143596887,/g3t1_2,,running
Status,596,13143654252,/g3t1_2,,success
Status,597,13164000870,/g3t1_2,,running
Status,598,13164062883,/g3t1_2,,success
Status,599,13180677610,/g3t1_4,,running
Status,600,13183831489,/g3t1_2,,running
Status,601,13184095709,/g3t1_2,,success
Status,602,13190132454,/g3t1_4,,success
Status,603,13203870793,/g3t1_2,,running
Status,604,13204181232,/g3t1_2,,success
Status,605,13224276091,/g3t1_2,,running
Status,606,13224649420,/g3t1_2,,success
Status,607,13228639088,/g4t1,,success
Status,608,13244405022,/g3t1_2,,running
Status,609,13244551295,/g3t1_2,,success
Status,610,13264687310,/g3t1_2,,running
Status,611,13264765819,/g3t1_2,,success
Status,612,13280842071,/g3t1_4,,running
Status,613,13284495333,/g3t1_2,,running
Status,614,13285313658,/g3t1_2,,success
Status,615,13288518907,/g3t1_4,,success
Status,616,13304695397,/g3t1_2,,running
Status,617,13305521909,/g3t1_2,,success
Status,618,13324805340,/g3t1_2,,running
Status,619,13325169969,/g3t1_2,,success
Status,620,13328701413,/g4t1,,success
Status,621,13344971341,/g3t1_2,,running
Status,622,13345474369,/g3t1_2,,success
Status,623,13365179337,/g3t1_2,,running
Status,624,13365641092,/g3t1_2,,success
Status,625,13380796037,/g3t1_4,,running
Status,626,13385119744,/g3t1_2,,running
Status,627,13385807789,/g3t1_2,,success
Status,628,13388720738,/g3t1_4,,success
Status,629,13405547816,/g3t1_2,,running
Status,630,13405841423,/g3t1_2,,success
Status,631,13425490507,/g3t1_2,,running
Status,632,13425906948,/g3t1_2,,success
Status,633,13428797869,/g4t1,,success
Status,634,13445579872,/g3t1_2,,running
Status,635,13446057740,/g3t1_2,,success
Status,636,13465609756,/g3t1_2,,running
Status,637,13466154814,/g3t1_2,,success
Status,638,13480979918,/g3t1_4,,running
Status,639,13485694275,/g3t1_2,,running
Status,640,13486115746,/g3t1_2,,success
Status,641,13490169887,/g3t1_4,,success
Status,642,13506035188,/g3t1_2,,running
Status,643,13506100529,/g3t1_2,,success
Status,644,13526287194,/g3t1_2,,running
Status,645,13526627859,/g3t1_2,,success
Status,646,13529043230,/g4t1,,success
Status,647,13546132288,/g3t1_2,,running
Status,648,13546694366,/g3t1_2,,success
Status,649,13566347599,/g3t1_2,,running
Status,650,13566653894,/g3t1_2,,success
Status,651,13581022440,/g3t1_4,,running
Status,652,13586455550,/g3t1_2,,running
Status,653,13586592578,/g3t1_2,,success
Status,654,13589206706,/g3t1_4,,success
Status,655,13606528135,/g3t1_2,,running
Status,656,13607129953,/g3t1_2,,success
Status,657,13626824495,/g3t1_2,,running
Status,658,13626898044,/g3t1_2,,success
Status,659,13629133540,/g4t1,,success
Status,660,13631996887,/g3t1_1,,running
Status,661,13632509381,/g3t1_1,,success
Status,662,13647083052,/g3t1_2,,running
Status,663,13647229037,/g3t1_2,,success
Status,664,13666891855,/g3t1_2,,running
Status,665,13667228482,/g3t1_2,,success
Status,666,13681224277,/g3t1_4,,running
Status,667,13687164801,/g3t1_2,,running
Status,668,13688267043,/g3t1_2,,success
Status,669,13690810335,/g3t1_4,,success
Status,670,13707158553,/g3t1_2,,running
Status,671,13707434578,/g3t1_2,,success
Status,672,13726862832,/g3t1_2,,running
Status,673,13727029583,/g3t1_2,,success
Status,674,13728644658,/g4t1,,success
Status,675,13747038842,/g3t1_2,,running
Status,676,13747343652,/g3t1_2,,success
Status,677,13767466821,/g3t1_2,,running
Status,678,13767677416,/g3t1_2,,success
Status,679,13781332312,/g3t1_4,,running
Status,680,13787767990,/g3t1_2,,running
Status,681,13788346938,/g3t1_2,,success
Status,682,13790152576,/g3t1_4,,success
Status,683,13807765784,/g3t1_2,,running
Status,684,13808181322,/g3t1_2,,success
Status,685,13827926838,/g3t1_2,,running
Status,686,13828367071,/g3t1_2,,success
Status,687,13829319092,/g4t1,,success
Status,688,13848139695,/g3t1_2,,running
Status,689,13848424335,/g3t1_2,,success
Status,690,13868274910,/g3t1_2,,running
Status,691,13868999729,/g3t1_2,,success
Status,692,13881562277,/g3t1_4,,running
Status,693,13888361546,/g3t1_2,,running
Status,694,13888932821,/g3t1_2,,success
Status,695,13889551383,/g3t1_4,,success
Status,696,13908656007,/g3t1_2,,running
Status,697,13908728763,/g3t1_2,,success
Status,698,13928617193,/g3t1_2,,running
Status,699,13928990366,/g3t1_2,,success
Status,700,13929492571,/g4t1,,success
Status,701,13948905523,/g3t1_2,,running
Status,702,13949200046,/g3t1_2,,success
Status,703,13968882641,/g3t1_2,,running
Status,704,13969169352,/g3t1_2,,success
Status,705,13975044501,/g3t1_3,,running
Status,706,13975719065,/g3t1_3,,success
Status,707,13981302589,/g3t1_4,,running
Status,708,13987457738,/g3t1_4,,success
Status,709,13988741001,/g3t1_2,,running
Status,710,13988922081,/g3t1_2,,success
Status,711,14008540025,/g3t1_2,,running
Status,712,14008714862,/g3t1_2,,success
Status,713,14028677313,/g3t1_2,,running
Status,714,14028871096,/g3t1_2,,success
Status,715,14028893089,/g4t1,,success
Status,716,14049096340,/g3t1_2,,running
Status,717,14049469020,/g3t1_2,,success
Status,718,14069662657,/g3t1_2,,running
Status,719,14070006763,/g3t1_2,,success
Status,720,14081557907,/g3t1_4,,running
Status,721,14089863428,/g3t1_4,,success
Status,722,14089953466,/g3t1_2,,running
Status,723,14090246271,/g3t1_2,,success
Status,724,14109737385,/g3t1_2,,running
Status,725,14110374763,/g3t1_2,,success
Status,726,14130012296,/g4t1,,success
Status,727,14130088433,/g3t1_2,,running
Status,728,14130269229,/g3t1_2,,success
Status,729,14132604831,/g3t1_1,,running
Status,730,14132804979,/g3t1_1,,success
Status,731,14150032978,/g3t1_2,,running
Status,732,14150413275,/g3t1_2,,success
Status,733,14170047810,/g3t1_2,,running
Status,734,14170926122,/g3t1_2,,success
Status,735,14181662277,/g3t1_4,,running
Status,736,14188746652,/g3t1_4,,success
Status,737,14190557756,/g3t1_2,,running
Status,738,14190621151,/g3t1_2,,success
Status,739,14210492096,/g3t1_2,,running
Status,740,14210890620,/g3t1_2,,success
Status,741,14229709050,/g4t1,,success
Status,742,14230467852,/g3t1_2,,running
Status,743,14231083931,/g3t1_2,,success
Status,744,14251096486,/g3t1_2,,running
Status,745,14251509538,/g3t1_2,,success
Status,746,14270795358,/g3t1_2,,running
Status,747,14271158517,/g3t1_2,,success
Status,748,14282035424,/g3t1_4,,running
Status,749,14291299239,/g3t1_2,,running
Status,750,14291746337,/g3t1_4,,success
Status,751,14291803038,/g3t1_2,,success
Status,752,14310994571,/g3t1_2,,running
Status,753,14311378889,/g3t1_2,,success
Status,754,14330117086,/g4t1,,success
Status,755,14331204514,/g3t1_2,,running
Status,756,14331909238,/g3t1_2,,success
Status,757,14351259792,/g3t1_2,,running
Status,758,14351653832,/g3t1_2,,success
Status,759,14371487406,/g3t1_2,,running
Status,760,14372101962,/g3t1_2,,success
Status,761,14382002247,/g3t1_4,,running
Status,762,14390080088,/g3t1_4,,success
Status,763,14391474790,/g3t1_2,,running
Status,764,14392147352,/g3t1_2,,success
Status,765,14411646763,/g3t1_2,,running
Status,766,14412255640,/g3t1_2,,success
Status,767,14430119546,/g4t1,,success
Status,768,14431516132,/g3t1_2,,running
Status,769,14431755282,/g3t1_2,,success
Status,770,14451858321,/g3t1_2,,running
Status,771,14452283022,/g3t1_2,,success
Status,772,14472303343,/g3t1_2,,running
Status,773,14472933191,/g3t1_2,,success
Status,774,14482359962,/g3t1_4,,running
Status,775,14489632511,/g3t1_4,,success
Status,776,14492253404,/g3t1_2,,running
Status,777,14492510103,/g3t1_2,,success
Status,778,14512546062,/g3t1_2,,running
Status,779,14512606532,/g3t1_2,,success
Status,780,14530151149,/g4t1,,success
Status,781,14532354685,/g3t1_2,,running
Status,782,14532666036,/g3t1_2,,success
Status,783,14552570013,/g3t1_2,,running
Status,784,14553018202,/g3t1_2,,success
Status,785,14572885957,/g3t1_2,,running
Status,786,14573098095,/g3t1_2,,success
Status,787,14582374511,/g3t1_4,,running
Status,788,14589962152,/g3t1_4,,success
Status,789,14592738444,/g3t1_2,,running
Status,790,14593330124,/g3t1_2,,success
Status,791,14613011553,/g3t1_2,,running
Status,792,14613569718,/g3t1_2,,success
Status,793,14630285323,/g4t1,,success
Status,794,14632239863,/g3t1_1,,running
Status,795,14632540278,/g3t1_1,,success
Status,796,14632953247,/g3t1_2,,running
Status,797,14633867767,/g3t1_2,,success
Status,798,14653221628,/g3t1_2,,running
Status,799,14653618669,/g3t1_2,,success
Status,800,14673613387,/g3t1_2,,running
Status,801,14674226017,/g3t1_2,,success
Status,802,14682419067,/g3t1_4,,running
Status,803,14689819349,/g3t1_4,,success
Status,804,14693400411,/g3t1_2,,running
Status,805,14693779661,/g3t1_2,,success
Status,806,14713508215,/g3t1_2,,running
Status,807,14714070422,/g3t1_2,,success
Status,808,14730456123,/g4t1,,success
Status,809,14733667639,/g3t1_2,,running
Status,810,14734031315,/g3t1_2,,success
Status,811,14753810665,/g3t1_2,,running
Status,812,14754356375,/g3t1_2,,success
Status,813,14774142420,/g3t1_2,,running
Status,814,14775313487,/g3t1_2,,success
Status,815,14782195517,/g3t1_4,,running
Status,816,14790949814,/g3t1_4,,success
Status,817,14793801142,/g3t1_2,,running
Status,818,14794422280,/g3t1_2,,success
Status,819,14814225088,/g3t1_2,,running
Status,820,14814973945,/g3t1_2,,success
Status,821,14830581034,/g4t1,,success
Status,822,14834237276,/g3t1_2,,running
Status,823,14834743181,/g3t1_2,,success
Status,824,14854326521,/g3t1_2,,running
Status,825,14854897867,/g3t1_2,,success
Status,826,14874791081,/g3t1_2,,running
Status,827,14875236090,/g3t1_2,,success
Status,828,14882394881,/g3t1_4,,running
Status,829,14891269118,/g3t1_4,,success
Status,830,14894520343,/g3t1_2,,running
Status,831,14894908768,/g3t1_2,,success
Status,832,14914949873,/g3t1_2,,running
Status,833,14915317801,/g3t1_2,,success
Status,834,14930589188,/g4t1,,success
Status,835,14934980321,/g3t1_2,,running
Status,836,14935251435,/g3t1_2,,success
Status,837,14954962134,/g3t1_2,,running
Status,838,14955587641,/g3t1_2,,success
Status,839,14975597740,/g3t1_3,,running
Status,840,14975776127,/g3t1_2,,running
Status,841,14975847999,/g3t1_3,,success
Status,842,14976809724,/g3t1_2,,success
Status,843,14982552416,/g3t1_4,,running
Status,844,14990971023,/g3t1_4,,success
Status,845,14995227855,/g3t1_2,,running
Status,846,14995744147,/g3t1_2,,success
Status,847,15015668754,/g3t1_2,,running
Status,848,15016096859,/g3t1_2,,success
Status,849,15030906937,/g4t1,,success
Status,850,15035754613,/g3t1_2,,running
Status,851,15035906829,/g3t1_2,,success
Status,852,15055848556,/g3t1_2,,running
Status,853,15056276098,/g3t1_2,,success
Status,854,15076015052,/g3t1_2,,running
Status,855,15076410686,/g3t1_2,,success
Status,856,15082439974,/g3t1_4,,running
Status,857,15089546508,/g3t1_4,,success
Status,858,15096245417,/g3t1_2,,running
Status,859,15096311009,/g3t1_2,,success
Status,860,15116311892,/g3t1_2,,running
Status,861,15116372415,/g3t1_2,,success
Status,862,15130937547,/g4t1,,success
Status,863,15132250899,/g3t1_1,,running
Status,864,15132674857,/g3t1_1,,success
Status,865,15136217450,/g3t1_2,,running
Status,866,15137343178,/g3t1_2,,success
Status,867,15156780226,/g3t1_2,,running
Status,868,15157105348,/g3t1_2,,success
Status,869,15176674069,/g3t1_2,,running
Status,870,15177277667,/g3t1_2,,success
Status,871,15182644600,/g3t1_4,,running
Status,872,15190598581,/g3t1_4,,success
Status,873,15196877211,/g3t1_2,,running
Status,874,15197200544,/g3t1_2,,success
Status,875,15217067365,/g3t1_2,,running
Status,876,15217154368,/g3t1_2,,success
Status,877,15231068811,/g4t1,,success
Status,878,15237229126,/g3t1_2,,running
Status,879,15237551021,/g3t1_2,,success
Status,880,15257299891,/g3t1_2,,running
Status,881,15257512964,/g3t1_2,,success
Status,882,15277410805,/g3t1_2,,running
Status,883,15277697106,/g3t1_2,,success
Status,884,15282682848,/g3t1_4,,running
Status,885,15289878704,/g3t1_4,,success
Status,886,15297699431,/g3t1_2,,running
Status,887,15298096779,/g3t1_2,,success
Status,888,15317664317,/g3t1_2,,running
Status,889,15318474601,/g3t1_2,,success
Status,890,15331278270,/g4t1,,success
Status,891,15337821672,/g3t1_2,,running
Status,892,15338569040,/g3t1_2,,success
Status,893,15358046606,/g3t1_2,,running
Status,894,15358519552,/g3t1_2,,success
Status,895,15378258525,/g3t1_2,,running
Status,896,15378325217,/g3t1_2,,success
Status,897,15383004465,/g3t1_4,,running
Status,898,15390880619,/g3t1_4,,success
Status,899,15398365988,/g3t1_2,,running
Status,900,15398593400,/g3t1_2,,success
Status,901,15418312427,/g3t1_2,,running
Status,902,15418835448,/g3t1_2,,success
Status,903,15431544974,/g4t1,,success
Status,904,15438344726,/g3t1_2,,running
Status,905,15439017890,/g3t1_2,,success
Status,906,15458747413,/g3t1_2,,running
Status,907,15459157435,/g3t1_2,,success
Status,908,15478813790,/g3t1_2,,running
Status,909,15479101140,/g3t1_2,,success
Status,910,15482966013,/g3t1_4,,running
Status,911,15491430080,/g3t1_4,,success
Status,912,15499021043,/g3t1_2,,running
Status,913,15499414119,/g3t1_2,,success
Status,914,15518893376,/g3t1_2,,running
Status,915,15519221377,/g3t1_2,,success
Status,916,15531763849,/g4t1,,success
Status,917,15539324411,/g3t1_2,,running
Status,918,15539395874,/g3t1_2,,success
Status,919,15559392895,/g3t1_2,,running
Status,920,15560063675,/g3t1_2,,success
Status,921,15579232815,/g3t1_2,,running
Status,922,15579994915,/g3t1_2,,success
Status,923,15583074307,/g3t1_4,,running
Status,924,15591519305,/g3t1_4,,success
Status,925,15599550729,/g3t1_2,,running
Status,926,15599617827,/g3t1_2,,success
Status,927,15619606211,/g3t1_2,,running
Status,928,15620079025,/g3t1_2,,success
Status,929,15631910860,/g4t1,,success
Status,930,15632378000,/g3t1_1,,running
Status,931,15633246071,/g3t1_1,,success
Status,932,15639575015,/g3t1_2,,running
Status,933,15640251290,/g3t1_2,,success
Status,934,15660109052,/g3t1_2,,running
Status,935,15660524372,/g3t1_2,,success
Status,936,15679959967,/g3t1_2,,running
Status,937,15680611491,/g3t1_2,,success
Status,938,15683409713,/g3t1_4,,running
Status,939,15697052628,/g3t1_4,,success
Status,940,15699558376,/g3t1_2,,running
Status,941,15699656104,/g3t1_2,,success
Status,942,15719920536,/g3t1_2,,running
Status,943,15719953036,/g3t1_2,,success
Status,944,15731419713,/g4t1,,success
Status,945,15740050599,/g3t1_2,,running
Status,946,15740332303,/g3t1_2,,success
Status,947,15760833391,/g3t1_2,,running
Status,948,15761226657,/g3t1_2,,success
Status,949,15780616747,/g3t1_2,,running
Status,950,15781414554,/g3t1_2,,success
Status,951,15783410337,/g3t1_4,,running
Status,952,15792150436,/g3t1_4,,success
Status,953,15801340944,/g3t1_2,,running
Status,954,15801381292,/g3t1_2,,success
Status,955,15820575796,/g3t1_2,,running
Status,956,15820604226,/g3t1_2,,success
Status,957,15831548442,/g4t1,,success
Status,958,15840581837,/g3t1_2,,running
Status,959,15840736692,/g3t1_2,,success
Status,960,15861091103,/g3t1_2,,running
Status,961,15861309461,/g3t1_2,,success
Status,962,15881559019,/g3t1_2,,running
Status,963,15881702392,/g3t1_2,,success
Status,964,15883342247,/g3t1_4,,running
Status,965,15892311145,/g3t1_4,,success
Status,966,15901523410,/g3t1_2,,running
Status,967,15901877713,/g3t1_2,,success
Status,968,15921543574,/g3t1_2,,running
Status,969,15921864400,/g3t1_2,,success
Status,970,15932378372,/g4t1,,success
Status,971,15941681397,/g3t1_2,,running
Status,972,15942096261,/g3t1_2,,success
Status,973,15961821581,/g3t1_2,,running
Status,974,15962077147,/g3t1_2,,success
Status,975,15975338981,/g3t1_3,,running
Status,976,15975511022,/g3t1_3,,success
Status,977,15981861879,/g3t1_2,,running
Status,978,15982330537,/g3t1_2,,success
Status,979,15983473945,/g3t1_4,,running
Status,980,15992113087,/g3t1_4,,success
Status,981,16002015771,/g3t1_2,,running
Status,982,16002383333,/g3t1_2,,success
Status,983,16022175124,/g3t1_2,,running
Status,984,16022697754,/g3t1_2,,success
Status,985,16032519501,/g4t1,,success
Status,986,16042250983,/g3t1_2,,running
Status,987,16042695825,/g3t1_2,,success
Status,988,16062410512,/g3t1_2,,running
Status,989,16062991551,/g3t1_2,,success
Status,990,16082570318,/g3t1_2,,running
Status,991,16082701239,/g3t1_2,,success
Status,992,16083621409,/g3t1_4,,running
Status,993,16094165455,/g3t1_4,,success
Status,994,16102480493,/g3t1_2,,running
Status,995,16102886467,/g3t1_2,,success
Status,996,16123066698,/g3t1_2,,running
Status,997,16123165294,/g3t1_2,,success
Status,998,16132767998,/g4t1,,success
Status,999,16132845063,/g3t1_1,,running
Status,1000,16133115586,/g3t1_1,,success
Status,1001,16142970844,/g3t1_2,,running
Status,1002,16143031657,/g3t1_2,,success
Status,1003,16163124626,/g3t1_2,,running
Status,1004,16163675591,/g3t1_2,,success
Status,1005,16183774846,/g3t1_2,,running
Status,1006,16183850784,/g3t1_2,,success
Status,1007,16183882341,/g3t1_4,,running
Status,1008,16193729342,/g3t1_4,,success
Status,1009,16203255286,/g3t1_2,,running
Status,1010,16203764192,/g3t1_2,,success
Status,1011,16223622457,/g3t1_2,,running
Status,1012,16224028596,/g3t1_2,,success
Status,1013,16232762470,/g4t1,,success
Status,1014,16243424322,/g3t1_2,,running
Status,1015,16244241618,/g3t1_2,,success
Status,1016,16263815447,/g3t1_2,,running
Status,1017,16264174665,/g3t1_2,,success
Status,1018,16284204333,/g3t1_2,,running
Status,1019,16284606853,/g3t1_4,,running
Status,1020,16285188409,/g3t1_2,,success
Status,1021,16294720681,/g3t1_4,,success
Status,1022,16303947342,/g3t1_2,,running
Status,1023,16304216695,/g3t1_2,,success
Status,1024,16324311335,/g3t1_2,,running
Status,1025,16324774203,/g3t1_2,,success
Status,1026,16332716674,/g4t1,,success
Status,1027,16344320818,/g3t1_2,,running
Status,1028,16344709577,/g3t1_2,,success
Status,1029,16364571023,/g3t1_2,,running
Status,1030,16364934533,/g3t1_2,,success
Status,1031,16384526743,/g3t1_4,,running
Status,1032,16385245367,/g3t1_2,,running
Status,1033,16385325063,/g3t1_2,,success
Status,1034,16393963113,/g3t1_4,,success
Status,1035,16404698887,/g3t1_2,,running
Status,1036,16405087451,/g3t1_2,,success
Status,1037,16425300397,/g3t1_2,,running
Status,1038,16425352585,/g3t1_2,,success
Status,1039,16432751492,/g4t1,,success
Status,1040,16445280957,/g3t1_2,,running
Status,1041,16445695477,/g3t1_2,,success
Status,1042,16465457404,/g3t1_2,,running
Status,1043,16465750012,/g3t1_2,,success
Status,1044,16484351385,/g3t1_4,,running
Status,1045,16485136270,/g3t1_2,,running
Status,1046,16485844516,/g3t1_2,,success
Status,1047,16493395112,/g3t1_4,,success
Status,1048,16505393712,/g3t1_2,,running
Status,1049,16505819331,/g3t1_2,,success
Status,1050,16525761597,/g3t1_2,,running
Status,1051,16525980228,/g3t1_2,,success
Status,1052,16532870630,/g4t1,,success
Status,1053,16545816953,/g3t1_2,,running
Status,1054,16546121428,/g3t1_2,,success
Status,1055,16565929328,/g3t1_2,,running
Status,1056,16566238690,/g3t1_2,,success
Status,1057,16584417766,/g3t1_4,,running
Status,1058,16585825034,/g3t1_2,,running
Status,1059,16586493897,/g3t1_2,,success
Status,1060,16593779579,/g3t1_4,,success
Status,1061,16606327460,/g3t1_2,,running
Status,1062,16606400682,/g3t1_2,,success
Status,1063,16626398893,/g3t1_2,,running
Status,1064,16626809747,/g3t1_2,,success
Status,1065,16632833202,/g3t1_1,,running
Status,1066,16633325845,/g4t1,,success
Status,1067,16633387024,/g3t1_1,,success
Status,1068,16646675888,/g3t1_2,,running
Status,1069,16646835119,/g3t1_2,,success
Status,1070,16666666255,/g3t1_2,,running
Status,1071,16667139294,/g3t1_2,,success
Status,1072,16684603896,/g3t1_4,,running
Status,1073,16686565973,/g3t1_2,,running
Status,1074,16687167633,/g3t1_2,,success
Status,1075,16694301299,/g3t1_4,,success
Status,1076,16707083168,/g3t1_2,,running
Status,1077,16707157166,/g3t1_2,,success
Status,1078,16726985607,/g3t1_2,,running
Status,1079,16727278044,/g3t1_2,,success
Status,1080,16733183704,/g4t1,,success
Status,1081,16747178157,/g3t1_2,,running
Status,1082,16747627156,/g3t1_2,,success
Status,1083,16767082196,/g3t1_2,,running
Status,1084,16767882386,/g3t1_2,,success
Status,1085,16784808241,/g3t1_4,,running
Status,1086,16787076592,/g3t1_2,,running
Status,1087,16788028473,/g3t1_2,,success
Status,1088,16796789225,/g3t1_4,,success
Status,1089,16807836613,/g3t1_2,,running
Status,1090,16808280369,/g3t1_2,,success
Status,1091,16827760156,/g3t1_2,,running
Status,1092,16828179501,/g3t1_2,,success
Status,1093,16833450585,/g4t1,,success
Status,1094,16848010519,/g3t1_2,,running
Status,1095,16848137999,/g3t1_2,,success
Status,1096,16868106090,/g3t1_2,,running
Status,1097,16868166284,/g3t1_2,,success
Status,1098,16884823086,/g3t1_4,,running
Status,1099,16887833948,/g3t1_2,,running
Status,1100,16888753942,/g3t1_2,,success
Status,1101,16892849326,/g3t1_4,,success
Status,1102,16908418795,/g3t1_2,,running
Status,1103,16908557907,/g3t1_2,,success
Status,1104,16928249501,/g3t1_2,,running
Status,1105,16928628873,/g3t1_2,,success
Status,1106,16933516088,/g4t1,,success
Status,1107,16948395385,/g3t1_2,,running
Status,1108,16948754239,/g3t1_2,,success
Status,1109,16968945668,/g3t1_2,,running
Status,1110,16969013372,/g3t1_2,,success
Status,1111,16975683304,/g3t1_3,,running
Status,1112,16976061262,/g3t1_3,,success
Status,1113,16984784442,/g3t1_4,,running
Status,1114,16988644774,/g3t1_2,,running
Status,1115,16989073262,/g3t1_2,,success
Status,1116,16992770951,/g3t1_4,,success
Status,1117,17009083067,/g3t1_2,,running
Status,1118,17009358518,/g3t1_2,,success
Status,1119,17028929260,/g3t1_2,,running
Status,1120,17029377822,/g3t1_2,,success
Status,1121,17033897685,/g4t1,,success
Status,1122,17049210541,/g3t1_2,,running
Status,1123,17049594360,/g3t1_2,,success
Status,1124,17069266845,/g3t1_2,,running
Status,1125,17069845368,/g3t1_2,,success
Status,1126,17085147445,/g3t1_4,,running
Status,1127,17089191360,/g3t1_2,,running
Status,1128,17089774209,/g3t1_2,,success
Status,1129,17092620211,/g3t1_4,,success
Status,1130,17109507286,/g3t1_2,,running
Status,1131,17109855826,/g3t1_2,,success
Status,1132,17129574878,/g3t1_2,,running
Status,1133,17130068017,/g3t1_2,,success
Status,1134,17132814180,/g3t1_1,,running
Status,1135,17133518360,/g3t1_1,,success
Status,1136,17133596486,/g4t1,,success
Status,1137,17149664022,/g3t1_2,,running
Status,1138,17150300124,/g3t1_2,,success
Status,1139,17169864303,/g3t1_2,,running
Status,1140,17170166558,/g3t1_2,,success
Status,1141,17185166073,/g3t1_4,,running
Status,1142,17189775377,/g3t1_2,,running
Status,1143,17190075721,/g3t1_2,,success
Status,1144,17192758476,/g3t1_4,,success
Status,1145,17210060439,/g3t1_2,,running
Status,1146,17210442069,/g3t1_2,,success
Status,1147,17230227913,/g3t1_2,,running
Status,1148,17230291742,/g3t1_2,,success
Status,1149,17233838340,/g4t1,,success
Status,1150,17250386020,/g3t1_2,,running
Status,1151,17250770481,/g3t1_2,,success
Status,1152,17270731629,/g3t1_2,,running
Status,1153,17270798987,/g3t1_2,,success
Status,1154,17285389957,/g3t1_4,,running
Status,1155,17290799018,/g3t1_2,,running
Status,1156,17291428724,/g3t1_2,,success
Status,1157,17294711168,/g3t1_4,,success
Status,1158,17311070648,/g3t1_2,,running
Status,1159,17311158659,/g3t1_2,,success
Status,1160,17330775162,/g3t1_2,,running
Status,1161,17331121025,/g3t1_2,,success
Status,1162,17333752179,/g4t1,,success
Status,1163,17350932225,/g3t1_2,,running
Status,1164,17351345911,/g3t1_2,,success
Status,1165,17371434017,/g3t1_2,,running
Status,1166,17371631291,/g3t1_2,,success
Status,1167,17385781039,/g3t1_4,,running
Status,1168,17391078289,/g3t1_2,,running
Status,1169,17391486306,/g3t1_2,,success
Status,1170,17393480403,/g3t1_4,,success
Status,1171,17411432394,/g3t1_2,,running
Status,1172,17411494031,/g3t1_2,,success
Status,1173,17431364465,/g3t1_2,,running
Status,1174,17431753930,/g3t1_2,,success
Status,1175,17433946564,/g4t1,,success
Status,1176,17451427534,/g3t1_2,,running
Status,1177,17451966404,/g3t1_2,,success
Status,1178,17471601810,/g3t1_2,,running
Status,1179,17471920011,/g3t1_2,,success
Status,1180,17485889658,/g3t1_4,,running
Status,1181,17491748902,/g3t1_2,,running
Status,1182,17492267927,/g3t1_2,,success
Status,1183,17492692304,/g3t1_4,,success
Status,1184,17511931419,/g3t1_2,,running
Status,1185,17512002163,/g3t1_2,,success
Status,1186,17532189231,/g3t1_2,,running
Status,1187,17532644725,/g3t1_2,,success
Status,1188,17534201106,/g4t1,,success
Status,1189,17552317853,/g3t1_2,,running
Status,1190,17552808416,/g3t1_2,,success
Status,1191,17572651350,/g3t1_2,,running
Status,1192,17573081631,/g3t1_2,,success
Status,1193,17585804497,/g3t1_4,,running
Status,1194,17592357874,/g3t1_2,,running
Status,1195,17592908427,/g3t1_2,,success
Status,1196,17594431147,/g3t1_4,,success
Status,1197,17613113060,/g3t1_2,,running
Status,1198,17613174335,/g3t1_2,,success
Status,1199,17633636510,/g3t1_2,,running
Status,1200,17633755374,/g3t1_1,,running
Status,1201,17634016460,/g3t1_1,,success
Status,1202,17634077870,/g3t1_2,,success
Status,1203,17634220141,/g4t1,,success
Status,1204,17652921407,/g3t1_2,,running
Status,1205,17653404724,/g3t1_2,,success
Status,1206,17673716405,/g3t1_2,,running
Status,1207,17674493985,/g3t1_2,,success
Status,1208,17687469708,/g3t1_4,,running
Status,1209,17693161816,/g3t1_2,,running
Status,1210,17693608286,/g3t1_2,,success
Status,1211,17693668829,/g3t1_4,,success
Status,1212,17713666800,/g3t1_2,,running
Status,1213,17713737259,/g3t1_2,,success
Status,1214,17733841951,/g3t1_2,,running
Status,1215,17734536936,/g3t1_2,,success
Status,1216,17735223115,/g4t1,,success
Status,1217,17753866757,/g3t1_2,,running
Status,1218,17754243613,/g3t1_2,,success
Status,1219,17774151694,/g3t1_2,,running
Status,1220,17774778268,/g3t1_2,,success
Status,1221,17786129381,/g3t1_4,,running
Status,1222,17793970455,/g3t1_2,,running
Status,1223,17794268162,/g3t1_2,,success
Status,1224,17798203133,/g3t1_4,,success
Status,1225,17814073548,/g3t1_2,,running
Status,1226,17814405778,/g3t1_2,,success
Status,1227,17834638489,/g3t1_2,,running
Status,1228,17834847225,/g4t1,,success
Status,1229,17834892598,/g3t1_2,,success
Status,1230,17854381368,/g3t1_2,,running
Status,1231,17854683557,/g3t1_2,,success
Status,1232,17874600931,/g3t1_2,,running
Status,1233,17874940425,/g3t1_2,,success
Status,1234,17886368370,/g3t1_4,,running
Status,1235,17894712354,/g3t1_2,,running
Status,1236,17895163301,/g3t1_2,,success
Status,1237,17895872058,/g3t1_4,,success
Status,1238,17914906747,/g3t1_2,,running
Status,1239,17914995841,/g3t1_2,,success
Status,1240,17934700520,/g4t1,,success
Status,1241,17934795206,/g3t1_2,,running
Status,1242,17935239454,/g3t1_2,,success
Status,1243,17955109910,/g3t1_2,,running
Status,1244,17955648811,/g3t1_2,,success
Status,1245,17975448922,/g3t1_2,,running
Status,1246,17975957071,/g3t1_3,,running
Status,1247,17976026792,/g3t1_2,,success
Status,1248,17976328496,/g3t1_3,,success
Status,1249,17986278126,/g3t1_4,,running
Status,1250,17995390487,/g3t1_2,,running
Status,1251,17995732656,/g3t1_2,,success
Status,1252,18009081004,/g3t1_4,,success
Status,1253,18015425640,/g3t1_2,,running
Status,1254,18016015614,/g3t1_2,,success
Status,1255,18034848873,/g4t1,,success
Status,1256,18035574717,/g3t1_2,,running
Status,1257,18036595891,/g3t1_2,,success
Status,1258,18055899970,/g3t1_2,,running
Status,1259,18056108778,/g3t1_2,,success
Status,1260,18075929455,/g3t1_2,,running
Status,1261,18076302910,/g3t1_2,,success
Status,1262,18086971823,/g3t1_4,,running
Status,1263,18094840743,/g3t1_4,,success
Status,1264,18096107899,/g3t1_2,,running
Status,1265,18096333811,/g3t1_2,,success
Status,1266,18115875778,/g3t1_2,,running
Status,1267,18116723162,/g3t1_2,,success
Status,1268,18133087863,/g3t1_1,,running
Status,1269,18133627724,/g3t1_1,,success
Status,1270,18134761305,/g4t1,,success
Status,1271,18135845144,/g3t1_2,,running
Status,1272,18136516372,/g3t1_2,,success
Status,1273,18156362581,/g3t1_2,,running
Status,1274,18156426533,/g3t1_2,,success
Status,1275,18176405766,/g3t1_2,,running
Status,1276,18176741304,/g3t1_2,,success
Status,1277,18186547967,/g3t1_4,,running
Status,1278,18194675540,/g3t1_4,,success
Status,1279,18196360284,/g3t1_2,,running
Status,1280,18196865586,/g3t1_2,,success
Status,1281,18216681545,/g3t1_2,,running
Status,1282,18217135467,/g3t1_2,,success
Status,1283,18235017776,/g4t1,,success
Status,1284,18236525792,/g3t1_2,,running
Status,1285,18237190456,/g3t1_2,,success
Status,1286,18257237375,/g3t1_2,,running
Status,1287,18257918391,/g3t1_2,,success
Status,1288,18277207840,/g3t1_2,,running
Status,1289,18277562067,/g3t1_2,,success
Status,1290,18286446794,/g3t1_4,,running
Status,1291,18296691661,/g3t1_4,,success
Status,1292,18296828822,/g3t1_2,,running
Status,1293,18297391934,/g3t1_2,,success
Status,1294,18317299522,/g3t1_2,,running
Status,1295,18318083312,/g3t1_2,,success
Status,1296,18335298906,/g4t1,,success
Status,1297,18337566084,/g3t1_2,,running
Status,1298,18337627284,/g3t1_2,,success
Status,1299,18357859780,/g3t1_2,,running
Status,1300,18358132867,/g3t1_2,,success
Status,1301,18377911164,/g3t1_2,,running
Status,1302,18378237405,/g3t1_2,,success
Status,1303,18386786401,/g3t1_4,,running
Status,1304,18395317537,/g3t1_4,,success
Status,1305,18397737073,/g3t1_2,,running
Status,1306,18398529391,/g3t1_2,,success
Status,1307,18418029580,/g3t1_2,,running
Status,1308,18418594023,/g3t1_2,,success
Status,1309,18435481018,/g4t1,,success
Status,1310,18438073101,/g3t1_2,,running
Status,1311,18438429196,/g3t1_2,,success
Status,1312,18458372414,/g3t1_2,,running
Status,1313,18459015350,/g3t1_2,,success
Status,1314,18478622710,/g3t1_2,,running
Status,1315,18478685568,/g3t1_2,,success
Status,1316,18486658864,/g3t1_4,,running
Status,1318,18495922350,/g3t1_4,,success
Status,1320,18498444138,/g3t1_2,,running
Status,1321,18499069931,/g3t1_2,,success
Status,1322,18518225460,/g3t1_2,,running
Status,1323,18518367456,/g3t1_2,,success
Status,1324,18535544634,/g4t1,,success
Status,1325,18538682734,/g3t1_2,,running
Status,1326,18538970998,/g3t1_2,,success
Status,1327,18558824309,/g3t1_2,,running
Status,1328,18559337697,/g3t1_2,,success
Status,1329,18579053529,/g3t1_2,,running
Status,1330,18579615001,/g3t1_2,,success
Status,1331,18586992924,/g3t1_4,,running
Status,1332,18595098026,/g3t1_4,,success
Status,1333,18598987833,/g3t1_2,,running
Status,1334,18599681023,/g3t1_2,,success
Status,1335,18618935013,/g3t1_2,,running
Status,1336,18619449852,/g3t1_2,,success
Status,1337,18632934709,/g3t1_1,,running
Status,1338,18633215526,/g3t1_1,,fail
Status,1339,18635097627,/g4t1,,success
Status,1340,18638905149,/g3t1_2,,running
Status,1341,18639389959,/g3t1_2,,success
Status,1342,18659591077,/g3t1_2,,running
Status,1343,18660291194,/g3t1_2,,success
Status,1344,18679665003,/g3t1_2,,running
Status,1345,18680044755,/g3t1_2,,success
Status,1346,18687072043,/g3t1_4,,running
Status,1349,18696290360,/g3t1_4,,success
Status,1350,18699578780,/g3t1_2,,running
Status,1351,18700326330,/g3t1_2,,success
Status,1352,18719865233,/g3t1_2,,running
Status,1353,18720133416,/g3t1_2,,success
Status,1354,18735523031,/g4t1,,success
Status,1355,18740054588,/g3t1_2,,running
Status,1356,18740137786,/g3t1_2,,success
Status,1357,18760112994,/g3t1_2,,running
Status,1358,18760406343,/g3t1_2,,success
Status,1359,18780168151,/g3t1_2,,running
Status,1360,18780537416,/g3t1_2,,success
Status,1361,18787173753,/g3t1_4,,running
Status,1362,18796045022,/g3t1_4,,success
Status,1363,18800248272,/g3t1_2,,running
Status,1364,18800625205,/g3t1_2,,success
Status,1365,18820571126,/g3t1_2,,running
Status,1366,18821016394,/g3t1_2,,success
Status,1367,18835942055,/g4t1,,success
Status,1368,18840693969,/g3t1_2,,running
Status,1369,18841086664,/g3t1_2,,success
Status,1370,18860912108,/g3t1_2,,running
Status,1371,18861199443,/g3t1_2,,success
Status,1372,18881170020,/g3t1_2,,running
Status,1373,18881580106,/g3t1_2,,success
Status,1374,18887156894,/g3t1_4,,running
Status,1377,18901060449,/g3t1_2,,running
Status,1378,18901387678,/g3t1_2,,success
Status,1379,18904158022,/g3t1_4,,success
Status,1380,18921611483,/g3t1_2,,running
Status,1381,18921674746,/g3t1_2,,success
Status,1382,18935873094,/g4t1,,success
Status,1383,18940936935,/g3t1_2,,running
Status,1384,18941237190,/g3t1_2,,success
Status,1385,18961289820,/g3t1_2,,running
Status,1386,18961321999,/g3t1_2,,success
Status,1387,18975263389,/g3t1_3,,running
Status,1388,18975484411,/g3t1_3,,success
Status,1389,18981088108,/g3t1_2,,running
Status,1390,18981384687,/g3t1_2,,success
Status,1391,18986872337,/g3t1_4,,running
Status,1392,18991156212,/g3t1_4,,success
Status,1393,19001385662,/g3t1_2,,running
Status,1394,19001632971,/g3t1_2,,success
Status,1395,19021568150,/g3t1_2,,running
Status,1396,19022371911,/g3t1_2,,success
Status,1397,19035851547,/g4t1,,success
Status,1398,19041900223,/g3t1_2,,running
Status,1399,19041949733,/g3t1_2,,success
Status,1400,19061807426,/g3t1_2,,running
Status,1401,19062021988,/g3t1_2,,success
Status,1402,19081967432,/g3t1_2,,running
Status,1403,19082210558,/g3t1_2,,success
Status,1404,19087519425,/g3t1_4,,running
Status,1405,19093940530,/g3t1_4,,success
Status,1408,19102260203,/g3t1_2,,running
Status,1409,19102310523,/g3t1_2,,success
Status,1410,19122169566,/g3t1_2,,running
Status,1411,19122667740,/g3t1_2,,success
Status,1412,19133248815,/g3t1_1,,running
Status,1413,19133291413,/g3t1_1,,fail
Status,1414,19135963117,/g4t1,,success
Status,1415,19142444249,/g3t1_2,,running
Status,1416,19142530912,/g3t1_2,,success
Status,1417,19162383836,/g3t1_2,,running
Status,1418,19162838949,/g3t1_2,,success
Status,1419,19182532248,/g3t1_2,,running
Status,1420,19182958562,/g3t1_2,,success
Status,1421,19187402887,/g3t1_4,,running
Status,1422,19193607707,/g3t1_4,,success
Status,1423,19202855713,/g3t1_2,,running
Status,1424,19203187074,/g3t1_2,,success
Status,1425,19222686421,/g3t1_2,,running
Status,1426,19222913249,/g3t1_2,,success
Status,1427,19235993236,/g4t1,,success
Status,1428,19242944179,/g3t1_2,,running
Status,1429,19243042347,/g3t1_2,,success
Status,1430,19263178921,/g3t1_2,,running
Status,1431,19263229223,/g3t1_2,,success
Status,1432,19283547656,/g3t1_2,,running
Status,1433,19283609930,/g3t1_2,,success
Status,1434,19287682572,/g3t1_4,,running
Status,1437,19295452783,/g3t1_4,,success
Status,1438,19303439337,/g3t1_2,,running
Status,1439,19304006507,/g3t1_2,,success
Status,1440,19323699112,/g3t1_2,,running
Status,1441,19323765371,/g3t1_2,,success
Status,1442,19336242687,/g4t1,,success
Status,1443,19343712416,/g3t1_2,,running
Status,1444,19344143130,/g3t1_2,,success
Status,1445,19363940916,/g3t1_2,,running
Status,1446,19364308035,/g3t1_2,,success
Status,1447,19384046158,/g3t1_2,,running
Status,1448,19384128615,/g3t1_2,,success
Status,1449,19387868929,/g3t1_4,,running
Status,1450,19395855108,/g3t1_4,,success
Status,1451,19404375425,/g3t1_2,,running
Status,1452,19404585770,/g3t1_2,,success
Status,1453,19424527372,/g3t1_2,,running
Status,1454,19424600379,/g3t1_2,,success
Status,1455,19436643025,/g4t1,,success
Status,1456,19444517379,/g3t1_2,,running
Status,1457,19444734067,/g3t1_2,,success
Status,1458,19464680619,/g3t1_2,,running
Status,1459,19465043492,/g3t1_2,,success
Status,1460,19484790039,/g3t1_2,,running
Status,1461,19485376081,/g3t1_2,,success
Status,1462,19488009293,/g3t1_4,,running
Status,1465,19495737759,/g3t1_4,,success
Status,1466,19504986752,/g3t1_2,,running
Status,1467,19505352184,/g3t1_2,,success
Status,1468,19524920375,/g3t1_2,,running
Status,1469,19525297331,/g3t1_2,,success
Status,1470,19536776353,/g4t1,,success
Status,1471,19545099436,/g3t1_2,,running
Status,1472,19545417864,/g3t1_2,,success
Status,1473,19565104463,/g3t1_2,,running
Status,1474,19565580168,/g3t1_2,,success
Status,1475,19585263790,/g3t1_2,,running
Status,1476,19585980023,/g3t1_2,,success
Status,1477,19587959650,/g3t1_4,,running
Status,1478,19595889591,/g3t1_4,,success
Status,1479,19605919208,/g3t1_2,,running
Status,1480,19606267635,/g3t1_2,,success
Status,1481,19625651710,/g3t1_2,,running
Status,1482,19626029680,/g3t1_2,,success
Status,1483,19633424210,/g3t1_1,,running
Status,1484,19633912997,/g3t1_1,,fail
Status,1485,19636404014,/g4t1,,success
Status,1486,19645605387,/g3t1_2,,running
Status,1487,19645846924,/g3t1_2,,success
Status,1488,19665649438,/g3t1_2,,running
Status,1489,19666284454,/g3t1_2,,success
Status,1490,19685855805,/g3t1_2,,running
Status,1491,19686141924,/g3t1_2,,success
Status,1492,19688134185,/g3t1_4,,running
Status,1495,19695324834,/g3t1_4,,success
Status,1496,19706405532,/g3t1_2,,running
Status,1497,19706478399,/g3t1_2,,success
Status,1498,19726174510,/g3t1_2,,running
Status,1499,19726700990,/g3t1_2,,success
Status,1500,19736898179,/g4t1,,success
Status,1501,19746324324,/g3t1_2,,running
Status,1502,19746406659,/g3t1_2,,success
Status,1503,19765970736,/g3t1_2,,running
Status,1504,19766252106,/g3t1_2,,success
Status,1505,19786375125,/g3t1_2,,running
Status,1506,19786593878,/g3t1_2,,success
Status,1507,19788092579,/g3t1_4,,running
Status,1508,19793659105,/g3t1_4,,success
Status,1509,19806372526,/g3t1_2,,running
Status,1510,19806795669,/g3t1_2,,success
Status,1511,19826565307,/g3t1_2,,running
Status,1512,19826605611,/g3t1_2,,success
Status,1513,19837145686,/g4t1,,success
Status,1514,19847404970,/g3t1_2,,running
Status,1515,19847710729,/g3t1_2,,success
Status,1516,19867150082,/g3t1_2,,running
Status,1517,19867557156,/g3t1_2,,success
Status,1518,19887149425,/g3t1_2,,running
Status,1519,19888525502,/g3t1_2,,success
