
Status,1,3431962527,/g4t1,,init
Status,4,8548611915,/g3t1_1,,init
Status,5,8560456270,/g3t1_1,,init
Status,6,8560478491,/g3t1_1,,running
Status,7,8561618001,/g3t1_1,,success
Status,8,8750953312,/g3t1_2,,init
Status,10,8764261930,/g3t1_2,,init
Status,11,8764285410,/g3t1_2,,running
Status,12,8765234657,/g3t1_2,,success
Status,13,8784983227,/g3t1_2,,running
Status,14,8785151360,/g3t1_2,,success
Status,15,8805012066,/g3t1_2,,running
Status,16,8805130481,/g3t1_2,,success
Status,17,8824839984,/g3t1_2,,running
Status,18,8824948501,/g3t1_2,,success
Status,19,8844759448,/g3t1_2,,running
Status,20,8844889376,/g3t1_2,,success
Status,21,8864847407,/g3t1_2,,running
Status,22,8864869003,/g3t1_2,,success
Status,23,8884969078,/g3t1_2,,running
Status,24,8884991040,/g3t1_2,,success
Status,25,8904978777,/g3t1_2,,running
Status,26,8905038578,/g3t1_2,,success
Status,27,8925455803,/g3t1_2,,running
Status,28,8925775198,/g3t1_2,,success
Status,29,8945303553,/g3t1_2,,running
Status,30,8945328462,/g3t1_2,,success
Status,31,8953867336,/g3t1_4,,init
Status,33,8953961969,/g3t1_3,,init
Status,35,8965151382,/g3t1_2,,running
Status,36,8965243200,/g3t1_2,,success
Status,37,8973065802,/g3t1_3,,init
Status,38,8973095122,/g3t1_3,,running
Status,39,8974521163,/g3t1_3,,success
Status,40,8977618846,/g3t1_4,,init
Status,41,8977638562,/g3t1_4,,running
Status,42,8979442561,/g3t1_4,,success
Status,43,8985738245,/g3t1_2,,running
Status,44,8986510588,/g3t1_2,,success
Status,45,9006144840,/g3t1_2,,running
Status,46,9006428056,/g3t1_2,,success
Status,47,9026432481,/g3t1_2,,running
Status,48,9027178609,/g3t1_2,,success
Status,49,9046492508,/g3t1_2,,running
Status,50,9046859631,/g3t1_2,,success
Status,51,9061237104,/g3t1_1,,running
Status,52,9061708882,/g3t1_1,,success
Status,53,9066404927,/g3t1_2,,running
Status,54,9067030465,/g3t1_2,,success
Status,55,9078658287,/g3t1_4,,running
Status,56,9086304741,/g3t1_4,,success
Status,57,9086380478,/g3t1_2,,running
Status,58,9086940469,/g3t1_2,,success
Status,59,9106716824,/g3t1_2,,running
Status,60,9106775945,/g3t1_2,,success
Status,61,9126685039,/g3t1_2,,running
Status,62,9127130620,/g3t1_2,,success
Status,63,9147202454,/g3t1_2,,running
Status,64,9147848861,/g3t1_2,,success
Status,65,9155873509,/g4t1,,success
Status,66,9166958514,/g3t1_2,,running
Status,67,9167514551,/g3t1_2,,success
Status,68,9178938554,/g3t1_4,,running
Status,69,9187184743,/g3t1_2,,running
Status,70,9187243999,/g3t1_4,,success
Status,71,9187935176,/g3t1_2,,success
Status,72,9207209907,/g3t1_2,,running
Status,73,9208106331,/g3t1_2,,success
Status,74,9227519680,/g3t1_2,,running
Status,75,9228243215,/g3t1_2,,success
Status,76,9247818031,/g3t1_2,,running
Status,77,9248203345,/g3t1_2,,success
Status,78,9255806551,/g4t1,,success
Status,79,9267697134,/g3t1_2,,running
Status,80,9267978647,/g3t1_2,,success
Status,81,9278636760,/g3t1_4,,running
Status,82,9286431573,/g3t1_4,,success
Status,83,9287578974,/g3t1_2,,running
Status,84,9288153521,/g3t1_2,,success
Status,85,9307821795,/g3t1_2,,running
Status,86,9308296318,/g3t1_2,,success
Status,87,9328083226,/g3t1_2,,running
Status,88,9328414559,/g3t1_2,,success
Status,89,9349127871,/g3t1_2,,running
Status,90,9349220830,/g3t1_2,,success
Status,91,9355985940,/g4t1,,success
Status,92,9368473208,/g3t1_2,,running
Status,93,9368900298,/g3t1_2,,success
Status,94,9378992616,/g3t1_4,,running
Status,95,9386399889,/g3t1_4,,success
Status,96,9388432461,/g3t1_2,,running
Status,97,9388887171,/g3t1_2,,success
Status,98,9408597781,/g3t1_2,,running
Status,99,9409269161,/g3t1_2,,success
Status,100,9428955866,/g3t1_2,,running
Status,101,9429240127,/g3t1_2,,success
Status,102,9448233370,/g3t1_2,,running
Status,103,9448445819,/g3t1_2,,success
Status,104,9455316932,/g4t1,,success
Status,105,9468562337,/g3t1_2,,running
Status,106,9468584091,/g3t1_2,,success
Status,107,9478911261,/g3t1_4,,running
Status,108,9485003687,/g3t1_4,,success
Status,109,9488578298,/g3t1_2,,running
Status,110,9488604599,/g3t1_2,,success
Status,111,9509070445,/g3t1_2,,running
Status,112,9509381655,/g3t1_2,,success
Status,113,9529283229,/g3t1_2,,running
Status,114,9529331980,/g3t1_2,,success
Status,115,9549009311,/g3t1_2,,running
Status,116,9549050421,/g3t1_2,,success
Status,117,9555472913,/g4t1,,success
Status,118,9560901109,/g3t1_1,,running
Status,119,9561085003,/g3t1_1,,success
Status,120,9568807431,/g3t1_2,,running
Status,121,9568908187,/g3t1_2,,success
Status,122,9578598516,/g3t1_4,,running
Status,123,9581101675,/g3t1_4,,success
Status,124,9589061360,/g3t1_2,,running
Status,125,9589756528,/g3t1_2,,success
Status,126,9609001275,/g3t1_2,,running
Status,127,9609099640,/g3t1_2,,success
Status,128,9629279668,/g3t1_2,,running
Status,129,9629409803,/g3t1_2,,success
Status,130,9649181649,/g3t1_2,,running
Status,131,9649239079,/g3t1_2,,success
Status,132,9655521121,/g4t1,,success
Status,133,9669245699,/g3t1_2,,running
Status,134,9669371219,/g3t1_2,,success
Status,135,9679163286,/g3t1_4,,running
Status,136,9683232995,/g3t1_4,,success
Status,137,9689428339,/g3t1_2,,running
Status,138,9689460602,/g3t1_2,,success
Status,139,9709421606,/g3t1_2,,running
Status,140,9709506847,/g3t1_2,,success
Status,141,9729888706,/g3t1_2,,running
Status,142,9729933884,/g3t1_2,,success
Status,143,9749721169,/g3t1_2,,running
Status,144,9749834802,/g3t1_2,,success
Status,145,9755990285,/g4t1,,success
Status,146,9769735996,/g3t1_2,,running
Status,147,9769929346,/g3t1_2,,success
Status,148,9779126632,/g3t1_4,,running
Status,149,9789946126,/g3t1_2,,running
Status,150,9790100131,/g3t1_2,,success
Status,151,9803775778,/g3t1_4,,success
Status,152,9810922000,/g3t1_2,,running
Status,153,9812696267,/g3t1_2,,success
Status,154,9830049175,/g3t1_2,,running
Status,155,9830193694,/g3t1_2,,success
Status,156,9850245517,/g3t1_2,,running
Status,157,9850613871,/g3t1_2,,success
Status,158,9856174889,/g4t1,,success
Status,159,9870202528,/g3t1_2,,running
Status,160,9870361966,/g3t1_2,,success
Status,161,9879862565,/g3t1_4,,running
Status,162,9885563018,/g3t1_4,,success
Status,163,9890284416,/g3t1_2,,running
Status,164,9890453448,/g3t1_2,,success
Status,165,9910674376,/g3t1_2,,running
Status,166,9910712016,/g3t1_2,,success
Status,167,9930573096,/g3t1_2,,running
Status,168,9930824057,/g3t1_2,,success
Status,169,9950627725,/g3t1_2,,running
Status,170,9950800767,/g3t1_2,,success
Status,171,9956207213,/g4t1,,success
Status,172,9970901531,/g3t1_2,,running
Status,173,9970978146,/g3t1_2,,success
Status,174,9973354581,/g3t1_3,,running
Status,175,9973600986,/g3t1_3,,success
Status,176,9979430105,/g3t1_4,,running
Status,177,9984105734,/g3t1_4,,success
Status,178,9991544936,/g3t1_2,,running
Status,179,9991580445,/g3t1_2,,success
Status,180,10011378056,/g3t1_2,,running
Status,181,10011419805,/g3t1_2,,success
Status,182,10031085099,/g3t1_2,,running
Status,183,10031251419,/g3t1_2,,success
Status,184,10051232268,/g3t1_2,,running
Status,185,10051618269,/g3t1_2,,success
Status,186,10056167363,/g4t1,,success
Status,187,10061204091,/g3t1_1,,running
Status,188,10061492691,/g3t1_1,,success
Status,189,10071396046,/g3t1_2,,running
Status,190,10071692224,/g3t1_2,,success
Status,191,10079759984,/g3t1_4,,running
Status,192,10084806399,/g3t1_4,,success
Status,193,10091325643,/g3t1_2,,running
Status,194,10091591944,/g3t1_2,,success
Status,195,10111689267,/g3t1_2,,running
Status,196,10112116522,/g3t1_2,,success
Status,197,10131772497,/g3t1_2,,running
Status,198,10131805360,/g3t1_2,,success
Status,199,10151760941,/g3t1_2,,running
Status,200,10151793050,/g3t1_2,,success
Status,201,10156443815,/g4t1,,success
Status,202,10171706575,/g3t1_2,,running
Status,203,10171937493,/g3t1_2,,success
Status,204,10179759382,/g3t1_4,,running
Status,205,10185003877,/g3t1_4,,success
Status,206,10191894184,/g3t1_2,,running
Status,207,10191930985,/g3t1_2,,success
Status,208,10212082530,/g3t1_2,,running
Status,209,10212113580,/g3t1_2,,success
Status,210,10232106787,/g3t1_2,,running
Status,211,10232296186,/g3t1_2,,success
Status,212,10252157264,/g3t1_2,,running
Status,213,10252304890,/g3t1_2,,success
Status,214,10256422048,/g4t1,,success
Status,215,10272222902,/g3t1_2,,running
Status,216,10272329564,/g3t1_2,,success
Status,217,10279894048,/g3t1_4,,running
Status,218,10285447649,/g3t1_4,,success
Status,219,10292299595,/g3t1_2,,running
Status,220,10292508682,/g3t1_2,,success
Status,221,10312440992,/g3t1_2,,running
Status,222,10312928582,/g3t1_2,,success
Status,223,10332509789,/g3t1_2,,running
Status,224,10332717801,/g3t1_2,,success
Status,225,10352595787,/g3t1_2,,running
Status,226,10352825723,/g3t1_2,,success
Status,227,10356603400,/g4t1,,success
Status,228,10373014504,/g3t1_2,,running
Status,229,10373625038,/g3t1_2,,success
Status,230,10379983534,/g3t1_4,,running
Status,231,10385817871,/g3t1_4,,success
Status,232,10392785936,/g3t1_2,,running
Status,233,10393034258,/g3t1_2,,success
Status,234,10413261881,/g3t1_2,,running
Status,235,10413858735,/g3t1_2,,success
Status,236,10433240434,/g3t1_2,,running
Status,237,10433510231,/g3t1_2,,success
Status,238,10453726513,/g3t1_2,,running
Status,239,10453986172,/g3t1_2,,success
Status,240,10456762821,/g4t1,,success
Status,241,10473361617,/g3t1_2,,running
Status,242,10473828085,/g3t1_2,,success
Status,243,10479858461,/g3t1_4,,running
Status,244,10485458872,/g3t1_4,,success
Status,245,10494259548,/g3t1_2,,running
Status,246,10494529832,/g3t1_2,,success
Status,247,10513497861,/g3t1_2,,running
Status,248,10514083886,/g3t1_2,,success
Status,249,10533867714,/g3t1_2,,running
Status,250,10533904886,/g3t1_2,,success
Status,251,10553834286,/g3t1_2,,running
Status,252,10554062275,/g3t1_2,,success
Status,253,10556757540,/g4t1,,success
Status,254,10562000685,/g3t1_1,,running
Status,255,10562085145,/g3t1_1,,success
Status,256,10573864096,/g3t1_2,,running
Status,257,10574072947,/g3t1_2,,success
Status,258,10579819635,/g3t1_4,,running
Status,259,10584486644,/g3t1_4,,success
Status,260,10594242704,/g3t1_2,,running
Status,261,10594666782,/g3t1_2,,success
Status,262,10614517374,/g3t1_2,,running
Status,263,10614572117,/g3t1_2,,success
Status,264,10634243832,/g3t1_2,,running
Status,265,10634874813,/g3t1_2,,success
Status,266,10654781886,/g3t1_2,,running
Status,267,10655913028,/g3t1_2,,success
Status,268,10657236719,/g4t1,,success
Status,269,10676950193,/g3t1_2,,running
Status,270,10677811134,/g3t1_2,,success
Status,271,10681193806,/g3t1_4,,running
Status,272,10688452578,/g3t1_4,,success
Status,273,10694497172,/g3t1_2,,running
Status,274,10694650647,/g3t1_2,,success
Status,275,10714684523,/g3t1_2,,running
Status,276,10714723549,/g3t1_2,,success
Status,277,10734648153,/g3t1_2,,running
Status,278,10735014990,/g3t1_2,,success
Status,279,10754689927,/g3t1_2,,running
Status,280,10755186735,/g3t1_2,,success
Status,281,10756916787,/g4t1,,success
Status,282,10774699527,/g3t1_2,,running
Status,283,10775032882,/g3t1_2,,success
Status,284,10780130548,/g3t1_4,,running
Status,285,10785245217,/g3t1_4,,success
Status,286,10795419682,/g3t1_2,,running
Status,287,10795651398,/g3t1_2,,success
Status,288,10815014020,/g3t1_2,,running
Status,289,10815468524,/g3t1_2,,success
Status,290,10835362451,/g3t1_2,,running
Status,291,10835439581,/g3t1_2,,success
Status,292,10855331141,/g3t1_2,,running
Status,293,10855523357,/g3t1_2,,success
Status,294,10856853610,/g4t1,,success
Status,295,10875517920,/g3t1_2,,running
Status,296,10875999924,/g3t1_2,,success
Status,297,10880158229,/g3t1_4,,running
Status,298,10885379175,/g3t1_4,,success
Status,299,10895990745,/g3t1_2,,running
Status,300,10896028746,/g3t1_2,,success
Status,301,10915931871,/g3t1_2,,running
Status,302,10916140463,/g3t1_2,,success
Status,303,10935868053,/g3t1_2,,running
Status,304,10936295134,/g3t1_2,,success
Status,305,10956278805,/g3t1_2,,running
Status,306,10956603473,/g3t1_2,,success
Status,307,10957473492,/g4t1,,success
Status,308,10973889296,/g3t1_3,,running
Status,309,10974231755,/g3t1_3,,success
Status,310,10977426590,/g3t1_2,,running
Status,311,10977651302,/g3t1_2,,success
Status,312,10980655066,/g3t1_4,,running
Status,313,10994130260,/g3t1_4,,success
Status,314,10996529142,/g3t1_2,,running
Status,315,10996910440,/g3t1_2,,success
Status,316,11016714392,/g3t1_2,,running
Status,317,11017347318,/g3t1_2,,success
Status,318,11036875881,/g3t1_2,,running
Status,319,11037466814,/g3t1_2,,success
Status,320,11056992513,/g3t1_2,,running
Status,321,11057606695,/g3t1_2,,success
Status,322,11057839297,/g4t1,,success
Status,323,11061821624,/g3t1_1,,running
Status,324,11062733105,/g3t1_1,,success
Status,325,11076775736,/g3t1_2,,running
Status,326,11076959362,/g3t1_2,,success
Status,327,11080454118,/g3t1_4,,running
Status,328,11086299646,/g3t1_4,,success
Status,329,11097136017,/g3t1_2,,running
Status,330,11097499625,/g3t1_2,,success
Status,331,11117001695,/g3t1_2,,running
Status,332,11117044062,/g3t1_2,,success
Status,333,11137057062,/g3t1_2,,running
Status,334,11137126671,/g3t1_2,,success
Status,335,11157099956,/g3t1_2,,running
Status,336,11157406160,/g3t1_2,,success
Status,337,11157443629,/g4t1,,success
Status,338,11177267480,/g3t1_2,,running
Status,339,11177472547,/g3t1_2,,success
Status,340,11180471903,/g3t1_4,,running
Status,341,11184833911,/g3t1_4,,success
Status,342,11197443213,/g3t1_2,,running
Status,343,11197479684,/g3t1_2,,success
Status,344,11217452907,/g3t1_2,,running
Status,345,11217643722,/g3t1_2,,success
Status,346,11237614401,/g3t1_2,,running
Status,347,11237787392,/g3t1_2,,success
Status,348,11257825861,/g4t1,,success
Status,349,11257903059,/g3t1_2,,running
Status,350,11258132362,/g3t1_2,,success
Status,351,11278269744,/g3t1_2,,running
Status,352,11278765746,/g3t1_2,,success
Status,353,11280607701,/g3t1_4,,running
Status,354,11285274969,/g3t1_4,,success
Status,355,11298151197,/g3t1_2,,running
Status,356,11298337232,/g3t1_2,,success
Status,357,11318281789,/g3t1_2,,running
Status,358,11318318478,/g3t1_2,,success
Status,359,11338179797,/g3t1_2,,running
Status,360,11338429726,/g3t1_2,,success
Status,361,11357722830,/g4t1,,success
Status,362,11358153953,/g3t1_2,,running
Status,363,11358371191,/g3t1_2,,success
Status,364,11378836875,/g3t1_2,,running
Status,365,11379068697,/g3t1_2,,success
Status,366,11380878278,/g3t1_4,,running
Status,367,11388187945,/g3t1_4,,success
Status,368,11398868478,/g3t1_2,,running
Status,369,11399105631,/g3t1_2,,success
Status,370,11419340372,/g3t1_2,,running
Status,371,11419404359,/g3t1_2,,success
Status,372,11439252308,/g3t1_2,,running
Status,373,11439313657,/g3t1_2,,success
Status,374,11457905514,/g4t1,,success
Status,375,11458611859,/g3t1_2,,running
Status,376,11458927830,/g3t1_2,,success
Status,377,11479162946,/g3t1_2,,running
Status,378,11479333783,/g3t1_2,,success
Status,379,11480616722,/g3t1_4,,running
Status,380,11484420781,/g3t1_4,,success
Status,381,11499227364,/g3t1_2,,running
Status,382,11499386953,/g3t1_2,,success
Status,383,11519488835,/g3t1_2,,running
Status,384,11519650001,/g3t1_2,,success
Status,385,11539201606,/g3t1_2,,running
Status,386,11539669021,/g3t1_2,,success
Status,387,11557929723,/g4t1,,success
Status,388,11559558252,/g3t1_2,,running
Status,389,11559650520,/g3t1_2,,success
Status,390,11561719147,/g3t1_1,,running
Status,391,11562601686,/g3t1_1,,success
Status,392,11579313720,/g3t1_2,,running
Status,393,11579646939,/g3t1_2,,success
Status,394,11580781403,/g3t1_4,,running
Status,395,11588231657,/g3t1_4,,success
Status,396,11599410123,/g3t1_2,,running
Status,397,11599785812,/g3t1_2,,success
Status,398,11619552320,/g3t1_2,,running
Status,399,11619753966,/g3t1_2,,success
Status,400,11639701913,/g3t1_2,,running
Status,401,11639849244,/g3t1_2,,success
Status,402,11658442978,/g4t1,,success
Status,403,11659812794,/g3t1_2,,running
Status,404,11659841917,/g3t1_2,,success
Status,405,11679798372,/g3t1_2,,running
Status,406,11680170373,/g3t1_2,,success
Status,407,11680702465,/g3t1_4,,running
Status,408,11689081620,/g3t1_4,,success
Status,409,11699985678,/g3t1_2,,running
Status,410,11700106884,/g3t1_2,,success
Status,411,11719970407,/g3t1_2,,running
Status,412,11720172919,/g3t1_2,,success
Status,413,11740082887,/g3t1_2,,running
Status,414,11740124897,/g3t1_2,,success
Status,415,11758475499,/g4t1,,success
Status,416,11760472163,/g3t1_2,,running
Status,417,11760704843,/g3t1_2,,success
Status,418,11780527056,/g3t1_2,,running
Status,419,11780781691,/g3t1_2,,success
Status,420,11781069762,/g3t1_4,,running
Status,421,11787480178,/g3t1_4,,success
Status,422,11800717266,/g3t1_2,,running
Status,423,11801173075,/g3t1_2,,success
Status,424,11820776743,/g3t1_2,,running
Status,425,11821276626,/g3t1_2,,success
Status,426,11840964386,/g3t1_2,,running
Status,427,11841278540,/g3t1_2,,success
Status,428,11858545431,/g4t1,,success
Status,429,11861414133,/g3t1_2,,running
Status,430,11861994028,/g3t1_2,,success
Status,431,11881055169,/g3t1_2,,running
Status,432,11881231073,/g3t1_4,,running
Status,433,11882124072,/g3t1_2,,success
Status,434,11888221591,/g3t1_4,,success
Status,435,11900928777,/g3t1_2,,running
Status,436,11901239152,/g3t1_2,,success
Status,437,11921740968,/g3t1_2,,running
Status,438,11922108616,/g3t1_2,,success
Status,439,11942253601,/g3t1_2,,running
Status,440,11942330795,/g3t1_2,,success
Status,441,11958731004,/g4t1,,success
Status,442,11961917013,/g3t1_2,,running
Status,443,11962270410,/g3t1_2,,success
Status,444,11974248133,/g3t1_3,,running
Status,445,11974814784,/g3t1_3,,success
Status,446,11982121505,/g3t1_4,,running
Status,447,11982461256,/g3t1_2,,running
Status,448,11982529619,/g3t1_2,,success
Status,449,11989640700,/g3t1_4,,success
Status,450,12002180803,/g3t1_2,,running
Status,451,12002800424,/g3t1_2,,success
Status,452,12022405410,/g3t1_2,,running
Status,453,12023080612,/g3t1_2,,success
Status,454,12042597994,/g3t1_2,,running
Status,455,12042676368,/g3t1_2,,success
Status,456,12058210831,/g4t1,,success
Status,457,12061762319,/g3t1_1,,running
Status,458,12061975200,/g3t1_1,,success
Status,459,12062122137,/g3t1_2,,running
Status,460,12062278037,/g3t1_2,,success
Status,461,12081438507,/g3t1_4,,running
Status,462,12082064468,/g3t1_2,,running
Status,463,12082351750,/g3t1_2,,success
Status,464,12084755432,/g3t1_4,,success
Status,465,12102270021,/g3t1_2,,running
Status,466,12102468907,/g3t1_2,,success
Status,467,12122505316,/g3t1_2,,running
Status,468,12122606305,/g3t1_2,,success
Status,469,12143144958,/g3t1_2,,running
Status,470,12144161820,/g3t1_2,,success
Status,471,12158677847,/g4t1,,success
Status,472,12162688391,/g3t1_2,,running
Status,473,12163894170,/g3t1_2,,success
Status,474,12181753718,/g3t1_4,,running
Status,475,12182794867,/g3t1_2,,running
Status,476,12182877807,/g3t1_2,,success
Status,477,12186244935,/g3t1_4,,success
Status,478,12203215832,/g3t1_2,,running
Status,479,12203268241,/g3t1_2,,success
Status,480,12222926671,/g3t1_2,,running
Status,481,12223123421,/g3t1_2,,success
Status,482,12243373316,/g3t1_2,,running
Status,483,12243769184,/g3t1_2,,success
Status,484,12258774697,/g4t1,,success
Status,485,12263348145,/g3t1_2,,running
Status,486,12263684314,/g3t1_2,,success
Status,487,12281936652,/g3t1_4,,running
Status,488,12283350256,/g3t1_2,,running
Status,489,12283618847,/g3t1_2,,success
Status,490,12288356778,/g3t1_4,,success
Status,491,12303640488,/g3t1_2,,running
Status,492,12304308896,/g3t1_2,,success
Status,493,12323660405,/g3t1_2,,running
Status,494,12324063485,/g3t1_2,,success
Status,495,12344125290,/g3t1_2,,running
Status,496,12344353427,/g3t1_2,,success
Status,497,12358928240,/g4t1,,success
Status,498,12364199746,/g3t1_2,,running
Status,499,12364661096,/g3t1_2,,success
Status,500,12382287501,/g3t1_4,,running
Status,501,12384196534,/g3t1_2,,running
Status,502,12384898428,/g3t1_2,,success
Status,503,12393966619,/g3t1_4,,success
Status,504,12404518215,/g3t1_2,,running
Status,505,12404832758,/g3t1_2,,success
Status,506,12424889468,/g3t1_2,,running
Status,507,12424973814,/g3t1_2,,success
Status,508,12445083965,/g3t1_2,,running
Status,509,12445350508,/g3t1_2,,success
Status,510,12459041168,/g4t1,,success
Status,511,12464798351,/g3t1_2,,running
Status,512,12465162624,/g3t1_2,,success
Status,513,12482587937,/g3t1_4,,running
Status,514,12484868300,/g3t1_2,,running
Status,515,12485732562,/g3t1_2,,success
Status,516,12491906615,/g3t1_4,,success
Status,517,12505065968,/g3t1_2,,running
Status,518,12505709896,/g3t1_2,,success
Status,519,12525076035,/g3t1_2,,running
Status,520,12525674322,/g3t1_2,,success
Status,521,12545417878,/g3t1_2,,running
Status,522,12546113874,/g3t1_2,,success
Status,523,12559345586,/g4t1,,success
Status,524,12561972950,/g3t1_1,,running
Status,525,12562739437,/g3t1_1,,success
Status,526,12565509663,/g3t1_2,,running
Status,527,12566138935,/g3t1_2,,success
Status,528,12582725844,/g3t1_4,,running
Status,529,12585700529,/g3t1_2,,running
Status,530,12585911159,/g3t1_2,,success
Status,531,12590794516,/g3t1_4,,success
Status,532,12605881314,/g3t1_2,,running
Status,533,12606363195,/g3t1_2,,success
Status,534,12625742983,/g3t1_2,,running
Status,535,12626061623,/g3t1_2,,success
Status,536,12646209223,/g3t1_2,,running
Status,537,12646481165,/g3t1_2,,success
Status,538,12659524924,/g4t1,,success
Status,539,12666255421,/g3t1_2,,running
Status,540,12666838864,/g3t1_2,,success
Status,541,12682685409,/g3t1_4,,running
Status,542,12686452783,/g3t1_2,,running
Status,543,12687023684,/g3t1_2,,success
Status,544,12690643724,/g3t1_4,,success
Status,545,12706625237,/g3t1_2,,running
Status,546,12707155659,/g3t1_2,,success
Status,547,12726151031,/g3t1_2,,running
Status,548,12726385231,/g3t1_2,,success
Status,549,12746109286,/g3t1_2,,running
Status,550,12746188097,/g3t1_2,,success
Status,551,12758941237,/g4t1,,success
Status,552,12766199207,/g3t1_2,,running
Status,553,12766461052,/g3t1_2,,success
Status,554,12782117784,/g3t1_4,,running
Status,555,12785339938,/g3t1_4,,success
Status,556,12786164522,/g3t1_2,,running
Status,557,12786298427,/g3t1_2,,success
Status,558,12806838069,/g3t1_2,,running
Status,559,12807082629,/g3t1_2,,success
Status,560,12826666765,/g3t1_2,,running
Status,561,12826924435,/g3t1_2,,success
Status,562,12846743638,/g3t1_2,,running
Status,563,12847189885,/g3t1_2,,success
Status,564,12859482827,/g4t1,,success
Status,565,12866719587,/g3t1_2,,running
Status,566,12866869611,/g3t1_2,,success
Status,567,12882290300,/g3t1_4,,running
Status,568,12886496042,/g3t1_4,,success
Status,569,12886630472,/g3t1_2,,running
Status,570,12886817740,/g3t1_2,,success
Status,571,12906968167,/g3t1_2,,running
Status,572,12907044300,/g3t1_2,,success
Status,573,12927296637,/g3t1_2,,running
Status,574,12927801833,/g3t1_2,,success
Status,575,12947394586,/g3t1_2,,running
Status,576,12947698603,/g3t1_2,,success
Status,577,12960014795,/g4t1,,success
Status,578,12967558897,/g3t1_2,,running
Status,579,12967839557,/g3t1_2,,success
Status,580,12973924648,/g3t1_3,,running
Status,581,12974293226,/g3t1_3,,success
Status,582,12982735754,/g3t1_4,,running
Status,583,12987554836,/g3t1_2,,running
Status,584,12988150531,/g3t1_2,,success
Status,585,12989566726,/g3t1_4,,success
Status,586,13007750195,/g3t1_2,,running
Status,587,13008093756,/g3t1_2,,success
Status,588,13028062620,/g3t1_2,,running
Status,589,13028386926,/g3t1_2,,success
Status,590,13048418681,/g3t1_2,,running
Status,591,13049000909,/g3t1_2,,success
Status,592,13060061862,/g4t1,,success
Status,593,13061868668,/g3t1_1,,running
Status,594,13062188832,/g3t1_1,,success
Status,595,13068270331,/g3t1_2,,running
Status,596,13068595178,/g3t1_2,,success
Status,597,13083045569,/g3t1_4,,running
Status,598,13088701304,/g3t1_2,,running
Status,599,13088779835,/g3t1_2,,success
Status,600,13090584251,/g3t1_4,,success
Status,601,13108586867,/g3t1_2,,running
Status,602,13109212660,/g3t1_2,,success
Status,603,13128522132,/g3t1_2,,running
Status,604,13128696133,/g3t1_2,,success
Status,605,13148462584,/g3t1_2,,running
Status,606,13148593174,/g3t1_2,,success
Status,607,13159422606,/g4t1,,success
Status,608,13168400241,/g3t1_2,,running
Status,609,13168687774,/g3t1_2,,success
Status,610,13182941342,/g3t1_4,,running
Status,611,13189168314,/g3t1_2,,running
Status,612,13189238649,/g3t1_2,,success
Status,613,13190097384,/g3t1_4,,success
Status,614,13209417214,/g3t1_2,,running
Status,615,13209670126,/g3t1_2,,success
Status,616,13229088240,/g3t1_2,,running
Status,617,13229685534,/g3t1_2,,success
Status,618,13249792574,/g3t1_2,,running
Status,619,13249863992,/g3t1_2,,success
Status,620,13260252817,/g4t1,,success
Status,621,13269437468,/g3t1_2,,running
Status,622,13269660462,/g3t1_2,,success
Status,623,13283132458,/g3t1_4,,running
Status,624,13289900032,/g3t1_2,,running
Status,625,13289977477,/g3t1_2,,success
Status,626,13291314656,/g3t1_4,,success
Status,627,13310080046,/g3t1_2,,running
Status,628,13310455236,/g3t1_2,,success
Status,629,13330130089,/g3t1_2,,running
Status,630,13330191267,/g3t1_2,,success
Status,631,13350198155,/g3t1_2,,running
Status,632,13350466781,/g3t1_2,,success
Status,633,13360260526,/g4t1,,success
Status,634,13370447321,/g3t1_2,,running
Status,635,13370677080,/g3t1_2,,success
Status,636,13383306556,/g3t1_4,,running
Status,637,13390298738,/g3t1_2,,running
Status,638,13390845677,/g3t1_4,,success
Status,639,13390914737,/g3t1_2,,success
Status,640,13410838896,/g3t1_2,,running
Status,641,13411348774,/g3t1_2,,success
Status,642,13430990042,/g3t1_2,,running
Status,643,13431040231,/g3t1_2,,success
Status,644,13451011823,/g3t1_2,,running
Status,645,13451550153,/g3t1_2,,success
Status,646,13460371051,/g4t1,,success
Status,647,13471161895,/g3t1_2,,running
Status,648,13471708834,/g3t1_2,,success
Status,649,13483543354,/g3t1_4,,running
Status,650,13491147630,/g3t1_2,,running
Status,651,13491866089,/g3t1_2,,success
Status,652,13491927888,/g3t1_4,,success
Status,653,13511593218,/g3t1_2,,running
Status,654,13511940275,/g3t1_2,,success
Status,655,13531722597,/g3t1_2,,running
Status,656,13531775651,/g3t1_2,,success
Status,657,13551802414,/g3t1_2,,running
Status,658,13552200400,/g3t1_2,,success
Status,659,13560578967,/g4t1,,success
Status,660,13562702441,/g3t1_1,,running
Status,661,13562741982,/g3t1_1,,success
Status,662,13571527373,/g3t1_2,,running
Status,663,13572306784,/g3t1_2,,success
Status,664,13583703613,/g3t1_4,,running
Status,665,13590163178,/g3t1_4,,success
Status,666,13591496259,/g3t1_2,,running
Status,667,13591957331,/g3t1_2,,success
Status,668,13611982249,/g3t1_2,,running
Status,669,13612422589,/g3t1_2,,success
Status,670,13632157765,/g3t1_2,,running
Status,671,13632234550,/g3t1_2,,success
Status,672,13652213094,/g3t1_2,,running
Status,673,13652618045,/g3t1_2,,success
Status,674,13660607963,/g4t1,,success
Status,675,13672327681,/g3t1_2,,running
Status,676,13672747188,/g3t1_2,,success
Status,677,13683931768,/g3t1_4,,running
Status,678,13691443922,/g3t1_4,,success
Status,679,13692324683,/g3t1_2,,running
Status,680,13692867519,/g3t1_2,,success
Status,681,13712278497,/g3t1_2,,running
Status,682,13712577061,/g3t1_2,,success
Status,683,13732612274,/g3t1_2,,running
Status,684,13732928038,/g3t1_2,,success
Status,685,13752800697,/g3t1_2,,running
Status,686,13753335404,/g3t1_2,,success
Status,687,13760612076,/g4t1,,success
Status,688,13773025529,/g3t1_2,,running
Status,689,13773434777,/g3t1_2,,success
Status,690,13783974101,/g3t1_4,,running
Status,691,13791378518,/g3t1_4,,success
Status,692,13792708529,/g3t1_2,,running
Status,693,13793332329,/g3t1_2,,success
Status,694,13812899190,/g3t1_2,,running
Status,695,13813170016,/g3t1_2,,success
Status,696,13833386814,/g3t1_2,,running
Status,697,13833678064,/g3t1_2,,success
Status,698,13853496412,/g3t1_2,,running
Status,699,13854179858,/g3t1_2,,success
Status,700,13860863379,/g4t1,,success
Status,701,13873486241,/g3t1_2,,running
Status,702,13874217047,/g3t1_2,,success
Status,703,13884104715,/g3t1_4,,running
Status,704,13891710153,/g3t1_4,,success
Status,705,13893354887,/g3t1_2,,running
Status,706,13893963476,/g3t1_2,,success
Status,707,13913977879,/g3t1_2,,running
Status,708,13914435574,/g3t1_2,,success
Status,709,13934011838,/g3t1_2,,running
Status,710,13934364799,/g3t1_2,,success
Status,711,13953998995,/g3t1_2,,running
Status,712,13954479497,/g3t1_2,,success
Status,713,13960922355,/g4t1,,success
Status,714,13974506630,/g3t1_2,,running
Status,715,13974628327,/g3t1_3,,running
Status,716,13975032729,/g3t1_2,,success
Status,717,13975098470,/g3t1_3,,success
Status,718,13984200838,/g3t1_4,,running
Status,719,13991718165,/g3t1_4,,success
Status,720,13994086646,/g3t1_2,,running
Status,721,13995171224,/g3t1_2,,success
Status,722,14014477852,/g3t1_2,,running
Status,723,14015056725,/g3t1_2,,success
Status,724,14034608694,/g3t1_2,,running
Status,725,14034937922,/g3t1_2,,success
Status,726,14054568183,/g3t1_2,,running
Status,727,14055326547,/g3t1_2,,success
Status,728,14061281697,/g4t1,,success
Status,729,14062312661,/g3t1_1,,running
Status,730,14062620398,/g3t1_1,,success
Status,731,14074945255,/g3t1_2,,running
Status,732,14075640170,/g3t1_2,,success
Status,733,14084119216,/g3t1_4,,running
Status,734,14091700896,/g3t1_4,,success
Status,735,14094868976,/g3t1_2,,running
Status,736,14095251324,/g3t1_2,,success
Status,737,14115112070,/g3t1_2,,running
Status,738,14115443715,/g3t1_2,,success
Status,739,14135290016,/g3t1_2,,running
Status,740,14135936359,/g3t1_2,,success
Status,741,14155155332,/g3t1_2,,running
Status,742,14155502018,/g3t1_2,,success
Status,743,14161241283,/g4t1,,success
Status,744,14175842504,/g3t1_2,,running
Status,745,14176460115,/g3t1_2,,success
Status,746,14184174935,/g3t1_4,,running
Status,747,14192189993,/g3t1_4,,success
Status,748,14195817283,/g3t1_2,,running
Status,749,14195885454,/g3t1_2,,success
Status,750,14215818557,/g3t1_2,,running
Status,751,14216217037,/g3t1_2,,success
Status,752,14235979496,/g3t1_2,,running
Status,753,14236240688,/g3t1_2,,success
Status,754,14256121120,/g3t1_2,,running
Status,755,14256412890,/g3t1_2,,success
Status,756,14261424779,/g4t1,,success
Status,757,14276147724,/g3t1_2,,running
Status,758,14276511762,/g3t1_2,,success
Status,759,14284315520,/g3t1_4,,running
Status,760,14291985284,/g3t1_4,,success
Status,761,14296461818,/g3t1_2,,running
Status,762,14296523628,/g3t1_2,,success
Status,763,14316549228,/g3t1_2,,running
Status,764,14317060856,/g3t1_2,,success
Status,765,14336798648,/g3t1_2,,running
Status,766,14337150876,/g3t1_2,,success
Status,767,14356802150,/g3t1_2,,running
Status,768,14357256572,/g3t1_2,,success
Status,769,14361833052,/g4t1,,success
Status,770,14376788725,/g3t1_2,,running
Status,771,14377418140,/g3t1_2,,success
Status,772,14384459472,/g3t1_4,,running
Status,773,14391880292,/g3t1_4,,success
Status,774,14396880097,/g3t1_2,,running
Status,775,14397453504,/g3t1_2,,success
Status,776,14416501416,/g3t1_2,,running
Status,777,14416752994,/g3t1_2,,success
Status,778,14436513306,/g3t1_2,,running
Status,779,14436601589,/g3t1_2,,success
Status,780,14456738151,/g3t1_2,,running
Status,781,14457107501,/g3t1_2,,success
Status,782,14460886182,/g4t1,,success
Status,783,14476869331,/g3t1_2,,running
Status,784,14477452371,/g3t1_2,,success
Status,785,14484034662,/g3t1_4,,running
Status,786,14486584919,/g3t1_4,,success
Status,787,14496950200,/g3t1_2,,running
Status,788,14497278416,/g3t1_2,,success
Status,789,14517339086,/g3t1_2,,running
Status,790,14517392906,/g3t1_2,,success
Status,791,14537006064,/g3t1_2,,running
Status,792,14537170279,/g3t1_2,,success
Status,793,14557089870,/g3t1_2,,running
Status,794,14557114682,/g3t1_2,,success
Status,795,14560975893,/g4t1,,success
Status,796,14562275692,/g3t1_1,,running
Status,797,14562312457,/g3t1_1,,success
Status,798,14577275983,/g3t1_2,,running
Status,799,14577303175,/g3t1_2,,success
Status,800,14585226942,/g3t1_4,,running
Status,801,14587311321,/g3t1_4,,success
Status,802,14597343287,/g3t1_2,,running
Status,803,14597368797,/g3t1_2,,success
Status,804,14618523087,/g3t1_2,,running
Status,805,14618944883,/g3t1_2,,success
Status,806,14637893131,/g3t1_2,,running
Status,807,14638191699,/g3t1_2,,success
Status,808,14658045873,/g3t1_2,,running
Status,809,14658483095,/g3t1_2,,success
Status,810,14661274820,/g4t1,,success
Status,811,14678532860,/g3t1_2,,running
Status,812,14678658608,/g3t1_2,,success
Status,813,14684193443,/g3t1_4,,running
Status,814,14688900551,/g3t1_4,,success
Status,815,14698254598,/g3t1_2,,running
Status,816,14698303184,/g3t1_2,,success
Status,817,14717969776,/g3t1_2,,running
Status,818,14717991504,/g3t1_2,,success
Status,819,14738087617,/g3t1_2,,running
Status,820,14738109390,/g3t1_2,,success
Status,821,14758270906,/g3t1_2,,running
Status,822,14758300196,/g3t1_2,,success
Status,823,14761190679,/g4t1,,success
Status,824,14778215846,/g3t1_2,,running
Status,825,14778420794,/g3t1_2,,success
Status,826,14784364808,/g3t1_4,,running
Status,827,14788045806,/g3t1_4,,success
Status,828,14798347568,/g3t1_2,,running
Status,829,14798492376,/g3t1_2,,success
Status,830,14819088562,/g3t1_2,,running
Status,831,14819135546,/g3t1_2,,success
Status,832,14838509874,/g3t1_2,,running
Status,833,14838627190,/g3t1_2,,success
Status,834,14858577912,/g3t1_2,,running
Status,835,14858765115,/g3t1_2,,success
Status,836,14861306991,/g4t1,,success
Status,837,14879111444,/g3t1_2,,running
Status,838,14879239328,/g3t1_2,,success
Status,839,14884438550,/g3t1_4,,running
Status,840,14887624347,/g3t1_4,,success
Status,841,14898712647,/g3t1_2,,running
Status,842,14898794833,/g3t1_2,,success
Status,843,14918881781,/g3t1_2,,running
Status,844,14918905068,/g3t1_2,,success
Status,845,14939003026,/g3t1_2,,running
Status,846,14939100002,/g3t1_2,,success
Status,847,14959010124,/g3t1_2,,running
Status,848,14959170364,/g3t1_2,,success
Status,849,14961350834,/g4t1,,success
Status,850,14974438378,/g3t1_3,,running
Status,851,14974484374,/g3t1_3,,success
Status,852,14979028094,/g3t1_2,,running
Status,853,14979107419,/g3t1_2,,success
Status,854,14984553160,/g3t1_4,,running
Status,855,14987077505,/g3t1_4,,success
Status,856,14999197921,/g3t1_2,,running
Status,857,14999542047,/g3t1_2,,success
Status,858,15019444251,/g3t1_2,,running
Status,859,15019545852,/g3t1_2,,success
Status,860,15039504410,/g3t1_2,,running
Status,861,15039526768,/g3t1_2,,success
Status,862,15060192600,/g3t1_2,,running
Status,863,15060230480,/g3t1_2,,success
Status,864,15061831158,/g4t1,,success
Status,865,15061990676,/g3t1_1,,running
Status,866,15062012025,/g3t1_1,,success
Status,867,15079744535,/g3t1_2,,running
Status,868,15079768325,/g3t1_2,,success
Status,869,15084590297,/g3t1_4,,running
Status,870,15087179422,/g3t1_4,,success
Status,871,15099657061,/g3t1_2,,running
Status,872,15099786798,/g3t1_2,,success
Status,873,15119826238,/g3t1_2,,running
Status,874,15120025286,/g3t1_2,,success
Status,875,15140561188,/g3t1_2,,running
Status,876,15141111041,/g3t1_2,,success
Status,877,15160219228,/g3t1_2,,running
Status,878,15160247694,/g3t1_2,,success
Status,879,15161895171,/g4t1,,success
Status,880,15180124240,/g3t1_2,,running
Status,881,15180282962,/g3t1_2,,success
Status,882,15184610472,/g3t1_4,,running
Status,883,15187438140,/g3t1_4,,success
Status,884,15200652767,/g3t1_2,,running
Status,885,15201428524,/g3t1_2,,success
Status,886,15220351921,/g3t1_2,,running
Status,887,15220609853,/g3t1_2,,success
Status,888,15240320211,/g3t1_2,,running
Status,889,15240487727,/g3t1_2,,success
Status,890,15260459420,/g3t1_2,,running
Status,891,15260568737,/g3t1_2,,success
Status,892,15262038909,/g4t1,,success
Status,893,15280777601,/g3t1_2,,running
Status,894,15280821186,/g3t1_2,,success
Status,895,15284807933,/g3t1_4,,running
Status,896,15287767718,/g3t1_4,,success
Status,897,15300885829,/g3t1_2,,running
Status,898,15300937099,/g3t1_2,,success
Status,899,15320779336,/g3t1_2,,running
Status,900,15320814117,/g3t1_2,,success
Status,901,15341019000,/g3t1_2,,running
Status,902,15341047153,/g3t1_2,,success
Status,903,15361213399,/g3t1_2,,running
Status,904,15361424838,/g3t1_2,,success
Status,905,15361977106,/g4t1,,success
Status,906,15381147086,/g3t1_2,,running
Status,907,15381414634,/g3t1_2,,success
Status,908,15384966538,/g3t1_4,,running
Status,909,15389726355,/g3t1_4,,success
Status,910,15401276685,/g3t1_2,,running
Status,911,15401304597,/g3t1_2,,success
Status,912,15421272428,/g3t1_2,,running
Status,913,15421411653,/g3t1_2,,success
Status,914,15441408288,/g3t1_2,,running
Status,915,15441609340,/g3t1_2,,success
Status,916,15461923204,/g3t1_2,,running
Status,917,15461962663,/g3t1_2,,success
Status,918,15462016515,/g4t1,,success
Status,919,15481502605,/g3t1_2,,running
Status,920,15481618724,/g3t1_2,,success
Status,921,15484934805,/g3t1_4,,running
Status,922,15489059789,/g3t1_4,,success
Status,923,15501620063,/g3t1_2,,running
Status,924,15501732703,/g3t1_2,,success
Status,925,15521849243,/g3t1_2,,running
Status,926,15522081061,/g3t1_2,,success
Status,927,15541994815,/g3t1_2,,running
Status,928,15542026079,/g3t1_2,,success
Status,929,15562345183,/g3t1_2,,running
Status,930,15562800025,/g3t1_1,,running
Status,931,15562828305,/g4t1,,success
Status,932,15563060378,/g3t1_2,,success
Status,933,15563086898,/g3t1_1,,success
Status,934,15582026033,/g3t1_2,,running
Status,935,15582174567,/g3t1_2,,success
Status,936,15584948647,/g3t1_4,,running
Status,937,15589015372,/g3t1_4,,success
Status,938,15602286423,/g3t1_2,,running
Status,939,15602899259,/g3t1_2,,success
Status,940,15622259346,/g3t1_2,,running
Status,941,15622289649,/g3t1_2,,success
Status,942,15642364240,/g3t1_2,,running
Status,943,15642397733,/g3t1_2,,success
Status,944,15662849311,/g3t1_2,,running
Status,945,15663635189,/g4t1,,success
Status,946,15663879467,/g3t1_2,,success
Status,947,15682389006,/g3t1_2,,running
Status,948,15682603893,/g3t1_2,,success
Status,949,15685246265,/g3t1_4,,running
Status,950,15692062835,/g3t1_4,,success
Status,951,15702665360,/g3t1_2,,running
Status,952,15702696510,/g3t1_2,,success
Status,953,15722954406,/g3t1_2,,running
Status,954,15723536493,/g3t1_2,,success
Status,955,15743330706,/g3t1_2,,running
Status,956,15744367703,/g3t1_2,,success
Status,957,15763015424,/g4t1,,success
Status,958,15763062905,/g3t1_2,,running
Status,959,15763380938,/g3t1_2,,success
Status,960,15783044918,/g3t1_2,,running
Status,961,15783401951,/g3t1_2,,success
Status,962,15785428138,/g3t1_4,,running
Status,963,15790722422,/g3t1_4,,success
Status,964,15803262094,/g3t1_2,,running
Status,965,15803347774,/g3t1_2,,success
Status,966,15823265382,/g3t1_2,,running
Status,967,15823533631,/g3t1_2,,success
Status,968,15843889310,/g3t1_2,,running
Status,969,15843967968,/g3t1_2,,success
Status,970,15862948034,/g4t1,,success
Status,971,15863484266,/g3t1_2,,running
Status,972,15863710270,/g3t1_2,,success
Status,973,15883568578,/g3t1_2,,running
Status,974,15883783399,/g3t1_2,,success
Status,975,15885684685,/g3t1_4,,running
Status,976,15889485892,/g3t1_4,,success
Status,977,15903677878,/g3t1_2,,running
Status,978,15903878526,/g3t1_2,,success
Status,979,15923729443,/g3t1_2,,running
Status,980,15924071523,/g3t1_2,,success
Status,981,15944333494,/g3t1_2,,running
Status,982,15944372700,/g3t1_2,,success
Status,983,15963151226,/g4t1,,success
Status,984,15963799271,/g3t1_2,,running
Status,985,15964177704,/g3t1_2,,success
Status,986,15974133370,/g3t1_3,,running
Status,987,15974437127,/g3t1_3,,success
Status,988,15984171695,/g3t1_2,,running
Status,989,15984212801,/g3t1_2,,success
Status,990,15985442079,/g3t1_4,,running
Status,991,15990906116,/g3t1_4,,success
Status,992,16004129957,/g3t1_2,,running
Status,993,16004292982,/g3t1_2,,success
Status,994,16024791206,/g3t1_2,,running
Status,995,16024849307,/g3t1_2,,success
Status,996,16044311930,/g3t1_2,,running
Status,997,16044561360,/g3t1_2,,success
Status,998,16062445643,/g3t1_1,,running
Status,999,16062648926,/g3t1_1,,success
Status,1000,16062692792,/g4t1,,success
Status,1001,16064516178,/g3t1_2,,running
Status,1002,16064705218,/g3t1_2,,success
Status,1003,16084704717,/g3t1_2,,running
Status,1004,16084744305,/g3t1_2,,success
Status,1005,16085509124,/g3t1_4,,running
Status,1006,16089649672,/g3t1_4,,success
Status,1007,16105208030,/g3t1_2,,running
Status,1008,16105468285,/g3t1_2,,success
Status,1009,16125048931,/g3t1_2,,running
Status,1010,16125369368,/g3t1_2,,success
Status,1011,16145107427,/g3t1_2,,running
Status,1012,16146038140,/g3t1_2,,success
Status,1013,16163050171,/g4t1,,success
Status,1014,16164890097,/g3t1_2,,running
Status,1015,16165170957,/g3t1_2,,success
Status,1016,16185322852,/g3t1_2,,running
Status,1017,16185370102,/g3t1_2,,success
Status,1018,16185641993,/g3t1_4,,running
Status,1019,16191910190,/g3t1_4,,success
Status,1020,16205286468,/g3t1_2,,running
Status,1021,16205408587,/g3t1_2,,success
Status,1022,16225853962,/g3t1_2,,running
Status,1023,16225910925,/g3t1_2,,success
Status,1024,16246102549,/g3t1_2,,running
Status,1025,16246444529,/g3t1_2,,success
Status,1026,16263332189,/g4t1,,success
Status,1027,16265630430,/g3t1_2,,running
Status,1028,16265852059,/g3t1_2,,success
Status,1029,16285843507,/g3t1_2,,running
Status,1030,16285905715,/g3t1_4,,running
Status,1031,16286142360,/g3t1_2,,success
Status,1032,16291546142,/g3t1_4,,success
Status,1033,16306635471,/g3t1_2,,running
Status,1034,16306835168,/g3t1_2,,success
Status,1035,16326536712,/g3t1_2,,running
Status,1036,16326773754,/g3t1_2,,success
Status,1037,16346516992,/g3t1_2,,running
Status,1038,16346919758,/g3t1_2,,success
Status,1039,16363302419,/g4t1,,success
Status,1040,16366050955,/g3t1_2,,running
Status,1041,16366472633,/g3t1_2,,success
Status,1042,16386212858,/g3t1_4,,running
Status,1043,16386261758,/g3t1_2,,running
Status,1044,16386907329,/g3t1_2,,success
Status,1045,16392303344,/g3t1_4,,success
Status,1046,16406332709,/g3t1_2,,running
Status,1047,16406571025,/g3t1_2,,success
Status,1048,16426483758,/g3t1_2,,running
Status,1049,16426670208,/g3t1_2,,success
Status,1050,16447128356,/g3t1_2,,running
Status,1051,16447176191,/g3t1_2,,success
Status,1052,16463530604,/g4t1,,success
Status,1053,16466584622,/g3t1_2,,running
Status,1054,16466704836,/g3t1_2,,success
Status,1055,16486110637,/g3t1_4,,running
Status,1056,16486835110,/g3t1_2,,running
Status,1057,16486886393,/g3t1_2,,success
Status,1058,16491574849,/g3t1_4,,success
Status,1059,16506800053,/g3t1_2,,running
Status,1060,16506955199,/g3t1_2,,success
Status,1061,16526873129,/g3t1_2,,running
Status,1062,16527096059,/g3t1_2,,success
Status,1063,16547149413,/g3t1_2,,running
Status,1064,16547522390,/g3t1_2,,success
Status,1065,16563073315,/g3t1_1,,running
Status,1066,16563264126,/g3t1_1,,success
Status,1067,16563560171,/g4t1,,success
Status,1068,16567027943,/g3t1_2,,running
Status,1069,16567215758,/g3t1_2,,success
Status,1070,16586195670,/g3t1_4,,running
Status,1071,16587356362,/g3t1_2,,running
Status,1072,16587394193,/g3t1_2,,success
Status,1073,16592514429,/g3t1_4,,success
Status,1074,16607435751,/g3t1_2,,running
Status,1075,16607591335,/g3t1_2,,success
Status,1076,16627308150,/g3t1_2,,running
Status,1077,16627472233,/g3t1_2,,success
Status,1078,16647409636,/g3t1_2,,running
Status,1079,16647761988,/g3t1_2,,success
Status,1080,16664026646,/g4t1,,success
Status,1081,16667652790,/g3t1_2,,running
Status,1082,16667790615,/g3t1_2,,success
Status,1083,16686630932,/g3t1_4,,running
Status,1084,16687863789,/g3t1_2,,running
Status,1085,16688288398,/g3t1_2,,success
Status,1086,16692519533,/g3t1_4,,success
Status,1087,16708408486,/g3t1_2,,running
Status,1088,16708470231,/g3t1_2,,success
Status,1089,16727883854,/g3t1_2,,running
Status,1090,16728042872,/g3t1_2,,success
Status,1091,16748017434,/g3t1_2,,running
Status,1092,16748239299,/g3t1_2,,success
Status,1093,16763995680,/g4t1,,success
Status,1094,16768212917,/g3t1_2,,running
Status,1095,16768249182,/g3t1_2,,success
Status,1096,16786854707,/g3t1_4,,running
Status,1097,16788176693,/g3t1_2,,running
Status,1098,16788811435,/g3t1_2,,success
Status,1099,16794033944,/g3t1_4,,success
Status,1100,16808221121,/g3t1_2,,running
Status,1101,16808642104,/g3t1_2,,success
Status,1102,16829000583,/g3t1_2,,running
Status,1103,16829047736,/g3t1_2,,success
Status,1104,16848619721,/g3t1_2,,running
Status,1105,16848657503,/g3t1_2,,success
Status,1106,16863840937,/g4t1,,success
Status,1107,16868651905,/g3t1_2,,running
Status,1108,16869061997,/g3t1_2,,success
Status,1109,16886519384,/g3t1_4,,running
Status,1110,16888604057,/g3t1_2,,running
Status,1111,16888943909,/g3t1_2,,success
Status,1112,16893187529,/g3t1_4,,success
Status,1113,16908737803,/g3t1_2,,running
Status,1114,16908945684,/g3t1_2,,success
Status,1115,16929199361,/g3t1_2,,running
Status,1116,16929899906,/g3t1_2,,success
Status,1117,16948875572,/g3t1_2,,running
Status,1118,16949047367,/g3t1_2,,success
Status,1119,16963999023,/g4t1,,success
Status,1120,16968967056,/g3t1_2,,running
Status,1121,16969141877,/g3t1_2,,success
Status,1122,16974060914,/g3t1_3,,running
Status,1123,16974347252,/g3t1_3,,success
Status,1124,16986548570,/g3t1_4,,running
Status,1125,16989020110,/g3t1_2,,running
Status,1126,16989424033,/g3t1_2,,success
Status,1127,16996970295,/g3t1_4,,success
Status,1128,17009293891,/g3t1_2,,running
Status,1129,17009338079,/g3t1_2,,success
Status,1130,17029753440,/g3t1_2,,running
Status,1131,17030287407,/g3t1_2,,success
Status,1132,17049547860,/g3t1_2,,running
Status,1133,17049969765,/g3t1_2,,success
Status,1134,17063160813,/g3t1_1,,running
Status,1135,17063374805,/g3t1_1,,success
Status,1136,17063951223,/g4t1,,success
Status,1137,17069620410,/g3t1_2,,running
Status,1138,17069820345,/g3t1_2,,success
Status,1139,17086853529,/g3t1_4,,running
Status,1140,17089641341,/g3t1_2,,running
Status,1141,17090030905,/g3t1_2,,success
Status,1142,17092025008,/g3t1_4,,success
Status,1143,17109761182,/g3t1_2,,running
Status,1144,17109892406,/g3t1_2,,success
Status,1145,17130266589,/g3t1_2,,running
Status,1146,17130515667,/g3t1_2,,success
Status,1147,17150088861,/g3t1_2,,running
Status,1148,17150338795,/g3t1_2,,success
Status,1149,17164216877,/g4t1,,success
Status,1150,17170184909,/g3t1_2,,running
Status,1151,17170486479,/g3t1_2,,success
Status,1152,17187523237,/g3t1_4,,running
Status,1153,17190501083,/g3t1_2,,running
Status,1154,17190887179,/g3t1_2,,success
Status,1155,17196016957,/g3t1_4,,success
Status,1156,17210627127,/g3t1_2,,running
Status,1157,17211339453,/g3t1_2,,success
Status,1158,17230779697,/g3t1_2,,running
Status,1159,17231180102,/g3t1_2,,success
Status,1160,17251001497,/g3t1_2,,running
Status,1161,17251538659,/g3t1_2,,success
Status,1162,17264623949,/g4t1,,success
Status,1163,17270722124,/g3t1_2,,running
Status,1164,17270765936,/g3t1_2,,success
Status,1165,17286942859,/g3t1_4,,running
Status,1166,17290661690,/g3t1_2,,running
Status,1167,17291204172,/g3t1_2,,success
Status,1168,17291385441,/g3t1_4,,success
Status,1169,17310901669,/g3t1_2,,running
Status,1170,17311260879,/g3t1_2,,success
Status,1171,17330952432,/g3t1_2,,running
Status,1172,17331158022,/g3t1_2,,success
Status,1173,17351108810,/g3t1_2,,running
Status,1174,17351484076,/g3t1_2,,success
Status,1175,17364237897,/g4t1,,success
Status,1176,17371277213,/g3t1_2,,running
Status,1177,17371463394,/g3t1_2,,success
Status,1178,17387371428,/g3t1_4,,running
Status,1179,17391603945,/g3t1_2,,running
Status,1180,17392695017,/g3t1_2,,success
Status,1181,17396801752,/g3t1_4,,success
Status,1182,17411478184,/g3t1_2,,running
Status,1183,17411908814,/g3t1_2,,success
Status,1184,17431599849,/g3t1_2,,running
Status,1185,17431641887,/g3t1_2,,success
Status,1186,17451676257,/g3t1_2,,running
Status,1187,17451817693,/g3t1_2,,success
Status,1188,17464389544,/g4t1,,success
Status,1189,17471965067,/g3t1_2,,running
Status,1190,17472232946,/g3t1_2,,success
Status,1191,17487149490,/g3t1_4,,running
Status,1192,17491229014,/g3t1_4,,success
Status,1193,17491777061,/g3t1_2,,running
Status,1194,17491992280,/g3t1_2,,success
Status,1195,17512344260,/g3t1_2,,running
Status,1196,17512393924,/g3t1_2,,success
Status,1197,17531956584,/g3t1_2,,running
Status,1198,17532079449,/g3t1_2,,success
Status,1199,17552623162,/g3t1_2,,running
Status,1200,17552791540,/g3t1_2,,success
Status,1201,17562838249,/g3t1_1,,running
Status,1202,17563025904,/g3t1_1,,success
Status,1203,17564518574,/g4t1,,success
Status,1204,17572305424,/g3t1_2,,running
Status,1205,17572821131,/g3t1_2,,success
Status,1206,17587400345,/g3t1_4,,running
Status,1207,17592788415,/g3t1_2,,running
Status,1208,17592828952,/g3t1_2,,success
Status,1209,17592878073,/g3t1_4,,success
Status,1210,17612732468,/g3t1_2,,running
Status,1211,17613083069,/g3t1_2,,success
Status,1212,17632738847,/g3t1_2,,running
Status,1213,17632771312,/g3t1_2,,success
Status,1214,17652614643,/g3t1_2,,running
Status,1215,17652800196,/g3t1_2,,success
Status,1216,17664576466,/g4t1,,success
Status,1217,17673018441,/g3t1_2,,running
Status,1218,17673229113,/g3t1_2,,success
Status,1219,17687692302,/g3t1_4,,running
Status,1220,17693393379,/g3t1_2,,running
Status,1221,17693965215,/g3t1_2,,success
Status,1222,17697030723,/g3t1_4,,success
Status,1223,17713458654,/g3t1_2,,running
Status,1224,17713576882,/g3t1_2,,success
Status,1225,17733931675,/g3t1_2,,running
Status,1226,17734273419,/g3t1_2,,success
Status,1227,17753997391,/g3t1_2,,running
Status,1228,17754054959,/g3t1_2,,success
Status,1229,17765381717,/g4t1,,success
Status,1230,17774238800,/g3t1_2,,running
Status,1231,17774567824,/g3t1_2,,success
Status,1232,17788123279,/g3t1_4,,running
Status,1233,17794342146,/g3t1_2,,running
Status,1234,17794867506,/g3t1_2,,success
Status,1235,17796198498,/g3t1_4,,success
Status,1236,17813991443,/g3t1_2,,running
Status,1237,17814441143,/g3t1_2,,success
Status,1238,17834478821,/g3t1_2,,running
Status,1239,17835087133,/g3t1_2,,success
Status,1240,17854337571,/g3t1_2,,running
Status,1241,17854672376,/g3t1_2,,success
Status,1242,17865344550,/g4t1,,success
Status,1243,17874925418,/g3t1_2,,running
Status,1244,17874980600,/g3t1_2,,success
Status,1245,17888082231,/g3t1_4,,running
Status,1246,17895045746,/g3t1_2,,running
Status,1247,17895100658,/g3t1_2,,success
Status,1248,17896772302,/g3t1_4,,success
Status,1249,17914699793,/g3t1_2,,running
Status,1250,17915055137,/g3t1_2,,success
Status,1251,17934924317,/g3t1_2,,running
Status,1252,17935244886,/g3t1_2,,success
Status,1253,17955010967,/g3t1_2,,running
Status,1254,17955711071,/g3t1_2,,success
Status,1255,17965600458,/g4t1,,success
Status,1256,17974756050,/g3t1_3,,running
Status,1257,17974821897,/g3t1_2,,running
Status,1258,17975174233,/g3t1_3,,success
Status,1259,17975492978,/g3t1_2,,success
Status,1260,17988022259,/g3t1_4,,running
Status,1261,17995106120,/g3t1_2,,running
Status,1262,17995521223,/g3t1_2,,success
Status,1263,17996081864,/g3t1_4,,success
Status,1264,18015404283,/g3t1_2,,running
Status,1265,18015462100,/g3t1_2,,success
Status,1266,18035606099,/g3t1_2,,running
Status,1267,18035672204,/g3t1_2,,success
Status,1268,18055328977,/g3t1_2,,running
Status,1269,18055877505,/g3t1_2,,success
Status,1270,18063185214,/g3t1_1,,running
Status,1271,18063628399,/g3t1_1,,success
Status,1272,18065470405,/g4t1,,success
Status,1273,18075262130,/g3t1_2,,running
Status,1274,18075289795,/g3t1_2,,success
Status,1275,18088511389,/g3t1_4,,running
Status,1276,18095694430,/g3t1_2,,running
Status,1277,18096399790,/g3t1_2,,success
Status,1278,18098011692,/g3t1_4,,success
Status,1279,18116025716,/g3t1_2,,running
Status,1280,18116327880,/g3t1_2,,success
Status,1281,18136157559,/g3t1_2,,running
Status,1282,18136538127,/g3t1_2,,success
Status,1283,18156221224,/g3t1_2,,running
Status,1284,18156768017,/g3t1_2,,success
Status,1285,18165953182,/g4t1,,success
Status,1286,18176289762,/g3t1_2,,running
Status,1287,18176584613,/g3t1_2,,success
Status,1288,18188521797,/g3t1_4,,running
Status,1289,18196280340,/g3t1_2,,running
Status,1290,18196904749,/g3t1_2,,success
Status,1291,18197121625,/g3t1_4,,success
Status,1292,18216553262,/g3t1_2,,running
Status,1293,18216919514,/g3t1_2,,success
Status,1294,18236503146,/g3t1_2,,running
Status,1295,18237061065,/g3t1_2,,success
Status,1296,18256809333,/g3t1_2,,running
Status,1297,18257261382,/g3t1_2,,success
Status,1298,18265764028,/g4t1,,success
Status,1299,18277229257,/g3t1_2,,running
Status,1300,18277846178,/g3t1_2,,success
Status,1301,18288508199,/g3t1_4,,running
Status,1302,18296020070,/g3t1_4,,success
Status,1303,18297061828,/g3t1_2,,running
Status,1304,18297693190,/g3t1_2,,success
Status,1305,18317933309,/g3t1_2,,running
Status,1306,18317993736,/g3t1_2,,success
Status,1307,18337421313,/g3t1_2,,running
Status,1308,18337696184,/g3t1_2,,success
Status,1309,18357889912,/g3t1_2,,running
Status,1310,18357988360,/g3t1_2,,success
Status,1311,18366057013,/g4t1,,success
Status,1312,18378461529,/g3t1_2,,running
Status,1313,18378541025,/g3t1_2,,success
Status,1314,18388661288,/g3t1_4,,running
Status,1315,18395608175,/g3t1_4,,success
Status,1316,18397949900,/g3t1_2,,running
Status,1317,18398307418,/g3t1_2,,success
Status,1318,18418319334,/g3t1_2,,running
Status,1319,18419045781,/g3t1_2,,success
Status,1320,18438399025,/g3t1_2,,running
Status,1321,18438460763,/g3t1_2,,success
Status,1322,18458380372,/g3t1_2,,running
Status,1323,18458727629,/g3t1_2,,success
Status,1324,18466099726,/g4t1,,success
Status,1325,18478500049,/g3t1_2,,running
Status,1326,18478923697,/g3t1_2,,success
Status,1327,18488613362,/g3t1_4,,running
Status,1328,18496791433,/g3t1_4,,success
Status,1329,18498468770,/g3t1_2,,running
Status,1330,18499251061,/g3t1_2,,success
Status,1331,18518706451,/g3t1_2,,running
Status,1332,18518953766,/g3t1_2,,success
Status,1333,18539064331,/g3t1_2,,running
Status,1334,18539124950,/g3t1_2,,success
Status,1335,18559034742,/g3t1_2,,running
Status,1336,18559384247,/g3t1_2,,success
Status,1337,18563161841,/g3t1_1,,running
Status,1338,18563425537,/g3t1_1,,success
Status,1339,18566054771,/g4t1,,success
Status,1340,18578958298,/g3t1_2,,running
Status,1341,18579344688,/g3t1_2,,success
Status,1343,18588957436,/g3t1_4,,running
Status,1344,18599048165,/g3t1_2,,running
Status,1345,18599342800,/g3t1_2,,success
Status,1346,18601127729,/g3t1_4,,success
Status,1347,18619275052,/g3t1_2,,running
Status,1348,18619722776,/g3t1_2,,success
Status,1349,18639520549,/g3t1_2,,running
Status,1350,18639849750,/g3t1_2,,success
Status,1351,18659530601,/g3t1_2,,running
Status,1352,18659883528,/g3t1_2,,success
Status,1353,18665795369,/g4t1,,success
Status,1354,18679203690,/g3t1_2,,running
Status,1355,18679543863,/g3t1_2,,success
Status,1356,18688582287,/g3t1_4,,running
Status,1357,18693099959,/g3t1_4,,success
Status,1358,18699386186,/g3t1_2,,running
Status,1359,18699514740,/g3t1_2,,success
Status,1360,18719894995,/g3t1_2,,running
Status,1361,18719944461,/g3t1_2,,success
Status,1362,18740295870,/g3t1_2,,running
Status,1363,18740882005,/g3t1_2,,success
Status,1364,18760362568,/g3t1_2,,running
Status,1365,18761144727,/g3t1_2,,success
Status,1366,18766644332,/g4t1,,success
Status,1367,18780515847,/g3t1_2,,running
Status,1368,18780867884,/g3t1_2,,success
Status,1370,18789142947,/g3t1_4,,running
Status,1371,18797447180,/g3t1_4,,success
Status,1372,18800519205,/g3t1_2,,running
Status,1373,18800877407,/g3t1_2,,success
Status,1374,18821080455,/g3t1_2,,running
Status,1375,18821366391,/g3t1_2,,success
Status,1376,18841123445,/g3t1_2,,running
Status,1377,18841213645,/g3t1_2,,success
Status,1378,18860992421,/g3t1_2,,running
Status,1379,18861637865,/g3t1_2,,success
Status,1380,18866761544,/g4t1,,success
Status,1381,18881162233,/g3t1_2,,running
Status,1382,18881652959,/g3t1_2,,success
Status,1383,18889122841,/g3t1_4,,running
Status,1384,18895898245,/g3t1_4,,success
Status,1385,18901344720,/g3t1_2,,running
Status,1386,18901953355,/g3t1_2,,success
Status,1387,18921645737,/g3t1_2,,running
Status,1388,18922738778,/g3t1_2,,success
Status,1389,18941651868,/g3t1_2,,running
Status,1390,18941902586,/g3t1_2,,success
Status,1391,18961498123,/g3t1_2,,running
Status,1392,18961850189,/g3t1_2,,success
Status,1393,18966818886,/g4t1,,success
Status,1394,18975200003,/g3t1_3,,running
Status,1395,18975279032,/g3t1_3,,success
Status,1397,18982291049,/g3t1_2,,running
Status,1398,18982573472,/g3t1_2,,success
Status,1399,18989254880,/g3t1_4,,running
Status,1400,18997062921,/g3t1_4,,success
Status,1401,19002149760,/g3t1_2,,running
Status,1402,19002545904,/g3t1_2,,success
Status,1403,19022185027,/g3t1_2,,running
Status,1404,19022550372,/g3t1_2,,success
Status,1405,19042542811,/g3t1_2,,running
Status,1406,19043355389,/g3t1_2,,success
Status,1407,19062544326,/g3t1_2,,running
Status,1408,19062891055,/g3t1_2,,success
Status,1409,19063395951,/g3t1_1,,running
Status,1410,19063869523,/g3t1_1,,fail
Status,1411,19066795458,/g4t1,,success
Status,1412,19082947358,/g3t1_2,,running
Status,1413,19083198783,/g3t1_2,,success
Status,1414,19089314441,/g3t1_4,,running
Status,1415,19098843552,/g3t1_4,,success
Status,1416,19102714723,/g3t1_2,,running
Status,1417,19103051539,/g3t1_2,,success
Status,1418,19122740390,/g3t1_2,,running
Status,1419,19123268830,/g3t1_2,,success
Status,1420,19143135614,/g3t1_2,,running
Status,1421,19143209847,/g3t1_2,,success
Status,1422,19163028354,/g3t1_2,,running
Status,1423,19163401275,/g3t1_2,,success
Status,1424,19166819121,/g4t1,,success
Status,1426,19183243189,/g3t1_2,,running
Status,1427,19183706481,/g3t1_2,,success
Status,1428,19189570024,/g3t1_4,,running
Status,1429,19198169359,/g3t1_4,,success
Status,1430,19203258577,/g3t1_2,,running
Status,1431,19203813069,/g3t1_2,,success
Status,1432,19223589631,/g3t1_2,,running
Status,1433,19224093104,/g3t1_2,,success
Status,1434,19243692826,/g3t1_2,,running
Status,1435,19244260507,/g3t1_2,,success
Status,1436,19263923891,/g3t1_2,,running
Status,1437,19264224630,/g3t1_2,,success
Status,1438,19267047600,/g4t1,,success
Status,1439,19283963907,/g3t1_2,,running
Status,1440,19284050183,/g3t1_2,,success
Status,1441,19289664985,/g3t1_4,,running
Status,1442,19297756326,/g3t1_4,,success
Status,1443,19303977645,/g3t1_2,,running
Status,1444,19304438501,/g3t1_2,,success
Status,1445,19324125701,/g3t1_2,,running
Status,1446,19324507991,/g3t1_2,,success
Status,1447,19344565264,/g3t1_2,,running
Status,1448,19344766026,/g3t1_2,,success
Status,1449,19364976168,/g3t1_2,,running
Status,1450,19365060745,/g3t1_2,,success
Status,1451,19367253284,/g4t1,,success
Status,1453,19384534095,/g3t1_2,,running
Status,1454,19384834502,/g3t1_2,,success
Status,1455,19389782680,/g3t1_4,,running
Status,1456,19397626011,/g3t1_4,,success
Status,1457,19404911503,/g3t1_2,,running
Status,1458,19405680481,/g3t1_2,,success
Status,1459,19424758434,/g3t1_2,,running
Status,1460,19425143801,/g3t1_2,,success
Status,1461,19445332226,/g3t1_2,,running
Status,1462,19445468548,/g3t1_2,,success
Status,1463,19465385640,/g3t1_2,,running
Status,1464,19465773408,/g3t1_2,,success
Status,1465,19467200036,/g4t1,,success
Status,1466,19485485939,/g3t1_2,,running
Status,1467,19485785589,/g3t1_2,,success
Status,1468,19489756004,/g3t1_4,,running
Status,1469,19496739467,/g3t1_4,,success
Status,1470,19505856093,/g3t1_2,,running
Status,1471,19505930189,/g3t1_2,,success
Status,1472,19525962053,/g3t1_2,,running
Status,1473,19526427204,/g3t1_2,,success
Status,1474,19546122712,/g3t1_2,,running
Status,1475,19546179964,/g3t1_2,,success
Status,1476,19563797090,/g3t1_1,,running
Status,1477,19563860336,/g3t1_1,,fail
Status,1478,19565883670,/g3t1_2,,running
Status,1479,19566265082,/g3t1_2,,success
Status,1480,19567370096,/g4t1,,success
Status,1482,19586343008,/g3t1_2,,running
Status,1483,19586631123,/g3t1_2,,success
Status,1484,19589907395,/g3t1_4,,running
Status,1485,19597457660,/g3t1_4,,success
Status,1486,19606355661,/g3t1_2,,running
Status,1487,19606938732,/g3t1_2,,success
Status,1488,19626476676,/g3t1_2,,running
Status,1489,19627040575,/g3t1_2,,success
Status,1490,19646678108,/g3t1_2,,running
Status,1491,19646740263,/g3t1_2,,success
Status,1492,19666800358,/g3t1_2,,running
Status,1493,19667490215,/g3t1_2,,success
Status,1494,19667571364,/g4t1,,success
Status,1495,19686687289,/g3t1_2,,running
Status,1496,19687009415,/g3t1_2,,success
Status,1497,19690182237,/g3t1_4,,running
Status,1498,19699575445,/g3t1_4,,success
Status,1499,19706864078,/g3t1_2,,running
Status,1500,19707373851,/g3t1_2,,success
Status,1501,19727257723,/g3t1_2,,running
Status,1502,19727675458,/g3t1_2,,success
Status,1503,19747256225,/g3t1_2,,running
Status,1504,19747801811,/g3t1_2,,success
Status,1505,19767526053,/g3t1_2,,running
Status,1506,19767598733,/g4t1,,success
Status,1507,19767959027,/g3t1_2,,success
Status,1509,19787583318,/g3t1_2,,running
Status,1510,19788512187,/g3t1_2,,success
Status,1511,19790359715,/g3t1_4,,running
Status,1512,19799839915,/g3t1_4,,success
