
Status,2,3269823089,/g4t1,,init
Status,3,8480871740,/g3t1_1,,init
Status,5,8497967549,/g3t1_1,,init
Status,6,8498001914,/g3t1_1,,running
Status,7,8499195438,/g3t1_1,,success
Status,8,8597984733,/g3t1_1,,running
Status,9,8598553634,/g3t1_1,,success
Status,11,8685447857,/g3t1_2,,init
Status,12,8698146906,/g3t1_1,,running
Status,13,8698189526,/g3t1_1,,success
Status,14,8703338303,/g3t1_2,,init
Status,15,8703370857,/g3t1_2,,running
Status,16,8704270204,/g3t1_2,,success
Status,17,8798119723,/g3t1_1,,running
Status,18,8798262564,/g3t1_1,,success
Status,19,8803304563,/g3t1_2,,running
Status,20,8803585697,/g3t1_2,,success
Status,21,8812605964,/g4t1,,success
Status,22,8888364662,/g3t1_3,,init
Status,24,8898300323,/g3t1_1,,running
Status,25,8898366700,/g3t1_1,,success
Status,26,8903588039,/g3t1_2,,running
Status,27,8903748997,/g3t1_2,,success
Status,28,8904765397,/g3t1_3,,init
Status,29,8904813862,/g3t1_3,,running
Status,30,8905941843,/g3t1_3,,success
Status,31,8913152830,/g4t1,,success
Status,32,8933259548,/g4t1,,success
Status,33,8998369076,/g3t1_1,,running
Status,34,8998484635,/g3t1_1,,success
Status,35,9003539804,/g3t1_2,,running
Status,36,9003775156,/g3t1_2,,success
Status,37,9004856876,/g3t1_3,,running
Status,38,9005030920,/g3t1_3,,success
Status,39,9013486092,/g4t1,,success
Status,40,9033691151,/g4t1,,success
Status,41,9053758742,/g4t1,,success
Status,42,9073861524,/g4t1,,success
Status,43,9098659902,/g3t1_1,,running
Status,44,9098694037,/g3t1_1,,success
Status,45,9103796438,/g3t1_2,,running
Status,46,9103933004,/g3t1_2,,success
Status,47,9105029553,/g3t1_3,,running
Status,48,9105145689,/g3t1_3,,success
Status,49,9113903632,/g4t1,,success
Status,50,9134131394,/g4t1,,success
Status,51,9154220947,/g4t1,,success
Status,52,9174326708,/g4t1,,success
Status,53,9194281940,/g4t1,,success
Status,54,9198508625,/g3t1_1,,running
Status,55,9198729085,/g3t1_1,,success
Status,56,9203952407,/g3t1_2,,running
Status,57,9204117729,/g3t1_2,,success
Status,58,9205114033,/g3t1_3,,running
Status,59,9205223307,/g3t1_3,,success
Status,60,9214416535,/g4t1,,fail
Status,61,9234428492,/g4t1,,success
Status,62,9254649497,/g4t1,,success
Status,63,9274739749,/g4t1,,success
Status,64,9294795794,/g4t1,,success
Status,65,9298577064,/g3t1_1,,running
Status,66,9298874578,/g3t1_1,,success
Status,67,9303790010,/g3t1_2,,running
Status,68,9303936605,/g3t1_2,,success
Status,69,9305117378,/g3t1_3,,running
Status,70,9305257122,/g3t1_3,,success
Status,71,9314871255,/g4t1,,fail
Status,72,9335004687,/g4t1,,success
Status,73,9355096894,/g4t1,,success
Status,74,9375133281,/g4t1,,success
Status,75,9395273867,/g4t1,,success
Status,76,9398714274,/g3t1_1,,running
Status,77,9398860799,/g3t1_1,,success
Status,78,9403819127,/g3t1_2,,running
Status,79,9404014739,/g3t1_2,,success
Status,80,9405227246,/g3t1_3,,running
Status,81,9405390747,/g3t1_3,,success
Status,82,9415261888,/g4t1,,fail
Status,83,9435422436,/g4t1,,success
Status,84,9455511905,/g4t1,,success
Status,85,9475571493,/g4t1,,success
Status,86,9495641405,/g4t1,,success
Status,87,9498923279,/g3t1_1,,running
Status,88,9499190697,/g3t1_1,,success
Status,89,9504091719,/g3t1_2,,running
Status,90,9504260910,/g3t1_2,,success
Status,91,9505301320,/g3t1_3,,running
Status,92,9505439165,/g3t1_3,,success
Status,93,9515706534,/g4t1,,fail
Status,94,9535892634,/g4t1,,success
Status,95,9556060917,/g4t1,,success
Status,96,9576113937,/g4t1,,success
Status,97,9596198582,/g4t1,,success
Status,98,9599000832,/g3t1_1,,running
Status,99,9599225382,/g3t1_1,,success
Status,100,9604246538,/g3t1_2,,running
Status,101,9604274141,/g3t1_2,,success
Status,102,9605348123,/g3t1_3,,running
Status,103,9605697557,/g3t1_3,,success
Status,104,9616194912,/g4t1,,fail
Status,105,9636565228,/g4t1,,success
Status,106,9656499377,/g4t1,,success
Status,107,9676566364,/g4t1,,success
Status,108,9696636724,/g4t1,,success
Status,109,9699000214,/g3t1_1,,running
Status,110,9699304612,/g3t1_1,,success
Status,111,9704371281,/g3t1_2,,running
Status,112,9704402020,/g3t1_2,,success
Status,113,9705429312,/g3t1_3,,running
Status,114,9705592997,/g3t1_3,,success
Status,115,9716702579,/g4t1,,fail
Status,116,9736952040,/g4t1,,success
Status,117,9756903670,/g4t1,,success
Status,118,9777035883,/g4t1,,success
Status,119,9797078598,/g4t1,,success
Status,120,9799007043,/g3t1_1,,running
Status,121,9799153824,/g3t1_1,,success
Status,122,9804119734,/g3t1_2,,running
Status,123,9804238916,/g3t1_2,,success
Status,124,9805486578,/g3t1_3,,running
Status,125,9805703213,/g3t1_3,,success
Status,126,9817244628,/g4t1,,fail
Status,127,9837459214,/g4t1,,success
Status,128,9857495701,/g4t1,,success
Status,129,9877614291,/g4t1,,success
Status,130,9897687729,/g4t1,,success
Status,131,9899129450,/g3t1_1,,running
Status,132,9899301671,/g3t1_1,,success
Status,133,9904154135,/g3t1_2,,running
Status,134,9904446579,/g3t1_2,,success
Status,135,9905591502,/g3t1_3,,running
Status,136,9905789123,/g3t1_3,,success
Status,137,9917780601,/g4t1,,fail
Status,138,9937836229,/g4t1,,success
Status,139,9957947622,/g4t1,,success
Status,140,9978026116,/g4t1,,success
Status,141,9998105581,/g4t1,,success
Status,142,9999100873,/g3t1_1,,running
Status,143,9999350991,/g3t1_1,,success
Status,144,10004308558,/g3t1_2,,running
Status,145,10004630619,/g3t1_2,,success
Status,146,10005646415,/g3t1_3,,running
Status,147,10005850437,/g3t1_3,,success
Status,148,10018201745,/g4t1,,fail
Status,149,10038370766,/g4t1,,success
Status,150,10058406406,/g4t1,,success
Status,151,10078519139,/g4t1,,success
Status,152,10098552599,/g4t1,,success
Status,153,10099209108,/g3t1_1,,running
Status,154,10099430711,/g3t1_1,,success
Status,155,10104444973,/g3t1_2,,running
Status,156,10104597002,/g3t1_2,,success
Status,157,10105696115,/g3t1_3,,running
Status,158,10105931051,/g3t1_3,,success
Status,159,10118633312,/g4t1,,fail
Status,160,10138820141,/g4t1,,success
Status,161,10158861346,/g4t1,,success
Status,162,10178904066,/g4t1,,success
Status,163,10199057419,/g4t1,,success
Status,164,10199496652,/g3t1_1,,running
Status,165,10199527959,/g3t1_1,,success
Status,166,10204526361,/g3t1_2,,running
Status,167,10204626781,/g3t1_2,,success
Status,168,10205792900,/g3t1_3,,running
Status,169,10205947161,/g3t1_3,,success
Status,170,10219125624,/g4t1,,fail
Status,171,10239313066,/g4t1,,success
Status,172,10259386950,/g4t1,,success
Status,173,10279459804,/g4t1,,success
Status,174,10299508513,/g3t1_1,,running
Status,175,10299538032,/g4t1,,success
Status,176,10299561429,/g3t1_1,,success
Status,177,10304869521,/g3t1_2,,running
Status,178,10304901205,/g3t1_2,,success
Status,179,10305858027,/g3t1_3,,running
Status,180,10306109944,/g3t1_3,,success
Status,181,10319591636,/g4t1,,fail
Status,182,10339737379,/g4t1,,success
Status,183,10359846770,/g4t1,,success
Status,184,10379949160,/g4t1,,success
Status,185,10399587065,/g3t1_1,,running
Status,186,10399731147,/g3t1_1,,success
Status,187,10399957560,/g4t1,,fail
Status,188,10404600545,/g3t1_2,,running
Status,189,10404815525,/g3t1_2,,success
Status,190,10405986649,/g3t1_3,,running
Status,191,10406139614,/g3t1_3,,success
Status,192,10420319336,/g4t1,,fail
Status,193,10440255132,/g4t1,,success
Status,194,10460336015,/g4t1,,success
Status,195,10480398678,/g4t1,,success
Status,196,10499833218,/g3t1_1,,running
Status,197,10499867424,/g3t1_1,,success
Status,198,10500217190,/g4t1,,fail
Status,199,10504766196,/g3t1_2,,running
Status,200,10505015756,/g3t1_2,,success
Status,201,10506059103,/g3t1_3,,running
Status,202,10506294681,/g3t1_3,,success
Status,203,10520549430,/g4t1,,fail
Status,204,10540684927,/g4t1,,success
Status,205,10560652997,/g4t1,,success
Status,206,10581239990,/g4t1,,success
Status,207,10599787730,/g3t1_1,,running
Status,208,10600021031,/g3t1_1,,success
Status,209,10601121456,/g4t1,,fail
Status,210,10605410687,/g3t1_2,,running
Status,211,10605511986,/g3t1_2,,success
Status,212,10606572937,/g3t1_3,,running
Status,213,10606853695,/g3t1_3,,success
Status,214,10621372060,/g4t1,,fail
Status,215,10640993434,/g4t1,,success
Status,216,10661146506,/g4t1,,success
Status,217,10681148886,/g4t1,,success
Status,218,10699903692,/g3t1_1,,running
Status,219,10700222941,/g3t1_1,,success
Status,220,10701356222,/g4t1,,fail
Status,221,10705380148,/g3t1_2,,running
Status,222,10705425655,/g3t1_2,,success
Status,223,10706147651,/g3t1_3,,running
Status,224,10706353293,/g3t1_3,,success
Status,225,10721685079,/g4t1,,fail
Status,226,10741465013,/g4t1,,success
Status,227,10761580635,/g4t1,,success
Status,228,10781795025,/g4t1,,success
Status,229,10799893492,/g3t1_1,,running
Status,230,10800194392,/g3t1_1,,success
Status,231,10801587411,/g4t1,,fail
Status,232,10805410575,/g3t1_2,,running
Status,233,10805442131,/g3t1_2,,success
Status,234,10806462721,/g3t1_3,,running
Status,235,10806673222,/g3t1_3,,success
Status,236,10821901169,/g4t1,,fail
Status,237,10842046057,/g4t1,,success
Status,238,10862174415,/g4t1,,success
Status,239,10882114880,/g4t1,,success
Status,240,10900110188,/g3t1_1,,running
Status,241,10900236282,/g3t1_1,,success
Status,242,10902196867,/g4t1,,fail
Status,243,10905316016,/g3t1_2,,running
Status,244,10905492225,/g3t1_2,,success
Status,245,10906374674,/g3t1_3,,running
Status,246,10906577374,/g3t1_3,,success
Status,247,10922385755,/g4t1,,fail
Status,248,10942691339,/g4t1,,success
Status,249,10962767446,/g4t1,,success
Status,250,10982805660,/g4t1,,success
Status,251,11000229269,/g3t1_1,,running
Status,252,11000260367,/g3t1_1,,success
Status,253,11002848610,/g4t1,,fail
Status,254,11005567521,/g3t1_2,,running
Status,255,11005636140,/g3t1_2,,success
Status,256,11006412040,/g3t1_3,,running
Status,257,11006833327,/g3t1_3,,success
Status,258,11022933719,/g4t1,,fail
Status,259,11042873546,/g4t1,,success
Status,260,11063037937,/g4t1,,success
Status,261,11083244036,/g4t1,,success
Status,262,11100349437,/g3t1_1,,running
Status,263,11100392441,/g3t1_1,,success
Status,264,11103445307,/g4t1,,fail
Status,265,11105501416,/g3t1_2,,running
Status,266,11105534128,/g3t1_2,,success
Status,267,11106549125,/g3t1_3,,running
Status,268,11106760724,/g3t1_3,,success
Status,269,11123459590,/g4t1,,fail
Status,270,11143361678,/g4t1,,success
Status,271,11163371156,/g4t1,,success
Status,272,11183575943,/g4t1,,success
Status,273,11200488675,/g3t1_1,,running
Status,274,11200515320,/g3t1_1,,success
Status,275,11204088689,/g4t1,,fail
Status,276,11205647773,/g3t1_2,,running
Status,277,11206038332,/g3t1_2,,success
Status,278,11206859327,/g3t1_3,,running
Status,279,11207024914,/g3t1_3,,success
Status,280,11223686403,/g4t1,,fail
Status,281,11243748896,/g4t1,,success
Status,282,11263846754,/g4t1,,success
Status,283,11283910447,/g4t1,,success
Status,284,11300468022,/g3t1_1,,running
Status,285,11300717370,/g3t1_1,,success
Status,286,11304175698,/g4t1,,fail
Status,287,11305582737,/g3t1_2,,running
Status,288,11305733719,/g3t1_2,,success
Status,289,11306691314,/g3t1_3,,running
Status,290,11306885899,/g3t1_3,,success
Status,291,11324172115,/g4t1,,fail
Status,292,11344271294,/g4t1,,success
Status,293,11364263346,/g4t1,,success
Status,294,11384517143,/g4t1,,success
Status,295,11400973196,/g3t1_1,,running
Status,296,11400999266,/g3t1_1,,success
Status,297,11404849778,/g4t1,,fail
Status,298,11405702115,/g3t1_2,,running
Status,299,11405914985,/g3t1_2,,success
Status,300,11406717246,/g3t1_3,,running
Status,301,11407003088,/g3t1_3,,success
Status,302,11424540334,/g4t1,,fail
Status,303,11444778216,/g4t1,,success
Status,304,11464775088,/g4t1,,success
Status,305,11484848978,/g4t1,,success
Status,306,11500574210,/g3t1_1,,running
Status,307,11500753099,/g3t1_1,,success
Status,308,11504978611,/g4t1,,fail
Status,309,11505778472,/g3t1_2,,running
Status,310,11505938306,/g3t1_2,,success
Status,311,11506869682,/g3t1_3,,running
Status,312,11506931191,/g3t1_3,,success
Status,313,11525049963,/g4t1,,fail
Status,314,11545143615,/g4t1,,success
Status,315,11565120211,/g4t1,,success
Status,316,11585235157,/g4t1,,success
Status,317,11600580261,/g3t1_1,,running
Status,318,11600949512,/g3t1_1,,success
Status,319,11605455664,/g4t1,,success
Status,320,11605787782,/g3t1_2,,running
Status,321,11606089704,/g3t1_2,,success
Status,322,11606970966,/g3t1_3,,running
Status,323,11607094437,/g3t1_3,,success
Status,324,11625317480,/g4t1,,fail
Status,325,11645991564,/g4t1,,success
Status,326,11665615369,/g4t1,,success
Status,327,11685719370,/g4t1,,success
Status,328,11700841664,/g3t1_1,,running
Status,329,11700871654,/g3t1_1,,success
Status,330,11706006096,/g4t1,,fail
Status,331,11706044330,/g3t1_2,,running
Status,332,11706083513,/g3t1_2,,success
Status,333,11707145670,/g3t1_3,,running
Status,334,11707217062,/g3t1_3,,success
Status,335,11725923637,/g4t1,,fail
Status,336,11745918968,/g4t1,,success
Status,337,11766044440,/g4t1,,success
Status,338,11786186269,/g4t1,,success
Status,339,11800718375,/g3t1_1,,running
Status,340,11801110699,/g3t1_1,,success
Status,341,11806114420,/g3t1_2,,running
Status,342,11806137112,/g4t1,,success
Status,343,11806147629,/g3t1_2,,success
Status,344,11807026553,/g3t1_3,,running
Status,345,11807308331,/g3t1_3,,success
Status,346,11826380773,/g4t1,,fail
Status,347,11846460764,/g4t1,,success
Status,348,11866534498,/g4t1,,success
Status,349,11886680908,/g4t1,,success
Status,350,11900842624,/g3t1_1,,running
Status,351,11901121176,/g3t1_1,,success
Status,352,11906159204,/g3t1_2,,running
Status,353,11906393115,/g3t1_2,,success
Status,354,11906550304,/g4t1,,fail
Status,355,11907072486,/g3t1_3,,running
Status,356,11907316332,/g3t1_3,,success
Status,357,11926906817,/g4t1,,success
Status,358,11946924270,/g4t1,,success
Status,359,11967041028,/g4t1,,success
Status,360,11987129304,/g4t1,,success
Status,361,12000968061,/g3t1_1,,running
Status,362,12000997504,/g3t1_1,,success
Status,363,12006199173,/g3t1_2,,running
Status,364,12006321263,/g3t1_2,,success
Status,365,12007016149,/g4t1,,fail
Status,366,12007241985,/g3t1_3,,running
Status,367,12007408674,/g3t1_3,,success
Status,368,12027170159,/g4t1,,fail
Status,369,12047339091,/g4t1,,success
Status,370,12067329378,/g4t1,,success
Status,371,12087380251,/g4t1,,success
Status,372,12101046732,/g3t1_1,,running
Status,373,12101078372,/g3t1_1,,success
Status,374,12106463353,/g3t1_2,,running
Status,375,12106495576,/g3t1_2,,success
Status,376,12107257575,/g3t1_3,,running
Status,377,12107351957,/g4t1,,fail
Status,378,12107365650,/g3t1_3,,success
Status,379,12127626002,/g4t1,,success
Status,380,12147653604,/g4t1,,success
Status,381,12167946831,/g4t1,,success
Status,382,12187889085,/g4t1,,success
Status,383,12201018091,/g3t1_1,,running
Status,384,12201183079,/g3t1_1,,success
Status,385,12206419070,/g3t1_2,,running
Status,386,12206500511,/g3t1_2,,success
Status,387,12207362090,/g3t1_3,,running
Status,388,12207602059,/g3t1_3,,success
Status,389,12207740094,/g4t1,,fail
Status,390,12228129542,/g4t1,,success
Status,391,12248209457,/g4t1,,success
Status,392,12268292819,/g4t1,,success
Status,393,12288432510,/g4t1,,success
Status,394,12301238078,/g3t1_1,,running
Status,395,12301398012,/g3t1_1,,success
Status,396,12306771463,/g3t1_2,,running
Status,397,12306801513,/g3t1_2,,success
Status,398,12307453294,/g3t1_3,,running
Status,399,12307695991,/g3t1_3,,success
Status,400,12308147444,/g4t1,,fail
Status,401,12328463893,/g4t1,,success
Status,402,12348672182,/g4t1,,success
Status,403,12368775722,/g4t1,,success
Status,404,12388986652,/g4t1,,success
Status,405,12401288880,/g3t1_1,,running
Status,406,12401317165,/g3t1_1,,success
Status,407,12406643431,/g3t1_2,,running
Status,408,12406865668,/g3t1_2,,success
Status,409,12407420947,/g3t1_3,,running
Status,410,12407737598,/g3t1_3,,success
Status,411,12408614675,/g4t1,,fail
Status,412,12428975296,/g4t1,,success
Status,413,12449122471,/g4t1,,success
Status,414,12469211719,/g4t1,,success
Status,415,12489213731,/g4t1,,success
Status,416,12501595711,/g3t1_1,,running
Status,417,12501758926,/g3t1_1,,success
Status,418,12506765475,/g3t1_2,,running
Status,419,12506937416,/g3t1_2,,success
Status,420,12507659209,/g3t1_3,,running
Status,421,12507690432,/g3t1_3,,success
Status,422,12509147028,/g4t1,,fail
Status,423,12529433715,/g4t1,,success
Status,424,12549545804,/g4t1,,success
Status,425,12569679812,/g4t1,,success
Status,426,12590159821,/g4t1,,success
Status,427,12601851605,/g3t1_1,,running
Status,428,12601886037,/g3t1_1,,success
Status,429,12606963618,/g3t1_2,,running
Status,430,12607247476,/g3t1_2,,success
Status,431,12607643851,/g3t1_3,,running
Status,432,12607738389,/g3t1_3,,success
Status,433,12609554455,/g4t1,,fail
Status,434,12629992352,/g4t1,,success
Status,435,12650041292,/g4t1,,success
Status,436,12670688039,/g4t1,,success
Status,437,12690288078,/g4t1,,success
Status,438,12702015377,/g3t1_1,,running
Status,439,12702422604,/g3t1_1,,success
Status,440,12706952493,/g3t1_2,,running
Status,441,12707053105,/g3t1_2,,success
Status,442,12707684551,/g3t1_3,,running
Status,443,12707807062,/g3t1_3,,success
Status,444,12710097937,/g4t1,,fail
Status,445,12730458947,/g4t1,,success
Status,446,12750514435,/g4t1,,success
Status,447,12770686380,/g4t1,,success
Status,448,12790761674,/g4t1,,success
Status,449,12801919428,/g3t1_1,,running
Status,450,12802102064,/g3t1_1,,success
Status,451,12807198644,/g3t1_2,,running
Status,452,12807225252,/g3t1_2,,success
Status,453,12807709860,/g3t1_3,,running
Status,454,12807934225,/g3t1_3,,success
Status,455,12810536868,/g4t1,,fail
Status,456,12830941533,/g4t1,,success
Status,457,12851103360,/g4t1,,success
Status,458,12871151436,/g4t1,,success
Status,459,12891248062,/g4t1,,success
Status,460,12901846313,/g3t1_1,,running
Status,461,12901878547,/g3t1_1,,success
Status,462,12907135803,/g3t1_2,,running
Status,463,12907447983,/g3t1_2,,success
Status,464,12907886631,/g3t1_3,,running
Status,465,12908125430,/g3t1_3,,success
Status,466,12911245828,/g4t1,,fail
Status,467,12931412084,/g4t1,,success
Status,468,12951572582,/g4t1,,success
Status,469,12971637380,/g4t1,,success
Status,470,12991662624,/g4t1,,success
Status,471,13001915604,/g3t1_1,,running
Status,472,13002131841,/g3t1_1,,success
Status,473,13007388323,/g3t1_2,,running
Status,474,13007414791,/g3t1_2,,success
Status,475,13007979958,/g3t1_3,,running
Status,476,13008185836,/g3t1_3,,success
Status,477,13011468538,/g4t1,,fail
Status,478,13031812586,/g4t1,,success
Status,479,13052140156,/g4t1,,success
Status,480,13072010552,/g4t1,,success
Status,481,13092121422,/g4t1,,success
Status,482,13102013482,/g3t1_1,,running
Status,483,13102040781,/g3t1_1,,success
Status,484,13107323895,/g3t1_2,,running
Status,485,13107455944,/g3t1_2,,success
Status,486,13108028777,/g3t1_3,,running
Status,487,13108233504,/g3t1_3,,success
Status,488,13112032931,/g4t1,,fail
Status,489,13132264409,/g4t1,,success
Status,490,13152447552,/g4t1,,success
Status,491,13172438015,/g4t1,,success
Status,492,13192431463,/g4t1,,success
Status,493,13202033937,/g3t1_1,,running
Status,494,13202169215,/g3t1_1,,success
Status,495,13207364864,/g3t1_2,,running
Status,496,13207611612,/g3t1_2,,success
Status,497,13208012451,/g3t1_3,,running
Status,498,13208252300,/g3t1_3,,success
Status,499,13212410882,/g4t1,,fail
Status,500,13232632640,/g4t1,,success
Status,501,13252790717,/g4t1,,success
Status,502,13273336567,/g4t1,,success
Status,503,13293318652,/g4t1,,success
Status,504,13302265616,/g3t1_1,,running
Status,505,13302442777,/g3t1_1,,success
Status,506,13307646348,/g3t1_2,,running
Status,507,13307792310,/g3t1_2,,success
Status,508,13308476914,/g3t1_3,,running
Status,509,13308675120,/g3t1_3,,success
Status,510,13313023623,/g4t1,,fail
Status,511,13333130760,/g4t1,,success
Status,512,13353363554,/g4t1,,success
Status,513,13373304800,/g4t1,,success
Status,514,13393717947,/g4t1,,success
Status,515,13402249907,/g3t1_1,,running
Status,516,13402525626,/g3t1_1,,success
Status,517,13407439283,/g3t1_2,,running
Status,518,13407537602,/g3t1_2,,success
Status,519,13408201537,/g3t1_3,,running
Status,520,13408359954,/g3t1_3,,success
Status,521,13413488570,/g4t1,,fail
Status,522,13433514349,/g4t1,,success
Status,523,13453708940,/g4t1,,success
Status,524,13473898566,/g4t1,,success
Status,525,13493758591,/g4t1,,success
Status,526,13502696191,/g3t1_1,,running
Status,527,13502867084,/g3t1_1,,success
Status,528,13507795621,/g3t1_2,,running
Status,529,13507824474,/g3t1_2,,success
Status,530,13508343962,/g3t1_3,,running
Status,531,13508641828,/g3t1_3,,success
Status,532,13513873774,/g4t1,,fail
Status,533,13534030263,/g4t1,,success
Status,534,13554229096,/g4t1,,success
Status,535,13574322748,/g4t1,,success
Status,536,13594353272,/g4t1,,success
Status,537,13602619331,/g3t1_1,,running
Status,538,13602987303,/g3t1_1,,success
Status,539,13607973126,/g3t1_2,,running
Status,540,13608181452,/g3t1_2,,success
Status,541,13608320157,/g3t1_3,,running
Status,542,13608632555,/g3t1_3,,success
Status,543,13614241934,/g4t1,,fail
Status,544,13634486233,/g4t1,,success
Status,545,13654552291,/g4t1,,success
Status,546,13674632099,/g4t1,,success
Status,547,13694567714,/g4t1,,success
Status,548,13702727140,/g3t1_1,,running
Status,549,13702755430,/g3t1_1,,success
Status,550,13707998846,/g3t1_2,,running
Status,551,13708269361,/g3t1_2,,success
Status,552,13708803624,/g3t1_3,,running
Status,553,13708824522,/g3t1_3,,success
Status,554,13714841283,/g4t1,,fail
Status,555,13734967337,/g4t1,,success
Status,556,13754933473,/g4t1,,success
Status,557,13775011331,/g4t1,,success
Status,558,13795006947,/g4t1,,success
Status,559,13802740633,/g3t1_1,,running
Status,560,13802909269,/g3t1_1,,success
Status,561,13807991198,/g3t1_2,,running
Status,562,13808204825,/g3t1_2,,success
Status,563,13808529125,/g3t1_3,,running
Status,564,13808748416,/g3t1_3,,success
Status,565,13815104078,/g4t1,,fail
Status,566,13835184023,/g4t1,,success
Status,567,13855296697,/g4t1,,success
Status,568,13875338096,/g4t1,,success
Status,569,13895377335,/g4t1,,success
Status,570,13902840205,/g3t1_1,,running
Status,571,13902995262,/g3t1_1,,success
Status,572,13908098373,/g3t1_2,,running
Status,573,13908123855,/g3t1_2,,success
Status,574,13908624127,/g3t1_3,,running
Status,575,13908761638,/g3t1_3,,success
Status,576,13915433173,/g4t1,,fail
Status,577,13935699688,/g4t1,,success
Status,578,13955609461,/g4t1,,success
Status,579,13975679639,/g4t1,,success
Status,580,13995693765,/g4t1,,success
Status,581,14002668249,/g3t1_1,,running
Status,582,14002785378,/g3t1_1,,success
Status,583,14008095628,/g3t1_2,,running
Status,584,14008296830,/g3t1_2,,success
Status,585,14008623484,/g3t1_3,,running
Status,586,14008822487,/g3t1_3,,success
Status,587,14015811018,/g4t1,,fail
Status,588,14035849285,/g4t1,,success
Status,589,14055954825,/g4t1,,success
Status,590,14075995731,/g4t1,,success
Status,591,14096036731,/g4t1,,success
Status,592,14102852622,/g3t1_1,,running
Status,593,14102876757,/g3t1_1,,success
Status,594,14108302188,/g3t1_2,,running
Status,595,14108442933,/g3t1_2,,success
Status,596,14108708484,/g3t1_3,,running
Status,597,14108951926,/g3t1_3,,success
Status,598,14116147449,/g4t1,,fail
Status,599,14136219026,/g4t1,,success
Status,600,14156365317,/g4t1,,success
Status,601,14176412411,/g4t1,,success
Status,602,14196398853,/g4t1,,success
Status,603,14203380380,/g3t1_1,,running
Status,604,14203632823,/g3t1_1,,success
Status,605,14208525192,/g3t1_2,,running
Status,606,14208551127,/g3t1_2,,success
Status,607,14208756756,/g3t1_3,,running
Status,608,14209024113,/g3t1_3,,success
Status,609,14216483438,/g4t1,,fail
Status,610,14236633034,/g4t1,,success
Status,611,14257158406,/g4t1,,success
Status,612,14276744217,/g4t1,,success
Status,613,14296795705,/g4t1,,success
Status,614,14302940601,/g3t1_1,,running
Status,615,14303119767,/g3t1_1,,success
Status,616,14308592871,/g3t1_2,,running
Status,617,14308657348,/g3t1_2,,success
Status,618,14308839720,/g3t1_3,,running
Status,619,14309159744,/g3t1_3,,success
Status,620,14316978188,/g4t1,,fail
Status,621,14337033928,/g4t1,,success
Status,622,14357007949,/g4t1,,success
Status,623,14377227120,/g4t1,,success
Status,624,14397264887,/g4t1,,success
Status,625,14403069343,/g3t1_1,,running
Status,626,14403292112,/g3t1_1,,success
Status,627,14408674552,/g3t1_2,,running
Status,628,14408887753,/g3t1_2,,success
Status,629,14408912889,/g3t1_3,,running
Status,630,14409076795,/g3t1_3,,success
Status,631,14417196252,/g4t1,,fail
Status,632,14437421839,/g4t1,,success
Status,633,14457422106,/g4t1,,success
Status,634,14477635717,/g4t1,,success
Status,635,14497690779,/g4t1,,success
Status,636,14503160685,/g3t1_1,,running
Status,637,14503199609,/g3t1_1,,success
Status,638,14508733899,/g3t1_2,,running
Status,639,14508823414,/g3t1_2,,success
Status,640,14509378491,/g3t1_3,,running
Status,641,14509466187,/g3t1_3,,success
Status,642,14518314338,/g4t1,,fail
Status,643,14538196649,/g4t1,,success
Status,644,14558123504,/g4t1,,success
Status,645,14578543805,/g4t1,,success
Status,646,14598775257,/g4t1,,success
Status,647,14603827643,/g3t1_1,,running
Status,648,14604081881,/g3t1_1,,success
Status,649,14608877330,/g3t1_2,,running
Status,650,14609172786,/g3t1_2,,success
Status,651,14609487860,/g3t1_3,,running
Status,652,14609511339,/g3t1_3,,success
Status,653,14618937207,/g4t1,,fail
Status,654,14639009578,/g4t1,,success
Status,655,14658492449,/g4t1,,success
Status,656,14678625779,/g4t1,,success
Status,657,14698639793,/g4t1,,success
Status,658,14704849579,/g3t1_1,,running
Status,659,14704920564,/g3t1_1,,success
Status,660,14708945547,/g3t1_2,,running
Status,661,14709161081,/g3t1_2,,success
Status,662,14709201464,/g3t1_3,,running
Status,663,14709723222,/g3t1_3,,success
Status,664,14719030672,/g4t1,,fail
Status,665,14739223598,/g4t1,,success
Status,666,14759111724,/g4t1,,success
Status,667,14779192135,/g4t1,,success
Status,668,14799206108,/g4t1,,success
Status,669,14803318118,/g3t1_1,,running
Status,670,14803513540,/g3t1_1,,success
Status,671,14808926429,/g3t1_2,,running
Status,672,14809285950,/g3t1_2,,success
Status,673,14809380153,/g3t1_3,,running
Status,674,14809447044,/g3t1_3,,success
Status,675,14819380511,/g4t1,,fail
Status,676,14839416757,/g4t1,,success
Status,677,14859511974,/g4t1,,success
Status,678,14879502105,/g4t1,,success
Status,679,14899591571,/g4t1,,success
Status,680,14903829922,/g3t1_1,,running
Status,681,14903865549,/g3t1_1,,success
Status,682,14909037181,/g3t1_2,,running
Status,683,14909379215,/g3t1_2,,success
Status,684,14909760495,/g3t1_3,,running
Status,685,14909784969,/g3t1_3,,success
Status,686,14919687213,/g4t1,,fail
Status,687,14939869841,/g4t1,,success
Status,688,14959882373,/g4t1,,success
Status,689,14980305379,/g4t1,,success
Status,690,15000461824,/g4t1,,success
Status,691,15004361992,/g3t1_1,,running
Status,692,15004421015,/g3t1_1,,success
Status,693,15009249543,/g3t1_2,,running
Status,694,15009280021,/g3t1_2,,success
Status,695,15009453492,/g3t1_3,,running
Status,696,15009539144,/g3t1_3,,success
Status,697,15020574952,/g4t1,,fail
Status,698,15040323996,/g4t1,,success
Status,699,15060334834,/g4t1,,success
Status,700,15080344143,/g4t1,,success
Status,701,15100542047,/g4t1,,success
Status,702,15103587735,/g3t1_1,,running
Status,703,15103893990,/g3t1_1,,success
Status,704,15109964428,/g3t1_2,,running
Status,705,15110020769,/g3t1_3,,running
Status,706,15110400692,/g3t1_3,,success
Status,707,15110431209,/g3t1_2,,success
Status,708,15120623735,/g4t1,,fail
Status,709,15140996987,/g4t1,,success
Status,710,15160853504,/g4t1,,success
Status,711,15180937632,/g4t1,,success
Status,712,15201222121,/g4t1,,success
Status,713,15203780423,/g3t1_1,,running
Status,714,15203807248,/g3t1_1,,success
Status,715,15209646812,/g3t1_2,,running
Status,716,15209922289,/g3t1_3,,running
Status,717,15210086947,/g3t1_2,,success
Status,718,15210115989,/g3t1_3,,success
Status,719,15221190891,/g4t1,,fail
Status,720,15241208572,/g4t1,,success
Status,721,15261308040,/g4t1,,success
Status,722,15281341434,/g4t1,,success
Status,723,15301663689,/g4t1,,success
Status,724,15304317990,/g3t1_1,,running
Status,725,15304362789,/g3t1_1,,success
Status,726,15309548347,/g3t1_2,,running
Status,727,15309739070,/g3t1_2,,success
Status,728,15309793548,/g3t1_3,,running
Status,729,15309980315,/g3t1_3,,success
Status,730,15321934676,/g4t1,,fail
Status,731,15341605716,/g4t1,,success
Status,732,15361728363,/g4t1,,success
Status,733,15381754998,/g4t1,,success
Status,734,15401856804,/g4t1,,success
Status,735,15404199520,/g3t1_1,,running
Status,736,15404358594,/g3t1_1,,success
Status,737,15409603171,/g3t1_2,,running
Status,738,15409818596,/g3t1_3,,running
Status,739,15409848536,/g3t1_2,,success
Status,740,15409971992,/g3t1_3,,success
Status,741,15422184024,/g4t1,,fail
Status,742,15442053982,/g4t1,,success
Status,743,15462136095,/g4t1,,success
Status,744,15482149059,/g4t1,,success
Status,745,15502347110,/g4t1,,success
Status,746,15504207524,/g3t1_1,,running
Status,747,15504234894,/g3t1_1,,success
Status,748,15509992528,/g3t1_2,,running
Status,749,15510053673,/g3t1_3,,running
Status,750,15510079820,/g3t1_2,,success
Status,751,15510093409,/g3t1_3,,success
Status,752,15522631628,/g4t1,,fail
Status,753,15542482162,/g4t1,,success
Status,754,15562680212,/g4t1,,success
Status,755,15582561248,/g4t1,,success
Status,756,15602692671,/g4t1,,success
Status,757,15604200207,/g3t1_1,,running
Status,758,15604326728,/g3t1_1,,success
Status,759,15610118581,/g3t1_2,,running
Status,760,15610148241,/g3t1_3,,running
Status,761,15610180601,/g3t1_2,,success
Status,762,15610188713,/g3t1_3,,success
Status,763,15622926450,/g4t1,,fail
Status,764,15642982946,/g4t1,,success
Status,765,15663178382,/g4t1,,success
Status,766,15683101664,/g4t1,,success
Status,767,15703465290,/g4t1,,success
Status,768,15704296804,/g3t1_1,,running
Status,769,15704450742,/g3t1_1,,success
Status,770,15709885783,/g3t1_2,,running
Status,771,15710083347,/g3t1_3,,running
Status,772,15710110640,/g3t1_2,,success
Status,773,15710396901,/g3t1_3,,success
Status,774,15723260774,/g4t1,,fail
Status,775,15743294273,/g4t1,,success
Status,776,15763395598,/g4t1,,success
Status,777,15783409577,/g4t1,,success
Status,778,15803747616,/g4t1,,success
Status,779,15804400610,/g3t1_1,,running
Status,780,15804580447,/g3t1_1,,success
Status,781,15810248493,/g3t1_2,,running
Status,782,15810295210,/g3t1_2,,success
Status,783,15810305880,/g3t1_3,,running
Status,784,15810313939,/g3t1_3,,success
Status,785,15823601172,/g4t1,,fail
Status,786,15843657033,/g4t1,,success
Status,787,15863742353,/g4t1,,success
Status,788,15883878448,/g4t1,,success
Status,789,15904150042,/g4t1,,success
Status,790,15904654463,/g3t1_1,,running
Status,791,15905031804,/g3t1_1,,success
Status,792,15910062824,/g3t1_2,,running
Status,793,15910221604,/g3t1_3,,running
Status,794,15910512334,/g3t1_2,,success
Status,795,15910551081,/g3t1_3,,success
Status,796,15924104278,/g4t1,,fail
Status,797,15944209972,/g4t1,,success
Status,798,15964265498,/g4t1,,success
Status,799,15984231548,/g4t1,,success
Status,800,16004347253,/g4t1,,success
Status,801,16004386918,/g3t1_1,,running
Status,802,16004674876,/g3t1_1,,success
Status,803,16010079492,/g3t1_2,,running
Status,804,16010404668,/g3t1_3,,running
Status,805,16010431520,/g3t1_2,,success
Status,806,16011040582,/g3t1_3,,success
Status,807,16024511806,/g4t1,,fail
Status,808,16044480202,/g4t1,,success
Status,809,16064631445,/g4t1,,success
Status,810,16084744807,/g4t1,,success
Status,811,16104665840,/g3t1_1,,running
Status,812,16104692100,/g4t1,,success
Status,813,16104893915,/g3t1_1,,success
Status,814,16110375106,/g3t1_2,,running
Status,815,16110402187,/g3t1_3,,running
Status,816,16110433361,/g3t1_2,,success
Status,817,16110525895,/g3t1_3,,success
Status,818,16124981088,/g4t1,,fail
Status,819,16145198080,/g4t1,,success
Status,820,16165153133,/g4t1,,success
Status,821,16185386000,/g4t1,,success
Status,822,16204765386,/g3t1_1,,running
Status,823,16204793703,/g3t1_1,,success
Status,824,16205258439,/g4t1,,success
Status,825,16210457283,/g3t1_2,,running
Status,826,16210481396,/g3t1_3,,running
Status,827,16210514004,/g3t1_2,,success
Status,828,16210644821,/g3t1_3,,success
Status,829,16225450185,/g4t1,,fail
Status,830,16245588054,/g4t1,,success
Status,831,16265590276,/g4t1,,success
Status,832,16285767697,/g4t1,,success
Status,833,16304827629,/g3t1_1,,running
Status,834,16304960346,/g3t1_1,,success
Status,835,16305691250,/g4t1,,fail
Status,836,16310602003,/g3t1_2,,running
Status,837,16310628254,/g3t1_3,,running
Status,838,16310648673,/g3t1_2,,success
Status,839,16310703028,/g3t1_3,,success
Status,840,16325891391,/g4t1,,fail
Status,841,16346040322,/g4t1,,success
Status,842,16366134698,/g4t1,,success
Status,843,16386168782,/g4t1,,success
Status,844,16405158169,/g3t1_1,,running
Status,845,16405187774,/g3t1_1,,success
Status,846,16406233055,/g4t1,,success
Status,847,16410885128,/g3t1_2,,running
Status,848,16410944302,/g3t1_3,,running
Status,849,16410960111,/g3t1_2,,success
Status,850,16410985200,/g3t1_3,,success
Status,851,16426380608,/g4t1,,fail
Status,852,16446439235,/g4t1,,success
Status,853,16466420159,/g4t1,,success
Status,854,16486643556,/g4t1,,success
Status,855,16505170525,/g3t1_1,,running
Status,856,16505279472,/g3t1_1,,success
Status,857,16506744750,/g4t1,,fail
Status,858,16510746688,/g3t1_2,,running
Status,859,16510777081,/g3t1_3,,running
Status,860,16510930167,/g3t1_3,,success
Status,861,16510983645,/g3t1_2,,success
Status,862,16526895021,/g4t1,,fail
Status,863,16546971688,/g4t1,,success
Status,864,16567121265,/g4t1,,success
Status,865,16587268741,/g4t1,,success
Status,866,16605128259,/g3t1_1,,running
Status,867,16605251003,/g3t1_1,,success
Status,868,16607161974,/g4t1,,success
Status,869,16610817925,/g3t1_2,,running
Status,870,16610858613,/g3t1_3,,running
Status,871,16610884008,/g3t1_2,,success
Status,872,16611170642,/g3t1_3,,success
Status,873,16627385338,/g4t1,,fail
Status,874,16647412667,/g4t1,,success
Status,875,16667469810,/g4t1,,success
Status,876,16687658774,/g4t1,,success
Status,877,16705249349,/g3t1_1,,running
Status,878,16705523716,/g3t1_1,,success
Status,879,16707609078,/g4t1,,fail
Status,880,16710811223,/g3t1_2,,running
Status,881,16710842865,/g3t1_3,,running
Status,882,16711139354,/g3t1_3,,success
Status,883,16711171989,/g3t1_2,,success
Status,884,16727848220,/g4t1,,fail
Status,885,16747961622,/g4t1,,success
Status,886,16768030996,/g4t1,,success
Status,887,16788151812,/g4t1,,success
Status,888,16805432303,/g3t1_1,,running
Status,889,16805462221,/g3t1_1,,success
Status,890,16808172314,/g4t1,,success
Status,891,16810973194,/g3t1_2,,running
Status,892,16811002951,/g3t1_3,,running
Status,893,16811132269,/g3t1_2,,success
Status,894,16811161974,/g3t1_3,,success
Status,895,16828277762,/g4t1,,fail
Status,896,16848405344,/g4t1,,success
Status,897,16868689460,/g4t1,,success
Status,898,16888597707,/g4t1,,success
Status,899,16905430452,/g3t1_1,,running
Status,900,16905512838,/g3t1_1,,success
Status,901,16908474530,/g4t1,,fail
Status,902,16911072048,/g3t1_3,,running
Status,903,16911126114,/g3t1_2,,running
Status,904,16911144393,/g3t1_3,,success
Status,905,16911344529,/g3t1_2,,success
Status,906,16928855521,/g4t1,,fail
Status,907,16948897126,/g4t1,,success
Status,908,16969125727,/g4t1,,success
Status,909,16989194873,/g4t1,,success
Status,910,17005667901,/g3t1_1,,running
Status,911,17005844870,/g3t1_1,,success
Status,912,17009036783,/g4t1,,success
Status,913,17011085861,/g3t1_3,,running
Status,914,17011109223,/g3t1_2,,running
Status,915,17011299733,/g3t1_3,,success
Status,916,17011454337,/g3t1_2,,success
Status,917,17029283461,/g4t1,,fail
Status,918,17049409883,/g4t1,,success
Status,919,17069529948,/g4t1,,success
Status,920,17089750338,/g4t1,,success
Status,921,17105708433,/g3t1_1,,running
Status,922,17105835787,/g3t1_1,,success
Status,923,17109566267,/g4t1,,fail
Status,924,17111304494,/g3t1_3,,running
Status,925,17111332052,/g3t1_2,,running
Status,926,17111345006,/g3t1_3,,success
Status,927,17111421176,/g3t1_2,,success
Status,928,17129885694,/g4t1,,fail
Status,929,17149967806,/g4t1,,success
Status,930,17169947644,/g4t1,,success
Status,931,17189975193,/g4t1,,success
Status,932,17205645797,/g3t1_1,,running
Status,933,17205999338,/g3t1_1,,success
Status,934,17209935014,/g4t1,,success
Status,935,17211344717,/g3t1_3,,running
Status,936,17211383064,/g3t1_2,,running
Status,937,17211478658,/g3t1_3,,success
Status,938,17211490568,/g3t1_2,,success
Status,939,17230138886,/g4t1,,fail
Status,940,17250366948,/g4t1,,success
Status,941,17270409143,/g4t1,,success
Status,942,17290359974,/g4t1,,success
Status,943,17306042800,/g3t1_1,,running
Status,944,17306395268,/g3t1_1,,success
Status,945,17310816321,/g4t1,,fail
Status,946,17311599471,/g3t1_3,,running
Status,947,17311677919,/g3t1_2,,running
Status,948,17312017426,/g3t1_2,,success
Status,949,17312045696,/g3t1_3,,success
Status,950,17330645929,/g4t1,,fail
Status,951,17350817404,/g4t1,,success
Status,952,17370838780,/g4t1,,success
Status,953,17391312931,/g4t1,,success
Status,954,17406049163,/g3t1_1,,running
Status,955,17406225112,/g3t1_1,,success
Status,956,17411024437,/g4t1,,success
Status,957,17411426596,/g3t1_3,,running
Status,958,17411455448,/g3t1_2,,running
Status,959,17411638132,/g3t1_3,,success
Status,960,17411734710,/g3t1_2,,success
Status,961,17431246934,/g4t1,,fail
Status,962,17451369856,/g4t1,,success
Status,963,17471419810,/g4t1,,success
Status,964,17491489576,/g4t1,,success
Status,965,17506135479,/g3t1_1,,running
Status,966,17506169991,/g3t1_1,,success
Status,967,17511568131,/g4t1,,fail
Status,968,17511594611,/g3t1_3,,running
Status,969,17511629026,/g3t1_2,,running
Status,970,17511803038,/g3t1_3,,success
Status,971,17511829430,/g3t1_2,,success
Status,972,17531651254,/g4t1,,fail
Status,973,17551732333,/g4t1,,success
Status,974,17571778545,/g4t1,,success
Status,975,17591887635,/g4t1,,success
Status,976,17606282455,/g3t1_1,,running
Status,977,17606309767,/g3t1_1,,success
Status,978,17611830313,/g3t1_3,,running
Status,979,17611853610,/g3t1_2,,running
Status,980,17611906269,/g3t1_2,,success
Status,981,17611943714,/g3t1_3,,success
Status,982,17611976778,/g4t1,,success
Status,983,17632019478,/g4t1,,fail
Status,984,17652241621,/g4t1,,success
Status,985,17672269092,/g4t1,,success
Status,986,17692379859,/g4t1,,success
Status,987,17706206685,/g3t1_1,,running
Status,988,17706309449,/g3t1_1,,success
Status,989,17711638774,/g3t1_3,,running
Status,990,17711681116,/g3t1_2,,running
Status,991,17711872946,/g3t1_3,,success
Status,992,17712010502,/g3t1_2,,success
Status,993,17712317984,/g4t1,,fail
Status,994,17732516000,/g4t1,,success
Status,995,17752740346,/g4t1,,success
Status,996,17772693995,/g4t1,,success
Status,997,17792783353,/g4t1,,success
Status,998,17806374942,/g3t1_1,,running
Status,999,17806512639,/g3t1_1,,success
Status,1000,17811737789,/g3t1_3,,running
Status,1001,17811987954,/g3t1_2,,running
Status,1002,17812013217,/g3t1_2,,success
Status,1003,17812034893,/g3t1_3,,success
Status,1004,17812620968,/g4t1,,fail
Status,1005,17832884469,/g4t1,,success
Status,1006,17853169229,/g4t1,,success
Status,1007,17873098722,/g4t1,,success
Status,1008,17893188675,/g4t1,,success
Status,1009,17906534877,/g3t1_1,,running
Status,1010,17906561823,/g3t1_1,,success
Status,1011,17911818336,/g3t1_3,,running
Status,1012,17911849682,/g3t1_2,,running
Status,1013,17912140103,/g3t1_2,,success
Status,1014,17912465649,/g3t1_3,,success
Status,1015,17912962888,/g4t1,,fail
Status,1016,17933353018,/g4t1,,success
Status,1017,17953382263,/g4t1,,success
Status,1018,17973538416,/g4t1,,success
Status,1019,17993628390,/g4t1,,success
Status,1020,18006626561,/g3t1_1,,running
Status,1021,18006872647,/g3t1_1,,success
Status,1022,18011935645,/g3t1_2,,running
Status,1023,18011964751,/g3t1_3,,running
Status,1024,18012076500,/g3t1_3,,success
Status,1025,18012108120,/g3t1_2,,success
Status,1026,18013349411,/g4t1,,fail
Status,1027,18033776399,/g4t1,,success
Status,1028,18053771216,/g4t1,,success
Status,1029,18073947715,/g4t1,,success
Status,1030,18094048915,/g4t1,,success
Status,1031,18106695422,/g3t1_1,,running
Status,1032,18106864165,/g3t1_1,,success
Status,1033,18112077181,/g3t1_3,,running
Status,1034,18112117212,/g3t1_2,,running
Status,1035,18112213453,/g3t1_3,,success
Status,1036,18112228446,/g3t1_2,,success
Status,1037,18113890118,/g4t1,,fail
Status,1038,18134174421,/g4t1,,success
Status,1039,18154303532,/g4t1,,success
Status,1040,18174399779,/g4t1,,success
Status,1041,18194500322,/g4t1,,success
Status,1042,18206717994,/g3t1_1,,running
Status,1043,18206965015,/g3t1_1,,success
Status,1044,18212001301,/g3t1_2,,running
Status,1045,18212043789,/g3t1_3,,running
Status,1046,18212328275,/g3t1_2,,success
Status,1047,18212352926,/g3t1_3,,success
Status,1048,18214501732,/g4t1,,fail
Status,1049,18234650711,/g4t1,,success
Status,1050,18254828199,/g4t1,,success
Status,1051,18274821611,/g4t1,,success
Status,1052,18294922241,/g4t1,,success
Status,1053,18306860539,/g3t1_1,,running
Status,1054,18307117425,/g3t1_1,,success
Status,1055,18312426338,/g3t1_3,,running
Status,1056,18312449718,/g3t1_2,,running
Status,1057,18312458775,/g3t1_3,,success
Status,1058,18312466434,/g3t1_2,,success
Status,1059,18314912936,/g4t1,,fail
Status,1060,18335162133,/g4t1,,success
Status,1061,18355284010,/g4t1,,success
Status,1062,18375367456,/g4t1,,success
Status,1063,18395336916,/g4t1,,success
Status,1064,18406992433,/g3t1_1,,running
Status,1065,18407022889,/g3t1_1,,success
Status,1066,18412321993,/g3t1_3,,running
Status,1067,18412343258,/g3t1_3,,success
Status,1068,18412360410,/g3t1_2,,running
Status,1069,18412376109,/g3t1_2,,success
Status,1071,18415290731,/g4t1,,fail
Status,1072,18435511856,/g4t1,,success
Status,1073,18455570534,/g4t1,,success
Status,1074,18475706003,/g4t1,,success
Status,1075,18495830708,/g4t1,,success
Status,1076,18507133622,/g3t1_1,,running
Status,1077,18507297106,/g3t1_1,,fail
Status,1078,18512508646,/g3t1_2,,running
Status,1079,18512532595,/g3t1_3,,running
Status,1080,18512541278,/g3t1_3,,success
Status,1081,18512548705,/g3t1_2,,success
Status,1082,18515656280,/g4t1,,fail
Status,1083,18536054648,/g4t1,,success
Status,1084,18556088057,/g4t1,,success
Status,1085,18576196103,/g4t1,,success
Status,1086,18596247367,/g4t1,,success
Status,1087,18607247361,/g3t1_1,,running
Status,1088,18607274106,/g3t1_1,,fail
Status,1089,18612383869,/g3t1_3,,running
Status,1090,18612417815,/g3t1_2,,running
Status,1091,18612734077,/g3t1_3,,success
Status,1092,18612788979,/g3t1_2,,success
Status,1094,18616156421,/g4t1,,success
Status,1095,18636461439,/g4t1,,success
Status,1096,18656525579,/g4t1,,success
Status,1097,18676661763,/g4t1,,success
Status,1098,18696771423,/g4t1,,success
Status,1099,18707323413,/g3t1_1,,running
Status,1100,18707350185,/g3t1_1,,fail
Status,1101,18712442307,/g3t1_3,,running
Status,1102,18712665565,/g3t1_2,,running
Status,1103,18712729742,/g3t1_2,,success
Status,1104,18712747296,/g3t1_3,,success
Status,1105,18716644083,/g4t1,,success
Status,1106,18736880461,/g4t1,,success
Status,1107,18757110077,/g4t1,,success
Status,1108,18777164010,/g4t1,,success
Status,1109,18797203645,/g4t1,,success
Status,1110,18807284177,/g3t1_1,,running
Status,1111,18807309993,/g3t1_1,,fail
Status,1112,18812592369,/g3t1_3,,running
Status,1113,18812622869,/g3t1_2,,running
Status,1114,18812715390,/g3t1_3,,success
Status,1115,18812739078,/g3t1_2,,success
Status,1117,18817149763,/g4t1,,success
Status,1118,18837337776,/g4t1,,success
Status,1119,18857441583,/g4t1,,success
Status,1120,18877565856,/g4t1,,success
Status,1121,18897604517,/g4t1,,success
Status,1122,18907428635,/g3t1_1,,running
Status,1123,18907459006,/g3t1_1,,fail
Status,1124,18912580056,/g3t1_3,,running
Status,1125,18912611148,/g3t1_2,,running
Status,1126,18912753574,/g3t1_3,,success
Status,1127,18912788471,/g3t1_2,,success
Status,1128,18917614271,/g4t1,,success
Status,1129,18937852198,/g4t1,,success
Status,1130,18957932425,/g4t1,,success
Status,1131,18977893698,/g4t1,,success
Status,1132,18998053164,/g4t1,,success
Status,1133,19007488167,/g3t1_1,,running
Status,1134,19007512984,/g3t1_1,,fail
Status,1135,19012634443,/g3t1_3,,running
Status,1136,19012701002,/g3t1_2,,running
Status,1137,19012784452,/g3t1_2,,success
Status,1138,19012801544,/g3t1_3,,success
Status,1140,19018036888,/g4t1,,success
Status,1141,19038361103,/g4t1,,success
Status,1142,19058315436,/g4t1,,success
Status,1143,19078335602,/g4t1,,success
Status,1144,19098498517,/g4t1,,success
Status,1145,19107568767,/g3t1_1,,running
Status,1146,19107592866,/g3t1_1,,fail
Status,1147,19112777127,/g3t1_3,,running
Status,1148,19112802957,/g3t1_2,,running
Status,1149,19112890100,/g3t1_3,,success
Status,1150,19112906776,/g3t1_2,,success
Status,1151,19118424074,/g4t1,,success
Status,1152,19138674168,/g4t1,,success
Status,1153,19158785688,/g4t1,,success
Status,1154,19178839350,/g4t1,,success
Status,1155,19199022712,/g4t1,,success
Status,1156,19207671394,/g3t1_1,,running
Status,1157,19207784749,/g3t1_1,,fail
Status,1158,19212903641,/g3t1_2,,running
Status,1159,19212919950,/g3t1_3,,running
Status,1160,19213029058,/g3t1_3,,success
Status,1161,19213057015,/g3t1_2,,success
Status,1163,19218967611,/g4t1,,success
Status,1164,19239133158,/g4t1,,success
Status,1165,19259231444,/g4t1,,success
Status,1166,19279245984,/g4t1,,success
Status,1167,19299291816,/g4t1,,success
Status,1168,19307712384,/g3t1_1,,running
Status,1169,19307852458,/g3t1_1,,fail
Status,1170,19312892187,/g3t1_3,,running
Status,1171,19312920573,/g3t1_2,,running
Status,1172,19313057316,/g3t1_3,,success
Status,1173,19313082552,/g3t1_2,,success
Status,1174,19319428821,/g4t1,,success
Status,1175,19339500874,/g4t1,,success
Status,1176,19359448391,/g4t1,,success
Status,1177,19379705019,/g4t1,,success
Status,1178,19399647819,/g4t1,,success
Status,1179,19407876139,/g3t1_1,,running
Status,1180,19407899705,/g3t1_1,,fail
Status,1181,19412969153,/g3t1_3,,running
Status,1182,19412995952,/g3t1_2,,running
Status,1183,19413126024,/g3t1_3,,success
Status,1184,19413236942,/g3t1_2,,success
Status,1186,19419903232,/g4t1,,success
Status,1187,19439994952,/g4t1,,success
Status,1188,19460005313,/g4t1,,success
Status,1189,19480119577,/g4t1,,success
Status,1190,19500242336,/g4t1,,success
Status,1191,19507945947,/g3t1_1,,running
Status,1192,19508039490,/g3t1_1,,fail
Status,1193,19512885958,/g3t1_3,,running
Status,1194,19513186945,/g3t1_2,,running
Status,1195,19513206245,/g3t1_3,,success
Status,1196,19513304285,/g3t1_2,,success
Status,1197,19520307804,/g4t1,,success
Status,1198,19540376244,/g4t1,,success
Status,1199,19560489734,/g4t1,,success
Status,1200,19580569731,/g4t1,,success
Status,1201,19600671007,/g4t1,,success
Status,1202,19608010178,/g3t1_1,,running
Status,1203,19608036710,/g3t1_1,,fail
Status,1204,19613132731,/g3t1_3,,running
Status,1205,19613165741,/g3t1_2,,running
Status,1206,19613190618,/g3t1_3,,success
Status,1207,19613350618,/g3t1_2,,success
Status,1209,19620692780,/g4t1,,success
Status,1210,19640881093,/g4t1,,success
Status,1211,19660975488,/g4t1,,success
Status,1212,19681025570,/g4t1,,success
Status,1213,19701266830,/g4t1,,success
Status,1214,19708188510,/g3t1_1,,running
Status,1215,19708212362,/g3t1_1,,fail
Status,1216,19713184491,/g3t1_3,,running
Status,1217,19713445062,/g3t1_3,,success
Status,1218,19713471387,/g3t1_2,,running
Status,1219,19713506739,/g3t1_2,,success
Status,1220,19721138919,/g4t1,,success
Status,1221,19741287629,/g4t1,,success
Status,1222,19761388737,/g4t1,,success
Status,1223,19781477557,/g4t1,,success
Status,1224,19801686778,/g4t1,,success
Status,1225,19808163263,/g3t1_1,,running
Status,1226,19808304386,/g3t1_1,,fail
Status,1227,19813301737,/g3t1_3,,running
Status,1228,19813323913,/g3t1_2,,running
Status,1229,19813347894,/g3t1_3,,success
Status,1230,19813483150,/g3t1_2,,success
Status,1232,19821694736,/g4t1,,success
Status,1233,19841816312,/g4t1,,success
Status,1234,19861779618,/g4t1,,success
Status,1235,19881980884,/g4t1,,success
Status,1236,19902025315,/g4t1,,success
Status,1237,19908280170,/g3t1_1,,running
Status,1238,19908308280,/g3t1_1,,fail
Status,1239,19913432612,/g3t1_3,,running
Status,1240,19913472315,/g3t1_2,,running
Status,1241,19913517673,/g3t1_3,,success
Status,1242,19913678102,/g3t1_2,,success
Status,1243,19922165775,/g4t1,,success
Status,1244,19942284177,/g4t1,,success
Status,1245,19962354420,/g4t1,,success
Status,1246,19982444376,/g4t1,,success
Status,1247,20002536275,/g4t1,,success
Status,1248,20008398674,/g3t1_1,,running
Status,1249,20008422470,/g3t1_1,,fail
Status,1250,20013437456,/g3t1_3,,running
Status,1251,20013564204,/g3t1_2,,running
Status,1252,20013583843,/g3t1_3,,success
Status,1254,20013713115,/g3t1_2,,success
Status,1255,20022657655,/g4t1,,success
Status,1256,20042820862,/g4t1,,success
Status,1257,20062880584,/g4t1,,success
Status,1258,20082964438,/g4t1,,success
Status,1259,20103091429,/g4t1,,success
Status,1260,20108485903,/g3t1_1,,running
Status,1261,20108507872,/g3t1_1,,fail
Status,1262,20113501716,/g3t1_3,,running
Status,1263,20113533835,/g3t1_2,,running
Status,1264,20113615811,/g3t1_3,,success
Status,1265,20113624184,/g3t1_2,,success
Status,1266,20123106190,/g4t1,,success
Status,1267,20143198465,/g4t1,,success
Status,1268,20163353107,/g4t1,,success
Status,1269,20183401038,/g4t1,,success
Status,1270,20203539215,/g4t1,,success
Status,1271,20208465987,/g3t1_1,,running
Status,1272,20208646277,/g3t1_1,,fail
Status,1273,20213502951,/g3t1_3,,running
Status,1274,20213634665,/g3t1_2,,running
Status,1276,20213836613,/g3t1_3,,success
Status,1277,20213850033,/g3t1_2,,success
Status,1278,20223527211,/g4t1,,success
Status,1279,20243656082,/g4t1,,success
Status,1280,20263742124,/g4t1,,success
Status,1281,20283777707,/g4t1,,success
Status,1282,20303870475,/g4t1,,success
Status,1283,20308555873,/g3t1_1,,running
Status,1284,20308714716,/g3t1_1,,fail
Status,1285,20313671556,/g3t1_3,,running
Status,1286,20313697867,/g3t1_2,,running
Status,1287,20313719234,/g3t1_3,,success
Status,1288,20313807214,/g3t1_2,,success
Status,1289,20323983171,/g4t1,,success
Status,1290,20344059689,/g4t1,,success
Status,1291,20364131826,/g4t1,,success
Status,1292,20384538265,/g4t1,,success
Status,1293,20404291742,/g4t1,,success
Status,1294,20408608389,/g3t1_1,,running
Status,1295,20408668797,/g3t1_1,,fail
Status,1296,20413768954,/g3t1_3,,running
Status,1297,20413918749,/g3t1_2,,running
Status,1298,20413950316,/g3t1_2,,success
Status,1300,20414002543,/g3t1_3,,success
Status,1301,20424403315,/g4t1,,success
Status,1302,20444458547,/g4t1,,success
Status,1303,20464547912,/g4t1,,success
Status,1304,20484634149,/g4t1,,success
Status,1305,20504611068,/g4t1,,success
Status,1306,20508848319,/g3t1_1,,running
Status,1307,20508869462,/g3t1_1,,fail
Status,1308,20513744043,/g3t1_3,,running
Status,1309,20513804006,/g3t1_2,,running
Status,1310,20514041856,/g3t1_3,,success
Status,1311,20514059559,/g3t1_2,,success
Status,1312,20524699276,/g4t1,,success
Status,1313,20544826230,/g4t1,,success
Status,1314,20564915286,/g4t1,,success
Status,1315,20585271242,/g4t1,,success
Status,1316,20605099030,/g4t1,,success
Status,1317,20608895163,/g3t1_1,,running
Status,1318,20608914832,/g3t1_1,,fail
Status,1320,20614062182,/g3t1_3,,running
Status,1321,20614082245,/g3t1_2,,running
Status,1322,20614107931,/g3t1_3,,success
Status,1323,20614116442,/g3t1_2,,success
Status,1324,20625226217,/g4t1,,success
Status,1325,20645302896,/g4t1,,success
Status,1326,20665358592,/g4t1,,success
Status,1327,20685535562,/g4t1,,success
Status,1328,20705490059,/g4t1,,success
Status,1329,20708935330,/g3t1_1,,running
Status,1330,20709024998,/g3t1_1,,fail
Status,1331,20713940004,/g3t1_3,,running
Status,1332,20713963765,/g3t1_2,,running
Status,1333,20714034258,/g3t1_3,,success
Status,1334,20714278232,/g3t1_2,,success
Status,1335,20725571569,/g4t1,,success
Status,1336,20745655267,/g4t1,,success
Status,1337,20765869954,/g4t1,,success
Status,1338,20785958175,/g4t1,,success
Status,1339,20806031142,/g4t1,,success
Status,1340,20808895947,/g3t1_1,,running
Status,1341,20809035205,/g3t1_1,,fail
Status,1343,20814211076,/g3t1_3,,running
Status,1344,20814229037,/g3t1_2,,running
Status,1345,20814238213,/g3t1_2,,success
Status,1346,20814263141,/g3t1_3,,success
Status,1347,20826123258,/g4t1,,success
Status,1348,20846130489,/g4t1,,success
Status,1349,20866280461,/g4t1,,success
Status,1350,20886387004,/g4t1,,success
Status,1351,20906469880,/g4t1,,success
Status,1352,20908986816,/g3t1_1,,running
Status,1353,20909143119,/g3t1_1,,fail
Status,1354,20914169476,/g3t1_3,,running
Status,1355,20914197291,/g3t1_2,,running
Status,1356,20914282807,/g3t1_3,,success
Status,1357,20914308875,/g3t1_2,,success
Status,1358,20926485639,/g4t1,,success
Status,1359,20946641604,/g4t1,,success
Status,1360,20966735060,/g4t1,,success
Status,1361,20986812584,/g4t1,,success
Status,1362,21006935793,/g4t1,,success
Status,1363,21009240800,/g3t1_1,,running
Status,1364,21009262775,/g3t1_1,,fail
Status,1366,21014172101,/g3t1_3,,running
Status,1367,21014233843,/g3t1_2,,running
Status,1368,21014474033,/g3t1_2,,success
Status,1369,21014502086,/g3t1_3,,success
Status,1370,21027026733,/g4t1,,success
Status,1371,21047160578,/g4t1,,success
Status,1372,21067192770,/g4t1,,success
Status,1373,21109372633,/g3t1_1,,running
Status,1374,21109394283,/g3t1_1,,fail
Status,1375,21114311106,/g3t1_3,,running
Status,1376,21114334253,/g3t1_2,,running
Status,1377,21114348704,/g3t1_3,,success
Status,1378,21114465527,/g3t1_2,,success
Status,1379,21209489529,/g3t1_1,,running
Status,1380,21209511664,/g3t1_1,,fail
Status,1382,21214205497,/g3t1_3,,running
Status,1383,21214454636,/g3t1_3,,success
Status,1384,21214471019,/g3t1_2,,running
Status,1385,21214640388,/g3t1_2,,success
Status,1386,21309507496,/g3t1_1,,running
Status,1387,21309528932,/g3t1_1,,fail
Status,1388,21314347293,/g3t1_3,,running
Status,1389,21314459473,/g3t1_2,,running
Status,1390,21314555333,/g3t1_3,,success
Status,1391,21314646644,/g3t1_2,,success
Status,1392,21409627350,/g3t1_1,,running
Status,1393,21409649345,/g3t1_1,,fail
Status,1395,21414416393,/g3t1_3,,running
Status,1396,21414655099,/g3t1_3,,success
Status,1397,21414670200,/g3t1_2,,running
Status,1398,21414751820,/g3t1_2,,success
Status,1399,21509764351,/g3t1_1,,running
Status,1400,21509785826,/g3t1_1,,fail
Status,1401,21514627669,/g3t1_3,,running
Status,1402,21514653406,/g3t1_2,,running
Status,1403,21514779457,/g3t1_2,,success
Status,1404,21514797852,/g3t1_3,,success
Status,1405,21609806354,/g3t1_1,,running
Status,1406,21609828502,/g3t1_1,,fail
Status,1408,21614682943,/g3t1_3,,running
Status,1409,21614717116,/g3t1_2,,running
Status,1410,21614869591,/g3t1_3,,success
Status,1411,21614888808,/g3t1_2,,success
Status,1412,21710009438,/g3t1_1,,running
Status,1413,21710030493,/g3t1_1,,fail
Status,1414,21714718321,/g3t1_3,,running
Status,1415,21714749281,/g3t1_2,,running
Status,1416,21714781903,/g3t1_3,,success
Status,1417,21714942751,/g3t1_2,,success
Status,1418,21810002405,/g3t1_1,,running
Status,1419,21810023472,/g3t1_1,,fail
Status,1421,21814786455,/g3t1_3,,running
Status,1422,21814809879,/g3t1_2,,running
Status,1423,21814824078,/g3t1_3,,success
Status,1424,21814845419,/g3t1_2,,success
Status,1425,21910092692,/g3t1_1,,running
Status,1426,21910111773,/g3t1_1,,fail
Status,1427,21914894047,/g3t1_3,,running
Status,1428,21914917524,/g3t1_2,,running
Status,1429,21915076379,/g3t1_3,,success
Status,1430,21915103026,/g3t1_2,,success
Status,1431,22010197638,/g3t1_1,,running
Status,1432,22010221893,/g3t1_1,,fail
Status,1434,22015220742,/g3t1_2,,running
Status,1435,22015252347,/g3t1_3,,running
Status,1436,22015275511,/g3t1_3,,success
Status,1437,22015283638,/g3t1_2,,success
Status,1438,22110332987,/g3t1_1,,running
Status,1439,22110356230,/g3t1_1,,fail
Status,1440,22115214236,/g3t1_3,,running
Status,1441,22115238348,/g3t1_2,,running
Status,1442,22115260911,/g3t1_2,,success
Status,1443,22115267982,/g3t1_3,,success
Status,1444,22210370968,/g3t1_1,,running
Status,1445,22210394519,/g3t1_1,,fail
Status,1447,22215364844,/g3t1_2,,running
Status,1448,22215387431,/g3t1_3,,running
Status,1449,22215510121,/g3t1_2,,success
Status,1450,22215772463,/g3t1_3,,success
Status,1451,22311074314,/g3t1_1,,running
Status,1452,22311424438,/g3t1_1,,fail
Status,1453,22315271137,/g3t1_3,,running
Status,1454,22315320231,/g3t1_3,,success
Status,1455,22315334206,/g3t1_2,,running
Status,1456,22315684178,/g3t1_2,,success
Status,1457,22410544502,/g3t1_1,,running
Status,1458,22410570488,/g3t1_1,,fail
Status,1460,22415230050,/g3t1_3,,running
Status,1461,22415572510,/g3t1_2,,running
Status,1462,22415596063,/g3t1_3,,success
Status,1463,22415769851,/g3t1_2,,success
Status,1464,22510800016,/g3t1_1,,running
Status,1465,22510825883,/g3t1_1,,fail
Status,1466,22515680362,/g3t1_3,,running
Status,1467,22515703131,/g3t1_2,,running
Status,1468,22515711854,/g3t1_2,,success
Status,1469,22515725386,/g3t1_3,,success
Status,1470,22610914231,/g3t1_1,,running
Status,1471,22610947480,/g3t1_1,,fail
Status,1473,22616172482,/g3t1_3,,running
Status,1474,22616203502,/g3t1_3,,success
Status,1475,22616217803,/g3t1_2,,running
Status,1476,22616228087,/g3t1_2,,success
Status,1477,22710881781,/g3t1_1,,running
Status,1478,22710959811,/g3t1_1,,fail
Status,1479,22715581196,/g3t1_3,,running
Status,1480,22716343606,/g3t1_3,,success
Status,1481,22716389244,/g3t1_2,,running
Status,1482,22716406543,/g3t1_2,,success
Status,1483,22811088487,/g3t1_1,,running
Status,1484,22811116201,/g3t1_1,,fail
Status,1486,22815491081,/g3t1_3,,running
Status,1487,22815692720,/g3t1_3,,success
Status,1488,22816104384,/g3t1_2,,running
Status,1489,22816232042,/g3t1_2,,success
Status,1490,22911114230,/g3t1_1,,running
Status,1491,22911237939,/g3t1_1,,fail
Status,1492,22915717666,/g3t1_3,,running
Status,1493,22915740611,/g3t1_3,,success
Status,1494,22916166545,/g3t1_2,,running
Status,1495,22916438617,/g3t1_2,,success
Status,1496,23011130427,/g3t1_1,,running
Status,1497,23011177267,/g3t1_1,,fail
Status,1499,23015668292,/g3t1_3,,running
Status,1500,23015883495,/g3t1_3,,success
Status,1501,23016201501,/g3t1_2,,running
Status,1502,23016393088,/g3t1_2,,success
Status,1503,23111238147,/g3t1_1,,running
Status,1504,23111268010,/g3t1_1,,fail
Status,1505,23115758081,/g3t1_3,,running
Status,1506,23115870207,/g3t1_3,,success
Status,1507,23116234765,/g3t1_2,,running
Status,1508,23116474982,/g3t1_2,,success
Status,1509,23211300256,/g3t1_1,,running
Status,1510,23211325011,/g3t1_1,,fail
Status,1512,23215861709,/g3t1_3,,running
Status,1513,23216312682,/g3t1_3,,success
Status,1514,23216339487,/g3t1_2,,running
Status,1515,23216461231,/g3t1_2,,success
Status,1516,23311454701,/g3t1_1,,running
Status,1517,23311480356,/g3t1_1,,fail
Status,1518,23315914484,/g3t1_3,,running
Status,1519,23316090881,/g3t1_3,,success
Status,1520,23316428097,/g3t1_2,,running
Status,1521,23316513216,/g3t1_2,,success
Status,1522,23411499886,/g3t1_1,,running
Status,1523,23411530679,/g3t1_1,,fail
Status,1527,23415951966,/g3t1_3,,running
Status,1528,23416136038,/g3t1_3,,fail
Status,1529,23416611013,/g3t1_2,,running
Status,1530,23416666543,/g3t1_2,,fail
Status,1531,23511587257,/g3t1_1,,running
Status,1532,23511609976,/g3t1_1,,fail
Status,1533,23516146465,/g3t1_3,,running
Status,1534,23516166951,/g3t1_3,,fail
Status,1535,23516519316,/g3t1_2,,running
Status,1536,23516643229,/g3t1_2,,fail
Status,1537,23611633985,/g3t1_1,,running
Status,1538,23611657693,/g3t1_1,,fail
Status,1542,23616148631,/g3t1_3,,running
Status,1543,23616233459,/g3t1_3,,fail
Status,1544,23616570388,/g3t1_2,,running
Status,1545,23616650004,/g3t1_2,,fail
Status,1546,23711778736,/g3t1_1,,running
Status,1547,23711808596,/g3t1_1,,fail
Status,1548,23716305775,/g3t1_3,,running
Status,1549,23716329560,/g3t1_3,,fail
Status,1550,23716667192,/g3t1_2,,running
Status,1551,23716769193,/g3t1_2,,fail
Status,1552,23811819918,/g3t1_1,,running
Status,1553,23811842714,/g3t1_1,,fail
Status,1557,23816297307,/g3t1_3,,running
Status,1558,23816320714,/g3t1_3,,fail
Status,1559,23816704974,/g3t1_2,,running
Status,1560,23816885720,/g3t1_2,,fail
Status,1561,23911966083,/g3t1_1,,running
Status,1562,23912089550,/g3t1_1,,fail
Status,1563,23916507725,/g3t1_3,,running
Status,1564,23916532373,/g3t1_3,,fail
Status,1565,23916828986,/g3t1_2,,running
Status,1566,23916938007,/g3t1_2,,fail
Status,1567,24012024395,/g3t1_1,,running
Status,1568,24012047981,/g3t1_1,,fail
Status,1572,24016519967,/g3t1_3,,running
Status,1573,24016554636,/g3t1_3,,fail
Status,1574,24016888610,/g3t1_2,,running
Status,1575,24016955124,/g3t1_2,,fail
Status,1576,24112154945,/g3t1_1,,running
Status,1577,24112177374,/g3t1_1,,fail
Status,1578,24116622608,/g3t1_3,,running
