
Status,1,20478281019,/g4t1,,init
Status,3,25700261355,/g3t1_1,,init
Status,5,25708428550,/g3t1_1,,init
Status,6,25708448559,/g3t1_1,,running
Status,7,25709904506,/g3t1_1,,success
Status,8,25902515070,/g3t1_2,,init
Status,10,25911900879,/g3t1_2,,init
Status,11,25911922560,/g3t1_2,,running
Status,12,25913700508,/g3t1_2,,success
Status,14,26108677521,/g3t1_3,,init
Status,15,26112344418,/g3t1_2,,running
Status,16,26113217200,/g3t1_2,,success
Status,17,26120099680,/g3t1_3,,init
Status,18,26120133474,/g3t1_3,,running
Status,19,26122189676,/g3t1_3,,success
Status,20,26312548997,/g3t1_2,,running
Status,21,26313123024,/g3t1_2,,success
Status,23,26408564918,/g3t1_4,,init
Status,24,26415590013,/g3t1_4,,init
Status,25,26415610386,/g3t1_4,,running
Status,26,26418051297,/g3t1_4,,success
Status,27,26487968831,/g4t1,,success
Status,28,26513030002,/g3t1_2,,running
Status,29,26513300579,/g3t1_2,,success
Status,30,26712380349,/g3t1_2,,running
Status,31,26712506565,/g3t1_2,,success
Status,32,26913061989,/g3t1_2,,running
Status,33,26913693241,/g3t1_2,,success
Status,34,27113354823,/g3t1_2,,running
Status,35,27113867619,/g3t1_2,,success
Status,36,27312959491,/g3t1_2,,running
Status,37,27312986275,/g3t1_2,,success
Status,38,27416591553,/g3t1_4,,running
Status,39,27426423968,/g3t1_4,,success
Status,40,27488233724,/g4t1,,success
Status,41,27513645179,/g3t1_2,,running
Status,42,27513942192,/g3t1_2,,success
Status,43,27714080156,/g3t1_2,,running
Status,44,27714999706,/g3t1_2,,success
Status,45,27914276945,/g3t1_2,,running
Status,46,27914864364,/g3t1_2,,success
Status,47,28114433414,/g3t1_2,,running
Status,48,28115032457,/g3t1_2,,success
Status,49,28314557121,/g3t1_2,,running
Status,50,28314921024,/g3t1_2,,success
Status,51,28416547508,/g3t1_4,,running
Status,52,28425137495,/g3t1_4,,success
Status,53,28488209017,/g4t1,,success
Status,54,28514575571,/g3t1_2,,running
Status,55,28514883824,/g3t1_2,,success
Status,56,28714955507,/g3t1_2,,running
Status,57,28715624504,/g3t1_2,,success
Status,58,28914997838,/g3t1_2,,running
Status,59,28915332418,/g3t1_2,,success
Status,60,29115103654,/g3t1_2,,running
Status,61,29115474853,/g3t1_2,,success
Status,62,29315406440,/g3t1_2,,running
Status,63,29316053978,/g3t1_2,,success
Status,64,29416710007,/g3t1_4,,running
Status,65,29424438687,/g3t1_4,,success
Status,66,29488455022,/g4t1,,success
Status,67,29515339158,/g3t1_2,,running
Status,68,29515736530,/g3t1_2,,success
Status,69,29715493523,/g3t1_2,,running
Status,70,29716266440,/g3t1_2,,success
Status,71,29915784629,/g3t1_2,,running
Status,72,29916147188,/g3t1_2,,success
Status,73,30116142049,/g3t1_2,,running
Status,74,30116912892,/g3t1_2,,success
Status,75,30316268560,/g3t1_2,,running
Status,76,30316578891,/g3t1_2,,success
Status,77,30417000418,/g3t1_4,,running
Status,78,30422333905,/g3t1_4,,success
Status,79,30488617205,/g4t1,,success
Status,80,30516494041,/g3t1_2,,running
Status,81,30516561745,/g3t1_2,,success
Status,82,30709707176,/g3t1_1,,running
Status,83,30710754975,/g3t1_1,,success
Status,84,30716804032,/g3t1_2,,running
Status,85,30717157473,/g3t1_2,,success
Status,86,30916598074,/g3t1_2,,running
Status,87,30917710814,/g3t1_2,,success
Status,88,31117162504,/g3t1_2,,running
Status,89,31117549310,/g3t1_2,,success
Status,90,31317411111,/g3t1_2,,running
Status,91,31317943582,/g3t1_2,,success
Status,92,31416977103,/g3t1_4,,running
Status,93,31424457880,/g3t1_4,,success
Status,94,31488698829,/g4t1,,success
Status,95,31517327931,/g3t1_2,,running
Status,96,31517736164,/g3t1_2,,success
Status,97,31717534648,/g3t1_2,,running
Status,98,31718276840,/g3t1_2,,success
Status,99,31917922157,/g3t1_2,,running
Status,100,31918605034,/g3t1_2,,success
Status,101,32117835788,/g3t1_2,,running
Status,102,32118760241,/g3t1_2,,success
Status,103,32318398317,/g3t1_2,,running
Status,104,32319143109,/g3t1_2,,success
Status,105,32417572470,/g3t1_4,,running
Status,106,32424401199,/g3t1_4,,success
Status,107,32488792590,/g4t1,,success
Status,108,32518504585,/g3t1_2,,running
Status,109,32519048031,/g3t1_2,,success
Status,110,32718773651,/g3t1_2,,running
Status,111,32719141698,/g3t1_2,,success
Status,112,32919029687,/g3t1_2,,running
Status,113,32919725310,/g3t1_2,,success
Status,114,33119081333,/g3t1_2,,running
Status,115,33119389861,/g3t1_2,,success
Status,116,33319115418,/g3t1_2,,running
Status,117,33319583980,/g3t1_2,,success
Status,118,33417597286,/g3t1_4,,running
Status,119,33425221297,/g3t1_4,,success
Status,120,33488979340,/g4t1,,success
Status,121,33519160078,/g3t1_2,,running
Status,122,33519752719,/g3t1_2,,success
Status,123,33719360966,/g3t1_2,,running
Status,124,33720378070,/g3t1_2,,success
Status,125,33919689696,/g3t1_2,,running
Status,126,33920146924,/g3t1_2,,success
Status,127,34119749895,/g3t1_2,,running
Status,128,34120235203,/g3t1_2,,success
Status,129,34319802895,/g3t1_2,,running
Status,130,34320484350,/g3t1_2,,success
Status,131,34417292137,/g3t1_4,,running
Status,132,34421722430,/g3t1_4,,success
Status,133,34489045717,/g4t1,,success
Status,134,34519782231,/g3t1_2,,running
Status,135,34520549648,/g3t1_2,,success
Status,136,34720342718,/g3t1_2,,running
Status,137,34720611819,/g3t1_2,,success
Status,138,34920492404,/g3t1_2,,running
Status,139,34921673189,/g3t1_2,,success
Status,140,35120595846,/g3t1_2,,running
Status,141,35121456149,/g3t1_2,,success
Status,142,35321196793,/g3t1_2,,running
Status,143,35321397477,/g3t1_2,,success
Status,144,35417918049,/g3t1_4,,running
Status,145,35425941865,/g3t1_4,,success
Status,146,35489025018,/g4t1,,success
Status,147,35520792268,/g3t1_2,,running
Status,148,35521441156,/g3t1_2,,success
Status,149,35709494131,/g3t1_1,,running
Status,150,35709979639,/g3t1_1,,success
Status,151,35721260451,/g3t1_2,,running
Status,152,35721322687,/g3t1_2,,success
Status,153,35921643649,/g3t1_2,,running
Status,154,35922139251,/g3t1_2,,success
Status,155,36121246503,/g3t1_3,,running
Status,156,36121492721,/g3t1_2,,running
Status,157,36122221958,/g3t1_3,,success
Status,158,36122295748,/g3t1_2,,success
Status,159,36321513396,/g3t1_2,,running
Status,160,36321903116,/g3t1_2,,success
Status,161,36418288862,/g3t1_4,,running
Status,162,36425978121,/g3t1_4,,success
Status,163,36489086052,/g4t1,,success
Status,164,36521684111,/g3t1_2,,running
Status,165,36522148289,/g3t1_2,,success
Status,166,36722361361,/g3t1_2,,running
Status,167,36723083400,/g3t1_2,,success
Status,168,36922374088,/g3t1_2,,running
Status,169,36922618645,/g3t1_2,,success
Status,170,37123279810,/g3t1_2,,running
Status,171,37123508927,/g3t1_2,,success
Status,172,37323012552,/g3t1_2,,running
Status,173,37323091318,/g3t1_2,,success
Status,174,37418806233,/g3t1_4,,running
Status,175,37426328058,/g3t1_4,,success
Status,176,37489207241,/g4t1,,success
Status,177,37522734816,/g3t1_2,,running
Status,178,37523361323,/g3t1_2,,success
Status,179,37723256903,/g3t1_2,,running
Status,180,37724053313,/g3t1_2,,success
Status,181,37923739544,/g3t1_2,,running
Status,182,37924123074,/g3t1_2,,success
Status,183,38123614920,/g3t1_2,,running
Status,184,38124385074,/g3t1_2,,success
Status,185,38323689197,/g3t1_2,,running
Status,186,38324313080,/g3t1_2,,success
Status,187,38418799402,/g3t1_4,,running
Status,188,38426778101,/g3t1_4,,success
Status,189,38489242558,/g4t1,,success
Status,190,38523608212,/g3t1_2,,running
Status,191,38524221921,/g3t1_2,,success
Status,192,38724113805,/g3t1_2,,running
Status,193,38724898270,/g3t1_2,,success
Status,194,38924026364,/g3t1_2,,running
Status,195,38924793353,/g3t1_2,,success
Status,196,39124473696,/g3t1_2,,running
Status,197,39125581970,/g3t1_2,,success
Status,198,39324443171,/g3t1_2,,running
Status,199,39324828287,/g3t1_2,,success
Status,200,39419007259,/g3t1_4,,running
Status,201,39426363376,/g3t1_4,,success
Status,202,39489270399,/g4t1,,success
Status,203,39524426814,/g3t1_2,,running
Status,204,39524858271,/g3t1_2,,success
Status,205,39724848302,/g3t1_2,,running
Status,206,39725323275,/g3t1_2,,success
Status,207,39925296291,/g3t1_2,,running
Status,208,39925693589,/g3t1_2,,success
Status,209,40125065572,/g3t1_2,,running
Status,210,40126236561,/g3t1_2,,success
Status,211,40325351509,/g3t1_2,,running
Status,212,40325927016,/g3t1_2,,success
Status,213,40419576073,/g3t1_4,,running
Status,214,40428199214,/g3t1_4,,success
Status,215,40489551149,/g4t1,,success
Status,216,40525411282,/g3t1_2,,running
Status,217,40525890467,/g3t1_2,,success
Status,218,40709927718,/g3t1_1,,running
Status,219,40710504377,/g3t1_1,,success
Status,220,40725741895,/g3t1_2,,running
Status,221,40726264048,/g3t1_2,,success
Status,222,40926148777,/g3t1_2,,running
Status,223,40926627528,/g3t1_2,,success
Status,224,41126252979,/g3t1_2,,running
Status,225,41127206917,/g3t1_2,,success
Status,226,41326697025,/g3t1_2,,running
Status,227,41327211188,/g3t1_2,,success
Status,228,41419291637,/g3t1_4,,running
Status,229,41427135662,/g3t1_4,,success
Status,230,41489696474,/g4t1,,success
Status,231,41526609373,/g3t1_2,,running
Status,232,41526732513,/g3t1_2,,success
Status,233,41727192292,/g3t1_2,,running
Status,234,41727263945,/g3t1_2,,success
Status,235,41927067096,/g3t1_2,,running
Status,236,41927921705,/g3t1_2,,success
Status,237,42127099428,/g3t1_2,,running
Status,238,42127422496,/g3t1_2,,success
Status,239,42327499346,/g3t1_2,,running
Status,240,42327937455,/g3t1_2,,success
Status,241,42419275790,/g3t1_4,,running
Status,242,42427117279,/g3t1_4,,success
Status,243,42489753313,/g4t1,,success
Status,244,42527292854,/g3t1_2,,running
Status,245,42527724694,/g3t1_2,,success
Status,246,42727649589,/g3t1_2,,running
Status,247,42728280634,/g3t1_2,,success
Status,248,42927853925,/g3t1_2,,running
Status,249,42929038083,/g3t1_2,,success
Status,250,43127988652,/g3t1_2,,running
Status,251,43128810820,/g3t1_2,,success
Status,252,43328237248,/g3t1_2,,running
Status,253,43328837964,/g3t1_2,,success
Status,254,43419861053,/g3t1_4,,running
Status,255,43428304289,/g3t1_4,,success
Status,256,43489856534,/g4t1,,success
Status,257,43528050050,/g3t1_2,,running
Status,258,43528809828,/g3t1_2,,success
Status,259,43728644444,/g3t1_2,,running
Status,260,43729037442,/g3t1_2,,success
Status,261,43928896000,/g3t1_2,,running
Status,262,43929054387,/g3t1_2,,success
Status,263,44128798812,/g3t1_2,,running
Status,264,44129425348,/g3t1_2,,success
Status,265,44329215314,/g3t1_2,,running
Status,266,44329967074,/g3t1_2,,success
Status,267,44419978532,/g3t1_4,,running
Status,268,44427979786,/g3t1_4,,success
Status,269,44490097596,/g4t1,,success
Status,270,44529396716,/g3t1_2,,running
Status,271,44529820452,/g3t1_2,,success
Status,272,44729379970,/g3t1_2,,running
Status,273,44730220784,/g3t1_2,,success
Status,274,44929473806,/g3t1_2,,running
Status,275,44930260200,/g3t1_2,,success
Status,276,45129887398,/g3t1_2,,running
Status,277,45131056847,/g3t1_2,,success
Status,278,45330066777,/g3t1_2,,running
Status,279,45330790509,/g3t1_2,,success
Status,280,45420302746,/g3t1_4,,running
Status,281,45431451464,/g3t1_4,,success
Status,282,45490260381,/g4t1,,success
Status,283,45529977314,/g3t1_2,,running
Status,284,45530381076,/g3t1_2,,success
Status,285,45710287720,/g3t1_1,,running
Status,286,45711022604,/g3t1_1,,success
Status,287,45730059146,/g3t1_2,,running
Status,288,45730422298,/g3t1_2,,success
Status,289,45930488683,/g3t1_2,,running
Status,290,45931111107,/g3t1_2,,success
Status,291,46121417295,/g3t1_3,,running
Status,292,46121718444,/g3t1_3,,success
Status,293,46130879318,/g3t1_2,,running
Status,294,46131809356,/g3t1_2,,success
Status,295,46330843788,/g3t1_2,,running
Status,296,46331470900,/g3t1_2,,success
Status,297,46420388870,/g3t1_4,,running
Status,298,46433236244,/g3t1_4,,success
Status,299,46490415008,/g4t1,,success
Status,300,46530873481,/g3t1_2,,running
Status,301,46531734653,/g3t1_2,,success
Status,302,46731273793,/g3t1_2,,running
Status,303,46731890026,/g3t1_2,,success
Status,304,46931159774,/g3t1_2,,running
Status,305,46931739911,/g3t1_2,,success
Status,306,47131466589,/g3t1_2,,running
Status,307,47131802443,/g3t1_2,,success
Status,308,47331448971,/g3t1_2,,running
Status,309,47331856290,/g3t1_2,,success
Status,310,47420222918,/g3t1_4,,running
Status,311,47427828821,/g3t1_4,,success
Status,312,47490397945,/g4t1,,success
Status,313,47531496360,/g3t1_2,,running
Status,314,47531874428,/g3t1_2,,success
Status,315,47731019356,/g3t1_2,,running
Status,316,47731283106,/g3t1_2,,success
Status,317,47931778029,/g3t1_2,,running
Status,318,47932372144,/g3t1_2,,success
Status,319,48132032523,/g3t1_2,,running
Status,320,48132516693,/g3t1_2,,success
Status,321,48332221021,/g3t1_2,,running
Status,322,48333474917,/g3t1_2,,success
Status,323,48420596058,/g3t1_4,,running
Status,324,48428247418,/g3t1_4,,success
Status,325,48490753178,/g4t1,,success
Status,326,48532280811,/g3t1_2,,running
Status,327,48532670687,/g3t1_2,,success
Status,328,48732757012,/g3t1_2,,running
Status,329,48733098512,/g3t1_2,,success
Status,330,48932656139,/g3t1_2,,running
Status,331,48933012197,/g3t1_2,,success
Status,332,49132789640,/g3t1_2,,running
Status,333,49133289706,/g3t1_2,,success
Status,334,49332948265,/g3t1_2,,running
Status,335,49333520454,/g3t1_2,,success
Status,336,49420691661,/g3t1_4,,running
Status,337,49428153826,/g3t1_4,,success
Status,338,49490796833,/g4t1,,success
Status,339,49533305517,/g3t1_2,,running
Status,340,49533366511,/g3t1_2,,success
Status,341,49733549313,/g3t1_2,,running
Status,342,49733939357,/g3t1_2,,success
Status,343,49933811815,/g3t1_2,,running
Status,344,49934521052,/g3t1_2,,success
Status,345,50133953122,/g3t1_2,,running
Status,346,50134682745,/g3t1_2,,success
Status,347,50333811095,/g3t1_2,,running
Status,348,50334460734,/g3t1_2,,success
Status,349,50421089545,/g3t1_4,,running
Status,350,50428753653,/g3t1_4,,success
Status,351,50490165371,/g4t1,,success
Status,352,50534524954,/g3t1_2,,running
Status,353,50534793977,/g3t1_2,,success
Status,354,50710494614,/g3t1_1,,running
Status,355,50711326993,/g3t1_1,,success
Status,356,50734354119,/g3t1_2,,running
Status,357,50734679101,/g3t1_2,,success
Status,358,50934850751,/g3t1_2,,running
Status,359,50935279794,/g3t1_2,,success
Status,360,51134908958,/g3t1_2,,running
Status,361,51135546214,/g3t1_2,,success
Status,362,51335329066,/g3t1_2,,running
Status,363,51336022455,/g3t1_2,,success
Status,364,51421384204,/g3t1_4,,running
Status,365,51428883685,/g3t1_4,,success
Status,366,51491099219,/g4t1,,success
Status,367,51535082425,/g3t1_2,,running
Status,368,51535484714,/g3t1_2,,success
Status,369,51735333336,/g3t1_2,,running
Status,370,51735718494,/g3t1_2,,success
Status,371,51935554959,/g3t1_2,,running
Status,372,51936300318,/g3t1_2,,success
Status,373,52135565414,/g3t1_2,,running
Status,374,52136659868,/g3t1_2,,success
Status,375,52335783053,/g3t1_2,,running
Status,376,52336442846,/g3t1_2,,success
Status,377,52421341796,/g3t1_4,,running
Status,378,52429171550,/g3t1_4,,success
Status,379,52491291739,/g4t1,,success
Status,380,52535650574,/g3t1_2,,running
Status,381,52536215179,/g3t1_2,,success
Status,382,52736111461,/g3t1_2,,running
Status,383,52736952475,/g3t1_2,,success
Status,384,52936852194,/g3t1_2,,running
Status,385,52937267310,/g3t1_2,,success
Status,386,53136798839,/g3t1_2,,running
Status,387,53137253718,/g3t1_2,,success
Status,388,53336931127,/g3t1_2,,running
Status,389,53337779124,/g3t1_2,,success
Status,390,53421601303,/g3t1_4,,running
Status,391,53429147477,/g3t1_4,,success
Status,392,53491396117,/g4t1,,success
Status,393,53536707532,/g3t1_2,,running
Status,394,53537417093,/g3t1_2,,success
Status,395,53737436955,/g3t1_2,,running
Status,396,53737892536,/g3t1_2,,success
Status,397,53937254407,/g3t1_2,,running
Status,398,53938530657,/g3t1_2,,success
Status,399,54137732075,/g3t1_2,,running
Status,400,54138911376,/g3t1_2,,success
Status,401,54338312466,/g3t1_2,,running
Status,402,54338375933,/g3t1_2,,success
Status,403,54421692825,/g3t1_4,,running
Status,404,54429484646,/g3t1_4,,success
Status,405,54491467509,/g4t1,,success
Status,406,54537781295,/g3t1_2,,running
Status,407,54538193682,/g3t1_2,,success
Status,408,54738465300,/g3t1_2,,running
Status,409,54739191008,/g3t1_2,,success
Status,410,54938711330,/g3t1_2,,running
Status,411,54939097132,/g3t1_2,,success
Status,412,55138668057,/g3t1_2,,running
Status,413,55139096010,/g3t1_2,,success
Status,414,55337845854,/g3t1_2,,running
Status,415,55337914677,/g3t1_2,,success
Status,416,55421127846,/g3t1_4,,running
Status,417,55423392287,/g3t1_4,,success
Status,418,55490838822,/g4t1,,success
Status,419,55538150101,/g3t1_2,,running
Status,420,55538329537,/g3t1_2,,success
Status,421,55710880724,/g3t1_1,,running
Status,422,55711321130,/g3t1_1,,success
Status,423,55738951488,/g3t1_2,,running
Status,424,55739580393,/g3t1_2,,success
Status,425,55938895290,/g3t1_2,,running
Status,426,55939868713,/g3t1_2,,success
Status,427,56121407863,/g3t1_3,,running
Status,428,56122194916,/g3t1_3,,success
Status,429,56138957251,/g3t1_2,,running
Status,430,56139734335,/g3t1_2,,success
Status,431,56339472308,/g3t1_2,,running
Status,432,56340060053,/g3t1_2,,success
Status,433,56421745384,/g3t1_4,,running
Status,434,56429860585,/g3t1_4,,success
Status,435,56491566084,/g4t1,,success
Status,436,56539352868,/g3t1_2,,running
Status,437,56539675958,/g3t1_2,,success
Status,438,56739893628,/g3t1_2,,running
Status,439,56740168126,/g3t1_2,,success
Status,440,56939485523,/g3t1_2,,running
Status,441,56940248998,/g3t1_2,,success
Status,442,57140004514,/g3t1_2,,running
Status,443,57140412175,/g3t1_2,,success
Status,444,57340084803,/g3t1_2,,running
Status,445,57340725081,/g3t1_2,,success
Status,446,57422320816,/g3t1_4,,running
Status,447,57429936541,/g3t1_4,,success
Status,448,57491262094,/g4t1,,success
Status,449,57540064935,/g3t1_2,,running
Status,450,57540396454,/g3t1_2,,success
Status,451,57740259644,/g3t1_2,,running
Status,452,57740908429,/g3t1_2,,success
Status,453,57940671020,/g3t1_2,,running
Status,454,57940983013,/g3t1_2,,success
Status,455,58140792438,/g3t1_2,,running
Status,456,58141175242,/g3t1_2,,success
Status,457,58341083472,/g3t1_2,,running
Status,458,58341414189,/g3t1_2,,success
Status,459,58422430249,/g3t1_4,,running
Status,460,58430317866,/g3t1_4,,success
Status,461,58491652709,/g4t1,,success
Status,462,58540923908,/g3t1_2,,running
Status,463,58541351984,/g3t1_2,,success
Status,464,58741262298,/g3t1_2,,running
Status,465,58741651610,/g3t1_2,,success
Status,466,58941532389,/g3t1_2,,running
Status,467,58942436292,/g3t1_2,,success
Status,468,59141646579,/g3t1_2,,running
Status,469,59141924494,/g3t1_2,,success
Status,470,59342258336,/g3t1_2,,running
Status,471,59342661775,/g3t1_2,,success
Status,472,59422365858,/g3t1_4,,running
Status,473,59428591909,/g3t1_4,,success
Status,474,59491991132,/g4t1,,success
Status,475,59541994715,/g3t1_2,,running
Status,476,59542384432,/g3t1_2,,success
Status,477,59742388472,/g3t1_2,,running
Status,478,59742820437,/g3t1_2,,success
Status,479,59942570058,/g3t1_2,,running
Status,480,59943005308,/g3t1_2,,success
Status,481,60142796234,/g3t1_2,,running
Status,482,60143566008,/g3t1_2,,success
Status,483,60342849086,/g3t1_2,,running
Status,484,60343562459,/g3t1_2,,success
Status,485,60422568067,/g3t1_4,,running
Status,486,60429156388,/g3t1_4,,success
Status,487,60492037272,/g4t1,,success
Status,488,60543269692,/g3t1_2,,running
Status,489,60543326051,/g3t1_2,,success
Status,490,60710757638,/g3t1_1,,running
Status,491,60711388723,/g3t1_1,,success
Status,492,60743211765,/g3t1_2,,running
Status,493,60743977090,/g3t1_2,,success
Status,494,60943174895,/g3t1_2,,running
Status,495,60943848725,/g3t1_2,,success
Status,496,61143278366,/g3t1_2,,running
Status,497,61143678935,/g3t1_2,,success
Status,498,61343518241,/g3t1_2,,running
Status,499,61344272849,/g3t1_2,,success
Status,500,61422810544,/g3t1_4,,running
Status,501,61429354810,/g3t1_4,,success
Status,502,61492178649,/g4t1,,success
Status,503,61543713496,/g3t1_2,,running
Status,504,61543772419,/g3t1_2,,success
Status,505,61744051094,/g3t1_2,,running
Status,506,61744808720,/g3t1_2,,success
Status,507,61944163451,/g3t1_2,,running
Status,508,61944254228,/g3t1_2,,success
Status,509,62144490511,/g3t1_2,,running
Status,510,62144923139,/g3t1_2,,success
Status,511,62344385933,/g3t1_2,,running
Status,512,62345168663,/g3t1_2,,success
Status,513,62423011456,/g3t1_4,,running
Status,514,62429956893,/g3t1_4,,success
Status,515,62492365118,/g4t1,,success
Status,516,62544297300,/g3t1_2,,running
Status,517,62544945798,/g3t1_2,,success
Status,518,62744716031,/g3t1_2,,running
Status,519,62745443749,/g3t1_2,,success
Status,520,62945093415,/g3t1_2,,running
Status,521,62945742696,/g3t1_2,,success
Status,522,63145383311,/g3t1_2,,running
Status,523,63145444141,/g3t1_2,,success
Status,524,63345120531,/g3t1_2,,running
Status,525,63345370072,/g3t1_2,,success
Status,526,63423265168,/g3t1_4,,running
Status,527,63433598144,/g3t1_4,,success
Status,528,63492785242,/g4t1,,success
Status,529,63545384978,/g3t1_2,,running
Status,530,63546370942,/g3t1_2,,success
Status,531,63745836307,/g3t1_2,,running
Status,532,63746309914,/g3t1_2,,success
Status,533,63945972951,/g3t1_2,,running
Status,534,63947023667,/g3t1_2,,success
Status,535,64146458252,/g3t1_2,,running
Status,536,64146864716,/g3t1_2,,success
Status,537,64346555142,/g3t1_2,,running
Status,538,64346955131,/g3t1_2,,success
Status,539,64423195830,/g3t1_4,,running
Status,540,64429682264,/g3t1_4,,success
Status,541,64492570923,/g4t1,,success
Status,542,64546508423,/g3t1_2,,running
Status,543,64546990832,/g3t1_2,,success
Status,544,64746931313,/g3t1_2,,running
Status,545,64747278602,/g3t1_2,,success
Status,546,64947118094,/g3t1_2,,running
Status,547,64947644494,/g3t1_2,,success
Status,548,65147428608,/g3t1_2,,running
Status,549,65148013034,/g3t1_2,,success
Status,550,65347361597,/g3t1_2,,running
Status,551,65348038852,/g3t1_2,,success
Status,552,65423103501,/g3t1_4,,running
Status,553,65434745263,/g3t1_4,,success
Status,554,65492710372,/g4t1,,success
Status,555,65547519319,/g3t1_2,,running
Status,556,65547910726,/g3t1_2,,success
Status,557,65710605019,/g3t1_1,,running
Status,558,65711095985,/g3t1_1,,success
Status,559,65746935805,/g3t1_2,,running
Status,560,65746956450,/g3t1_2,,success
Status,561,65947066917,/g3t1_2,,running
Status,562,65947084340,/g3t1_2,,success
Status,563,66121128388,/g3t1_3,,running
Status,564,66121427645,/g3t1_3,,success
Status,565,66147653463,/g3t1_2,,running
Status,566,66148148873,/g3t1_2,,success
Status,567,66347720259,/g3t1_2,,running
Status,568,66348212013,/g3t1_2,,success
Status,569,66423295319,/g3t1_4,,running
Status,570,66429923035,/g3t1_4,,success
Status,571,66492865482,/g4t1,,success
Status,572,66548139313,/g3t1_2,,running
Status,573,66548190939,/g3t1_2,,success
Status,574,66748237454,/g3t1_2,,running
Status,575,66748662260,/g3t1_2,,success
Status,576,66948389389,/g3t1_2,,running
Status,577,66948960308,/g3t1_2,,success
Status,578,67148636136,/g3t1_2,,running
Status,579,67149439268,/g3t1_2,,success
Status,580,67348606610,/g3t1_2,,running
Status,581,67349012730,/g3t1_2,,success
Status,582,67423440312,/g3t1_4,,running
Status,583,67432868166,/g3t1_4,,success
Status,584,67493056312,/g4t1,,success
Status,585,67548616175,/g3t1_2,,running
Status,586,67548890932,/g3t1_2,,success
Status,587,67749005163,/g3t1_2,,running
Status,588,67749441300,/g3t1_2,,success
Status,589,67949306915,/g3t1_2,,running
Status,590,67949933392,/g3t1_2,,success
Status,591,68149552031,/g3t1_2,,running
Status,592,68149974004,/g3t1_2,,success
Status,593,68349852676,/g3t1_2,,running
Status,594,68350586912,/g3t1_2,,success
Status,595,68423780984,/g3t1_4,,running
Status,596,68431425337,/g3t1_4,,success
Status,597,68493162332,/g4t1,,success
Status,598,68549917296,/g3t1_2,,running
Status,599,68550290252,/g3t1_2,,success
Status,600,68750105808,/g3t1_2,,running
Status,601,68750606408,/g3t1_2,,success
Status,602,68950190310,/g3t1_2,,running
Status,603,68950853974,/g3t1_2,,success
Status,604,69150572250,/g3t1_2,,running
Status,605,69151360178,/g3t1_2,,success
Status,606,69350734801,/g3t1_2,,running
Status,607,69351015494,/g3t1_2,,success
Status,608,69423584441,/g3t1_4,,running
Status,609,69429636534,/g3t1_4,,success
Status,610,69493261910,/g4t1,,success
Status,611,69550793416,/g3t1_2,,running
Status,612,69551666880,/g3t1_2,,success
Status,613,69751353775,/g3t1_2,,running
Status,614,69751410035,/g3t1_2,,success
Status,615,69951269565,/g3t1_2,,running
Status,616,69951621726,/g3t1_2,,success
Status,617,70150887106,/g3t1_2,,running
Status,618,70151190732,/g3t1_2,,success
Status,619,70351088890,/g3t1_2,,running
Status,620,70351362613,/g3t1_2,,success
Status,621,70423880545,/g3t1_4,,running
Status,622,70430275516,/g3t1_4,,success
Status,623,70493428720,/g4t1,,success
Status,624,70551340078,/g3t1_2,,running
Status,625,70551670139,/g3t1_2,,success
Status,626,70710423622,/g3t1_1,,running
Status,627,70710584912,/g3t1_1,,success
Status,628,70751230434,/g3t1_2,,running
Status,629,70751635267,/g3t1_2,,success
Status,630,70951790989,/g3t1_2,,running
Status,631,70952340351,/g3t1_2,,success
Status,632,71151940610,/g3t1_2,,running
Status,633,71152377771,/g3t1_2,,success
Status,634,71352109230,/g3t1_2,,running
Status,635,71352663531,/g3t1_2,,success
Status,636,71424218840,/g3t1_4,,running
Status,637,71431907633,/g3t1_4,,success
Status,638,71493721594,/g4t1,,success
Status,639,71552006975,/g3t1_2,,running
Status,640,71552231312,/g3t1_2,,success
Status,641,71752154588,/g3t1_2,,running
Status,642,71752955639,/g3t1_2,,success
Status,643,71952612978,/g3t1_2,,running
Status,644,71953229628,/g3t1_2,,success
Status,645,72153163525,/g3t1_2,,running
Status,646,72153224040,/g3t1_2,,success
Status,647,72352901693,/g3t1_2,,running
Status,648,72353234378,/g3t1_2,,success
Status,649,72423882198,/g3t1_4,,running
Status,650,72428460392,/g3t1_4,,success
Status,651,72493663221,/g4t1,,success
Status,652,72552820652,/g3t1_2,,running
Status,653,72553162199,/g3t1_2,,success
Status,654,72753089175,/g3t1_2,,running
Status,655,72753467347,/g3t1_2,,success
Status,656,72953493134,/g3t1_2,,running
Status,657,72953993086,/g3t1_2,,success
Status,658,73153573843,/g3t1_2,,running
Status,659,73153850995,/g3t1_2,,success
Status,660,73353705714,/g3t1_2,,running
Status,661,73354450904,/g3t1_2,,success
Status,662,73424389201,/g3t1_4,,running
Status,663,73431045014,/g3t1_4,,success
Status,664,73494020073,/g4t1,,success
Status,665,73553122588,/g3t1_2,,running
Status,666,73553435552,/g3t1_2,,success
Status,667,73753262452,/g3t1_2,,running
Status,668,73753287407,/g3t1_2,,success
Status,669,73953228431,/g3t1_2,,running
Status,670,73953346731,/g3t1_2,,success
Status,671,74153227059,/g3t1_2,,running
Status,672,74153307005,/g3t1_2,,success
Status,673,74354113824,/g3t1_2,,running
Status,674,74354952983,/g3t1_2,,success
Status,675,74424369602,/g3t1_4,,running
Status,676,74431264013,/g3t1_4,,success
Status,677,74494245762,/g4t1,,success
Status,678,74553646351,/g3t1_2,,running
Status,679,74553764055,/g3t1_2,,success
Status,680,74754309928,/g3t1_2,,running
Status,681,74754766181,/g3t1_2,,success
Status,682,74954588432,/g3t1_2,,running
Status,683,74954828996,/g3t1_2,,success
Status,684,75154701817,/g3t1_2,,running
Status,685,75155023189,/g3t1_2,,success
Status,686,75354691522,/g3t1_2,,running
Status,687,75355223336,/g3t1_2,,success
Status,688,75424789681,/g3t1_4,,running
Status,689,75431434542,/g3t1_4,,success
Status,690,75494106754,/g4t1,,success
Status,691,75554692753,/g3t1_2,,running
Status,692,75555281042,/g3t1_2,,success
Status,693,75711198690,/g3t1_1,,running
Status,694,75711906659,/g3t1_1,,success
Status,695,75755078977,/g3t1_2,,running
Status,696,75755415753,/g3t1_2,,success
Status,697,75954611430,/g3t1_2,,running
Status,698,75954640324,/g3t1_2,,success
Status,699,76121021299,/g3t1_3,,running
Status,700,76121100711,/g3t1_3,,success
Status,701,76154622227,/g3t1_2,,running
Status,702,76154716251,/g3t1_2,,success
Status,703,76355464925,/g3t1_2,,running
Status,704,76356129380,/g3t1_2,,success
Status,705,76424949850,/g3t1_4,,running
Status,706,76432406515,/g3t1_4,,success
Status,707,76494309648,/g4t1,,success
Status,708,76555132313,/g3t1_2,,running
Status,709,76555419444,/g3t1_2,,success
Status,710,76755404201,/g3t1_2,,running
Status,711,76756028491,/g3t1_2,,success
Status,712,76955009585,/g3t1_2,,running
Status,713,76955191115,/g3t1_2,,success
Status,714,77155829769,/g3t1_2,,running
Status,715,77156260773,/g3t1_2,,success
Status,716,77355962607,/g3t1_2,,running
Status,717,77356028112,/g3t1_2,,success
Status,718,77425182168,/g3t1_4,,running
Status,719,77432176377,/g3t1_4,,success
Status,720,77494480651,/g4t1,,success
Status,721,77555880206,/g3t1_2,,running
Status,722,77556422995,/g3t1_2,,success
Status,723,77756228404,/g3t1_2,,running
Status,724,77756551288,/g3t1_2,,success
Status,725,77956295860,/g3t1_2,,running
Status,726,77956843380,/g3t1_2,,success
Status,727,78156605580,/g3t1_2,,running
Status,728,78157307463,/g3t1_2,,success
Status,729,78356592518,/g3t1_2,,running
Status,730,78357048795,/g3t1_2,,success
Status,731,78425273235,/g3t1_4,,running
Status,732,78433109741,/g3t1_4,,success
Status,733,78494626743,/g4t1,,success
Status,734,78556538340,/g3t1_2,,running
Status,735,78557106138,/g3t1_2,,success
Status,736,78757138355,/g3t1_2,,running
Status,737,78757379305,/g3t1_2,,success
Status,738,78957023047,/g3t1_2,,running
Status,739,78957894625,/g3t1_2,,success
Status,740,79157089325,/g3t1_2,,running
Status,741,79157754368,/g3t1_2,,success
Status,742,79357373310,/g3t1_2,,running
Status,743,79357984356,/g3t1_2,,success
Status,744,79425136626,/g3t1_4,,running
Status,745,79429593519,/g3t1_4,,success
Status,746,79495172450,/g4t1,,success
Status,747,79557575525,/g3t1_2,,running
Status,748,79557893790,/g3t1_2,,success
Status,749,79757835009,/g3t1_2,,running
Status,750,79758345640,/g3t1_2,,success
Status,751,79957987474,/g3t1_2,,running
Status,752,79958664103,/g3t1_2,,success
Status,753,80158290744,/g3t1_2,,running
Status,754,80158654069,/g3t1_2,,success
Status,755,80358298059,/g3t1_2,,running
Status,756,80358883516,/g3t1_2,,success
Status,757,80425247535,/g3t1_4,,running
Status,758,80429307381,/g3t1_4,,success
Status,759,80495428062,/g4t1,,success
Status,760,80558661376,/g3t1_2,,running
Status,761,80559072599,/g3t1_2,,success
Status,762,80711229407,/g3t1_1,,running
Status,763,80711992327,/g3t1_1,,success
Status,764,80758684384,/g3t1_2,,running
Status,765,80759172746,/g3t1_2,,success
Status,766,80959037535,/g3t1_2,,running
Status,767,80959522745,/g3t1_2,,success
Status,768,81159278850,/g3t1_2,,running
Status,769,81159593942,/g3t1_2,,success
Status,770,81359422905,/g3t1_2,,running
Status,771,81359788094,/g3t1_2,,success
Status,772,81426111582,/g3t1_4,,running
Status,773,81433685597,/g3t1_4,,success
Status,774,81495578962,/g4t1,,success
Status,775,81559496178,/g3t1_2,,running
Status,776,81560199285,/g3t1_2,,success
Status,777,81760125207,/g3t1_2,,running
Status,778,81760885152,/g3t1_2,,success
Status,779,81959199437,/g3t1_2,,running
Status,780,81959296620,/g3t1_2,,success
Status,781,82160480527,/g3t1_2,,running
Status,782,82161050313,/g3t1_2,,success
Status,783,82360668411,/g3t1_2,,running
Status,784,82361594381,/g3t1_2,,success
Status,785,82425929763,/g3t1_4,,running
Status,786,82433495521,/g3t1_4,,success
Status,787,82495578177,/g4t1,,success
Status,788,82560181239,/g3t1_2,,running
Status,789,82560458015,/g3t1_2,,success
Status,790,82760285738,/g3t1_2,,running
Status,791,82760567453,/g3t1_2,,success
Status,792,82961131903,/g3t1_2,,running
Status,793,82961987487,/g3t1_2,,success
Status,794,83161161459,/g3t1_2,,running
Status,795,83161675497,/g3t1_2,,success
Status,796,83361125341,/g3t1_2,,running
Status,797,83361809199,/g3t1_2,,success
Status,798,83426033421,/g3t1_4,,running
Status,799,83436627947,/g3t1_4,,success
Status,800,83495759660,/g4t1,,success
Status,801,83560898776,/g3t1_2,,running
Status,802,83561439448,/g3t1_2,,success
Status,803,83761778087,/g3t1_2,,running
Status,804,83762644034,/g3t1_2,,success
Status,805,83961739843,/g3t1_2,,running
Status,806,83962470078,/g3t1_2,,success
Status,807,84161651172,/g3t1_2,,running
Status,808,84162138750,/g3t1_2,,success
Status,810,84237390253,/g3t1_4,,status
