
Status,2,20689254664,g4t1,,init
Status,4,26202137059,g3t1_1,,init
Status,5,26221557658,g3t1_1,,init
Status,6,26221588603,g3t1_1,,running
Status,7,26221601938,g3t1_1,,success
Status,9,26609301989,g3t1_2,,init
Status,10,26617438660,g3t1_2,,init
Status,11,26617462536,g3t1_2,,running
Status,12,26618249452,g3t1_2,,success
Status,14,26709871109,g3t1_4,,init
Status,15,26721781008,g3t1_4,,init
Status,16,26721803376,g3t1_4,,running
Status,17,26723817133,g3t1_4,,success
Status,18,26817950838,g3t1_2,,running
Status,19,26818790511,g3t1_2,,success
Status,20,27018036685,g3t1_2,,running
Status,21,27019290405,g3t1_2,,success
Status,22,27218081909,g3t1_2,,running
Status,23,27219345368,g3t1_2,,success
Status,24,27418133792,g3t1_2,,running
Status,25,27419360822,g3t1_2,,success
Status,26,27618250829,g3t1_2,,running
Status,27,27619428798,g3t1_2,,success
Status,28,27706071127,g4t1,,success
Status,29,27722247424,g3t1_4,,running
Status,30,27728476535,g3t1_4,,success
Status,31,27819071587,g3t1_2,,running
Status,32,27819261367,g3t1_2,,success
Status,33,28019363568,g3t1_2,,running
Status,34,28019615755,g3t1_2,,success
Status,35,28219475697,g3t1_2,,running
Status,36,28219735439,g3t1_2,,success
Status,37,28418643046,g3t1_2,,running
Status,38,28419834398,g3t1_2,,success
Status,39,28618750973,g3t1_2,,running
Status,40,28620089321,g3t1_2,,success
Status,41,28706466427,g4t1,,success
Status,42,28722289133,g3t1_4,,running
Status,43,28729187117,g3t1_4,,success
Status,44,28818810587,g3t1_2,,running
Status,45,28820272840,g3t1_2,,success
Status,46,29019879694,g3t1_2,,running
Status,47,29020577037,g3t1_2,,success
Status,48,29218928929,g3t1_2,,running
Status,49,29220207849,g3t1_2,,success
Status,50,29419435755,g3t1_2,,running
Status,51,29420678327,g3t1_2,,success
Status,52,29619777930,g3t1_2,,running
Status,53,29621038095,g3t1_2,,success
Status,54,29706580810,g4t1,,success
Status,55,29722362807,g3t1_4,,running
Status,56,29731893355,g3t1_4,,success
Status,57,29819363306,g3t1_2,,running
Status,58,29820843048,g3t1_2,,success
Status,59,30019457975,g3t1_2,,running
Status,60,30019589756,g3t1_2,,success
Status,61,30219217080,g3t1_2,,running
Status,62,30219835753,g3t1_2,,success
Status,63,30419587237,g3t1_2,,running
Status,64,30419754884,g3t1_2,,success
Status,65,30619740977,g3t1_2,,running
Status,66,30619812152,g3t1_2,,success
Status,67,30705959742,g4t1,,success
Status,68,30722142183,g3t1_4,,running
Status,69,30726509813,g3t1_4,,success
Status,70,30819279672,g3t1_2,,running
Status,71,30819921712,g3t1_2,,success
Status,72,31019338438,g3t1_2,,running
Status,73,31019988747,g3t1_2,,success
Status,74,31220057109,g3t1_2,,running
Status,75,31220408388,g3t1_1,,running
Status,76,31221818289,g3t1_1,,success
Status,77,31222366741,g3t1_2,,success
Status,78,31419882288,g3t1_2,,running
Status,79,31421289245,g3t1_2,,success
Status,80,31619886506,g3t1_2,,running
Status,81,31621350450,g3t1_2,,success
Status,82,31706800728,g4t1,,success
Status,83,31722562626,g3t1_4,,running
Status,84,31731260383,g3t1_4,,success
Status,85,31820734543,g3t1_2,,running
Status,86,31822058175,g3t1_2,,success
Status,87,32020106104,g3t1_2,,running
Status,88,32021494667,g3t1_2,,success
Status,89,32220641677,g3t1_2,,running
Status,90,32222011086,g3t1_2,,success
Status,91,32420746272,g3t1_2,,running
Status,92,32421865478,g3t1_2,,success
Status,93,32620484251,g3t1_2,,running
Status,94,32621754268,g3t1_2,,success
Status,95,32706507886,g4t1,,success
Status,96,32722623255,g3t1_4,,running
Status,97,32729769661,g3t1_4,,success
Status,98,32820519770,g3t1_2,,running
Status,99,32822085039,g3t1_2,,success
Status,100,33021228207,g3t1_2,,running
Status,101,33022430628,g3t1_2,,success
Status,102,33221239521,g3t1_2,,running
Status,103,33222652139,g3t1_2,,success
Status,104,33420955453,g3t1_2,,running
Status,105,33422166440,g3t1_2,,success
Status,106,33621588686,g3t1_2,,running
Status,107,33622690593,g3t1_2,,success
Status,108,33707089206,g4t1,,success
Status,109,33722910212,g3t1_4,,running
Status,110,33730321405,g3t1_4,,success
Status,111,33820680911,g3t1_2,,running
Status,112,33821133875,g3t1_2,,success
Status,113,34021081322,g3t1_2,,running
Status,114,34022265691,g3t1_2,,success
Status,115,34221460469,g3t1_2,,running
Status,116,34222624483,g3t1_2,,success
Status,117,34421614560,g3t1_2,,running
Status,118,34422833618,g3t1_2,,success
Status,119,34621426049,g3t1_2,,running
Status,120,34622765213,g3t1_2,,success
Status,121,34706804799,g4t1,,success
Status,122,34723053049,g3t1_4,,running
Status,123,34733112926,g3t1_4,,success
Status,124,34821575790,g3t1_2,,running
Status,125,34822724399,g3t1_2,,success
Status,126,35021589613,g3t1_2,,running
Status,127,35022766683,g3t1_2,,success
Status,128,35221669376,g3t1_2,,running
Status,129,35222907207,g3t1_2,,success
Status,130,35422099245,g3t1_2,,running
Status,131,35423510713,g3t1_2,,success
Status,132,35622243945,g3t1_2,,running
Status,133,35623680907,g3t1_2,,success
Status,134,35707381088,g4t1,,success
Status,135,35722833194,g3t1_4,,running
Status,136,35727879363,g3t1_4,,success
Status,137,35821908815,g3t1_2,,running
Status,138,35823176874,g3t1_2,,success
Status,139,36021974024,g3t1_2,,running
Status,140,36023239210,g3t1_2,,success
Status,141,36220564400,g3t1_1,,running
Status,142,36221876546,g3t1_1,,success
Status,143,36221941212,g3t1_2,,running
Status,144,36223085224,g3t1_2,,success
Status,145,36422148093,g3t1_2,,running
Status,146,36423202658,g3t1_2,,success
Status,147,36622108659,g3t1_2,,running
Status,148,36623355898,g3t1_2,,success
Status,149,36706957749,g4t1,,success
Status,150,36722965665,g3t1_4,,running
Status,151,36728507690,g3t1_4,,success
Status,152,36822218547,g3t1_2,,running
Status,153,36823475995,g3t1_2,,success
Status,154,37022413855,g3t1_2,,running
Status,155,37023578717,g3t1_2,,success
Status,156,37222749029,g3t1_2,,running
Status,157,37224140789,g3t1_2,,success
Status,158,37422660096,g3t1_2,,running
Status,159,37423767295,g3t1_2,,success
Status,160,37622634848,g3t1_2,,running
Status,161,37623952213,g3t1_2,,success
Status,162,37707358621,g4t1,,success
Status,163,37723403811,g3t1_4,,running
Status,164,37729973913,g3t1_4,,success
Status,165,37822972950,g3t1_2,,running
Status,166,37824216189,g3t1_2,,success
Status,167,38023061698,g3t1_2,,running
Status,168,38023304585,g3t1_2,,success
Status,169,38222977437,g3t1_2,,running
Status,170,38224251503,g3t1_2,,success
Status,171,38423400981,g3t1_2,,running
Status,172,38424737376,g3t1_2,,success
Status,173,38623201996,g3t1_2,,running
Status,174,38624614557,g3t1_2,,success
Status,175,38707147353,g4t1,,success
Status,176,38723196789,g3t1_4,,running
Status,177,38728888063,g3t1_4,,success
Status,178,38823204561,g3t1_2,,running
Status,179,38824275260,g3t1_2,,success
Status,180,39022913200,g3t1_2,,running
Status,181,39023421868,g3t1_2,,success
Status,182,39223017780,g3t1_2,,running
Status,183,39223609754,g3t1_2,,success
Status,184,39424020128,g3t1_2,,running
Status,185,39425293674,g3t1_2,,success
Status,186,39624257147,g3t1_2,,running
Status,187,39624305616,g3t1_2,,success
Status,188,39707141580,g4t1,,success
Status,189,39723382196,g3t1_4,,running
Status,190,39731919312,g3t1_4,,success
Status,191,39823955990,g3t1_2,,running
Status,192,39825177314,g3t1_2,,success
Status,193,40024046758,g3t1_2,,running
Status,194,40025405149,g3t1_2,,success
Status,195,40224045555,g3t1_2,,running
Status,196,40225393117,g3t1_2,,success
Status,197,40423734537,g3t1_2,,running
Status,198,40424796826,g3t1_2,,success
Status,199,40624343547,g3t1_2,,running
Status,200,40625878674,g3t1_2,,success
Status,201,40707429653,g4t1,,success
Status,202,40723525812,g3t1_4,,running
Status,203,40731686091,g3t1_4,,success
Status,204,40824121519,g3t1_2,,running
Status,205,40825263320,g3t1_2,,success
Status,206,41024132516,g3t1_2,,running
Status,207,41025410822,g3t1_2,,success
Status,208,41221327177,g3t1_1,,running
Status,209,41221506606,g3t1_1,,success
Status,210,41223961187,g3t1_2,,running
Status,211,41224910085,g3t1_2,,success
Status,212,41423937232,g3t1_2,,running
Status,213,41424425392,g3t1_2,,success
Status,214,41624341151,g3t1_2,,running
Status,215,41625175443,g3t1_2,,success
Status,216,41707183719,g4t1,,success
Status,217,41723255356,g3t1_4,,running
Status,218,41727139262,g3t1_4,,success
Status,219,41824218886,g3t1_2,,running
Status,220,41824886689,g3t1_2,,success
Status,221,42024200777,g3t1_2,,running
Status,222,42024825097,g3t1_2,,success
Status,223,42224576966,g3t1_2,,running
Status,224,42225793391,g3t1_2,,success
Status,225,42424746011,g3t1_2,,running
Status,226,42425872810,g3t1_2,,success
Status,227,42624886350,g3t1_2,,running
Status,228,42626262528,g3t1_2,,success
Status,229,42707097998,g4t1,,success
Status,230,42723326056,g3t1_4,,running
Status,231,42727588046,g3t1_4,,success
Status,232,42825314191,g3t1_2,,running
Status,233,42825459412,g3t1_2,,success
Status,234,43024914154,g3t1_2,,running
Status,235,43025947210,g3t1_2,,success
Status,236,43224780135,g3t1_2,,running
Status,237,43225442049,g3t1_2,,success
Status,238,43424833959,g3t1_2,,running
Status,239,43425460429,g3t1_2,,success
Status,240,43625625462,g3t1_2,,running
Status,241,43627062387,g3t1_2,,success
Status,242,43707615306,g4t1,,success
Status,243,43723541353,g3t1_4,,running
Status,244,43727401011,g3t1_4,,success
Status,245,43824952597,g3t1_2,,running
Status,246,43825523983,g3t1_2,,success
Status,247,44025454649,g3t1_2,,running
Status,248,44026789647,g3t1_2,,success
Status,249,44225986804,g3t1_2,,running
Status,250,44226074835,g3t1_2,,success
Status,252,44253954027,g3t1_4,,status
Status,253,44425284056,g3t1_2,,running
Status,254,44425864591,g3t1_2,,success
Status,255,44625308983,g3t1_2,,running
Status,256,44625779968,g3t1_2,,success
Status,257,44707341794,g4t1,,success
Status,258,44825692543,g3t1_2,,running
Status,259,44827087907,g3t1_2,,success
Status,260,45025492161,g3t1_2,,running
Status,261,45026111124,g3t1_2,,success
Status,262,45225713370,g3t1_2,,running
Status,263,45226286144,g3t1_2,,success
Status,265,45303030473,g3t1_2,,status
Status,266,45708062567,g4t1,,success
Status,268,46139994857,g3t1_1,,status
Status,269,46707927383,g4t1,,success
