
Status,1,20520178074,/g4t1,,init
Status,3,25626946504,/g3t1_2,,init
Status,5,25640540378,/g3t1_2,,init
Status,6,25640562035,/g3t1_2,,running
Status,7,25642264420,/g3t1_2,,success
Status,8,25840781946,/g3t1_2,,running
Status,9,25841778136,/g3t1_2,,success
Status,10,26040942620,/g3t1_2,,running
Status,11,26041930614,/g3t1_2,,success
Status,12,26241059279,/g3t1_2,,running
Status,13,26241984751,/g3t1_2,,success
Status,14,26441205625,/g3t1_2,,running
Status,15,26442154226,/g3t1_2,,success
Status,16,26541426438,/g4t1,,success
Status,17,26641352641,/g3t1_2,,running
Status,18,26642322759,/g3t1_2,,success
Status,19,26841472795,/g3t1_2,,running
Status,20,26842549724,/g3t1_2,,success
Status,21,27041767909,/g3t1_2,,running
Status,22,27042915073,/g3t1_2,,success
Status,23,27242464207,/g3t1_2,,running
Status,24,27243367041,/g3t1_2,,success
Status,25,27441959289,/g3t1_2,,running
Status,26,27442957314,/g3t1_2,,success
Status,27,27541497301,/g4t1,,success
Status,28,27641948837,/g3t1_2,,running
Status,29,27642998958,/g3t1_2,,success
Status,30,27842059770,/g3t1_2,,running
Status,31,27843182938,/g3t1_2,,success
Status,32,28042481080,/g3t1_2,,running
Status,33,28043607250,/g3t1_2,,success
Status,34,28242309127,/g3t1_2,,running
Status,35,28243269537,/g3t1_2,,success
Status,36,28442585768,/g3t1_2,,running
Status,37,28444637929,/g3t1_2,,success
Status,38,28541652790,/g4t1,,success
Status,39,28642692321,/g3t1_2,,running
Status,40,28644470256,/g3t1_2,,success
Status,41,28842693726,/g3t1_2,,running
Status,42,28843662247,/g3t1_2,,success
Status,43,29042850486,/g3t1_2,,running
Status,44,29043802831,/g3t1_2,,success
Status,45,29242942076,/g3t1_2,,running
Status,46,29243859657,/g3t1_2,,success
Status,47,29443049719,/g3t1_2,,running
Status,48,29444186971,/g3t1_2,,success
Status,49,29541757015,/g4t1,,success
Status,50,29643093140,/g3t1_2,,running
Status,51,29644067885,/g3t1_2,,success
Status,52,29843392022,/g3t1_2,,running
Status,53,29845088987,/g3t1_2,,success
Status,54,30043422558,/g3t1_2,,running
Status,55,30044373364,/g3t1_2,,success
Status,56,30243571757,/g3t1_2,,running
Status,57,30244531359,/g3t1_2,,success
Status,58,30443653108,/g3t1_2,,running
Status,59,30444572028,/g3t1_2,,success
Status,60,30541858326,/g4t1,,success
Status,61,30643751364,/g3t1_2,,running
Status,62,30644688259,/g3t1_2,,success
Status,63,30844178089,/g3t1_2,,running
Status,64,30846003603,/g3t1_2,,success
Status,65,31044082363,/g3t1_2,,running
Status,66,31045023286,/g3t1_2,,success
Status,67,31244167750,/g3t1_2,,running
Status,68,31245222163,/g3t1_2,,success
Status,69,31444344686,/g3t1_2,,running
Status,70,31445296717,/g3t1_2,,success
Status,71,31541969104,/g4t1,,success
Status,72,31644485059,/g3t1_2,,running
Status,73,31645506909,/g3t1_2,,success
Status,74,31845051711,/g3t1_2,,running
Status,75,31846864848,/g3t1_2,,success
Status,76,32044809728,/g3t1_2,,running
Status,77,32045790062,/g3t1_2,,success
Status,78,32245258084,/g3t1_2,,running
Status,79,32246930420,/g3t1_2,,success
Status,80,32445028055,/g3t1_2,,running
Status,81,32446047925,/g3t1_2,,success
Status,82,32542137383,/g4t1,,success
Status,83,32645167557,/g3t1_2,,running
Status,84,32646181620,/g3t1_2,,success
Status,85,32845387796,/g3t1_2,,running
Status,86,32846784578,/g3t1_2,,success
Status,87,33045378393,/g3t1_2,,running
Status,88,33046505625,/g3t1_2,,success
Status,89,33245510763,/g3t1_2,,running
Status,90,33246495160,/g3t1_2,,success
Status,91,33445678251,/g3t1_2,,running
Status,92,33447025536,/g3t1_2,,success
Status,93,33542197143,/g4t1,,success
Status,94,33645836237,/g3t1_2,,running
Status,95,33646983658,/g3t1_2,,success
Status,96,33845869368,/g3t1_2,,running
Status,97,33846925955,/g3t1_2,,success
Status,98,34045978989,/g3t1_2,,running
Status,99,34046964873,/g3t1_2,,success
Status,100,34246123791,/g3t1_2,,running
Status,101,34247160818,/g3t1_2,,success
Status,102,34446257866,/g3t1_2,,running
Status,103,34448515080,/g3t1_2,,success
Status,104,34542293899,/g4t1,,success
Status,105,34646355935,/g3t1_2,,running
Status,106,34648435601,/g3t1_2,,success
Status,107,34846706237,/g3t1_2,,running
Status,108,34848352091,/g3t1_2,,success
Status,109,35046686149,/g3t1_2,,running
Status,110,35047745923,/g3t1_2,,success
Status,111,35246761133,/g3t1_2,,running
Status,112,35247734879,/g3t1_2,,success
Status,113,35446889329,/g3t1_2,,running
Status,114,35447903049,/g3t1_2,,success
Status,115,35542366154,/g4t1,,success
Status,116,35647060624,/g3t1_2,,running
Status,117,35648160097,/g3t1_2,,success
Status,118,35847186839,/g3t1_2,,running
Status,119,35848251941,/g3t1_2,,success
Status,120,36047261847,/g3t1_2,,running
Status,121,36048503161,/g3t1_2,,success
Status,122,36247752868,/g3t1_2,,running
Status,123,36249918799,/g3t1_2,,success
Status,124,36447591306,/g3t1_2,,running
Status,125,36448638056,/g3t1_2,,success
Status,126,36542489488,/g4t1,,success
Status,127,36647700427,/g3t1_2,,running
Status,128,36648704441,/g3t1_2,,success
Status,129,36847876718,/g3t1_2,,running
Status,130,36848858275,/g3t1_2,,success
Status,131,37048005837,/g3t1_2,,running
Status,132,37049029663,/g3t1_2,,success
Status,133,37248139117,/g3t1_2,,running
Status,134,37249290340,/g3t1_2,,success
Status,135,37448274305,/g3t1_2,,running
Status,136,37449350062,/g3t1_2,,success
Status,137,37542683293,/g4t1,,success
Status,138,37648392352,/g3t1_2,,running
Status,139,37649333957,/g3t1_2,,success
Status,140,37848591596,/g3t1_2,,running
Status,141,37849900914,/g3t1_2,,success
Status,142,38048697321,/g3t1_2,,running
Status,143,38049755460,/g3t1_2,,success
Status,144,38248837377,/g3t1_2,,running
Status,145,38249779867,/g3t1_2,,success
Status,146,38448957285,/g3t1_2,,running
Status,147,38449958246,/g3t1_2,,success
Status,148,38542743447,/g4t1,,success
Status,149,38649111061,/g3t1_2,,running
Status,150,38650115020,/g3t1_2,,success
Status,151,38849401145,/g3t1_2,,running
Status,152,38850888400,/g3t1_2,,success
Status,153,39049410542,/g3t1_2,,running
Status,154,39050376363,/g3t1_2,,success
Status,155,39249510340,/g3t1_2,,running
Status,156,39250481360,/g3t1_2,,success
Status,157,39449646944,/g3t1_2,,running
Status,158,39450700645,/g3t1_2,,success
Status,159,39542827101,/g4t1,,success
Status,160,39649836279,/g3t1_2,,running
Status,161,39650864246,/g3t1_2,,success
Status,162,39849923641,/g3t1_2,,running
Status,163,39850923557,/g3t1_2,,success
Status,164,40050034248,/g3t1_2,,running
Status,165,40050989305,/g3t1_2,,success
Status,166,40250145365,/g3t1_2,,running
Status,167,40251151234,/g3t1_2,,success
Status,168,40450225205,/g3t1_2,,running
Status,169,40451232830,/g3t1_2,,success
Status,170,40542934801,/g4t1,,success
Status,171,40650383086,/g3t1_2,,running
Status,172,40651363116,/g3t1_2,,success
Status,173,40850810914,/g3t1_2,,running
Status,174,40853195376,/g3t1_2,,success
Status,175,41050553806,/g3t1_2,,running
Status,176,41051485185,/g3t1_2,,success
Status,177,41251504030,/g3t1_2,,running
Status,178,41253879124,/g3t1_2,,success
Status,179,41451577564,/g3t1_2,,running
Status,180,41452604826,/g3t1_2,,success
Status,181,41543069165,/g4t1,,success
Status,182,41651672453,/g3t1_2,,running
Status,183,41652633148,/g3t1_2,,success
Status,184,41851767533,/g3t1_2,,running
Status,185,41852704883,/g3t1_2,,success
Status,186,42052012932,/g3t1_2,,running
Status,187,42053443435,/g3t1_2,,success
Status,188,42251951851,/g3t1_2,,running
Status,189,42252986962,/g3t1_2,,success
Status,190,42452193865,/g3t1_2,,running
Status,191,42453623694,/g3t1_2,,success
Status,192,42543172912,/g4t1,,success
Status,193,42652079067,/g3t1_2,,running
Status,194,42653631248,/g3t1_2,,success
Status,195,42852340408,/g3t1_2,,running
Status,196,42853997299,/g3t1_2,,success
Status,197,43052335434,/g3t1_2,,running
Status,198,43053923630,/g3t1_2,,success
Status,199,43252447973,/g3t1_2,,running
Status,200,43254066476,/g3t1_2,,success
Status,201,43453024800,/g3t1_2,,running
Status,202,43455541193,/g3t1_2,,success
Status,203,43543263244,/g4t1,,success
Status,204,43652657883,/g3t1_2,,running
Status,205,43654146744,/g3t1_2,,success
Status,206,43852699478,/g3t1_2,,running
Status,207,43854264300,/g3t1_2,,success
Status,208,44052803618,/g3t1_2,,running
Status,209,44054319052,/g3t1_2,,success
Status,210,44253183621,/g3t1_2,,running
Status,211,44255711531,/g3t1_2,,success
Status,212,44452979011,/g3t1_2,,running
Status,213,44454562417,/g3t1_2,,success
Status,214,44543333691,/g4t1,,success
Status,215,44653095790,/g3t1_2,,running
Status,216,44654654779,/g3t1_2,,success
Status,217,44853526506,/g3t1_2,,running
Status,218,44857154063,/g3t1_2,,success
Status,219,45053575326,/g3t1_2,,running
Status,220,45056503034,/g3t1_2,,success
Status,221,45253480907,/g3t1_2,,running
Status,222,45255176000,/g3t1_2,,success
Status,223,45453553748,/g3t1_2,,running
Status,224,45454954829,/g3t1_2,,success
Status,225,45543405052,/g4t1,,success
Status,226,45653622372,/g3t1_2,,running
Status,227,45655165431,/g3t1_2,,success
Status,228,45853756572,/g3t1_2,,running
Status,229,45855204402,/g3t1_2,,success
Status,230,46053843674,/g3t1_2,,running
Status,231,46055359999,/g3t1_2,,success
Status,232,46253906844,/g3t1_2,,running
Status,233,46255466128,/g3t1_2,,success
Status,234,46453989086,/g3t1_2,,running
Status,235,46455564656,/g3t1_2,,success
Status,236,46543511910,/g4t1,,success
Status,237,46654060255,/g3t1_2,,running
Status,238,46656852304,/g3t1_2,,success
Status,239,46854692561,/g3t1_2,,running
Status,240,46858727570,/g3t1_2,,success
Status,241,47054376249,/g3t1_2,,running
Status,242,47055955538,/g3t1_2,,success
Status,243,47254511284,/g3t1_2,,running
Status,244,47255986247,/g3t1_2,,success
Status,245,47454664800,/g3t1_2,,running
Status,246,47456162169,/g3t1_2,,success
Status,247,47543687532,/g4t1,,success
Status,248,47654766597,/g3t1_2,,running
Status,249,47656357380,/g3t1_2,,success
Status,250,47854845712,/g3t1_2,,running
Status,251,47856313134,/g3t1_2,,success
Status,252,48054908317,/g3t1_2,,running
Status,253,48056390855,/g3t1_2,,success
Status,254,48255369406,/g3t1_2,,running
Status,255,48258781301,/g3t1_2,,success
Status,256,48455037042,/g3t1_2,,running
Status,257,48456662877,/g3t1_2,,success
Status,258,48543821744,/g4t1,,success
Status,259,48655183960,/g3t1_2,,running
Status,260,48656599064,/g3t1_2,,success
Status,261,48855576617,/g3t1_2,,running
Status,262,48858538431,/g3t1_2,,success
Status,263,49055659700,/g3t1_2,,running
Status,264,49059126856,/g3t1_2,,success
Status,265,49255980544,/g3t1_2,,running
Status,266,49258933250,/g3t1_2,,success
Status,267,49455700214,/g3t1_2,,running
Status,268,49457196000,/g3t1_2,,success
Status,269,49543939893,/g4t1,,success
Status,270,49655847028,/g3t1_2,,running
Status,271,49657505820,/g3t1_2,,success
Status,272,49855937905,/g3t1_2,,running
Status,273,49857396092,/g3t1_2,,success
Status,274,50056159901,/g3t1_2,,running
Status,275,50057581709,/g3t1_2,,success
Status,276,50256254158,/g3t1_2,,running
Status,277,50257704730,/g3t1_2,,success
Status,278,50456421635,/g3t1_2,,running
Status,279,50457949658,/g3t1_2,,success
Status,280,50544153819,/g4t1,,success
Status,281,50656581703,/g3t1_2,,running
Status,282,50658067343,/g3t1_2,,success
Status,283,50856695278,/g3t1_2,,running
Status,284,50858157831,/g3t1_2,,success
Status,285,51056853777,/g3t1_2,,running
Status,286,51058310275,/g3t1_2,,success
Status,287,51256958174,/g3t1_2,,running
Status,288,51258495500,/g3t1_2,,success
Status,289,51457124244,/g3t1_2,,running
Status,290,51458676528,/g3t1_2,,success
Status,291,51544271904,/g4t1,,success
Status,292,51657265676,/g3t1_2,,running
Status,293,51659296560,/g3t1_2,,success
Status,294,51857412739,/g3t1_2,,running
Status,295,51859491287,/g3t1_2,,success
Status,296,52057545472,/g3t1_2,,running
Status,297,52059211729,/g3t1_2,,success
Status,298,52257685469,/g3t1_2,,running
Status,299,52260029450,/g3t1_2,,success
Status,300,52457820729,/g3t1_2,,running
Status,301,52461042221,/g3t1_2,,success
Status,302,52544442345,/g4t1,,success
Status,303,52657944343,/g3t1_2,,running
Status,304,52659387386,/g3t1_2,,success
Status,305,52858462438,/g3t1_2,,running
Status,306,52862054622,/g3t1_2,,success
Status,307,53058457644,/g3t1_2,,running
Status,308,53061853105,/g3t1_2,,success
Status,309,53258339734,/g3t1_2,,running
Status,310,53259931692,/g3t1_2,,success
Status,311,53458477652,/g3t1_2,,running
Status,312,53459837971,/g3t1_2,,success
Status,313,53544540919,/g4t1,,success
Status,314,53658539342,/g3t1_2,,running
Status,315,53659950545,/g3t1_2,,success
Status,316,53858956400,/g3t1_2,,running
Status,317,53863143826,/g3t1_2,,success
Status,318,54058773617,/g3t1_2,,running
Status,319,54060265527,/g3t1_2,,success
Status,320,54258851945,/g3t1_2,,running
Status,321,54260290273,/g3t1_2,,success
Status,322,54458966764,/g3t1_2,,running
Status,323,54460420887,/g3t1_2,,success
Status,324,54544740278,/g4t1,,success
Status,325,54659059072,/g3t1_2,,running
Status,326,54660505904,/g3t1_2,,success
Status,327,54859529805,/g3t1_2,,running
Status,328,54863440904,/g3t1_2,,success
Status,330,55059289940,/g3t1_2,,running
Status,331,55061305518,/g3t1_2,,success
Status,333,55259354899,/g3t1_2,,running
Status,334,55261062337,/g3t1_2,,success
Status,336,55459447913,/g3t1_2,,running
Status,337,55461060213,/g3t1_2,,success
Status,338,55544828842,/g4t1,,success
Status,340,55659737640,/g3t1_2,,running
Status,341,55662600079,/g3t1_2,,success
Status,343,55859654133,/g3t1_2,,running
Status,344,55861351657,/g3t1_2,,success
Status,346,56059718730,/g3t1_2,,running
Status,347,56061378215,/g3t1_2,,success
Status,349,56259859055,/g3t1_2,,running
Status,350,56261531194,/g3t1_2,,success
Status,352,56459978116,/g3t1_2,,running
Status,353,56461587873,/g3t1_2,,success
Status,354,56544927926,/g4t1,,success
Status,356,56660018257,/g3t1_2,,running
Status,357,56661687388,/g3t1_2,,success
Status,359,56860131997,/g3t1_2,,running
Status,360,56861774776,/g3t1_2,,success
Status,362,57060228171,/g3t1_2,,running
Status,363,57061824296,/g3t1_2,,success
Status,365,57260296336,/g3t1_2,,running
Status,366,57261951792,/g3t1_2,,success
Status,368,57460373157,/g3t1_2,,running
Status,369,57462006872,/g3t1_2,,success
Status,370,57545124657,/g4t1,,success
Status,372,57660487264,/g3t1_2,,running
Status,373,57662211713,/g3t1_2,,success
Status,375,57860562463,/g3t1_2,,running
Status,376,57862297698,/g3t1_2,,success
Status,378,58060680312,/g3t1_2,,running
Status,379,58062320962,/g3t1_2,,success
Status,381,58260743757,/g3t1_2,,running
Status,382,58262292195,/g3t1_2,,success
Status,384,58460875141,/g3t1_2,,running
Status,385,58462590139,/g3t1_2,,success
Status,386,58545152046,/g4t1,,success
Status,388,58660919747,/g3t1_2,,running
Status,389,58662671621,/g3t1_2,,success
Status,391,58861023510,/g3t1_2,,running
Status,392,58862727265,/g3t1_2,,success
Status,394,59061156919,/g3t1_2,,running
Status,395,59062831489,/g3t1_2,,success
Status,397,59261563980,/g3t1_2,,running
Status,398,59263725498,/g3t1_2,,success
Status,400,59461294008,/g3t1_2,,running
Status,401,59462995441,/g3t1_2,,success
Status,402,59545252578,/g4t1,,success
Status,404,59661416170,/g3t1_2,,running
Status,405,59662986156,/g3t1_2,,success
Status,407,59861488229,/g3t1_2,,running
Status,408,59863021437,/g3t1_2,,success
Status,410,60062185173,/g3t1_2,,running
Status,411,60064610036,/g3t1_2,,success
Status,413,60261712740,/g3t1_2,,running
Status,414,60263448795,/g3t1_2,,success
Status,416,60462293386,/g3t1_2,,running
Status,417,60464056060,/g3t1_2,,success
Status,418,60545456174,/g4t1,,success
Status,420,60662001076,/g3t1_2,,running
Status,421,60663831094,/g3t1_2,,success
Status,423,60861981269,/g3t1_2,,running
Status,424,60863564941,/g3t1_2,,success
Status,426,61062131906,/g3t1_2,,running
Status,427,61063820074,/g3t1_2,,success
Status,429,61262657737,/g3t1_2,,running
Status,430,61264336203,/g3t1_2,,success
Status,432,61462403817,/g3t1_2,,running
Status,433,61464181056,/g3t1_2,,success
Status,434,61545524348,/g4t1,,success
Status,436,61662511044,/g3t1_2,,running
Status,437,61664083766,/g3t1_2,,success
Status,439,61863134069,/g3t1_2,,running
Status,440,61865222667,/g3t1_2,,success
Status,442,62062614291,/g3t1_2,,running
Status,443,62064226332,/g3t1_2,,success
Status,445,62262895738,/g3t1_2,,running
Status,446,62264654691,/g3t1_2,,success
Status,448,62463014581,/g3t1_2,,running
Status,449,62464583600,/g3t1_2,,success
Status,450,62545648469,/g4t1,,success
Status,452,62663245941,/g3t1_2,,running
Status,453,62665020261,/g3t1_2,,success
Status,455,62863397483,/g3t1_2,,running
Status,456,62865038190,/g3t1_2,,success
Status,458,63063430623,/g3t1_2,,running
Status,459,63065092497,/g3t1_2,,success
Status,461,63263667999,/g3t1_2,,running
Status,462,63265316226,/g3t1_2,,success
Status,464,63463746394,/g3t1_2,,running
Status,465,63465478650,/g3t1_2,,success
Status,466,63545764425,/g4t1,,success
Status,468,63663872408,/g3t1_2,,running
Status,469,63665532578,/g3t1_2,,success
Status,471,63864090355,/g3t1_2,,running
Status,472,63865896935,/g3t1_2,,success
Status,474,64064180125,/g3t1_2,,running
Status,475,64065926965,/g3t1_2,,success
Status,477,64264354967,/g3t1_2,,running
Status,478,64266108727,/g3t1_2,,success
Status,480,64464324300,/g3t1_2,,running
Status,481,64466656943,/g3t1_2,,success
Status,482,64545843474,/g4t1,,success
Status,484,64664541576,/g3t1_2,,running
Status,485,64666424737,/g3t1_2,,success
Status,487,64864551427,/g3t1_2,,running
Status,488,64867552066,/g3t1_2,,success
Status,490,65064726584,/g3t1_2,,running
Status,491,65066643501,/g3t1_2,,success
Status,493,65264428564,/g3t1_2,,running
Status,494,65266186172,/g3t1_2,,success
Status,496,65464879928,/g3t1_2,,running
Status,497,65466784512,/g3t1_2,,success
Status,498,65545975388,/g4t1,,success
Status,500,65664547020,/g3t1_2,,running
Status,501,65666180431,/g3t1_2,,success
Status,503,65865060050,/g3t1_2,,running
Status,504,65867158963,/g3t1_2,,success
Status,506,66065145124,/g3t1_2,,running
Status,507,66067631210,/g3t1_2,,success
Status,509,66265333690,/g3t1_2,,running
Status,510,66267590370,/g3t1_2,,success
Status,512,66465400835,/g3t1_2,,running
Status,513,66467814863,/g3t1_2,,success
Status,514,66546005572,/g4t1,,success
Status,516,66665590577,/g3t1_2,,running
Status,517,66669638609,/g3t1_2,,success
Status,519,66865603556,/g3t1_2,,running
Status,520,66867985132,/g3t1_2,,success
Status,522,67065732548,/g3t1_2,,running
Status,523,67068295620,/g3t1_2,,success
Status,525,67265755166,/g3t1_2,,running
Status,526,67268498662,/g3t1_2,,success
Status,528,67465925396,/g3t1_2,,running
Status,529,67468310654,/g3t1_2,,success
Status,530,67546170986,/g4t1,,success
Status,532,67666003927,/g3t1_2,,running
Status,533,67668450289,/g3t1_2,,success
Status,535,67866067676,/g3t1_2,,running
Status,536,67868703301,/g3t1_2,,success
Status,538,68066141890,/g3t1_2,,running
Status,539,68068797096,/g3t1_2,,success
Status,541,68266289125,/g3t1_2,,running
Status,542,68268907395,/g3t1_2,,success
Status,544,68466317277,/g3t1_2,,running
Status,545,68469313822,/g3t1_2,,success
Status,546,68546321297,/g4t1,,success
Status,548,68666342160,/g3t1_2,,running
Status,549,68669354159,/g3t1_2,,success
Status,551,68866932297,/g3t1_2,,running
Status,552,68869652937,/g3t1_2,,success
Status,554,69066616450,/g3t1_2,,running
Status,555,69069468717,/g3t1_2,,success
Status,557,69266829494,/g3t1_2,,running
Status,558,69269543468,/g3t1_2,,success
Status,560,69466931601,/g3t1_2,,running
Status,561,69469735215,/g3t1_2,,success
Status,562,69546417842,/g4t1,,success
Status,564,69667001056,/g3t1_2,,running
Status,565,69669994104,/g3t1_2,,success
Status,567,69867078520,/g3t1_2,,running
Status,568,69870155770,/g3t1_2,,success
Status,570,70067281165,/g3t1_2,,running
Status,571,70071619853,/g3t1_2,,success
Status,573,70267408859,/g3t1_2,,running
Status,574,70270316788,/g3t1_2,,success
Status,576,70467333863,/g3t1_2,,running
Status,577,70470369585,/g3t1_2,,success
Status,578,70546615693,/g4t1,,success
Status,580,70667535119,/g3t1_2,,running
Status,581,70670629965,/g3t1_2,,success
Status,583,70867488204,/g3t1_2,,running
Status,584,70870655748,/g3t1_2,,success
Status,586,71067660327,/g3t1_2,,running
Status,587,71070658488,/g3t1_2,,success
Status,589,71267824716,/g3t1_2,,running
Status,590,71271379546,/g3t1_2,,success
Status,592,71467865867,/g3t1_2,,running
Status,593,71470928161,/g3t1_2,,success
Status,594,71546726935,/g4t1,,success
Status,596,71668047242,/g3t1_2,,running
Status,597,71670855076,/g3t1_2,,success
Status,599,71868027579,/g3t1_2,,running
Status,600,71871140940,/g3t1_2,,success
Status,602,72068209015,/g3t1_2,,running
Status,603,72071217168,/g3t1_2,,success
Status,605,72268301472,/g3t1_2,,running
Status,606,72271330950,/g3t1_2,,success
Status,608,72468476731,/g3t1_2,,running
Status,609,72471703032,/g3t1_2,,success
Status,610,72546718242,/g4t1,,success
Status,612,72668506479,/g3t1_2,,running
Status,613,72671678608,/g3t1_2,,success
Status,615,72868717532,/g3t1_2,,running
Status,616,72871946247,/g3t1_2,,success
Status,618,73068903188,/g3t1_2,,running
Status,619,73072048982,/g3t1_2,,success
Status,621,73268857673,/g3t1_2,,running
Status,622,73272089180,/g3t1_2,,success
Status,624,73469100640,/g3t1_2,,running
Status,625,73472261891,/g3t1_2,,success
Status,626,73546806962,/g4t1,,success
Status,628,73669302803,/g3t1_2,,running
Status,629,73672566327,/g3t1_2,,success
Status,631,73869465796,/g3t1_2,,running
Status,632,73872530768,/g3t1_2,,success
Status,634,74069597429,/g3t1_2,,running
Status,635,74072654368,/g3t1_2,,success
Status,637,74269693323,/g3t1_2,,running
Status,638,74272895644,/g3t1_2,,success
Status,640,74469362693,/g3t1_2,,running
Status,641,74473001310,/g3t1_2,,success
Status,642,74546895239,/g4t1,,success
Status,644,74670072750,/g3t1_2,,running
Status,645,74673093423,/g3t1_2,,success
Status,647,74870015551,/g3t1_2,,running
Status,648,74873315918,/g3t1_2,,success
Status,650,75070635245,/g3t1_2,,running
Status,651,75073522651,/g3t1_2,,success
Status,653,75270331630,/g3t1_2,,running
Status,654,75273486056,/g3t1_2,,success
Status,656,75470491723,/g3t1_2,,running
Status,657,75473654731,/g3t1_2,,success
Status,658,75547389494,/g4t1,,success
Status,660,75670545514,/g3t1_2,,running
Status,661,75674011151,/g3t1_2,,success
Status,663,75870481062,/g3t1_2,,running
Status,664,75873875767,/g3t1_2,,success
Status,666,76070176126,/g3t1_2,,running
Status,667,76074121705,/g3t1_2,,success
Status,669,76270778500,/g3t1_2,,running
Status,670,76273987650,/g3t1_2,,success
Status,672,76470908960,/g3t1_2,,running
Status,673,76474182543,/g3t1_2,,success
Status,674,76547051241,/g4t1,,success
Status,676,76671090424,/g3t1_2,,running
Status,677,76674205963,/g3t1_2,,success
Status,679,76870574012,/g3t1_2,,running
Status,680,76874321432,/g3t1_2,,success
Status,682,77070550784,/g3t1_2,,running
Status,683,77074347756,/g3t1_2,,success
Status,685,77270692815,/g3t1_2,,running
Status,686,77275013222,/g3t1_2,,success
Status,688,77470644693,/g3t1_2,,running
Status,689,77474326178,/g3t1_2,,success
Status,690,77547127483,/g4t1,,success
Status,692,77670882106,/g3t1_2,,running
Status,693,77674491291,/g3t1_2,,success
Status,695,77870919986,/g3t1_2,,running
Status,696,77874650559,/g3t1_2,,success
Status,698,78070977478,/g3t1_2,,running
Status,699,78074558640,/g3t1_2,,success
Status,701,78271054327,/g3t1_2,,running
Status,702,78275088885,/g3t1_2,,success
Status,704,78471103890,/g3t1_2,,running
Status,705,78474377563,/g3t1_2,,success
Status,706,78547289915,/g4t1,,success
Status,708,78671103957,/g3t1_2,,running
Status,709,78674871297,/g3t1_2,,success
Status,711,78871156800,/g3t1_2,,running
Status,712,78874852844,/g3t1_2,,success
Status,714,79071285954,/g3t1_2,,running
Status,715,79075054532,/g3t1_2,,success
Status,717,79271322677,/g3t1_2,,running
Status,718,79275105867,/g3t1_2,,success
Status,720,79471508742,/g3t1_2,,running
Status,721,79475739016,/g3t1_2,,success
Status,722,79547346888,/g4t1,,success
Status,724,79671600034,/g3t1_2,,running
Status,725,79675314790,/g3t1_2,,success
Status,727,79871569318,/g3t1_2,,running
Status,728,79874920569,/g3t1_2,,success
Status,730,80071720869,/g3t1_2,,running
Status,731,80075107113,/g3t1_2,,success
Status,733,80272240316,/g3t1_2,,running
Status,734,80276143851,/g3t1_2,,success
Status,736,80472007578,/g3t1_2,,running
Status,737,80475787563,/g3t1_2,,success
Status,738,80547440020,/g4t1,,success
Status,740,80671971080,/g3t1_2,,running
Status,741,80675455190,/g3t1_2,,success
Status,743,80872068117,/g3t1_2,,running
Status,744,80875734774,/g3t1_2,,success
Status,746,81072133317,/g3t1_2,,running
Status,747,81075663213,/g3t1_2,,success
Status,749,81272217953,/g3t1_2,,running
Status,750,81276095823,/g3t1_2,,success
Status,752,81472224752,/g3t1_2,,running
Status,753,81475909113,/g3t1_2,,success
Status,754,81547668768,/g4t1,,success
Status,756,81672566876,/g3t1_2,,running
Status,757,81677103288,/g3t1_2,,success
Status,759,81872430215,/g3t1_2,,running
Status,760,81876113923,/g3t1_2,,success
Status,762,82072809118,/g3t1_2,,running
Status,763,82076313110,/g3t1_2,,success
Status,765,82272646971,/g3t1_2,,running
Status,766,82275798407,/g3t1_2,,success
Status,768,82473153232,/g3t1_2,,running
Status,769,82476222919,/g3t1_2,,success
Status,770,82547714938,/g4t1,,success
Status,772,82672912296,/g3t1_2,,running
Status,773,82676328376,/g3t1_2,,success
Status,775,82873026053,/g3t1_2,,running
Status,776,82876278702,/g3t1_2,,success
Status,778,83073052669,/g3t1_2,,running
Status,779,83076303135,/g3t1_2,,success
Status,781,83272940283,/g3t1_2,,running
Status,782,83276453042,/g3t1_2,,success
Status,784,83473003047,/g3t1_2,,running
Status,785,83476933493,/g3t1_2,,success
Status,786,83547921157,/g4t1,,success
Status,788,83673101260,/g3t1_2,,running
Status,789,83676116599,/g3t1_2,,success
Status,791,83873589046,/g3t1_2,,running
Status,792,83877960536,/g3t1_2,,success
Status,794,84073224043,/g3t1_2,,running
Status,795,84076103457,/g3t1_2,,success
Status,797,84273295946,/g3t1_2,,running
Status,798,84276573373,/g3t1_2,,success
Status,800,84473379311,/g3t1_2,,running
Status,801,84476184468,/g3t1_2,,success
Status,802,84547939228,/g4t1,,success
Status,804,84673430522,/g3t1_2,,running
Status,805,84675977683,/g3t1_2,,success
Status,807,84873546908,/g3t1_2,,running
Status,808,84876149820,/g3t1_2,,success
Status,810,85073635357,/g3t1_2,,running
Status,811,85077056165,/g3t1_2,,success
Status,813,85273724992,/g3t1_2,,running
Status,814,85276247717,/g3t1_2,,success
Status,816,85473954627,/g3t1_2,,running
Status,817,85478104185,/g3t1_2,,success
Status,818,85548180132,/g4t1,,success
Status,820,85673931394,/g3t1_2,,running
Status,821,85676535853,/g3t1_2,,success
Status,823,85874243747,/g3t1_2,,running
Status,824,85876956115,/g3t1_2,,success
Status,826,86074248397,/g3t1_2,,running
Status,827,86076806215,/g3t1_2,,success
Status,829,86274289677,/g3t1_2,,running
Status,830,86276801327,/g3t1_2,,success
Status,832,86474686899,/g3t1_2,,running
Status,833,86477145271,/g3t1_2,,success
Status,834,86548232713,/g4t1,,success
Status,836,86674644618,/g3t1_2,,running
Status,837,86677433517,/g3t1_2,,success
Status,839,86874875683,/g3t1_2,,running
Status,840,86877018273,/g3t1_2,,success
Status,842,87074856364,/g3t1_2,,running
Status,843,87076893707,/g3t1_2,,success
Status,845,87274963516,/g3t1_2,,running
Status,846,87277233372,/g3t1_2,,success
Status,848,87475044249,/g3t1_2,,running
Status,849,87477701603,/g3t1_2,,success
Status,850,87548310622,/g4t1,,success
Status,852,87675291035,/g3t1_2,,running
Status,853,87677686752,/g3t1_2,,success
Status,855,87875773475,/g3t1_2,,running
Status,856,87879594099,/g3t1_2,,success
Status,858,88075401619,/g3t1_2,,running
Status,859,88078206174,/g3t1_2,,success
Status,861,88275494622,/g3t1_2,,running
Status,862,88278163585,/g3t1_2,,success
Status,864,88475586270,/g3t1_2,,running
Status,865,88478009215,/g3t1_2,,success
Status,866,88548559989,/g4t1,,success
Status,868,88675722179,/g3t1_2,,running
Status,869,88678558159,/g3t1_2,,success
Status,871,88875821908,/g3t1_2,,running
Status,872,88877765151,/g3t1_2,,success
Status,874,89075873194,/g3t1_2,,running
Status,875,89078432348,/g3t1_2,,success
Status,877,89276009647,/g3t1_2,,running
Status,878,89278284544,/g3t1_2,,success
Status,880,89476151697,/g3t1_2,,running
Status,881,89478728170,/g3t1_2,,success
Status,882,89548628304,/g4t1,,success
Status,884,89676328311,/g3t1_2,,running
Status,885,89678763149,/g3t1_2,,success
Status,887,89876446454,/g3t1_2,,running
Status,888,89879306995,/g3t1_2,,success
Status,890,90076634158,/g3t1_2,,running
Status,891,90078991301,/g3t1_2,,success
Status,893,90276884220,/g3t1_2,,running
Status,894,90279690050,/g3t1_2,,success
Status,896,90476883370,/g3t1_2,,running
Status,897,90478921567,/g3t1_2,,success
Status,898,90548800866,/g4t1,,success
Status,900,90676989719,/g3t1_2,,running
Status,901,90679964408,/g3t1_2,,success
Status,903,90877131180,/g3t1_2,,running
Status,904,90879892537,/g3t1_2,,success
Status,906,91077272153,/g3t1_2,,running
Status,907,91079665894,/g3t1_2,,success
Status,909,91277514836,/g3t1_2,,running
Status,910,91280621544,/g3t1_2,,success
Status,912,91477937638,/g3t1_2,,running
Status,913,91480275454,/g3t1_2,,success
Status,914,91548926688,/g4t1,,success
Status,916,91677676954,/g3t1_2,,running
Status,917,91680474099,/g3t1_2,,success
Status,919,91877785924,/g3t1_2,,running
Status,920,91880269320,/g3t1_2,,success
Status,922,92078247633,/g3t1_2,,running
Status,923,92080545018,/g3t1_2,,success
Status,925,92278041194,/g3t1_2,,running
Status,926,92280356422,/g3t1_2,,success
Status,928,92478148282,/g3t1_2,,running
Status,929,92481107940,/g3t1_2,,success
Status,930,92548940297,/g4t1,,success
Status,932,92678373513,/g3t1_2,,running
Status,933,92680618698,/g3t1_2,,success
Status,935,92878532680,/g3t1_2,,running
Status,936,92880995167,/g3t1_2,,success
Status,938,93078763746,/g3t1_2,,running
Status,939,93081273600,/g3t1_2,,success
Status,941,93278863180,/g3t1_2,,running
Status,942,93282139682,/g3t1_2,,success
Status,944,93478896002,/g3t1_2,,running
Status,945,93481385580,/g3t1_2,,success
Status,946,93549130234,/g4t1,,success
Status,948,93678950439,/g3t1_2,,running
Status,949,93681420503,/g3t1_2,,success
Status,951,93878991873,/g3t1_2,,running
Status,952,93881349906,/g3t1_2,,success
Status,954,94079107072,/g3t1_2,,running
Status,955,94081537740,/g3t1_2,,success
Status,957,94279294799,/g3t1_2,,running
Status,958,94281811258,/g3t1_2,,success
Status,960,94479408074,/g3t1_2,,running
Status,961,94483324994,/g3t1_2,,success
Status,962,94549263565,/g4t1,,success
Status,964,94679495587,/g3t1_2,,running
Status,965,94681990255,/g3t1_2,,success
Status,967,94879642313,/g3t1_2,,running
Status,968,94883538232,/g3t1_2,,success
Status,970,95080121466,/g3t1_2,,running
Status,971,95083357898,/g3t1_2,,success
Status,973,95279828164,/g3t1_2,,running
Status,974,95282177079,/g3t1_2,,success
Status,976,95480311942,/g3t1_2,,running
Status,977,95483422291,/g3t1_2,,success
Status,978,95549324291,/g4t1,,success
Status,980,95680123954,/g3t1_2,,running
Status,981,95682477332,/g3t1_2,,success
Status,983,95880267561,/g3t1_2,,running
Status,984,95882358762,/g3t1_2,,success
Status,986,96080405531,/g3t1_2,,running
Status,987,96083127928,/g3t1_2,,success
Status,989,96280493600,/g3t1_2,,running
Status,990,96282844452,/g3t1_2,,success
Status,992,96480583666,/g3t1_2,,running
Status,993,96482946166,/g3t1_2,,success
Status,994,96549545884,/g4t1,,success
Status,996,96680932826,/g3t1_2,,running
Status,997,96682691543,/g3t1_2,,success
Status,999,96880686157,/g3t1_2,,running
Status,1000,96882761045,/g3t1_2,,success
Status,1002,97080899161,/g3t1_2,,running
Status,1003,97083717764,/g3t1_2,,success
Status,1005,97281015013,/g3t1_2,,running
Status,1006,97283348435,/g3t1_2,,success
Status,1008,97481133776,/g3t1_2,,running
Status,1009,97483531371,/g3t1_2,,success
Status,1010,97549564047,/g4t1,,success
Status,1012,97681262999,/g3t1_2,,running
Status,1013,97683800816,/g3t1_2,,success
Status,1015,97881352660,/g3t1_2,,running
Status,1016,97883564155,/g3t1_2,,success
Status,1018,98081530853,/g3t1_2,,running
Status,1019,98083748415,/g3t1_2,,success
Status,1021,98281556364,/g3t1_2,,running
Status,1022,98283713696,/g3t1_2,,success
Status,1024,98481915895,/g3t1_2,,running
Status,1025,98484225649,/g3t1_2,,success
Status,1026,98549797393,/g4t1,,success
Status,1028,98681827774,/g3t1_2,,running
Status,1029,98684185552,/g3t1_2,,success
Status,1031,98882095729,/g3t1_2,,running
Status,1032,98884797753,/g3t1_2,,success
Status,1034,99082125583,/g3t1_2,,running
Status,1035,99084342529,/g3t1_2,,success
Status,1037,99282238585,/g3t1_2,,running
Status,1038,99284309354,/g3t1_2,,success
Status,1040,99482429361,/g3t1_2,,running
Status,1041,99485272270,/g3t1_2,,success
Status,1042,99549797988,/g4t1,,success
Status,1044,99683394856,/g3t1_2,,running
Status,1045,99685412209,/g3t1_2,,success
Status,1047,99882744662,/g3t1_2,,running
Status,1048,99885052439,/g3t1_2,,success
Status,1050,100082854184,/g3t1_2,,running
Status,1051,100085696414,/g3t1_2,,success
Status,1053,100282977390,/g3t1_2,,running
Status,1054,100285177905,/g3t1_2,,success
Status,1056,100483012523,/g3t1_2,,running
Status,1057,100485046519,/g3t1_2,,success
Status,1058,100550031680,/g4t1,,success
Status,1060,100683109571,/g3t1_2,,running
Status,1061,100685193162,/g3t1_2,,success
Status,1063,100883278626,/g3t1_2,,running
Status,1064,100885538383,/g3t1_2,,success
Status,1066,101083793743,/g3t1_2,,running
Status,1067,101087386515,/g3t1_2,,success
Status,1069,101283482893,/g3t1_2,,running
Status,1070,101285418172,/g3t1_2,,success
Status,1072,101483548719,/g3t1_2,,running
Status,1073,101485599268,/g3t1_2,,success
Status,1074,101550169740,/g4t1,,success
Status,1076,101683767395,/g3t1_2,,running
Status,1077,101685962568,/g3t1_2,,success
Status,1079,101883877616,/g3t1_2,,running
Status,1080,101887078723,/g3t1_2,,success
Status,1082,102084011894,/g3t1_2,,running
Status,1083,102086129537,/g3t1_2,,success
Status,1085,102284123583,/g3t1_2,,running
Status,1086,102285958270,/g3t1_2,,success
Status,1088,102484525449,/g3t1_2,,running
Status,1089,102487915674,/g3t1_2,,success
Status,1090,102550296503,/g4t1,,success
Status,1092,102684423662,/g3t1_2,,running
Status,1093,102686593600,/g3t1_2,,success
Status,1095,102884608439,/g3t1_2,,running
Status,1096,102886965141,/g3t1_2,,success
Status,1098,103084706890,/g3t1_2,,running
Status,1099,103086884057,/g3t1_2,,success
Status,1101,103284845902,/g3t1_2,,running
Status,1102,103287030600,/g3t1_2,,success
Status,1104,103485017951,/g3t1_2,,running
Status,1105,103487039770,/g3t1_2,,success
Status,1106,103550411420,/g4t1,,success
Status,1108,103685174985,/g3t1_2,,running
Status,1109,103687372028,/g3t1_2,,success
Status,1111,103885243867,/g3t1_2,,running
Status,1112,103887515409,/g3t1_2,,success
Status,1114,104085515582,/g3t1_2,,running
Status,1115,104087340201,/g3t1_2,,success
Status,1117,104285526639,/g3t1_2,,running
Status,1118,104287592271,/g3t1_2,,success
Status,1120,104485819353,/g3t1_2,,running
Status,1121,104487769890,/g3t1_2,,success
Status,1122,104550490537,/g4t1,,success
Status,1124,104685737104,/g3t1_2,,running
Status,1125,104687933382,/g3t1_2,,success
Status,1127,104886085974,/g3t1_2,,running
Status,1128,104888406841,/g3t1_2,,success
Status,1130,105085981088,/g3t1_2,,running
Status,1131,105088295012,/g3t1_2,,success
Status,1133,105286142820,/g3t1_2,,running
Status,1134,105288151287,/g3t1_2,,success
Status,1136,105486300881,/g3t1_2,,running
Status,1137,105488479768,/g3t1_2,,success
Status,1138,105550537960,/g4t1,,success
Status,1140,105686411769,/g3t1_2,,running
Status,1141,105688883736,/g3t1_2,,success
Status,1143,105886692294,/g3t1_2,,running
Status,1144,105889126889,/g3t1_2,,success
Status,1146,106086706110,/g3t1_2,,running
Status,1147,106088860254,/g3t1_2,,success
Status,1149,106286849435,/g3t1_2,,running
Status,1150,106289043026,/g3t1_2,,success
Status,1152,106487356595,/g3t1_2,,running
Status,1153,106491470191,/g3t1_2,,success
Status,1154,106550578741,/g4t1,,success
Status,1156,106687097297,/g3t1_2,,running
Status,1157,106689484373,/g3t1_2,,success
Status,1159,106887167291,/g3t1_2,,running
Status,1160,106889044854,/g3t1_2,,success
Status,1162,107087252810,/g3t1_2,,running
Status,1163,107089792466,/g3t1_2,,success
Status,1165,107287396322,/g3t1_2,,running
Status,1166,107289277442,/g3t1_2,,success
Status,1168,107487784508,/g3t1_2,,running
Status,1169,107491760125,/g3t1_2,,success
Status,1170,107550726468,/g4t1,,success
Status,1172,107687976447,/g3t1_2,,running
Status,1173,107690837773,/g3t1_2,,success
Status,1175,107887750597,/g3t1_2,,running
Status,1176,107890760051,/g3t1_2,,success
Status,1178,108087822378,/g3t1_2,,running
Status,1179,108090935385,/g3t1_2,,success
Status,1181,108287989051,/g3t1_2,,running
Status,1182,108290132276,/g3t1_2,,success
Status,1184,108488155828,/g3t1_2,,running
Status,1185,108490547338,/g3t1_2,,success
Status,1186,108550897526,/g4t1,,success
Status,1188,108688210573,/g3t1_2,,running
Status,1189,108690102119,/g3t1_2,,success
Status,1191,108888391717,/g3t1_2,,running
Status,1192,108889972723,/g3t1_2,,success
Status,1194,109088567690,/g3t1_2,,running
Status,1195,109090967737,/g3t1_2,,success
Status,1197,109288687738,/g3t1_2,,running
Status,1198,109290867723,/g3t1_2,,success
Status,1200,109488989239,/g3t1_2,,running
Status,1201,109492655732,/g3t1_2,,success
Status,1202,109550991163,/g4t1,,success
Status,1204,109688964353,/g3t1_2,,running
Status,1205,109691065561,/g3t1_2,,success
Status,1207,109889090689,/g3t1_2,,running
Status,1208,109891695173,/g3t1_2,,success
Status,1210,110089232666,/g3t1_2,,running
Status,1211,110091401874,/g3t1_2,,success
Status,1213,110289395292,/g3t1_2,,running
Status,1214,110292010569,/g3t1_2,,success
Status,1216,110490125376,/g3t1_2,,running
Status,1217,110492707869,/g3t1_2,,success
Status,1218,110551083143,/g4t1,,success
Status,1220,110689578490,/g3t1_2,,running
Status,1221,110691577829,/g3t1_2,,success
Status,1223,110889679665,/g3t1_2,,running
Status,1224,110891557424,/g3t1_2,,success
Status,1226,111089743294,/g3t1_2,,running
Status,1227,111091749525,/g3t1_2,,success
Status,1229,111289867479,/g3t1_2,,running
Status,1230,111292082695,/g3t1_2,,success
Status,1232,111490501973,/g3t1_2,,running
Status,1233,111493157055,/g3t1_2,,success
Status,1234,111551262509,/g4t1,,success
Status,1236,111690219755,/g3t1_2,,running
Status,1237,111692439884,/g3t1_2,,success
Status,1239,111890347165,/g3t1_2,,running
Status,1240,111892353556,/g3t1_2,,success
Status,1242,112090518160,/g3t1_2,,running
Status,1243,112092333950,/g3t1_2,,success
Status,1245,112290625295,/g3t1_2,,running
Status,1246,112292590730,/g3t1_2,,success
Status,1248,112490830414,/g3t1_2,,running
Status,1249,112493181077,/g3t1_2,,success
Status,1250,112551353843,/g4t1,,success
Status,1252,112690901305,/g3t1_2,,running
Status,1253,112693128703,/g3t1_2,,success
Status,1255,112890984254,/g3t1_2,,running
Status,1256,112893045500,/g3t1_2,,success
Status,1258,113091114767,/g3t1_2,,running
Status,1259,113093033165,/g3t1_2,,success
Status,1261,113291151235,/g3t1_2,,running
Status,1262,113293029307,/g3t1_2,,success
Status,1264,113491275206,/g3t1_2,,running
Status,1265,113494575103,/g3t1_2,,success
Status,1266,113551528059,/g4t1,,success
Status,1268,113691415725,/g3t1_2,,running
Status,1269,113693656181,/g3t1_2,,success
Status,1271,113891530624,/g3t1_2,,running
Status,1272,113893302740,/g3t1_2,,success
Status,1274,114091596946,/g3t1_2,,running
Status,1275,114093664800,/g3t1_2,,success
Status,1277,114292035571,/g3t1_2,,running
Status,1278,114295334078,/g3t1_2,,success
Status,1280,114491871668,/g3t1_2,,running
Status,1281,114494449601,/g3t1_2,,success
Status,1282,114551625764,/g4t1,,success
Status,1284,114691943433,/g3t1_2,,running
Status,1285,114693994492,/g3t1_2,,success
Status,1287,114892127005,/g3t1_2,,running
Status,1288,114893910595,/g3t1_2,,success
Status,1290,115092187475,/g3t1_2,,running
Status,1291,115094444067,/g3t1_2,,success
Status,1293,115292678837,/g3t1_2,,running
Status,1294,115294947927,/g3t1_2,,success
Status,1296,115492525424,/g3t1_2,,running
Status,1297,115494368051,/g3t1_2,,success
Status,1298,115551747760,/g4t1,,success
Status,1300,115692785472,/g3t1_2,,running
Status,1301,115694505881,/g3t1_2,,success
Status,1303,115892741446,/g3t1_2,,running
Status,1304,115894498690,/g3t1_2,,success
Status,1306,116092882320,/g3t1_2,,running
Status,1307,116094703180,/g3t1_2,,success
Status,1309,116293177775,/g3t1_2,,running
Status,1310,116295653017,/g3t1_2,,success
Status,1312,116493116824,/g3t1_2,,running
Status,1313,116495050264,/g3t1_2,,success
Status,1314,116551883350,/g4t1,,success
Status,1316,116693192107,/g3t1_2,,running
Status,1317,116695192961,/g3t1_2,,success
Status,1319,116893280512,/g3t1_2,,running
Status,1320,116895212752,/g3t1_2,,success
Status,1322,117093732087,/g3t1_2,,running
Status,1323,117096366880,/g3t1_2,,success
Status,1325,117293411984,/g3t1_2,,running
Status,1326,117295636523,/g3t1_2,,success
Status,1328,117493856882,/g3t1_2,,running
Status,1329,117496081091,/g3t1_2,,success
Status,1330,117552029141,/g4t1,,success
Status,1332,117694097473,/g3t1_2,,running
Status,1333,117696181381,/g3t1_2,,success
Status,1335,117894242261,/g3t1_2,,running
Status,1336,117897567509,/g3t1_2,,success
Status,1338,118094152380,/g3t1_2,,running
Status,1339,118096269828,/g3t1_2,,success
Status,1341,118294235585,/g3t1_2,,running
Status,1342,118296030875,/g3t1_2,,success
Status,1344,118494339259,/g3t1_2,,running
Status,1345,118496602782,/g3t1_2,,success
Status,1346,118552079491,/g4t1,,success
Status,1348,118694562222,/g3t1_2,,running
Status,1349,118697006098,/g3t1_2,,success
Status,1351,118894608730,/g3t1_2,,running
Status,1352,118896524623,/g3t1_2,,success
Status,1354,119094746790,/g3t1_2,,running
Status,1355,119096772967,/g3t1_2,,success
Status,1357,119294819430,/g3t1_2,,running
Status,1358,119296635665,/g3t1_2,,success
Status,1360,119494930447,/g3t1_2,,running
Status,1361,119496939791,/g3t1_2,,success
Status,1362,119552297471,/g4t1,,success
Status,1364,119695308966,/g3t1_2,,running
Status,1365,119698863273,/g3t1_2,,success
Status,1367,119895311875,/g3t1_2,,running
Status,1368,119899059773,/g3t1_2,,success
Status,1370,120095274170,/g3t1_2,,running
Status,1371,120097481649,/g3t1_2,,success
Status,1373,120295372384,/g3t1_2,,running
Status,1374,120297194962,/g3t1_2,,success
Status,1376,120495493422,/g3t1_2,,running
Status,1377,120497556233,/g3t1_2,,success
Status,1378,120552430993,/g4t1,,success
Status,1380,120695991903,/g3t1_2,,running
Status,1381,120700434663,/g3t1_2,,success
Status,1383,120895701910,/g3t1_2,,running
Status,1384,120897558228,/g3t1_2,,success
Status,1386,121096133894,/g3t1_2,,running
Status,1387,121099126357,/g3t1_2,,success
Status,1389,121296027722,/g3t1_2,,running
Status,1390,121298171360,/g3t1_2,,success
Status,1392,121496174006,/g3t1_2,,running
Status,1393,121497981257,/g3t1_2,,success
Status,1394,121552569241,/g4t1,,success
Status,1396,121696507217,/g3t1_2,,running
Status,1397,121699057611,/g3t1_2,,success
Status,1399,121896791783,/g3t1_2,,running
Status,1400,121899698854,/g3t1_2,,success
Status,1402,122096595936,/g3t1_2,,running
Status,1403,122098549489,/g3t1_2,,success
Status,1405,122297048743,/g3t1_2,,running
Status,1406,122299622992,/g3t1_2,,success
Status,1408,122496872737,/g3t1_2,,running
Status,1409,122498776652,/g3t1_2,,success
Status,1410,122552740295,/g4t1,,success
Status,1412,122697011280,/g3t1_2,,running
Status,1413,122698995093,/g3t1_2,,success
Status,1415,122897034705,/g3t1_2,,running
Status,1416,122899550311,/g3t1_2,,success
Status,1418,123097211498,/g3t1_2,,running
Status,1419,123098741554,/g3t1_2,,success
Status,1421,123297316031,/g3t1_2,,running
Status,1422,123299513213,/g3t1_2,,success
Status,1424,123497735817,/g3t1_2,,running
Status,1425,123500811653,/g3t1_2,,success
Status,1426,123552912579,/g4t1,,success
Status,1428,123697627733,/g3t1_2,,running
Status,1429,123699607564,/g3t1_2,,success
Status,1431,123897803952,/g3t1_2,,running
Status,1432,123899752536,/g3t1_2,,success
Status,1434,124097886240,/g3t1_2,,running
Status,1435,124099732954,/g3t1_2,,success
Status,1437,124298067387,/g3t1_2,,running
Status,1438,124300190956,/g3t1_2,,success
Status,1440,124498215192,/g3t1_2,,running
Status,1441,124499943555,/g3t1_2,,success
Status,1442,124553022587,/g4t1,,success
Status,1444,124698330137,/g3t1_2,,running
Status,1445,124700485969,/g3t1_2,,success
Status,1447,124898517003,/g3t1_2,,running
Status,1448,124900620584,/g3t1_2,,success
Status,1450,125099001925,/g3t1_2,,running
Status,1451,125102600991,/g3t1_2,,success
Status,1453,125298805612,/g3t1_2,,running
Status,1454,125300695986,/g3t1_2,,success
Status,1456,125498812770,/g3t1_2,,running
Status,1457,125500803007,/g3t1_2,,success
Status,1458,125553072731,/g4t1,,success
Status,1460,125698913078,/g3t1_2,,running
Status,1461,125700943555,/g3t1_2,,success
Status,1463,125899013802,/g3t1_2,,running
Status,1464,125900861388,/g3t1_2,,success
Status,1466,126099152445,/g3t1_2,,running
Status,1467,126101045631,/g3t1_2,,success
Status,1469,126299282414,/g3t1_2,,running
Status,1470,126301335123,/g3t1_2,,success
Status,1472,126499609785,/g3t1_2,,running
Status,1473,126502624167,/g3t1_2,,success
Status,1474,126553222145,/g4t1,,success
Status,1476,126700172630,/g3t1_2,,running
Status,1477,126705214508,/g3t1_2,,success
Status,1479,126900048818,/g3t1_2,,running
Status,1480,126903583540,/g3t1_2,,success
Status,1482,127100124170,/g3t1_2,,running
Status,1483,127103837820,/g3t1_2,,success
Status,1485,127299902187,/g3t1_2,,running
Status,1486,127301888639,/g3t1_2,,success
Status,1488,127499975647,/g3t1_2,,running
Status,1489,127502384855,/g3t1_2,,success
Status,1490,127553409768,/g4t1,,success
Status,1492,127700055290,/g3t1_2,,running
Status,1493,127702020537,/g3t1_2,,success
Status,1495,127900158258,/g3t1_2,,running
Status,1496,127902149794,/g3t1_2,,success
Status,1498,128100258608,/g3t1_2,,running
Status,1499,128102124706,/g3t1_2,,success
Status,1501,128300366401,/g3t1_2,,running
Status,1502,128302187184,/g3t1_2,,success
Status,1504,128500487503,/g3t1_2,,running
Status,1505,128502567806,/g3t1_2,,success
Status,1506,128553539069,/g4t1,,success
Status,1508,128700602206,/g3t1_2,,running
Status,1509,128702750271,/g3t1_2,,success
Status,1511,128900839069,/g3t1_2,,running
Status,1512,128903544704,/g3t1_2,,success
Status,1514,129100762514,/g3t1_2,,running
Status,1515,129102931031,/g3t1_2,,success
Status,1517,129300948761,/g3t1_2,,running
Status,1518,129302996885,/g3t1_2,,success
Status,1520,129501064519,/g3t1_2,,running
Status,1521,129503624403,/g3t1_2,,success
Status,1522,129553644368,/g4t1,,success
Status,1524,129571104093,/g3t1_2,,status
Status,1530,130553785726,/g4t1,,success
