
Status,2,3439962222,/g4t1,,init
Status,3,8651113032,/g3t1_1,,init
Status,5,8659094778,/g3t1_1,,init
Status,6,8659111203,/g3t1_1,,running
Status,7,8659567571,/g3t1_1,,success
Status,8,8759211585,/g3t1_1,,running
Status,9,8759282591,/g3t1_1,,success
Status,10,8859309072,/g3t1_1,,running
Status,11,8859384979,/g3t1_1,,success
Status,12,8905493867,/g3t1_2,,init
Status,14,8905709133,/g3t1_3,,init
Status,16,8916942106,/g3t1_2,,init
Status,17,8916960854,/g3t1_2,,running
Status,18,8917141934,/g3t1_3,,init
Status,19,8917152738,/g3t1_3,,running
Status,20,8917647259,/g3t1_2,,success
Status,21,8917750733,/g3t1_3,,success
Status,22,8959636323,/g3t1_1,,running
Status,23,8959729369,/g3t1_1,,success
Status,24,8970411880,/g4t1,,success
Status,25,9018142268,/g3t1_2,,running
Status,26,9018240102,/g3t1_3,,running
Status,27,9018984698,/g3t1_2,,success
Status,28,9019050103,/g3t1_3,,success
Status,29,9060334502,/g3t1_1,,running
Status,30,9060661894,/g3t1_1,,success
Status,31,9071520026,/g4t1,,success
Status,32,9091539615,/g4t1,,success
Status,33,9117945400,/g3t1_2,,running
Status,34,9118040921,/g3t1_3,,running
Status,35,9118564468,/g3t1_3,,success
Status,36,9118632259,/g3t1_2,,success
Status,37,9160454146,/g3t1_1,,running
Status,38,9160658137,/g3t1_1,,success
Status,39,9172121116,/g4t1,,success
Status,40,9192287387,/g4t1,,success
Status,41,9212508838,/g4t1,,success
Status,42,9218194883,/g3t1_2,,running
Status,43,9218279001,/g3t1_3,,running
Status,44,9218484879,/g3t1_2,,success
Status,45,9218549810,/g3t1_3,,success
Status,46,9232448608,/g4t1,,success
Status,47,9252976984,/g4t1,,success
Status,48,9260806087,/g3t1_1,,running
Status,49,9261055209,/g3t1_1,,success
Status,50,9272784094,/g4t1,,success
Status,51,9293176357,/g4t1,,success
Status,52,9312895858,/g4t1,,success
Status,53,9318604315,/g3t1_2,,running
Status,54,9318706539,/g3t1_3,,running
Status,55,9318754054,/g3t1_2,,success
Status,56,9319097982,/g3t1_3,,success
Status,57,9333164342,/g4t1,,success
Status,58,9353377061,/g4t1,,success
Status,59,9360653514,/g3t1_1,,running
Status,60,9360820589,/g3t1_1,,success
Status,61,9373483079,/g4t1,,fail
Status,62,9393637631,/g4t1,,success
Status,63,9413400905,/g4t1,,success
Status,64,9418444201,/g3t1_2,,running
Status,65,9418511665,/g3t1_3,,running
Status,66,9419382402,/g3t1_2,,success
Status,67,9419431445,/g3t1_3,,success
Status,68,9433790442,/g4t1,,success
Status,69,9453875662,/g4t1,,success
Status,70,9460712500,/g3t1_1,,running
Status,71,9461059025,/g3t1_1,,success
Status,72,9474005638,/g4t1,,fail
Status,73,9494138733,/g4t1,,success
Status,74,9514461962,/g4t1,,success
Status,75,9518564309,/g3t1_2,,running
Status,76,9518735644,/g3t1_3,,running
Status,77,9519375293,/g3t1_2,,success
Status,78,9519449503,/g3t1_3,,success
Status,79,9534461070,/g4t1,,success
Status,80,9554643021,/g4t1,,success
Status,81,9560889101,/g3t1_1,,running
Status,82,9561432435,/g3t1_1,,success
Status,83,9574748836,/g4t1,,fail
Status,84,9594862861,/g4t1,,success
Status,85,9615113245,/g4t1,,success
Status,86,9619146123,/g3t1_2,,running
Status,87,9619215747,/g3t1_3,,running
Status,88,9619313121,/g3t1_2,,success
Status,89,9619502910,/g3t1_3,,success
Status,90,9635189945,/g4t1,,fail
Status,91,9654890712,/g4t1,,success
Status,92,9660868671,/g3t1_1,,running
Status,93,9661195924,/g3t1_1,,success
Status,94,9674992091,/g4t1,,fail
Status,95,9695530196,/g4t1,,success
Status,96,9715607595,/g4t1,,success
Status,97,9719162886,/g3t1_2,,running
Status,98,9719259258,/g3t1_3,,running
Status,99,9720015877,/g3t1_2,,success
Status,100,9720074353,/g3t1_3,,success
Status,101,9735693298,/g4t1,,fail
Status,102,9756185349,/g4t1,,success
Status,103,9761144096,/g3t1_1,,running
Status,104,9761785323,/g3t1_1,,success
Status,105,9775894380,/g4t1,,fail
Status,106,9796079270,/g4t1,,success
Status,107,9816548919,/g4t1,,success
Status,108,9818919829,/g3t1_2,,running
Status,109,9818997085,/g3t1_3,,running
Status,110,9819259007,/g3t1_2,,success
Status,111,9819539583,/g3t1_3,,success
Status,112,9836511195,/g4t1,,fail
Status,113,9856659410,/g4t1,,success
Status,114,9861284806,/g3t1_1,,running
Status,115,9861600382,/g3t1_1,,success
Status,116,9876710496,/g4t1,,fail
Status,117,9896735717,/g4t1,,success
Status,118,9917239484,/g4t1,,success
Status,119,9919489600,/g3t1_2,,running
Status,120,9919545840,/g3t1_3,,running
Status,121,9919640101,/g3t1_2,,success
Status,122,9920028741,/g3t1_3,,success
Status,123,9937140239,/g4t1,,fail
Status,124,9957165515,/g4t1,,success
Status,125,9961208846,/g3t1_1,,running
Status,126,9961944162,/g3t1_1,,success
Status,127,9977302698,/g4t1,,fail
Status,128,9997436694,/g4t1,,success
Status,129,10017630074,/g4t1,,success
Status,130,10019112276,/g3t1_2,,running
Status,131,10019179042,/g3t1_3,,running
Status,132,10019632473,/g3t1_2,,success
Status,133,10019702935,/g3t1_3,,success
Status,134,10037762562,/g4t1,,fail
Status,135,10057812956,/g4t1,,success
Status,136,10061398217,/g3t1_1,,running
Status,137,10062011627,/g3t1_1,,success
Status,138,10077959766,/g4t1,,fail
Status,139,10098087712,/g4t1,,success
Status,140,10118208471,/g4t1,,success
Status,141,10119041665,/g3t1_2,,running
Status,142,10119578375,/g3t1_3,,running
Status,143,10120189806,/g3t1_3,,success
Status,144,10120231087,/g3t1_2,,success
Status,145,10138432475,/g4t1,,fail
Status,146,10158618921,/g4t1,,success
Status,147,10161580072,/g3t1_1,,running
Status,148,10162190611,/g3t1_1,,success
Status,149,10178745859,/g4t1,,fail
Status,150,10198826568,/g4t1,,success
Status,151,10219056699,/g4t1,,success
Status,152,10219141497,/g3t1_2,,running
Status,153,10219452642,/g3t1_3,,running
Status,154,10219888877,/g3t1_2,,success
Status,155,10220048782,/g3t1_3,,success
Status,156,10239131974,/g4t1,,fail
Status,157,10259177366,/g4t1,,success
Status,158,10261625884,/g3t1_1,,running
Status,159,10262485083,/g3t1_1,,success
Status,160,10279445956,/g4t1,,fail
Status,161,10299411239,/g4t1,,success
Status,162,10319399583,/g3t1_2,,running
Status,163,10319530971,/g4t1,,success
Status,164,10319569292,/g3t1_3,,running
Status,165,10319595215,/g3t1_2,,success
Status,166,10320277203,/g3t1_3,,success
Status,167,10339673524,/g4t1,,fail
Status,168,10359720230,/g4t1,,success
Status,169,10361823802,/g3t1_1,,running
Status,170,10362128983,/g3t1_1,,success
Status,171,10379947572,/g4t1,,fail
Status,172,10400225397,/g4t1,,success
Status,173,10419969539,/g3t1_2,,running
Status,174,10420036792,/g3t1_3,,running
Status,175,10420367904,/g3t1_2,,success
Status,176,10420426136,/g4t1,,success
Status,177,10420583157,/g3t1_3,,success
Status,178,10440188844,/g4t1,,fail
Status,179,10460417469,/g4t1,,success
Status,180,10461916902,/g3t1_1,,running
Status,181,10462360062,/g3t1_1,,success
Status,182,10480446252,/g4t1,,fail
Status,183,10500822002,/g4t1,,success
Status,184,10520054283,/g3t1_2,,running
Status,185,10520229537,/g3t1_3,,running
Status,186,10520305105,/g3t1_2,,success
Status,187,10520606153,/g3t1_3,,success
Status,188,10520658943,/g4t1,,fail
Status,189,10540903677,/g4t1,,fail
Status,190,10561079741,/g4t1,,success
Status,191,10562002973,/g3t1_1,,running
Status,192,10562880925,/g3t1_1,,success
Status,193,10581211378,/g4t1,,fail
Status,194,10601397245,/g4t1,,success
Status,195,10620014276,/g3t1_2,,running
Status,196,10620224214,/g3t1_3,,running
Status,197,10620295672,/g3t1_2,,success
Status,198,10620613519,/g3t1_3,,success
Status,199,10621240209,/g4t1,,fail
Status,200,10641760360,/g4t1,,success
Status,201,10661880426,/g4t1,,success
Status,202,10661961073,/g3t1_1,,running
Status,203,10662342125,/g3t1_1,,success
Status,204,10681675553,/g4t1,,fail
Status,205,10702126666,/g4t1,,success
Status,206,10720259988,/g3t1_2,,running
Status,207,10720342338,/g3t1_3,,running
Status,208,10720571439,/g3t1_2,,success
Status,209,10720788254,/g3t1_3,,success
Status,210,10721837242,/g4t1,,fail
Status,211,10741476903,/g4t1,,success
Status,212,10762378325,/g3t1_1,,running
Status,213,10762438979,/g4t1,,success
Status,214,10762787041,/g3t1_1,,success
Status,215,10782478575,/g4t1,,fail
Status,216,10802459316,/g4t1,,success
Status,217,10820294517,/g3t1_2,,running
Status,218,10820368787,/g3t1_2,,success
Status,219,10820459383,/g3t1_3,,running
Status,220,10820749572,/g3t1_3,,success
Status,221,10822429509,/g4t1,,fail
Status,222,10842704646,/g4t1,,success
Status,223,10862626775,/g3t1_1,,running
Status,224,10863035084,/g4t1,,success
Status,225,10863093904,/g3t1_1,,success
Status,226,10883145568,/g4t1,,fail
Status,227,10903052292,/g4t1,,success
Status,228,10920532607,/g3t1_2,,running
Status,229,10920585731,/g3t1_3,,running
Status,230,10920687342,/g3t1_2,,success
Status,231,10920980731,/g3t1_3,,success
Status,232,10923127552,/g4t1,,fail
Status,233,10943421921,/g4t1,,success
Status,234,10962551132,/g3t1_1,,running
Status,235,10962943549,/g3t1_1,,success
Status,236,10963684081,/g4t1,,fail
Status,237,10983697594,/g4t1,,success
Status,238,11003691726,/g4t1,,success
Status,239,11020578627,/g3t1_2,,running
Status,240,11020644009,/g3t1_3,,running
Status,241,11021143198,/g3t1_2,,success
Status,242,11021225166,/g3t1_3,,success
Status,243,11023748057,/g4t1,,fail
Status,244,11043948678,/g4t1,,success
Status,245,11062883710,/g3t1_1,,running
Status,246,11063148634,/g3t1_1,,success
Status,247,11064214437,/g4t1,,fail
Status,248,11084335159,/g4t1,,success
Status,249,11104343697,/g4t1,,success
Status,250,11120858639,/g3t1_2,,running
Status,251,11120977655,/g3t1_3,,running
Status,252,11121224079,/g3t1_2,,success
Status,253,11121289622,/g3t1_3,,success
Status,254,11124366908,/g4t1,,fail
Status,255,11144611434,/g4t1,,success
Status,256,11163051277,/g3t1_1,,running
Status,257,11163110396,/g3t1_1,,success
Status,258,11164281654,/g4t1,,fail
Status,259,11185184695,/g4t1,,success
Status,260,11205126382,/g4t1,,success
Status,261,11220810961,/g3t1_2,,running
Status,262,11221155961,/g3t1_3,,running
Status,263,11221527354,/g3t1_3,,success
Status,264,11221634991,/g3t1_2,,success
Status,265,11224957836,/g4t1,,fail
Status,266,11245328609,/g4t1,,success
Status,267,11262882423,/g3t1_1,,running
Status,268,11263773909,/g3t1_1,,success
Status,269,11265070819,/g4t1,,fail
Status,270,11285679432,/g4t1,,success
Status,271,11305916900,/g4t1,,success
Status,272,11321140749,/g3t1_2,,running
Status,273,11321204683,/g3t1_3,,running
Status,274,11321224143,/g3t1_2,,success
Status,275,11321241353,/g3t1_3,,success
Status,276,11325834518,/g4t1,,fail
Status,277,11345910403,/g4t1,,success
Status,278,11363159434,/g3t1_1,,running
Status,279,11363366072,/g3t1_1,,success
Status,280,11365948364,/g4t1,,fail
Status,281,11386186549,/g4t1,,success
Status,282,11406279254,/g4t1,,success
Status,283,11420953289,/g3t1_2,,running
Status,284,11421143528,/g3t1_3,,running
Status,285,11421255567,/g3t1_3,,success
Status,286,11421447054,/g3t1_2,,success
Status,287,11426203847,/g4t1,,fail
Status,288,11446529359,/g4t1,,success
Status,289,11463422622,/g3t1_1,,running
Status,290,11463503121,/g3t1_1,,success
Status,291,11466764241,/g4t1,,fail
Status,292,11486826800,/g4t1,,success
Status,293,11506239720,/g4t1,,success
Status,294,11520407503,/g3t1_2,,running
Status,295,11520436979,/g3t1_3,,running
Status,296,11520448656,/g3t1_2,,success
Status,297,11520603575,/g3t1_3,,success
Status,298,11526131895,/g4t1,,fail
Status,299,11546493734,/g4t1,,success
Status,300,11562846388,/g3t1_1,,running
Status,301,11562974312,/g3t1_1,,success
Status,302,11566312698,/g4t1,,fail
Status,303,11586880892,/g4t1,,success
Status,304,11607459993,/g4t1,,success
Status,305,11621808720,/g3t1_2,,running
Status,306,11621933427,/g3t1_2,,success
Status,307,11621972292,/g3t1_3,,running
Status,308,11621995308,/g3t1_3,,success
Status,309,11627557438,/g4t1,,fail
Status,310,11647605931,/g4t1,,success
Status,311,11663453245,/g3t1_1,,running
Status,312,11663734495,/g3t1_1,,success
Status,313,11667712067,/g4t1,,fail
Status,314,11688215528,/g4t1,,success
Status,315,11708119494,/g4t1,,success
Status,316,11721638814,/g3t1_2,,running
Status,317,11721715127,/g3t1_3,,running
Status,318,11721753570,/g3t1_2,,success
Status,319,11721952859,/g3t1_3,,success
Status,320,11728010284,/g4t1,,fail
Status,321,11748120734,/g4t1,,success
Status,322,11763438173,/g3t1_1,,running
Status,323,11763796474,/g3t1_1,,success
Status,324,11768530821,/g4t1,,fail
Status,325,11788715184,/g4t1,,success
Status,326,11808716423,/g4t1,,success
Status,327,11821505449,/g3t1_2,,running
Status,328,11821586228,/g3t1_3,,running
Status,329,11821618312,/g3t1_2,,success
Status,330,11821942293,/g3t1_3,,success
Status,331,11828607968,/g4t1,,fail
Status,332,11849017406,/g4t1,,success
Status,333,11863682031,/g3t1_1,,running
Status,334,11864243560,/g3t1_1,,success
Status,335,11869011581,/g4t1,,fail
Status,336,11889349030,/g4t1,,success
Status,337,11909359239,/g4t1,,success
Status,338,11921397823,/g3t1_3,,running
Status,339,11921484033,/g3t1_2,,running
Status,340,11922190897,/g3t1_2,,success
Status,341,11922246003,/g3t1_3,,success
Status,342,11929491090,/g4t1,,fail
Status,343,11949895776,/g4t1,,success
Status,344,11963989595,/g3t1_1,,running
Status,345,11964346638,/g3t1_1,,success
Status,346,11969637247,/g4t1,,fail
Status,347,11990007020,/g4t1,,success
Status,348,12010114183,/g4t1,,success
Status,349,12021756711,/g3t1_3,,running
Status,350,12021869145,/g3t1_2,,running
Status,351,12021900371,/g3t1_3,,success
Status,352,12021920215,/g3t1_2,,success
Status,353,12030292232,/g4t1,,fail
Status,354,12050790316,/g4t1,,success
Status,355,12064378416,/g3t1_1,,running
Status,356,12064444420,/g3t1_1,,success
Status,357,12070359499,/g4t1,,fail
Status,358,12090790684,/g4t1,,success
Status,359,12110880460,/g4t1,,success
Status,360,12122076852,/g3t1_2,,running
Status,361,12122154430,/g3t1_3,,running
Status,362,12122189839,/g3t1_3,,success
Status,363,12122221107,/g3t1_2,,success
Status,364,12130790120,/g4t1,,fail
Status,365,12151262679,/g4t1,,success
Status,366,12164401617,/g3t1_1,,running
Status,367,12164460264,/g3t1_1,,success
Status,368,12171216104,/g4t1,,fail
Status,369,12191633535,/g4t1,,success
Status,370,12211916719,/g4t1,,success
Status,371,12222042272,/g3t1_3,,running
Status,372,12222123171,/g3t1_2,,running
Status,373,12222325684,/g3t1_3,,success
Status,374,12222374005,/g3t1_2,,success
Status,375,12231775418,/g4t1,,fail
Status,376,12252366175,/g4t1,,success
Status,377,12264217047,/g3t1_1,,running
Status,378,12264525850,/g3t1_1,,success
Status,379,12272263509,/g4t1,,fail
Status,380,12292414969,/g4t1,,success
Status,381,12312553577,/g4t1,,success
Status,382,12322135411,/g3t1_3,,running
Status,383,12322204476,/g3t1_2,,running
Status,384,12322241671,/g3t1_2,,success
Status,385,12322514261,/g3t1_3,,success
Status,386,12332594555,/g4t1,,fail
Status,387,12353057834,/g4t1,,success
Status,388,12364333592,/g3t1_1,,running
Status,389,12364561798,/g3t1_1,,success
Status,390,12372819328,/g4t1,,fail
Status,391,12393032515,/g4t1,,success
Status,392,12413171494,/g4t1,,success
Status,393,12422192209,/g3t1_3,,running
Status,394,12422287862,/g3t1_2,,running
Status,395,12422871614,/g3t1_3,,success
Status,396,12423128080,/g3t1_2,,success
Status,397,12433216846,/g4t1,,fail
Status,398,12453572964,/g4t1,,success
Status,399,12464486050,/g3t1_1,,running
Status,400,12464862420,/g3t1_1,,success
Status,401,12473512601,/g4t1,,fail
Status,402,12493700419,/g4t1,,success
Status,403,12513103211,/g4t1,,success
Status,404,12521589506,/g3t1_2,,running
Status,405,12521613084,/g3t1_3,,running
Status,406,12521622503,/g3t1_3,,success
Status,407,12521716943,/g3t1_2,,success
Status,408,12533068370,/g4t1,,fail
Status,409,12553340884,/g4t1,,success
Status,410,12564045361,/g3t1_1,,running
Status,411,12564197893,/g3t1_1,,success
Status,412,12574023369,/g4t1,,fail
Status,413,12594193489,/g4t1,,success
Status,414,12614320141,/g4t1,,success
Status,415,12623570266,/g3t1_2,,running
Status,416,12623631565,/g3t1_2,,success
Status,417,12623732959,/g3t1_3,,running
Status,418,12623757000,/g3t1_3,,success
Status,419,12634417061,/g4t1,,fail
Status,420,12654648463,/g4t1,,success
Status,421,12665242751,/g3t1_1,,running
Status,422,12665717814,/g3t1_1,,success
Status,423,12674696086,/g4t1,,success
Status,424,12695173108,/g4t1,,success
Status,425,12715081026,/g4t1,,success
Status,426,12722464356,/g3t1_2,,running
Status,427,12722550912,/g3t1_3,,running
Status,428,12722951929,/g3t1_3,,success
Status,429,12723222166,/g3t1_2,,success
Status,430,12735240350,/g4t1,,fail
Status,431,12755655927,/g4t1,,success
Status,432,12764988321,/g3t1_1,,running
Status,433,12765098978,/g3t1_1,,success
Status,434,12775505182,/g4t1,,fail
Status,435,12795700195,/g4t1,,success
Status,436,12815913736,/g4t1,,success
Status,437,12823064884,/g3t1_2,,running
Status,438,12823132694,/g3t1_3,,running
Status,439,12823153261,/g3t1_3,,success
Status,440,12823172902,/g3t1_2,,success
Status,441,12836120495,/g4t1,,fail
Status,442,12856084112,/g4t1,,success
Status,443,12864788767,/g3t1_1,,running
Status,444,12865365011,/g3t1_1,,success
Status,445,12876406492,/g4t1,,success
Status,446,12896484919,/g4t1,,success
Status,447,12916321522,/g4t1,,success
Status,448,12922893367,/g3t1_3,,running
Status,449,12922968431,/g3t1_2,,running
Status,450,12923500533,/g3t1_3,,success
Status,451,12923717133,/g3t1_2,,success
Status,452,12936674304,/g4t1,,fail
Status,453,12956969227,/g4t1,,success
Status,454,12964998795,/g3t1_1,,running
Status,455,12965531184,/g3t1_1,,success
Status,456,12977094200,/g4t1,,fail
Status,457,12997182306,/g4t1,,success
Status,458,13017248598,/g4t1,,success
Status,459,13022717503,/g3t1_3,,running
Status,460,13023173950,/g3t1_2,,running
Status,461,13023223523,/g3t1_3,,success
Status,462,13023244839,/g3t1_2,,success
Status,463,13037407457,/g4t1,,fail
Status,464,13057559115,/g4t1,,success
Status,465,13065202793,/g3t1_1,,running
Status,466,13065827449,/g3t1_1,,success
Status,467,13077559652,/g4t1,,success
Status,468,13097846355,/g4t1,,success
Status,469,13117581033,/g4t1,,success
Status,470,13122529285,/g3t1_2,,running
Status,471,13122571007,/g3t1_3,,running
Status,472,13122710122,/g3t1_2,,success
Status,473,13122790929,/g3t1_3,,success
Status,474,13137315055,/g4t1,,fail
Status,475,13157325073,/g4t1,,success
Status,476,13164516176,/g3t1_1,,running
Status,477,13164531838,/g3t1_1,,success
Status,478,13177301017,/g4t1,,fail
Status,479,13197388943,/g4t1,,success
Status,480,13217510740,/g4t1,,success
Status,481,13222394391,/g3t1_3,,running
Status,482,13222437330,/g3t1_2,,running
Status,483,13222446788,/g3t1_3,,success
Status,484,13222490217,/g3t1_2,,success
Status,485,13237664826,/g4t1,,fail
Status,486,13257715802,/g4t1,,success
Status,487,13264641193,/g3t1_1,,running
Status,488,13264876841,/g3t1_1,,success
Status,489,13277792854,/g4t1,,success
Status,490,13298517113,/g4t1,,success
Status,491,13318536536,/g4t1,,success
Status,492,13322656688,/g3t1_2,,running
Status,493,13322677528,/g3t1_3,,running
Status,494,13322684493,/g3t1_3,,success
Status,495,13322691902,/g3t1_2,,success
Status,496,13338151070,/g4t1,,fail
Status,497,13358167913,/g4t1,,success
Status,498,13364893140,/g3t1_1,,running
Status,499,13364915006,/g3t1_1,,success
Status,500,13378665488,/g4t1,,fail
Status,501,13398348419,/g4t1,,success
Status,502,13418512593,/g4t1,,success
Status,503,13422835182,/g3t1_3,,running
Status,504,13422855561,/g3t1_2,,running
Status,505,13422888917,/g3t1_2,,success
Status,506,13422894799,/g3t1_3,,success
Status,507,13438495457,/g4t1,,fail
Status,508,13458686203,/g4t1,,success
Status,509,13464982110,/g3t1_1,,running
Status,510,13465179214,/g3t1_1,,success
Status,511,13478936509,/g4t1,,success
Status,512,13500004576,/g4t1,,success
Status,513,13519952675,/g4t1,,success
Status,514,13523516862,/g3t1_2,,running
Status,515,13523570993,/g3t1_3,,running
Status,516,13523633833,/g3t1_2,,success
Status,517,13523915828,/g3t1_3,,success
Status,518,13540078476,/g4t1,,fail
Status,519,13559954584,/g4t1,,success
Status,520,13566195689,/g3t1_1,,running
Status,521,13566262138,/g3t1_1,,success
Status,522,13579990683,/g4t1,,fail
Status,523,13600597991,/g4t1,,success
Status,524,13620324296,/g4t1,,success
Status,525,13623586052,/g3t1_2,,running
Status,526,13623889024,/g3t1_3,,running
Status,527,13624207277,/g3t1_3,,success
Status,528,13624262451,/g3t1_2,,success
Status,529,13640692339,/g4t1,,fail
Status,530,13660797341,/g4t1,,success
Status,531,13666065200,/g3t1_1,,running
Status,532,13666130173,/g3t1_1,,success
Status,533,13681045943,/g4t1,,success
Status,534,13701237663,/g4t1,,success
Status,535,13721165624,/g4t1,,success
Status,536,13723628970,/g3t1_2,,running
Status,537,13723692518,/g3t1_3,,running
Status,538,13724181831,/g3t1_3,,success
Status,539,13724250305,/g3t1_2,,success
Status,540,13741266580,/g4t1,,fail
Status,541,13761236708,/g4t1,,success
Status,542,13766092352,/g3t1_1,,running
Status,543,13766158477,/g3t1_1,,success
Status,544,13781474491,/g4t1,,fail
Status,545,13801676793,/g4t1,,success
Status,546,13821654222,/g4t1,,success
Status,547,13823685293,/g3t1_3,,running
Status,548,13823758721,/g3t1_2,,running
Status,549,13824162595,/g3t1_2,,success
Status,550,13824277070,/g3t1_3,,success
Status,551,13841742767,/g4t1,,fail
Status,552,13861923958,/g4t1,,success
Status,553,13866213377,/g3t1_1,,running
Status,554,13866584373,/g3t1_1,,success
Status,555,13881944422,/g4t1,,success
Status,556,13902279885,/g4t1,,success
Status,557,13922359296,/g4t1,,success
Status,558,13923959214,/g3t1_3,,running
Status,559,13924022779,/g3t1_2,,running
Status,560,13924437226,/g3t1_3,,success
Status,561,13924518200,/g3t1_2,,success
Status,562,13942531428,/g4t1,,fail
Status,563,13962601640,/g4t1,,success
Status,564,13965872820,/g3t1_1,,running
Status,565,13967007675,/g3t1_1,,success
Status,566,13982593944,/g4t1,,fail
Status,567,14002697528,/g4t1,,success
Status,568,14023002397,/g4t1,,success
Status,569,14024004514,/g3t1_3,,running
Status,570,14024282625,/g3t1_2,,running
Status,571,14024563612,/g3t1_2,,success
Status,572,14024889492,/g3t1_3,,success
Status,573,14043284555,/g4t1,,fail
Status,574,14063357416,/g4t1,,success
Status,575,14066045881,/g3t1_1,,running
Status,576,14066320231,/g3t1_1,,success
Status,577,14083568483,/g4t1,,success
Status,578,14103609502,/g4t1,,success
Status,579,14124150855,/g4t1,,success
Status,580,14124280894,/g3t1_2,,running
Status,581,14124320296,/g3t1_3,,running
Status,582,14124991577,/g3t1_3,,success
Status,583,14125061261,/g3t1_2,,success
Status,584,14144004926,/g4t1,,fail
Status,585,14164287583,/g4t1,,success
Status,586,14166290029,/g3t1_1,,running
Status,587,14166897427,/g3t1_1,,success
Status,588,14184458692,/g4t1,,fail
Status,589,14204345223,/g4t1,,success
Status,590,14224826845,/g3t1_2,,running
Status,591,14224945347,/g3t1_3,,running
Status,592,14225035185,/g4t1,,success
Status,593,14225266635,/g3t1_2,,success
Status,594,14225320947,/g3t1_3,,success
Status,595,14244749575,/g4t1,,fail
Status,596,14264888277,/g4t1,,success
Status,597,14266486689,/g3t1_1,,running
Status,598,14266707464,/g3t1_1,,success
Status,599,14285094694,/g4t1,,success
Status,600,14305000034,/g4t1,,success
Status,601,14325448187,/g3t1_2,,running
Status,602,14325519012,/g3t1_2,,success
Status,603,14325579121,/g3t1_3,,running
Status,604,14325603127,/g3t1_3,,success
Status,605,14325630710,/g4t1,,success
Status,606,14344879225,/g4t1,,fail
Status,607,14364989982,/g4t1,,success
Status,608,14366079043,/g3t1_1,,running
Status,609,14366502589,/g3t1_1,,success
Status,610,14385277674,/g4t1,,fail
Status,611,14405544139,/g4t1,,success
Status,612,14425194334,/g3t1_3,,running
Status,613,14425258006,/g3t1_2,,running
Status,614,14425321954,/g3t1_2,,success
Status,615,14425341907,/g3t1_3,,success
Status,616,14425360870,/g4t1,,success
Status,617,14445715111,/g4t1,,fail
Status,618,14465778263,/g4t1,,success
Status,619,14466391428,/g3t1_1,,running
Status,620,14466844455,/g3t1_1,,success
Status,621,14486106984,/g4t1,,success
Status,622,14506376567,/g4t1,,success
Status,623,14525034572,/g3t1_2,,running
Status,624,14525113164,/g3t1_3,,running
Status,625,14525638172,/g3t1_2,,success
Status,626,14525710645,/g3t1_3,,success
Status,627,14526185235,/g4t1,,fail
Status,628,14546735608,/g4t1,,success
Status,629,14566507946,/g4t1,,success
Status,630,14566580215,/g3t1_1,,running
Status,631,14567067286,/g3t1_1,,success
Status,632,14586682416,/g4t1,,fail
Status,633,14606849773,/g4t1,,success
Status,634,14624806341,/g3t1_3,,running
Status,635,14624894172,/g3t1_2,,running
Status,636,14625738303,/g3t1_3,,success
Status,637,14625810462,/g3t1_2,,success
Status,638,14626666396,/g4t1,,fail
Status,639,14647148224,/g4t1,,success
Status,640,14666909256,/g3t1_1,,running
Status,641,14666981392,/g4t1,,success
Status,642,14667467666,/g3t1_1,,success
Status,643,14687566676,/g4t1,,success
Status,644,14707446765,/g4t1,,success
Status,645,14725402833,/g3t1_2,,running
Status,646,14725477163,/g3t1_2,,success
Status,647,14725565590,/g3t1_3,,running
Status,648,14725594402,/g3t1_3,,success
Status,649,14727462338,/g4t1,,fail
Status,650,14747729007,/g4t1,,success
Status,651,14766988490,/g3t1_1,,running
Status,652,14767303957,/g3t1_1,,success
Status,653,14767339481,/g4t1,,success
Status,654,14787932956,/g4t1,,fail
Status,655,14808092237,/g4t1,,success
Status,656,14825310470,/g3t1_3,,running
Status,657,14825400436,/g3t1_2,,running
Status,658,14825908760,/g3t1_2,,success
Status,659,14825974432,/g3t1_3,,success
Status,660,14827925728,/g4t1,,fail
Status,661,14848405332,/g4t1,,success
Status,662,14866943005,/g3t1_1,,running
Status,663,14867143064,/g3t1_1,,success
Status,664,14868151740,/g4t1,,success
Status,665,14888611509,/g4t1,,success
Status,666,14908814307,/g4t1,,success
Status,667,14925286139,/g3t1_3,,running
Status,668,14925349300,/g3t1_2,,running
Status,669,14925371675,/g3t1_3,,success
Status,670,14925701777,/g3t1_2,,success
Status,671,14928699903,/g4t1,,fail
Status,672,14949090744,/g4t1,,success
Status,673,14967788744,/g3t1_1,,running
Status,674,14967882493,/g3t1_1,,success
Status,675,14968968122,/g4t1,,fail
Status,676,14989335473,/g4t1,,success
Status,677,15009558096,/g4t1,,success
Status,678,15025436039,/g3t1_3,,running
Status,679,15025520614,/g3t1_2,,running
Status,680,15025906834,/g3t1_3,,success
Status,681,15025978652,/g3t1_2,,success
Status,682,15029425421,/g4t1,,fail
Status,683,15049734888,/g4t1,,success
Status,684,15067317627,/g3t1_1,,running
Status,685,15067900578,/g3t1_1,,success
Status,686,15069669030,/g4t1,,success
Status,687,15089846510,/g4t1,,success
Status,688,15110060112,/g4t1,,success
Status,689,15125514903,/g3t1_3,,running
Status,690,15125785521,/g3t1_2,,running
Status,691,15125838191,/g3t1_2,,success
Status,692,15125860950,/g3t1_3,,success
Status,693,15130048888,/g4t1,,fail
Status,694,15150282610,/g4t1,,success
Status,695,15167670975,/g3t1_1,,running
Status,696,15168332869,/g3t1_1,,success
Status,697,15170370808,/g4t1,,fail
Status,698,15190580912,/g4t1,,success
Status,699,15210747532,/g4t1,,success
Status,700,15225644540,/g3t1_3,,running
Status,701,15225728588,/g3t1_2,,running
Status,702,15226154755,/g3t1_3,,success
Status,703,15226354183,/g3t1_2,,success
Status,704,15230783424,/g4t1,,fail
Status,705,15251784943,/g4t1,,success
Status,706,15267638929,/g3t1_1,,running
Status,707,15268102078,/g3t1_1,,success
Status,708,15270974618,/g4t1,,success
Status,709,15291517601,/g4t1,,success
Status,710,15311551428,/g4t1,,success
Status,711,15325796017,/g3t1_3,,running
Status,712,15326031834,/g3t1_2,,running
Status,713,15326078587,/g3t1_2,,success
Status,714,15326101279,/g3t1_3,,success
Status,715,15331489086,/g4t1,,fail
Status,716,15351669158,/g4t1,,success
Status,717,15367982690,/g3t1_1,,running
Status,718,15369076098,/g3t1_1,,success
Status,719,15371667011,/g4t1,,fail
Status,720,15392030799,/g4t1,,success
Status,721,15412167215,/g4t1,,success
Status,722,15425774547,/g3t1_3,,running
Status,723,15425861471,/g3t1_2,,running
Status,724,15426332484,/g3t1_2,,success
Status,725,15426382102,/g3t1_3,,success
Status,726,15432474008,/g4t1,,fail
Status,727,15452529331,/g4t1,,success
Status,728,15468401370,/g3t1_1,,running
Status,729,15468765690,/g3t1_1,,success
Status,730,15472721139,/g4t1,,success
Status,731,15492885193,/g4t1,,success
Status,732,15512919986,/g4t1,,success
Status,733,15526342758,/g3t1_3,,running
Status,734,15526422750,/g3t1_2,,running
Status,735,15526500611,/g3t1_2,,success
Status,736,15526523819,/g3t1_3,,success
Status,737,15532956349,/g4t1,,fail
Status,738,15553321590,/g4t1,,success
Status,739,15568093529,/g3t1_1,,running
Status,740,15568750932,/g3t1_1,,success
Status,741,15573036162,/g4t1,,fail
Status,742,15593402783,/g4t1,,success
Status,743,15613655827,/g4t1,,success
Status,744,15626083669,/g3t1_3,,running
Status,745,15626150877,/g3t1_2,,running
Status,746,15626430716,/g3t1_3,,success
Status,747,15626463669,/g3t1_2,,success
Status,748,15633768776,/g4t1,,fail
Status,749,15653974441,/g4t1,,success
Status,750,15668779946,/g3t1_1,,running
Status,751,15668853540,/g3t1_1,,success
Status,752,15673876759,/g4t1,,success
Status,753,15693976794,/g4t1,,success
Status,754,15714229362,/g4t1,,success
Status,755,15726376315,/g3t1_3,,running
Status,756,15726444777,/g3t1_2,,running
Status,757,15726594121,/g3t1_3,,success
Status,758,15726874656,/g3t1_2,,success
Status,759,15734014451,/g4t1,,fail
Status,760,15754396643,/g4t1,,success
Status,761,15768125892,/g3t1_1,,running
Status,762,15768466829,/g3t1_1,,success
Status,763,15774116540,/g4t1,,fail
Status,764,15794686719,/g4t1,,success
Status,765,15815004459,/g4t1,,success
Status,766,15826470104,/g3t1_3,,running
Status,767,15826556299,/g3t1_2,,running
Status,768,15826787864,/g3t1_3,,success
Status,769,15826877648,/g3t1_2,,success
Status,770,15834718973,/g4t1,,fail
Status,771,15855112527,/g4t1,,success
Status,772,15868498870,/g3t1_1,,running
Status,773,15868843508,/g3t1_1,,success
Status,774,15875142417,/g4t1,,success
Status,775,15895490266,/g4t1,,success
Status,776,15915649729,/g4t1,,success
Status,777,15926268583,/g3t1_3,,running
Status,778,15926350038,/g3t1_2,,running
Status,779,15926654547,/g3t1_3,,success
Status,780,15926696363,/g3t1_2,,success
Status,781,15935541179,/g4t1,,fail
Status,782,15955714401,/g4t1,,success
Status,783,15968673448,/g3t1_1,,running
Status,784,15968725739,/g3t1_1,,success
Status,785,15975676400,/g4t1,,fail
Status,786,15996035249,/g4t1,,success
Status,787,16016259964,/g4t1,,success
Status,788,16026459741,/g3t1_3,,running
Status,789,16026541527,/g3t1_2,,running
Status,790,16027358284,/g3t1_3,,success
Status,791,16027417960,/g3t1_2,,success
Status,792,16036220790,/g4t1,,fail
Status,793,16056613641,/g4t1,,success
Status,794,16068639882,/g3t1_1,,running
Status,795,16068983711,/g3t1_1,,success
Status,796,16076364275,/g4t1,,success
Status,797,16096641030,/g4t1,,success
Status,798,16116915430,/g4t1,,success
Status,799,16126685418,/g3t1_3,,running
Status,800,16126761287,/g3t1_2,,running
Status,801,16126798561,/g3t1_3,,success
Status,802,16127036441,/g3t1_2,,success
Status,803,16137044370,/g4t1,,fail
Status,804,16157144361,/g4t1,,success
Status,805,16168730298,/g3t1_1,,running
Status,806,16169218025,/g3t1_1,,success
Status,807,16177066446,/g4t1,,fail
Status,808,16197149054,/g4t1,,success
Status,809,16217600416,/g4t1,,success
Status,810,16226716575,/g3t1_3,,running
Status,811,16227514021,/g3t1_3,,success
Status,812,16227584136,/g3t1_2,,running
Status,813,16227900921,/g3t1_2,,success
Status,814,16237504724,/g4t1,,fail
Status,815,16257686790,/g4t1,,success
Status,816,16268869093,/g3t1_1,,running
Status,817,16269249911,/g3t1_1,,success
Status,818,16277793019,/g4t1,,success
Status,819,16297937808,/g4t1,,success
Status,820,16318253524,/g4t1,,success
Status,821,16326747688,/g3t1_3,,running
Status,822,16326878809,/g3t1_2,,running
Status,823,16327382101,/g3t1_2,,success
Status,824,16327541205,/g3t1_3,,success
Status,825,16338212456,/g4t1,,fail
Status,826,16358330312,/g4t1,,success
Status,827,16369494055,/g3t1_1,,running
Status,828,16369786232,/g3t1_1,,success
Status,829,16378316937,/g4t1,,fail
Status,830,16398803014,/g4t1,,success
Status,831,16418689914,/g4t1,,success
Status,832,16427330602,/g3t1_3,,running
Status,833,16427408161,/g3t1_2,,running
Status,834,16427444316,/g3t1_3,,success
Status,835,16427738086,/g3t1_2,,success
Status,836,16438890688,/g4t1,,fail
Status,837,16458962233,/g4t1,,success
Status,838,16469165866,/g3t1_1,,running
Status,839,16469460174,/g3t1_1,,success
Status,840,16479181629,/g4t1,,success
Status,841,16499432541,/g4t1,,success
Status,842,16519352278,/g4t1,,success
Status,843,16527230304,/g3t1_3,,running
Status,844,16527372019,/g3t1_2,,running
Status,845,16527565204,/g3t1_3,,success
Status,846,16528029506,/g3t1_2,,success
Status,847,16539575269,/g4t1,,fail
Status,848,16559639054,/g4t1,,success
Status,849,16569678963,/g3t1_1,,running
Status,850,16569741467,/g3t1_1,,success
Status,851,16579789986,/g4t1,,fail
Status,852,16600108341,/g4t1,,success
Status,853,16619989380,/g4t1,,success
Status,854,16627126018,/g3t1_3,,running
Status,855,16627898631,/g3t1_2,,running
Status,856,16627976755,/g3t1_3,,success
Status,857,16628279254,/g3t1_2,,success
Status,858,16640426356,/g4t1,,fail
Status,859,16660634817,/g4t1,,success
Status,860,16669395031,/g3t1_1,,running
Status,861,16669744465,/g3t1_1,,success
Status,862,16680386754,/g4t1,,success
Status,863,16700925761,/g4t1,,success
Status,864,16721203199,/g4t1,,success
Status,865,16727607384,/g3t1_3,,running
Status,866,16727699877,/g3t1_2,,running
Status,867,16728099931,/g3t1_3,,success
Status,868,16728251983,/g3t1_2,,success
Status,869,16741215633,/g4t1,,fail
Status,870,16761218340,/g4t1,,success
Status,871,16770084871,/g3t1_1,,running
Status,872,16770405850,/g3t1_1,,success
Status,873,16781180732,/g4t1,,fail
Status,874,16801519834,/g4t1,,success
Status,875,16821487524,/g4t1,,success
Status,876,16827488999,/g3t1_3,,running
Status,877,16827554697,/g3t1_2,,running
Status,878,16827728867,/g3t1_3,,success
Status,879,16828053462,/g3t1_2,,success
Status,880,16841642342,/g4t1,,fail
Status,881,16861789353,/g4t1,,success
Status,882,16869704675,/g3t1_1,,running
Status,883,16870113124,/g3t1_1,,success
Status,884,16881658442,/g4t1,,success
Status,885,16902020615,/g4t1,,success
Status,886,16922217272,/g4t1,,success
Status,887,16927289029,/g3t1_3,,running
Status,888,16928026597,/g3t1_3,,success
Status,889,16928104693,/g3t1_2,,running
Status,890,16928610505,/g3t1_2,,success
Status,891,16942257205,/g4t1,,fail
Status,892,16962378294,/g4t1,,success
Status,893,16969915153,/g3t1_1,,running
Status,894,16970308903,/g3t1_1,,success
Status,895,16982504143,/g4t1,,fail
Status,896,17002675866,/g4t1,,success
Status,897,17022859763,/g4t1,,success
Status,898,17028200925,/g3t1_3,,running
Status,899,17028287795,/g3t1_2,,running
Status,900,17028328662,/g3t1_3,,success
Status,901,17028357448,/g3t1_2,,success
Status,902,17042866721,/g4t1,,fail
Status,903,17063037111,/g4t1,,success
Status,904,17070216640,/g3t1_1,,running
Status,905,17070826176,/g3t1_1,,success
Status,906,17083381891,/g4t1,,success
Status,907,17103495645,/g4t1,,success
Status,908,17123798333,/g4t1,,success
Status,909,17127744166,/g3t1_3,,running
Status,910,17127935432,/g3t1_2,,running
Status,911,17127977476,/g3t1_3,,success
Status,912,17128657301,/g3t1_2,,success
Status,913,17143611809,/g4t1,,fail
Status,914,17163804813,/g4t1,,success
Status,915,17170295226,/g3t1_1,,running
Status,916,17170619193,/g3t1_1,,success
Status,917,17184145345,/g4t1,,fail
Status,918,17204169557,/g4t1,,success
Status,919,17224492101,/g4t1,,success
Status,920,17227814978,/g3t1_3,,running
Status,921,17227940596,/g3t1_2,,running
Status,922,17228691499,/g3t1_3,,success
Status,923,17228760891,/g3t1_2,,success
Status,924,17244396329,/g4t1,,fail
Status,925,17264530445,/g4t1,,success
Status,926,17270601813,/g3t1_1,,running
Status,927,17270892885,/g3t1_1,,success
Status,928,17284768996,/g4t1,,success
Status,929,17304773423,/g4t1,,success
Status,930,17325270302,/g4t1,,success
Status,931,17328185710,/g3t1_3,,running
Status,932,17328305493,/g3t1_2,,running
Status,933,17328647152,/g3t1_3,,success
Status,934,17328718619,/g3t1_2,,success
Status,935,17345344080,/g4t1,,fail
Status,936,17365289401,/g4t1,,success
Status,937,17370415163,/g3t1_1,,running
Status,938,17370797696,/g3t1_1,,success
Status,939,17385464009,/g4t1,,fail
Status,940,17405759953,/g4t1,,success
Status,941,17425782810,/g4t1,,success
Status,942,17428286176,/g3t1_2,,running
Status,943,17428388768,/g3t1_3,,running
Status,944,17428721548,/g3t1_3,,success
Status,945,17428785324,/g3t1_2,,success
Status,946,17445713223,/g4t1,,fail
Status,947,17465955481,/g4t1,,success
Status,948,17470673976,/g3t1_1,,running
Status,949,17470860612,/g3t1_1,,success
Status,950,17486143774,/g4t1,,success
Status,951,17506275146,/g4t1,,success
Status,952,17526387412,/g4t1,,success
Status,953,17528386228,/g3t1_3,,running
Status,954,17528465645,/g3t1_2,,running
Status,955,17528772301,/g3t1_3,,success
Status,956,17529040096,/g3t1_2,,success
Status,957,17546662703,/g4t1,,fail
Status,958,17566673802,/g4t1,,success
Status,959,17570668620,/g3t1_1,,running
Status,960,17571027721,/g3t1_1,,success
Status,961,17586894177,/g4t1,,fail
Status,962,17607073118,/g4t1,,success
Status,963,17627283533,/g4t1,,success
Status,964,17628781164,/g3t1_3,,running
Status,965,17628854845,/g3t1_3,,success
Status,966,17628950287,/g3t1_2,,running
Status,967,17628978302,/g3t1_2,,success
Status,968,17647331387,/g4t1,,fail
Status,969,17667246410,/g4t1,,success
Status,970,17670830819,/g3t1_1,,running
Status,971,17671357253,/g3t1_1,,success
Status,972,17687510842,/g4t1,,success
Status,973,17707706920,/g4t1,,success
Status,974,17727812978,/g4t1,,success
Status,975,17728505082,/g3t1_3,,running
Status,976,17728676969,/g3t1_2,,running
Status,977,17728937057,/g3t1_2,,success
Status,978,17729348906,/g3t1_3,,success
Status,979,17748269265,/g4t1,,fail
Status,980,17768242258,/g4t1,,success
Status,981,17770998102,/g3t1_1,,running
Status,982,17771064659,/g3t1_1,,success
Status,983,17788363710,/g4t1,,fail
Status,984,17808517958,/g4t1,,success
Status,985,17828588670,/g3t1_2,,running
Status,986,17829081485,/g3t1_3,,running
Status,987,17829126861,/g4t1,,success
Status,988,17829156780,/g3t1_3,,success
Status,989,17829467576,/g3t1_2,,success
Status,990,17848793515,/g4t1,,fail
Status,991,17869094064,/g4t1,,success
Status,992,17870838024,/g3t1_1,,running
Status,993,17871723187,/g3t1_1,,success
Status,994,17889040672,/g4t1,,success
Status,995,17909157539,/g4t1,,success
Status,996,17929033712,/g3t1_2,,running
Status,997,17929183858,/g3t1_3,,running
Status,998,17929248114,/g4t1,,success
Status,999,17929468378,/g3t1_2,,success
Status,1000,17929517207,/g3t1_3,,success
Status,1001,17949364780,/g4t1,,fail
Status,1002,17969436688,/g4t1,,success
Status,1003,17971154068,/g3t1_1,,running
Status,1004,17971664521,/g3t1_1,,success
Status,1005,17989643712,/g4t1,,fail
Status,1006,18009767922,/g4t1,,success
Status,1007,18029163488,/g3t1_2,,running
Status,1008,18029480692,/g3t1_3,,running
Status,1009,18029564608,/g3t1_3,,success
Status,1010,18029962765,/g3t1_2,,success
Status,1011,18030032806,/g4t1,,success
Status,1012,18050154172,/g4t1,,fail
Status,1013,18070281130,/g4t1,,success
Status,1014,18071324293,/g3t1_1,,running
Status,1015,18071992247,/g3t1_1,,success
Status,1016,18090407505,/g4t1,,success
Status,1017,18110553974,/g4t1,,success
Status,1018,18129245345,/g3t1_2,,running
Status,1019,18129520948,/g3t1_3,,running
Status,1020,18129757844,/g3t1_2,,success
Status,1021,18129848115,/g3t1_3,,success
Status,1022,18130493837,/g4t1,,fail
Status,1023,18150759428,/g4t1,,success
Status,1024,18170150828,/g4t1,,success
Status,1025,18170973562,/g3t1_1,,running
Status,1026,18171025039,/g3t1_1,,success
Status,1027,18190313015,/g4t1,,fail
Status,1028,18211277744,/g4t1,,success
Status,1029,18229596244,/g3t1_3,,running
Status,1030,18229665655,/g3t1_2,,running
Status,1031,18229768536,/g3t1_3,,success
Status,1032,18229787540,/g3t1_2,,success
Status,1033,18231212007,/g4t1,,fail
Status,1034,18251654926,/g4t1,,success
Status,1035,18271565622,/g4t1,,success
Status,1036,18271651662,/g3t1_1,,running
Status,1037,18272429903,/g3t1_1,,success
Status,1038,18291723792,/g4t1,,success
Status,1039,18312026631,/g4t1,,success
Status,1040,18329409904,/g3t1_3,,running
Status,1041,18329490115,/g3t1_2,,running
Status,1042,18329910105,/g3t1_2,,success
Status,1043,18330068929,/g3t1_3,,success
Status,1044,18331750632,/g4t1,,fail
Status,1045,18352109102,/g4t1,,success
Status,1046,18371750767,/g3t1_1,,running
Status,1047,18372047098,/g4t1,,success
Status,1048,18372227911,/g3t1_1,,success
Status,1049,18392365020,/g4t1,,fail
Status,1050,18412603879,/g4t1,,success
Status,1051,18429497088,/g3t1_2,,running
Status,1052,18429738392,/g3t1_3,,running
Status,1053,18429940359,/g3t1_2,,success
Status,1054,18430002077,/g3t1_3,,success
Status,1055,18432601018,/g4t1,,fail
Status,1056,18452709023,/g4t1,,success
Status,1057,18472068556,/g3t1_1,,running
Status,1058,18472423397,/g3t1_1,,success
Status,1059,18472774618,/g4t1,,success
Status,1060,18493026328,/g4t1,,success
Status,1061,18513091549,/g4t1,,success
Status,1062,18529842327,/g3t1_3,,running
Status,1063,18529893532,/g3t1_2,,running
Status,1064,18529914715,/g3t1_2,,success
Status,1065,18529932219,/g3t1_3,,success
Status,1066,18533375503,/g4t1,,fail
Status,1067,18553483134,/g4t1,,success
Status,1068,18572148765,/g3t1_1,,running
Status,1069,18572434553,/g3t1_1,,success
Status,1070,18573311613,/g4t1,,fail
Status,1071,18593683799,/g4t1,,success
Status,1072,18613785555,/g4t1,,success
Status,1073,18629898461,/g3t1_2,,running
Status,1074,18629964902,/g3t1_3,,running
Status,1075,18629987897,/g3t1_2,,success
Status,1076,18630359460,/g3t1_3,,success
Status,1077,18633872420,/g4t1,,fail
Status,1078,18653956332,/g4t1,,success
Status,1079,18672236578,/g3t1_1,,running
Status,1080,18672543680,/g3t1_1,,success
Status,1081,18673959225,/g4t1,,success
Status,1082,18694562344,/g4t1,,success
Status,1083,18714812252,/g4t1,,success
Status,1084,18729899228,/g3t1_3,,running
Status,1085,18729977172,/g3t1_2,,running
Status,1086,18730138526,/g3t1_3,,success
Status,1087,18730161670,/g3t1_2,,success
Status,1088,18734449908,/g4t1,,fail
Status,1089,18754761013,/g4t1,,success
Status,1090,18772141801,/g3t1_1,,running
Status,1091,18772544974,/g3t1_1,,success
Status,1092,18774451898,/g4t1,,fail
Status,1093,18795003453,/g4t1,,success
Status,1094,18815678179,/g4t1,,success
Status,1095,18829914763,/g3t1_2,,running
Status,1096,18830303341,/g3t1_3,,running
Status,1097,18830555354,/g3t1_2,,success
Status,1098,18830852157,/g3t1_3,,success
Status,1099,18835254449,/g4t1,,fail
Status,1100,18855560560,/g4t1,,success
Status,1101,18872437129,/g3t1_1,,running
Status,1102,18872939840,/g3t1_1,,success
Status,1103,18875646722,/g4t1,,success
Status,1104,18895717140,/g4t1,,success
Status,1105,18916130668,/g4t1,,success
Status,1106,18930044971,/g3t1_2,,running
Status,1107,18930167241,/g3t1_3,,running
Status,1108,18930522070,/g3t1_3,,success
Status,1109,18930579984,/g3t1_2,,success
Status,1110,18935737833,/g4t1,,fail
Status,1111,18956229642,/g4t1,,success
Status,1112,18972447433,/g3t1_1,,running
Status,1113,18972964219,/g3t1_1,,success
Status,1114,18976084873,/g4t1,,fail
Status,1115,18996420186,/g4t1,,success
Status,1116,19016844809,/g4t1,,success
Status,1117,19030215720,/g3t1_2,,running
Status,1118,19030330929,/g3t1_3,,running
Status,1119,19030905587,/g3t1_3,,success
Status,1120,19031114278,/g3t1_2,,success
Status,1121,19036460213,/g4t1,,fail
Status,1122,19056829383,/g4t1,,success
Status,1123,19072726774,/g3t1_1,,running
Status,1124,19073313059,/g3t1_1,,success
Status,1125,19076797859,/g4t1,,success
Status,1126,19097137159,/g4t1,,success
Status,1127,19117307406,/g4t1,,success
Status,1128,19130328329,/g3t1_3,,running
Status,1129,19130403066,/g3t1_2,,running
Status,1130,19130729610,/g3t1_2,,success
Status,1131,19130809060,/g3t1_3,,success
Status,1132,19137175254,/g4t1,,fail
Status,1133,19157353850,/g4t1,,success
Status,1134,19172963925,/g3t1_1,,running
Status,1135,19173612374,/g3t1_1,,success
Status,1136,19177356210,/g4t1,,fail
Status,1137,19197516038,/g4t1,,success
Status,1138,19217972235,/g4t1,,success
Status,1139,19231193340,/g3t1_3,,running
Status,1140,19231260784,/g3t1_2,,running
Status,1141,19231292126,/g3t1_3,,success
Status,1142,19231389015,/g3t1_2,,success
Status,1143,19237892577,/g4t1,,fail
Status,1144,19257598149,/g4t1,,success
Status,1145,19272674662,/g3t1_1,,running
Status,1146,19272748415,/g3t1_1,,success
Status,1147,19277566922,/g4t1,,success
Status,1148,19297954054,/g4t1,,success
Status,1149,19318179538,/g4t1,,success
Status,1150,19331001672,/g3t1_2,,running
Status,1151,19331120318,/g3t1_3,,running
Status,1152,19331142432,/g3t1_3,,success
Status,1153,19331158484,/g3t1_2,,success
Status,1154,19338279832,/g4t1,,fail
Status,1155,19358230246,/g4t1,,success
Status,1156,19372989395,/g3t1_1,,running
Status,1157,19373354235,/g3t1_1,,success
Status,1158,19378239612,/g4t1,,fail
Status,1159,19398686442,/g4t1,,success
Status,1160,19418779346,/g4t1,,success
Status,1161,19431300284,/g3t1_3,,running
Status,1162,19431359354,/g3t1_3,,success
Status,1163,19431376729,/g3t1_2,,running
Status,1164,19431391689,/g3t1_2,,success
Status,1165,19438985761,/g4t1,,fail
Status,1166,19459155855,/g4t1,,success
Status,1167,19473284833,/g3t1_1,,running
Status,1168,19473346534,/g3t1_1,,success
Status,1169,19479117039,/g4t1,,success
Status,1170,19499650583,/g4t1,,success
Status,1171,19519571352,/g4t1,,success
Status,1172,19531457006,/g3t1_3,,running
Status,1173,19531635040,/g3t1_2,,running
Status,1174,19531696052,/g3t1_3,,success
Status,1175,19531750485,/g3t1_2,,success
Status,1176,19539692793,/g4t1,,fail
Status,1177,19559796084,/g4t1,,success
Status,1178,19573032927,/g3t1_1,,running
Status,1179,19573321294,/g3t1_1,,success
Status,1180,19579291631,/g4t1,,fail
Status,1181,19599497715,/g4t1,,success
Status,1182,19620488007,/g4t1,,success
Status,1183,19631453865,/g3t1_3,,running
Status,1184,19631534950,/g3t1_2,,running
Status,1185,19631556434,/g3t1_3,,success
Status,1186,19632006062,/g3t1_2,,success
Status,1187,19640359934,/g4t1,,fail
Status,1188,19660662957,/g4t1,,success
Status,1189,19673531235,/g3t1_1,,running
Status,1190,19674333927,/g3t1_1,,success
Status,1191,19680812882,/g4t1,,success
Status,1192,19701291370,/g4t1,,success
Status,1193,19721135421,/g4t1,,success
Status,1194,19730969845,/g3t1_3,,running
Status,1195,19731657389,/g3t1_2,,running
Status,1196,19731753607,/g3t1_2,,success
Status,1197,19731789101,/g3t1_3,,success
Status,1198,19741170712,/g4t1,,fail
Status,1199,19761544763,/g4t1,,success
Status,1200,19773528700,/g3t1_1,,running
Status,1201,19774059142,/g3t1_1,,success
Status,1202,19781593566,/g4t1,,fail
Status,1203,19801644982,/g4t1,,success
Status,1204,19821786401,/g4t1,,success
Status,1205,19831889971,/g3t1_3,,running
Status,1206,19831964032,/g3t1_3,,success
Status,1207,19832163131,/g3t1_2,,running
Status,1208,19832189684,/g3t1_2,,success
Status,1209,19841748129,/g4t1,,fail
Status,1210,19862141380,/g4t1,,success
Status,1211,19873701163,/g3t1_1,,running
Status,1212,19874046426,/g3t1_1,,success
Status,1213,19882264856,/g4t1,,success
Status,1214,19902292802,/g4t1,,success
Status,1215,19922406609,/g4t1,,success
Status,1216,19932040301,/g3t1_2,,running
Status,1217,19932168366,/g3t1_2,,success
Status,1218,19932208141,/g3t1_3,,running
Status,1219,19932236025,/g3t1_3,,success
Status,1220,19942642223,/g4t1,,fail
Status,1221,19962741869,/g4t1,,success
Status,1222,19973696033,/g3t1_1,,running
Status,1223,19974170596,/g3t1_1,,success
Status,1224,19982989928,/g4t1,,fail
Status,1225,20002950305,/g4t1,,success
Status,1226,20023235850,/g4t1,,success
Status,1227,20031690452,/g3t1_3,,running
Status,1228,20031782406,/g3t1_2,,running
Status,1229,20031873954,/g3t1_3,,success
Status,1230,20031912689,/g3t1_2,,success
Status,1231,20043193008,/g4t1,,fail
Status,1232,20063516878,/g4t1,,success
Status,1233,20073919157,/g3t1_1,,running
Status,1234,20074600803,/g3t1_1,,success
Status,1235,20083664477,/g4t1,,success
Status,1236,20103672611,/g4t1,,success
Status,1237,20124079851,/g4t1,,success
Status,1238,20131411834,/g3t1_3,,running
Status,1239,20132086691,/g3t1_2,,running
Status,1240,20132665812,/g3t1_2,,success
Status,1241,20132722111,/g3t1_3,,success
Status,1242,20144105156,/g4t1,,fail
Status,1243,20164190016,/g4t1,,success
Status,1244,20174078515,/g3t1_1,,running
Status,1245,20174364046,/g3t1_1,,success
Status,1246,20184403294,/g4t1,,fail
Status,1247,20204459573,/g4t1,,success
Status,1248,20224884336,/g4t1,,success
Status,1249,20231810074,/g3t1_3,,running
Status,1250,20231937241,/g3t1_2,,running
Status,1251,20232250793,/g3t1_2,,success
Status,1252,20232288825,/g3t1_3,,success
Status,1253,20244774425,/g4t1,,fail
Status,1254,20265082320,/g4t1,,success
Status,1255,20274654382,/g3t1_1,,running
Status,1256,20274969498,/g3t1_1,,success
Status,1257,20285411236,/g4t1,,success
Status,1258,20305355826,/g4t1,,success
Status,1259,20325360607,/g4t1,,success
Status,1260,20332248212,/g3t1_3,,running
Status,1261,20332309206,/g3t1_2,,running
Status,1262,20332329753,/g3t1_2,,success
Status,1263,20332346829,/g3t1_3,,success
Status,1264,20345353434,/g4t1,,fail
Status,1265,20365624438,/g4t1,,success
Status,1266,20374339976,/g3t1_1,,running
Status,1267,20374876701,/g3t1_1,,success
Status,1268,20386066117,/g4t1,,fail
Status,1269,20406023417,/g4t1,,success
Status,1270,20426001943,/g4t1,,success
Status,1271,20432643570,/g3t1_3,,running
Status,1272,20432767797,/g3t1_2,,running
Status,1273,20432808953,/g3t1_2,,success
Status,1274,20432834964,/g3t1_3,,success
Status,1275,20446220703,/g4t1,,fail
Status,1276,20466269499,/g4t1,,success
Status,1277,20474719099,/g3t1_1,,running
Status,1278,20475040247,/g3t1_1,,success
Status,1279,20486531895,/g4t1,,success
Status,1280,20506558584,/g4t1,,success
Status,1281,20526677904,/g4t1,,success
Status,1282,20532542307,/g3t1_3,,running
Status,1283,20532697366,/g3t1_2,,running
Status,1284,20532839012,/g3t1_3,,success
Status,1285,20532937654,/g3t1_2,,success
Status,1286,20546708214,/g4t1,,fail
Status,1287,20566924793,/g4t1,,success
Status,1288,20574702090,/g3t1_1,,running
Status,1289,20575161215,/g3t1_1,,success
Status,1290,20587043062,/g4t1,,fail
Status,1291,20607168415,/g4t1,,success
Status,1292,20627510459,/g4t1,,success
Status,1293,20632601406,/g3t1_3,,running
Status,1294,20632694792,/g3t1_2,,running
Status,1295,20632872106,/g3t1_3,,success
Status,1296,20633172687,/g3t1_2,,success
Status,1297,20647433098,/g4t1,,fail
Status,1298,20667750803,/g4t1,,success
Status,1299,20674870382,/g3t1_1,,running
Status,1300,20675375991,/g3t1_1,,success
Status,1301,20687771677,/g4t1,,success
Status,1302,20708145779,/g4t1,,success
Status,1303,20728102189,/g4t1,,success
Status,1304,20733339494,/g3t1_3,,running
Status,1305,20733443327,/g3t1_2,,running
Status,1306,20734017266,/g3t1_3,,success
Status,1307,20734094848,/g3t1_2,,success
Status,1308,20748357300,/g4t1,,fail
Status,1309,20768651586,/g4t1,,success
Status,1310,20774715667,/g3t1_1,,running
Status,1311,20775009001,/g3t1_1,,success
Status,1312,20788516370,/g4t1,,fail
Status,1313,20808616225,/g4t1,,success
Status,1314,20828751444,/g4t1,,success
Status,1315,20832953578,/g3t1_3,,running
Status,1316,20833042049,/g3t1_2,,running
Status,1317,20833375006,/g3t1_3,,success
Status,1318,20833419641,/g3t1_2,,success
Status,1319,20848987952,/g4t1,,fail
Status,1320,20869042203,/g4t1,,success
Status,1321,20875000172,/g3t1_1,,running
Status,1322,20875663092,/g3t1_1,,success
Status,1323,20889142434,/g4t1,,success
Status,1324,20909274371,/g4t1,,success
Status,1325,20929352920,/g4t1,,success
Status,1326,20933048173,/g3t1_3,,running
Status,1327,20933119563,/g3t1_2,,running
Status,1328,20933229105,/g3t1_3,,success
Status,1329,20933261995,/g3t1_2,,success
Status,1330,20949387123,/g4t1,,fail
Status,1331,20969659275,/g4t1,,success
Status,1332,20975430456,/g3t1_1,,running
Status,1333,20975796501,/g3t1_1,,success
Status,1334,20989756094,/g4t1,,fail
Status,1335,21009925798,/g4t1,,success
Status,1336,21029917303,/g4t1,,success
Status,1337,21033273251,/g3t1_2,,running
Status,1338,21033353271,/g3t1_3,,running
Status,1339,21033520148,/g3t1_3,,success
Status,1340,21034060370,/g3t1_2,,success
Status,1341,21050080941,/g4t1,,fail
Status,1342,21070345698,/g4t1,,success
Status,1343,21075251308,/g3t1_1,,running
Status,1344,21075514222,/g3t1_1,,success
Status,1345,21090598722,/g4t1,,success
Status,1346,21110656420,/g4t1,,success
Status,1347,21131072805,/g4t1,,success
Status,1348,21133274004,/g3t1_2,,running
Status,1349,21133334242,/g3t1_3,,running
Status,1350,21133353895,/g3t1_2,,success
Status,1351,21133702842,/g3t1_3,,success
Status,1352,21150745141,/g4t1,,fail
Status,1353,21171016840,/g4t1,,success
Status,1354,21175232163,/g3t1_1,,running
Status,1355,21175681558,/g3t1_1,,success
Status,1356,21191062317,/g4t1,,fail
Status,1357,21211159890,/g4t1,,success
Status,1358,21231447465,/g4t1,,success
Status,1359,21233672227,/g3t1_3,,running
Status,1360,21233727463,/g3t1_2,,running
Status,1361,21233749947,/g3t1_3,,success
Status,1362,21234001439,/g3t1_2,,success
Status,1363,21251755471,/g4t1,,fail
Status,1364,21271594409,/g4t1,,success
Status,1365,21275518639,/g3t1_1,,running
Status,1366,21275900979,/g3t1_1,,success
Status,1367,21292104005,/g4t1,,success
Status,1368,21311989600,/g4t1,,success
Status,1369,21332163652,/g4t1,,success
Status,1370,21333769947,/g3t1_2,,running
Status,1371,21333848029,/g3t1_3,,running
Status,1372,21333912184,/g3t1_2,,success
Status,1373,21333977423,/g3t1_3,,success
Status,1374,21352600571,/g4t1,,fail
Status,1375,21372367730,/g4t1,,success
Status,1376,21375391503,/g3t1_1,,running
Status,1377,21375678468,/g3t1_1,,success
Status,1378,21392462680,/g4t1,,fail
Status,1379,21412774701,/g4t1,,success
Status,1380,21433015005,/g4t1,,success
Status,1381,21433097096,/g3t1_2,,running
Status,1382,21433248789,/g3t1_3,,running
Status,1383,21433888364,/g3t1_3,,success
Status,1384,21433963405,/g3t1_2,,success
Status,1385,21453005691,/g4t1,,fail
Status,1386,21472948115,/g4t1,,success
Status,1387,21475609443,/g3t1_1,,running
Status,1388,21475661451,/g3t1_1,,success
Status,1389,21493090508,/g4t1,,success
Status,1390,21513209664,/g4t1,,success
Status,1391,21534052905,/g3t1_3,,running
Status,1392,21534120150,/g4t1,,success
Status,1393,21534172492,/g3t1_2,,running
Status,1394,21534195582,/g3t1_2,,success
Status,1395,21534215665,/g3t1_3,,success
Status,1396,21553533836,/g4t1,,fail
Status,1397,21573498329,/g4t1,,success
Status,1398,21575632991,/g3t1_1,,running
Status,1399,21576105321,/g3t1_1,,success
Status,1400,21593732150,/g4t1,,fail
Status,1401,21613818416,/g4t1,,success
Status,1402,21633798738,/g3t1_3,,running
Status,1403,21633869010,/g3t1_2,,running
Status,1404,21633960741,/g4t1,,success
Status,1405,21633983071,/g3t1_3,,success
Status,1406,21633999084,/g3t1_2,,success
Status,1407,21654068265,/g4t1,,fail
Status,1408,21674216628,/g4t1,,success
Status,1409,21675875938,/g3t1_1,,running
Status,1410,21676209643,/g3t1_1,,success
Status,1411,21694365264,/g4t1,,success
Status,1412,21714643376,/g4t1,,success
Status,1413,21733926114,/g3t1_2,,running
Status,1414,21733990516,/g3t1_3,,running
Status,1415,21734099903,/g3t1_2,,success
Status,1416,21734131259,/g3t1_3,,success
Status,1417,21734298407,/g4t1,,fail
Status,1418,21754701727,/g4t1,,success
Status,1419,21775011617,/g4t1,,success
Status,1420,21775804454,/g3t1_1,,running
Status,1421,21776407976,/g3t1_1,,success
Status,1422,21795070759,/g4t1,,fail
Status,1423,21815139734,/g4t1,,success
Status,1424,21833860617,/g3t1_2,,running
Status,1425,21834238430,/g3t1_3,,running
Status,1426,21834297739,/g3t1_3,,success
Status,1427,21834341888,/g3t1_2,,success
Status,1428,21835067080,/g4t1,,fail
Status,1429,21855393352,/g4t1,,success
Status,1430,21875631346,/g4t1,,success
Status,1431,21876013847,/g3t1_1,,running
Status,1432,21876987103,/g3t1_1,,success
Status,1433,21895777315,/g4t1,,success
Status,1434,21916131656,/g4t1,,success
Status,1435,21933963359,/g3t1_2,,running
Status,1436,21934238868,/g3t1_3,,running
Status,1437,21934281042,/g3t1_2,,success
Status,1438,21934334230,/g3t1_3,,success
Status,1439,21935596994,/g4t1,,fail
Status,1440,21956056452,/g4t1,,success
Status,1441,21976116440,/g4t1,,success
Status,1442,21976225938,/g3t1_1,,running
Status,1443,21976752620,/g3t1_1,,success
Status,1444,21996220329,/g4t1,,fail
Status,1445,22016344113,/g4t1,,success
Status,1446,22034049070,/g3t1_3,,running
Status,1447,22034131476,/g3t1_2,,running
Status,1448,22034478322,/g3t1_3,,success
Status,1449,22034534934,/g3t1_2,,success
Status,1450,22036396371,/g4t1,,fail
Status,1451,22056709759,/g4t1,,success
Status,1452,22076501027,/g3t1_1,,running
Status,1453,22076969438,/g3t1_1,,success
Status,1454,22077029341,/g4t1,,success
Status,1455,22096938037,/g4t1,,success
Status,1456,22117061473,/g4t1,,success
Status,1457,22135011194,/g3t1_3,,running
Status,1458,22135138267,/g3t1_2,,running
Status,1459,22135168375,/g3t1_2,,success
Status,1460,22135217225,/g3t1_3,,success
Status,1461,22136961694,/g4t1,,fail
Status,1462,22157221618,/g4t1,,success
Status,1463,22176608565,/g3t1_1,,running
Status,1464,22176974812,/g3t1_1,,success
Status,1465,22177029852,/g4t1,,success
Status,1466,22197516057,/g4t1,,fail
Status,1467,22217610552,/g4t1,,success
Status,1468,22234316838,/g3t1_2,,running
Status,1469,22234395935,/g3t1_3,,running
Status,1470,22234954785,/g3t1_2,,success
Status,1471,22235011360,/g3t1_3,,success
Status,1472,22237448061,/g4t1,,fail
Status,1473,22257625328,/g4t1,,success
Status,1474,22276895266,/g3t1_1,,running
Status,1475,22277427024,/g3t1_1,,success
Status,1476,22277497142,/g4t1,,success
Status,1477,22298019596,/g4t1,,success
Status,1478,22318114691,/g4t1,,success
Status,1479,22334885538,/g3t1_2,,running
Status,1480,22334948433,/g3t1_3,,running
Status,1481,22335013616,/g3t1_2,,success
Status,1482,22335033061,/g3t1_3,,success
Status,1483,22338251366,/g4t1,,fail
Status,1484,22358328807,/g4t1,,success
Status,1485,22376842860,/g3t1_1,,running
Status,1486,22377319196,/g3t1_1,,success
Status,1487,22378249808,/g4t1,,fail
Status,1488,22398593634,/g4t1,,success
Status,1489,22418698162,/g4t1,,success
Status,1490,22434969793,/g3t1_2,,running
Status,1491,22435089834,/g3t1_3,,running
Status,1492,22435382301,/g3t1_3,,success
Status,1493,22435454878,/g3t1_2,,success
Status,1494,22438617849,/g4t1,,fail
Status,1495,22459064444,/g4t1,,success
Status,1496,22477010673,/g3t1_1,,running
Status,1497,22477330847,/g3t1_1,,success
Status,1498,22478676991,/g4t1,,success
Status,1499,22499109561,/g4t1,,success
Status,1500,22518547442,/g4t1,,success
Status,1501,22534059144,/g3t1_3,,running
Status,1502,22534084123,/g3t1_2,,running
Status,1503,22534138665,/g3t1_3,,success
Status,1504,22534145438,/g3t1_2,,success
Status,1505,22538585230,/g4t1,,fail
Status,1506,22558857644,/g4t1,,success
Status,1507,22577097256,/g3t1_1,,running
Status,1508,22577378071,/g3t1_1,,success
Status,1509,22579119069,/g4t1,,fail
Status,1510,22599685647,/g4t1,,success
Status,1511,22620091848,/g4t1,,success
Status,1512,22635206157,/g3t1_3,,running
Status,1513,22635283119,/g3t1_2,,running
Status,1514,22635521902,/g3t1_2,,success
Status,1515,22635554880,/g3t1_3,,success
Status,1516,22639778134,/g4t1,,fail
Status,1517,22660241977,/g4t1,,success
Status,1518,22677155356,/g3t1_1,,running
Status,1519,22677813980,/g3t1_1,,success
Status,1520,22679927551,/g4t1,,success
Status,1521,22700360158,/g4t1,,success
Status,1522,22720520108,/g4t1,,success
Status,1523,22735149659,/g3t1_3,,running
Status,1524,22735226870,/g3t1_2,,running
Status,1525,22735329598,/g3t1_3,,success
Status,1526,22735569812,/g3t1_2,,success
Status,1527,22740415392,/g4t1,,fail
Status,1528,22760941435,/g4t1,,success
Status,1529,22777315416,/g3t1_1,,running
Status,1530,22778316887,/g3t1_1,,success
Status,1531,22780947054,/g4t1,,fail
Status,1532,22801145572,/g4t1,,success
Status,1533,22821290416,/g4t1,,success
Status,1534,22834959210,/g3t1_3,,running
Status,1535,22835214571,/g3t1_2,,running
Status,1536,22835258542,/g3t1_3,,success
Status,1537,22835323492,/g3t1_2,,success
Status,1538,22841226348,/g4t1,,fail
Status,1539,22861562877,/g4t1,,success
Status,1540,22877932606,/g3t1_1,,running
Status,1541,22878061193,/g3t1_1,,success
Status,1542,22881579898,/g4t1,,success
Status,1543,22901698888,/g4t1,,success
Status,1544,22921874810,/g4t1,,success
Status,1545,22935062983,/g3t1_2,,running
Status,1546,22935164740,/g3t1_3,,running
Status,1547,22935720025,/g3t1_2,,success
