
Status,2,3503908509,/g4t1,,init
Status,4,8616289112,/g3t1_1,,init
Status,5,8622437788,/g3t1_1,,init
Status,6,8622457639,/g3t1_1,,running
Status,7,8625131085,/g3t1_1,,success
Status,8,8672632073,/g3t1_1,,running
Status,9,8673795146,/g3t1_1,,success
Status,10,8722712026,/g3t1_1,,running
Status,11,8724185052,/g3t1_1,,success
Status,12,8772793060,/g3t1_1,,running
Status,13,8774327374,/g3t1_1,,success
Status,14,8822797872,/g3t1_1,,running
Status,15,8823705658,/g3t1_1,,success
Status,16,8872957044,/g3t1_1,,running
Status,17,8874646851,/g3t1_1,,success
Status,19,8920233871,/g3t1_2,,init
Status,20,8920296171,/g3t1_3,,init
Status,22,8922977919,/g3t1_1,,running
Status,23,8923635852,/g3t1_1,,success
Status,24,8929577448,/g3t1_2,,init
Status,25,8929590997,/g3t1_2,,running
Status,26,8930003766,/g3t1_3,,init
Status,27,8930022201,/g3t1_3,,running
Status,28,8931587631,/g3t1_2,,success
Status,29,8931774358,/g3t1_3,,success
Status,30,8973266077,/g3t1_1,,running
Status,31,8975212228,/g3t1_1,,success
Status,32,8979836883,/g3t1_2,,running
Status,33,8980167111,/g3t1_3,,running
Status,34,8981532599,/g3t1_2,,success
Status,35,8981549725,/g3t1_3,,success
Status,36,9006617763,/g4t1,,success
Status,37,9023877477,/g3t1_1,,running
Status,38,9027519258,/g3t1_1,,success
Status,39,9030424137,/g3t1_2,,running
Status,40,9030696082,/g3t1_3,,running
Status,41,9033824511,/g3t1_2,,success
Status,42,9035325286,/g3t1_3,,success
Status,43,9074093185,/g3t1_1,,running
Status,44,9077422908,/g3t1_1,,success
Status,45,9080942895,/g3t1_2,,running
Status,46,9081028750,/g3t1_3,,running
Status,47,9085150840,/g3t1_2,,success
Status,48,9086959875,/g3t1_3,,success
Status,52,9107108391,/g4t1,,success
Status,53,9124071843,/g3t1_1,,running
Status,54,9128117799,/g3t1_1,,success
Status,55,9130657417,/g3t1_2,,running
Status,56,9131058563,/g3t1_3,,running
Status,57,9134489829,/g3t1_2,,success
Status,58,9135521170,/g3t1_3,,success
Status,59,9174382855,/g3t1_1,,running
Status,60,9178522641,/g3t1_1,,success
Status,61,9180981592,/g3t1_2,,running
Status,62,9181422987,/g3t1_3,,running
Status,63,9187476767,/g3t1_3,,success
Status,64,9187548411,/g3t1_2,,success
Status,65,9207193758,/g4t1,,success
Status,66,9224466379,/g3t1_1,,running
Status,67,9228394327,/g3t1_1,,success
Status,68,9230889729,/g3t1_2,,running
Status,69,9232055943,/g3t1_3,,running
Status,70,9235249305,/g3t1_2,,success
Status,71,9236591067,/g3t1_3,,success
Status,72,9274704561,/g3t1_1,,running
Status,73,9278829314,/g3t1_1,,fail
Status,74,9280998282,/g3t1_2,,running
Status,75,9281096323,/g3t1_3,,running
Status,76,9286606638,/g3t1_2,,success
Status,77,9286687621,/g3t1_3,,success
Status,81,9307464165,/g4t1,,success
Status,82,9324762759,/g3t1_1,,running
Status,83,9328633293,/g3t1_1,,fail
Status,84,9331142410,/g3t1_2,,running
Status,85,9331527590,/g3t1_3,,running
Status,86,9335403134,/g3t1_2,,fail
Status,87,9336322724,/g3t1_3,,success
Status,88,9374765086,/g3t1_1,,running
Status,89,9379355318,/g3t1_1,,success
Status,90,9381313752,/g3t1_2,,running
Status,91,9381908124,/g3t1_3,,running
Status,92,9386966291,/g3t1_2,,fail
Status,93,9388082822,/g3t1_3,,success
Status,94,9407649982,/g4t1,,success
Status,95,9424926666,/g3t1_1,,running
Status,96,9428795002,/g3t1_1,,success
Status,97,9431305779,/g3t1_2,,running
Status,98,9431607406,/g3t1_3,,running
Status,99,9436744663,/g3t1_2,,success
Status,100,9437684797,/g3t1_3,,success
Status,101,9475083634,/g3t1_1,,running
Status,102,9480103265,/g3t1_1,,fail
Status,103,9481556101,/g3t1_2,,running
Status,104,9481888654,/g3t1_3,,running
Status,105,9486187193,/g3t1_2,,fail
Status,106,9487493655,/g3t1_3,,fail
Status,110,9507734429,/g4t1,,success
Status,111,9525225944,/g3t1_1,,running
Status,112,9529318043,/g3t1_1,,success
Status,113,9531418520,/g3t1_2,,running
Status,114,9531768522,/g3t1_3,,running
Status,115,9536078484,/g3t1_2,,success
Status,116,9537381622,/g3t1_3,,success
Status,117,9575384516,/g3t1_1,,running
Status,118,9579400784,/g3t1_1,,success
Status,119,9581964996,/g3t1_2,,running
Status,120,9582214947,/g3t1_3,,running
Status,121,9587010745,/g3t1_2,,success
Status,122,9588006566,/g3t1_3,,fail
Status,123,9608094616,/g4t1,,fail
Status,124,9625338269,/g3t1_1,,running
Status,125,9630066371,/g3t1_1,,success
Status,126,9631738256,/g3t1_2,,running
Status,127,9632092345,/g3t1_3,,running
Status,128,9636549586,/g3t1_2,,fail
Status,129,9637528139,/g3t1_3,,fail
Status,130,9675713091,/g3t1_1,,running
Status,131,9679901136,/g3t1_1,,success
Status,132,9682360590,/g3t1_2,,running
Status,133,9682443633,/g3t1_3,,running
Status,134,9686533103,/g3t1_2,,success
Status,135,9687309766,/g3t1_3,,success
Status,139,9708024954,/g4t1,,fail
Status,140,9725657939,/g3t1_1,,running
Status,141,9729425611,/g3t1_1,,success
Status,142,9731974256,/g3t1_2,,running
Status,143,9732350474,/g3t1_3,,running
Status,144,9736243731,/g3t1_2,,success
Status,145,9737535960,/g3t1_3,,success
Status,146,9775736381,/g3t1_1,,running
Status,147,9780421268,/g3t1_1,,success
Status,148,9782552511,/g3t1_2,,running
Status,149,9782626670,/g3t1_3,,running
Status,150,9786254915,/g3t1_2,,success
Status,151,9787086938,/g3t1_3,,fail
Status,152,9807553845,/g4t1,,fail
Status,153,9825820847,/g3t1_1,,running
Status,154,9829072584,/g3t1_1,,success
Status,155,9831719981,/g3t1_2,,running
Status,156,9831986197,/g3t1_3,,running
Status,157,9833047290,/g3t1_2,,success
Status,158,9834170938,/g3t1_3,,success
Status,159,9875613186,/g3t1_1,,running
Status,160,9878605506,/g3t1_1,,success
Status,161,9882204780,/g3t1_2,,running
Status,162,9882377635,/g3t1_3,,running
Status,163,9884723031,/g3t1_2,,success
Status,164,9886113728,/g3t1_3,,success
Status,168,9907947754,/g4t1,,fail
Status,169,9926192289,/g3t1_1,,running
Status,170,9930786317,/g3t1_1,,success
Status,171,9932387221,/g3t1_2,,running
Status,172,9932660757,/g3t1_3,,running
Status,173,9938457660,/g3t1_3,,fail
Status,174,9938957968,/g3t1_2,,success
Status,175,9976273446,/g3t1_1,,running
Status,176,9980972698,/g3t1_1,,fail
Status,177,9982672310,/g3t1_2,,running
Status,178,9982746068,/g3t1_3,,running
Status,179,9987160762,/g3t1_2,,success
Status,180,9988014414,/g3t1_3,,fail
Status,181,10008395083,/g4t1,,fail
Status,182,10026391655,/g3t1_1,,running
Status,183,10030487538,/g3t1_1,,success
Status,184,10032814605,/g3t1_2,,running
Status,185,10032884123,/g3t1_3,,running
Status,186,10037142714,/g3t1_2,,success
Status,187,10037919486,/g3t1_3,,fail
Status,188,10076580964,/g3t1_1,,running
Status,189,10080564752,/g3t1_1,,fail
Status,190,10083096614,/g3t1_2,,running
Status,191,10083158303,/g3t1_3,,running
Status,192,10087069827,/g3t1_2,,success
Status,193,10087824631,/g3t1_3,,success
Status,197,10108520035,/g4t1,,fail
Status,198,10126815817,/g3t1_1,,running
Status,199,10130720659,/g3t1_1,,success
Status,200,10133119485,/g3t1_2,,running
Status,201,10133183442,/g3t1_3,,running
Status,202,10137501305,/g3t1_2,,success
Status,203,10138642206,/g3t1_3,,success
Status,204,10177243916,/g3t1_1,,running
Status,205,10181349658,/g3t1_1,,success
Status,206,10183271539,/g3t1_2,,running
Status,207,10183348228,/g3t1_3,,running
Status,208,10187896519,/g3t1_2,,success
Status,209,10188554280,/g3t1_3,,success
Status,210,10208631502,/g4t1,,fail
Status,211,10226722803,/g3t1_1,,running
Status,212,10231399165,/g3t1_1,,success
Status,213,10232965388,/g3t1_2,,running
Status,214,10233035662,/g3t1_3,,running
Status,215,10237621723,/g3t1_2,,success
Status,216,10237690010,/g3t1_3,,success
Status,217,10276932735,/g3t1_1,,running
Status,218,10282578901,/g3t1_1,,success
Status,219,10283357388,/g3t1_2,,running
Status,220,10283421167,/g3t1_3,,running
Status,221,10287450337,/g3t1_3,,fail
Status,222,10288597626,/g3t1_2,,success
Status,226,10308645243,/g4t1,,fail
Status,227,10327041273,/g3t1_1,,running
Status,228,10331630853,/g3t1_1,,success
Status,229,10333300838,/g3t1_2,,running
Status,230,10333358871,/g3t1_3,,running
Status,231,10337553981,/g3t1_2,,success
Status,232,10338754174,/g3t1_3,,success
Status,233,10377402395,/g3t1_1,,running
Status,234,10381385762,/g3t1_1,,success
Status,235,10383696366,/g3t1_2,,running
Status,236,10383797956,/g3t1_3,,running
Status,237,10389006797,/g3t1_2,,success
Status,238,10389795187,/g3t1_3,,fail
Status,239,10408890965,/g4t1,,fail
Status,240,10427311522,/g3t1_1,,running
Status,241,10431258720,/g3t1_1,,fail
Status,242,10434051723,/g3t1_2,,running
Status,243,10434154014,/g3t1_3,,running
Status,244,10437537978,/g3t1_3,,fail
Status,245,10439179602,/g3t1_2,,success
Status,246,10477424158,/g3t1_1,,running
Status,247,10483242793,/g3t1_1,,success
Status,248,10484151891,/g3t1_2,,running
Status,249,10484217598,/g3t1_3,,running
Status,250,10488157984,/g3t1_2,,fail
Status,251,10489239332,/g3t1_3,,fail
Status,255,10508956628,/g4t1,,success
Status,256,10527599287,/g3t1_1,,running
Status,257,10532527180,/g3t1_1,,success
Status,258,10533957286,/g3t1_2,,running
Status,259,10534144986,/g3t1_3,,running
Status,260,10538615194,/g3t1_2,,success
Status,261,10541826413,/g3t1_3,,success
Status,262,10577293958,/g3t1_1,,running
Status,263,10580597963,/g3t1_1,,success
Status,264,10583654719,/g3t1_2,,running
Status,265,10583795846,/g3t1_3,,running
Status,266,10585886775,/g3t1_2,,success
Status,267,10586793896,/g3t1_3,,fail
Status,268,10608649358,/g4t1,,fail
Status,269,10627364767,/g3t1_1,,running
Status,270,10630263687,/g3t1_1,,success
Status,271,10634079205,/g3t1_2,,running
Status,272,10634136735,/g3t1_3,,running
Status,273,10636556072,/g3t1_2,,success
Status,274,10637690551,/g3t1_3,,success
Status,275,10677687421,/g3t1_1,,running
Status,276,10681176734,/g3t1_1,,success
Status,277,10683949855,/g3t1_2,,running
Status,278,10684006535,/g3t1_3,,running
Status,279,10687589802,/g3t1_2,,success
Status,280,10687637250,/g3t1_3,,fail
Status,284,10709062291,/g4t1,,fail
Status,285,10727913555,/g3t1_1,,running
Status,286,10731175607,/g3t1_1,,success
Status,287,10734201575,/g3t1_2,,running
Status,288,10734254178,/g3t1_3,,running
Status,289,10737768728,/g3t1_2,,success
Status,290,10738939132,/g3t1_3,,success
Status,291,10778059665,/g3t1_1,,running
Status,292,10783091439,/g3t1_1,,fail
Status,293,10784178573,/g3t1_2,,running
Status,294,10784327060,/g3t1_3,,running
Status,295,10787880427,/g3t1_3,,success
Status,296,10788809651,/g3t1_2,,success
Status,297,10809161364,/g4t1,,fail
Status,298,10828089212,/g3t1_1,,running
Status,299,10831507298,/g3t1_1,,fail
Status,300,10834449368,/g3t1_2,,running
Status,301,10834541872,/g3t1_3,,running
Status,302,10838317211,/g3t1_2,,success
Status,303,10840444956,/g3t1_3,,success
Status,304,10877604139,/g3t1_1,,running
Status,305,10879845025,/g3t1_1,,success
Status,306,10883978966,/g3t1_2,,running
Status,307,10884187844,/g3t1_3,,running
Status,308,10884999100,/g3t1_2,,success
Status,309,10886137557,/g3t1_3,,success
Status,313,10909494306,/g4t1,,fail
Status,314,10928120971,/g3t1_1,,running
Status,315,10931691925,/g3t1_1,,success
Status,316,10934581940,/g3t1_2,,running
Status,317,10934637212,/g3t1_3,,running
Status,318,10938139389,/g3t1_2,,success
Status,319,10939350203,/g3t1_3,,success
Status,320,10978641569,/g3t1_1,,running
Status,321,10983348824,/g3t1_1,,success
Status,322,10984565670,/g3t1_2,,running
Status,323,10984889281,/g3t1_3,,running
Status,324,10988575718,/g3t1_2,,success
Status,325,10989801677,/g3t1_3,,success
Status,326,11009533713,/g4t1,,fail
Status,327,11028396326,/g3t1_1,,running
Status,328,11032265046,/g3t1_1,,success
Status,329,11034707260,/g3t1_2,,running
Status,330,11035049305,/g3t1_3,,running
Status,331,11039071535,/g3t1_2,,success
Status,332,11040366248,/g3t1_3,,success
Status,333,11078670244,/g3t1_1,,running
Status,334,11082977585,/g3t1_1,,success
Status,335,11084651158,/g3t1_2,,running
Status,336,11085073109,/g3t1_3,,running
Status,337,11089682142,/g3t1_2,,fail
Status,338,11090689832,/g3t1_3,,fail
Status,342,11109649948,/g4t1,,fail
Status,343,11128823002,/g3t1_1,,running
Status,344,11133183537,/g3t1_1,,success
Status,345,11134857263,/g3t1_2,,running
Status,346,11135141749,/g3t1_3,,running
Status,347,11139429917,/g3t1_2,,success
Status,348,11140342229,/g3t1_3,,fail
Status,349,11178813852,/g3t1_1,,running
Status,350,11183686280,/g3t1_1,,success
Status,351,11184942757,/g3t1_2,,running
Status,352,11185274201,/g3t1_3,,running
Status,353,11190081987,/g3t1_2,,success
Status,354,11190160756,/g3t1_3,,success
Status,355,11209919971,/g4t1,,fail
Status,356,11228893299,/g3t1_1,,running
Status,357,11233812469,/g3t1_1,,success
Status,358,11235088579,/g3t1_2,,running
Status,359,11235284376,/g3t1_3,,running
Status,360,11240275497,/g3t1_2,,success
Status,361,11241230415,/g3t1_3,,success
Status,362,11279230805,/g3t1_1,,running
Status,363,11284417204,/g3t1_1,,success
Status,364,11285198472,/g3t1_2,,running
Status,365,11285560744,/g3t1_3,,running
Status,366,11290992917,/g3t1_3,,success
Status,367,11291179983,/g3t1_2,,success
Status,371,11309944408,/g4t1,,fail
Status,372,11329221536,/g3t1_1,,running
Status,373,11332787082,/g3t1_1,,success
Status,374,11335504356,/g3t1_2,,running
Status,375,11335863353,/g3t1_3,,running
Status,376,11339687046,/g3t1_2,,success
Status,377,11340886093,/g3t1_3,,success
Status,378,11379395526,/g3t1_1,,running
Status,379,11384118771,/g3t1_1,,fail
Status,380,11385293927,/g3t1_2,,running
Status,381,11385507045,/g3t1_3,,running
Status,382,11389546553,/g3t1_2,,success
Status,383,11390712207,/g3t1_3,,fail
Status,384,11410248040,/g4t1,,fail
Status,385,11429405287,/g3t1_1,,running
Status,386,11433163817,/g3t1_1,,success
Status,387,11435469128,/g3t1_2,,running
Status,388,11435966042,/g3t1_3,,running
Status,389,11441015540,/g3t1_3,,success
Status,390,11441333367,/g3t1_2,,success
Status,391,11479348804,/g3t1_1,,running
Status,392,11482508390,/g3t1_1,,fail
Status,393,11485433138,/g3t1_2,,running
Status,394,11485514909,/g3t1_3,,running
Status,395,11487857350,/g3t1_2,,success
Status,396,11488995980,/g3t1_3,,success
Status,400,11509861834,/g4t1,,fail
Status,401,11529302327,/g3t1_1,,running
Status,402,11531885269,/g3t1_1,,success
Status,403,11535767582,/g3t1_2,,running
Status,404,11535819770,/g3t1_3,,running
Status,405,11538424522,/g3t1_2,,success
Status,406,11539398542,/g3t1_3,,fail
Status,407,11579936104,/g3t1_1,,running
Status,408,11584459317,/g3t1_1,,fail
Status,409,11585881205,/g3t1_2,,running
Status,410,11586016463,/g3t1_3,,running
Status,411,11590017963,/g3t1_2,,success
Status,412,11590076854,/g3t1_3,,success
Status,413,11610371535,/g4t1,,fail
Status,414,11629804337,/g3t1_1,,running
Status,415,11634968918,/g3t1_1,,success
Status,416,11635961558,/g3t1_2,,running
Status,417,11636208780,/g3t1_3,,running
Status,418,11640300497,/g3t1_2,,success
Status,419,11641458851,/g3t1_3,,success
Status,420,11680006628,/g3t1_1,,running
Status,421,11685208610,/g3t1_1,,success
Status,422,11686444553,/g3t1_2,,running
Status,423,11686647229,/g3t1_3,,running
Status,424,11691400849,/g3t1_2,,success
Status,425,11692145532,/g3t1_3,,success
Status,426,11709964952,/g4t1,,fail
Status,427,11729848816,/g3t1_1,,running
Status,428,11732548891,/g3t1_1,,success
Status,429,11736182903,/g3t1_2,,running
Status,430,11736226655,/g3t1_3,,running
Status,431,11738794914,/g3t1_2,,success
Status,432,11739635688,/g3t1_3,,success
Status,433,11780351878,/g3t1_1,,running
Status,434,11785195049,/g3t1_1,,fail
Status,435,11786353520,/g3t1_2,,running
Status,436,11786734644,/g3t1_3,,running
Status,437,11792732775,/g3t1_2,,success
Status,438,11792795546,/g3t1_3,,fail
Status,439,11810645765,/g4t1,,fail
Status,440,11830313947,/g3t1_1,,running
Status,441,11834152616,/g3t1_1,,fail
Status,442,11836545274,/g3t1_2,,running
Status,443,11836621575,/g3t1_3,,running
Status,444,11841047344,/g3t1_2,,success
Status,445,11841980615,/g3t1_3,,fail
Status,446,11880604973,/g3t1_1,,running
Status,447,11884608261,/g3t1_1,,success
Status,448,11886693717,/g3t1_2,,running
Status,449,11886782532,/g3t1_3,,running
Status,450,11893648787,/g3t1_2,,success
Status,451,11893862115,/g3t1_3,,fail
Status,452,11910528048,/g4t1,,fail
Status,453,11930663806,/g3t1_1,,running
Status,454,11935128593,/g3t1_1,,fail
Status,455,11936791873,/g3t1_2,,running
Status,456,11936875940,/g3t1_3,,running
Status,457,11941801682,/g3t1_2,,success
Status,458,11942490792,/g3t1_3,,fail
Status,459,11981006917,/g3t1_1,,running
Status,460,11985981043,/g3t1_1,,success
Status,461,11986764950,/g3t1_2,,running
Status,462,11987142096,/g3t1_3,,running
Status,463,11991081691,/g3t1_2,,success
Status,464,11991985168,/g3t1_3,,fail
Status,465,12010913218,/g4t1,,fail
Status,466,12030897381,/g3t1_1,,running
Status,467,12034772274,/g3t1_1,,fail
Status,468,12037120301,/g3t1_2,,running
Status,469,12037182535,/g3t1_3,,running
Status,470,12040949435,/g3t1_2,,fail
Status,471,12042262606,/g3t1_3,,fail
Status,472,12081215925,/g3t1_1,,running
Status,473,12085250808,/g3t1_1,,success
Status,474,12087244385,/g3t1_2,,running
Status,475,12087309426,/g3t1_3,,running
Status,476,12090489510,/g3t1_2,,fail
Status,477,12092701078,/g3t1_3,,fail
Status,478,12110845805,/g4t1,,success
Status,479,12131141806,/g3t1_1,,running
Status,480,12135495865,/g3t1_1,,success
Status,481,12137296484,/g3t1_2,,running
Status,482,12137501766,/g3t1_3,,running
Status,483,12142786858,/g3t1_3,,fail
Status,484,12143121397,/g3t1_2,,fail
Status,485,12181382069,/g3t1_1,,running
Status,486,12185434597,/g3t1_1,,success
Status,487,12187404607,/g3t1_2,,running
Status,488,12187492251,/g3t1_3,,running
Status,489,12193072277,/g3t1_3,,success
Status,490,12193142760,/g3t1_2,,success
Status,491,12211294009,/g4t1,,fail
Status,492,12231261731,/g3t1_1,,running
Status,493,12235641760,/g3t1_1,,fail
Status,494,12237363463,/g3t1_2,,running
Status,495,12237430142,/g3t1_3,,running
Status,496,12242083222,/g3t1_2,,fail
Status,497,12242148357,/g3t1_3,,fail
Status,498,12281518179,/g3t1_1,,running
Status,499,12286095927,/g3t1_1,,success
Status,500,12287483834,/g3t1_2,,running
Status,501,12287546280,/g3t1_3,,running
Status,502,12291428709,/g3t1_2,,success
Status,503,12292415299,/g3t1_3,,fail
Status,504,12311143163,/g4t1,,success
Status,505,12331476105,/g3t1_1,,running
Status,506,12336032976,/g3t1_1,,fail
Status,507,12337641673,/g3t1_2,,running
Status,508,12337775475,/g3t1_3,,running
Status,509,12341551829,/g3t1_2,,success
Status,510,12342646883,/g3t1_3,,fail
Status,511,12382038397,/g3t1_1,,running
Status,512,12385951491,/g3t1_1,,success
Status,513,12387595595,/g3t1_2,,running
Status,514,12387676248,/g3t1_3,,running
Status,515,12391342830,/g3t1_2,,success
Status,516,12393970563,/g3t1_3,,success
Status,517,12411292299,/g4t1,,success
Status,518,12431983573,/g3t1_1,,running
Status,519,12435868090,/g3t1_1,,success
Status,520,12437886466,/g3t1_2,,running
Status,521,12437959610,/g3t1_3,,running
Status,522,12442498869,/g3t1_2,,success
Status,523,12443105875,/g3t1_3,,fail
Status,524,12482501014,/g3t1_1,,running
Status,525,12486731604,/g3t1_1,,success
Status,526,12487934925,/g3t1_2,,running
Status,527,12488002086,/g3t1_3,,running
Status,528,12492007548,/g3t1_2,,success
Status,529,12492874503,/g3t1_3,,fail
Status,533,12511468002,/g4t1,,fail
Status,534,12532229731,/g3t1_1,,running
Status,535,12537309849,/g3t1_1,,success
Status,536,12538354794,/g3t1_2,,running
Status,537,12538456396,/g3t1_3,,running
Status,538,12543889827,/g3t1_2,,success
Status,539,12544221954,/g3t1_3,,success
Status,540,12582536095,/g3t1_1,,running
Status,541,12586877887,/g3t1_1,,success
Status,542,12589206386,/g3t1_2,,running
Status,543,12589290946,/g3t1_3,,running
Status,544,12593632685,/g3t1_3,,success
Status,545,12593689686,/g3t1_2,,success
Status,546,12611697946,/g4t1,,fail
Status,547,12632500943,/g3t1_1,,running
Status,548,12636378898,/g3t1_1,,success
Status,549,12638272884,/g3t1_2,,running
Status,550,12638403979,/g3t1_3,,running
Status,551,12644075031,/g3t1_2,,fail
Status,552,12644153684,/g3t1_3,,success
Status,553,12682688938,/g3t1_1,,running
Status,554,12686825292,/g3t1_1,,success
Status,555,12688379849,/g3t1_2,,running
Status,556,12688495511,/g3t1_3,,running
Status,557,12692442123,/g3t1_2,,success
Status,558,12694518748,/g3t1_3,,success
Status,562,12711679271,/g4t1,,fail
Status,563,12732618094,/g3t1_1,,running
Status,564,12736408928,/g3t1_1,,success
Status,565,12738346675,/g3t1_2,,running
Status,566,12738727176,/g3t1_3,,running
Status,567,12744011850,/g3t1_3,,fail
Status,568,12744087296,/g3t1_2,,fail
Status,569,12783075337,/g3t1_1,,running
Status,570,12786867249,/g3t1_1,,success
Status,571,12788565007,/g3t1_2,,running
Status,572,12788705468,/g3t1_3,,running
Status,573,12792438241,/g3t1_2,,fail
Status,574,12793697712,/g3t1_3,,fail
Status,575,12811698102,/g4t1,,fail
Status,576,12833012690,/g3t1_1,,running
Status,577,12837606481,/g3t1_1,,success
Status,578,12838762202,/g3t1_2,,running
Status,579,12838834317,/g3t1_3,,running
Status,580,12843874291,/g3t1_2,,fail
Status,581,12844410744,/g3t1_3,,fail
Status,582,12883179462,/g3t1_1,,running
Status,583,12887175484,/g3t1_1,,success
Status,584,12888849937,/g3t1_2,,running
Status,585,12888916120,/g3t1_3,,running
Status,586,12892691327,/g3t1_2,,fail
Status,587,12893772108,/g3t1_3,,fail
Status,591,12912035368,/g4t1,,fail
Status,592,12933146612,/g3t1_1,,running
Status,593,12937806537,/g3t1_1,,success
Status,594,12938778150,/g3t1_2,,running
Status,595,12939326224,/g3t1_3,,running
Status,596,12943173320,/g3t1_2,,success
Status,597,12944036602,/g3t1_3,,success
Status,598,12983309685,/g3t1_1,,running
Status,599,12987773784,/g3t1_1,,fail
Status,600,12988852240,/g3t1_2,,running
Status,601,12989194183,/g3t1_3,,running
Status,602,12994314479,/g3t1_2,,success
Status,603,12994916282,/g3t1_3,,success
Status,604,13011787899,/g4t1,,success
Status,605,13033194001,/g3t1_1,,running
Status,606,13037132129,/g3t1_1,,fail
Status,607,13038816743,/g3t1_2,,running
Status,608,13039260377,/g3t1_3,,running
Status,609,13043909815,/g3t1_2,,fail
Status,610,13045531633,/g3t1_3,,success
Status,611,13083581712,/g3t1_1,,running
Status,612,13087919180,/g3t1_1,,fail
Status,613,13089050202,/g3t1_2,,running
Status,614,13089510712,/g3t1_3,,running
Status,615,13093331050,/g3t1_2,,fail
Status,616,13094679694,/g3t1_3,,success
Status,620,13112117650,/g4t1,,success
Status,621,13133650848,/g3t1_1,,running
Status,622,13138350531,/g3t1_1,,fail
Status,623,13139157802,/g3t1_2,,running
Status,624,13139285801,/g3t1_3,,running
Status,625,13143694184,/g3t1_2,,success
Status,626,13144406586,/g3t1_3,,success
Status,627,13183888946,/g3t1_1,,running
Status,628,13187556210,/g3t1_1,,success
Status,629,13189417930,/g3t1_2,,running
Status,630,13189508453,/g3t1_3,,running
Status,631,13194422415,/g3t1_3,,success
Status,632,13195668158,/g3t1_2,,success
Status,633,13212275092,/g4t1,,success
Status,634,13233990179,/g3t1_1,,running
Status,635,13238425389,/g3t1_1,,fail
Status,636,13239534455,/g3t1_2,,running
Status,637,13239614914,/g3t1_3,,running
Status,638,13244284939,/g3t1_2,,success
Status,639,13247552089,/g3t1_3,,success
Status,640,13284204302,/g3t1_1,,running
Status,641,13288759339,/g3t1_1,,fail
Status,642,13289544314,/g3t1_2,,running
Status,643,13289633599,/g3t1_3,,running
Status,644,13293119440,/g3t1_2,,success
Status,645,13294152424,/g3t1_3,,fail
Status,649,13312461358,/g4t1,,success
Status,650,13334035725,/g3t1_1,,running
Status,651,13337473506,/g3t1_1,,success
Status,652,13339693284,/g3t1_2,,running
Status,653,13339860441,/g3t1_3,,running
Status,654,13344184958,/g3t1_2,,success
Status,655,13344920734,/g3t1_3,,fail
Status,656,13384369832,/g3t1_1,,running
Status,657,13388803127,/g3t1_1,,fail
Status,658,13389864541,/g3t1_2,,running
Status,659,13390057848,/g3t1_3,,running
Status,660,13394490508,/g3t1_2,,success
Status,661,13395253485,/g3t1_3,,success
Status,662,13412375171,/g4t1,,fail
Status,663,13434510588,/g3t1_1,,running
Status,664,13438840188,/g3t1_1,,fail
Status,665,13440062973,/g3t1_2,,running
Status,666,13440142989,/g3t1_3,,running
Status,667,13444388031,/g3t1_2,,fail
Status,668,13445118602,/g3t1_3,,fail
Status,669,13484583280,/g3t1_1,,running
Status,670,13489133391,/g3t1_1,,success
Status,671,13489982534,/g3t1_2,,running
Status,672,13490495667,/g3t1_3,,running
Status,673,13494885452,/g3t1_2,,success
Status,674,13495918909,/g3t1_3,,success
Status,678,13512795425,/g4t1,,success
Status,679,13534532552,/g3t1_1,,running
Status,680,13538104612,/g3t1_1,,fail
Status,681,13540168648,/g3t1_2,,running
Status,682,13540627816,/g3t1_3,,running
Status,683,13545229303,/g3t1_2,,success
Status,684,13545305078,/g3t1_3,,success
Status,685,13584886548,/g3t1_1,,running
Status,686,13589039402,/g3t1_1,,fail
Status,687,13590182599,/g3t1_2,,running
Status,688,13590525653,/g3t1_3,,running
Status,689,13594636848,/g3t1_2,,success
Status,690,13595697236,/g3t1_3,,success
Status,691,13612926189,/g4t1,,fail
Status,692,13634588998,/g3t1_1,,running
Status,693,13637640833,/g3t1_1,,fail
Status,694,13640250683,/g3t1_2,,running
Status,695,13640497669,/g3t1_3,,running
Status,696,13644690392,/g3t1_3,,success
Status,697,13644745372,/g3t1_2,,success
Status,698,13684671978,/g3t1_1,,running
Status,699,13687334197,/g3t1_1,,fail
Status,700,13690206404,/g3t1_2,,running
Status,701,13690417134,/g3t1_3,,running
Status,702,13692965585,/g3t1_2,,success
Status,703,13694325873,/g3t1_3,,success
Status,707,13712715626,/g4t1,,fail
Status,708,13735174853,/g3t1_1,,running
Status,709,13739371930,/g3t1_1,,fail
Status,710,13740703287,/g3t1_2,,running
Status,711,13740766960,/g3t1_3,,running
Status,712,13746292688,/g3t1_2,,fail
Status,713,13746366199,/g3t1_3,,fail
Status,714,13785263614,/g3t1_1,,running
Status,715,13789137992,/g3t1_1,,success
Status,716,13790848135,/g3t1_2,,running
Status,717,13790932456,/g3t1_3,,running
Status,718,13794596133,/g3t1_2,,success
Status,719,13795641769,/g3t1_3,,success
Status,720,13813195496,/g4t1,,success
Status,721,13835185169,/g3t1_1,,running
Status,722,13839325492,/g3t1_1,,success
Status,723,13840765940,/g3t1_2,,running
Status,724,13840827131,/g3t1_3,,running
Status,725,13844328829,/g3t1_2,,fail
Status,726,13845426895,/g3t1_3,,fail
Status,727,13885364402,/g3t1_1,,running
Status,728,13889542801,/g3t1_1,,success
Status,729,13890887485,/g3t1_2,,running
Status,730,13891183116,/g3t1_3,,running
Status,731,13894859773,/g3t1_2,,fail
Status,733,13896900040,/g3t1_3,,fail
Status,736,13912995623,/g4t1,,success
Status,737,13935577482,/g3t1_1,,running
Status,738,13939099753,/g3t1_1,,fail
Status,739,13940996922,/g3t1_2,,running
Status,740,13941050646,/g3t1_3,,running
Status,741,13945582414,/g3t1_3,,success
Status,742,13947123316,/g3t1_2,,fail
Status,743,13985324413,/g3t1_1,,running
Status,744,13989059853,/g3t1_1,,success
Status,745,13990902663,/g3t1_2,,running
Status,746,13991256081,/g3t1_3,,running
Status,747,13995741077,/g3t1_2,,fail
Status,748,13996784331,/g3t1_3,,success
Status,749,14013165179,/g4t1,,success
Status,750,14035704364,/g3t1_1,,running
Status,751,14039488009,/g3t1_1,,success
Status,752,14041023676,/g3t1_2,,running
Status,753,14041360645,/g3t1_3,,running
Status,754,14047185041,/g3t1_3,,success
Status,755,14047619807,/g3t1_2,,fail
Status,756,14085563190,/g3t1_1,,running
Status,757,14088893993,/g3t1_1,,success
Status,758,14091137072,/g3t1_2,,running
Status,759,14091180790,/g3t1_3,,running
Status,760,14094532962,/g3t1_2,,success
Status,761,14095291589,/g3t1_3,,success
Status,765,14112900154,/g4t1,,fail
Status,766,14135728861,/g3t1_1,,running
Status,767,14138406822,/g3t1_1,,fail
Status,768,14141234321,/g3t1_2,,running
Status,769,14141275018,/g3t1_3,,running
Status,770,14143944383,/g3t1_2,,success
Status,771,14144971345,/g3t1_3,,success
Status,772,14186194485,/g3t1_1,,running
Status,773,14190192769,/g3t1_1,,fail
Status,774,14191539902,/g3t1_2,,running
Status,775,14191612157,/g3t1_3,,running
Status,776,14196199971,/g3t1_2,,success
Status,777,14197515304,/g3t1_3,,success
Status,778,14213464282,/g4t1,,fail
Status,779,14236259113,/g3t1_1,,running
Status,780,14241143620,/g3t1_1,,success
Status,781,14241574742,/g3t1_2,,running
Status,782,14241695835,/g3t1_3,,running
Status,783,14247139520,/g3t1_3,,fail
Status,784,14247237499,/g3t1_2,,fail
Status,785,14286596530,/g3t1_1,,running
Status,786,14290723591,/g3t1_1,,fail
Status,787,14291864147,/g3t1_2,,running
Status,788,14291974213,/g3t1_3,,running
Status,789,14298139643,/g3t1_2,,success
Status,793,14303467004,/g3t1_3,,success
Status,794,14313427066,/g4t1,,success
Status,795,14336560819,/g3t1_1,,running
Status,796,14340423603,/g3t1_1,,success
Status,797,14341918054,/g3t1_2,,running
Status,798,14341985284,/g3t1_3,,running
Status,799,14345879507,/g3t1_2,,success
Status,800,14346999762,/g3t1_3,,fail
Status,801,14386715480,/g3t1_1,,running
Status,802,14390890679,/g3t1_1,,success
Status,803,14392137815,/g3t1_2,,running
Status,804,14392227153,/g3t1_3,,running
Status,805,14397015873,/g3t1_2,,success
Status,806,14397461113,/g3t1_3,,fail
Status,807,14413610816,/g4t1,,success
Status,808,14437144000,/g3t1_1,,running
Status,809,14441022462,/g3t1_1,,success
Status,810,14442047307,/g3t1_2,,running
Status,811,14442134742,/g3t1_3,,running
Status,812,14447387202,/g3t1_3,,fail
Status,813,14447458260,/g3t1_2,,success
Status,814,14486846699,/g3t1_1,,running
Status,815,14490547278,/g3t1_1,,success
Status,816,14492168737,/g3t1_2,,running
Status,817,14492239332,/g3t1_3,,running
Status,821,14499581290,/g3t1_2,,success
Status,822,14499658267,/g3t1_3,,fail
Status,823,14513826953,/g4t1,,fail
Status,824,14536611002,/g3t1_1,,running
Status,825,14539869672,/g3t1_1,,success
Status,826,14542101952,/g3t1_2,,running
Status,827,14542164540,/g3t1_3,,running
Status,828,14545800880,/g3t1_2,,success
Status,829,14545856280,/g3t1_3,,success
Status,830,14587037500,/g3t1_1,,running
Status,831,14591386885,/g3t1_1,,success
Status,832,14592434034,/g3t1_2,,running
Status,833,14592499424,/g3t1_3,,running
Status,834,14597103072,/g3t1_2,,success
Status,835,14598059036,/g3t1_3,,fail
Status,836,14614046057,/g4t1,,fail
Status,837,14637125465,/g3t1_1,,running
Status,838,14641890422,/g3t1_1,,success
Status,839,14642348895,/g3t1_2,,running
Status,840,14642466823,/g3t1_3,,running
Status,841,14647561424,/g3t1_2,,success
Status,842,14648587967,/g3t1_3,,success
Status,843,14687197492,/g3t1_1,,running
Status,844,14691731677,/g3t1_1,,success
Status,845,14692466707,/g3t1_2,,running
Status,846,14692821853,/g3t1_3,,running
Status,847,14697517603,/g3t1_2,,success
Status,851,14703616959,/g3t1_3,,success
Status,852,14713960127,/g4t1,,fail
Status,853,14737170184,/g3t1_1,,running
Status,854,14739919181,/g3t1_1,,success
Status,855,14742525065,/g3t1_2,,running
Status,856,14742581023,/g3t1_3,,running
Status,857,14745379110,/g3t1_2,,fail
Status,858,14746556712,/g3t1_3,,success
Status,859,14787471905,/g3t1_1,,running
Status,860,14791401497,/g3t1_1,,success
Status,861,14792668532,/g3t1_2,,running
Status,862,14792724257,/g3t1_3,,running
Status,863,14797174522,/g3t1_2,,fail
Status,864,14799017121,/g3t1_3,,success
Status,865,14813872966,/g4t1,,fail
Status,866,14837568704,/g3t1_1,,running
Status,867,14841553700,/g3t1_1,,success
Status,868,14842720309,/g3t1_2,,running
Status,869,14842793158,/g3t1_3,,running
Status,870,14846960580,/g3t1_2,,fail
Status,871,14848009183,/g3t1_3,,success
Status,872,14887661679,/g3t1_1,,running
Status,873,14891265304,/g3t1_1,,success
Status,874,14892665248,/g3t1_2,,running
Status,875,14893123186,/g3t1_3,,running
Status,876,14896414998,/g3t1_3,,success
Status,877,14897194818,/g3t1_2,,fail
Status,881,14913597615,/g4t1,,fail
Status,882,14938176527,/g3t1_1,,running
Status,883,14941881435,/g3t1_1,,success
Status,884,14942993798,/g3t1_2,,running
Status,885,14943055097,/g3t1_3,,running
Status,886,14947401804,/g3t1_2,,fail
Status,887,14948362508,/g3t1_3,,success
Status,888,14988088914,/g3t1_1,,running
Status,889,14991739110,/g3t1_1,,fail
Status,890,14993103780,/g3t1_2,,running
Status,891,14993184883,/g3t1_3,,running
Status,892,14999071766,/g3t1_3,,success
Status,893,14999150383,/g3t1_2,,fail
Status,894,15014499768,/g4t1,,fail
Status,895,15038135157,/g3t1_1,,running
Status,896,15042011921,/g3t1_1,,success
Status,897,15042985796,/g3t1_2,,running
Status,898,15043277877,/g3t1_3,,running
Status,899,15047327596,/g3t1_2,,fail
Status,900,15048359198,/g3t1_3,,success
Status,901,15088350024,/g3t1_1,,running
Status,902,15092547069,/g3t1_1,,fail
Status,903,15093332355,/g3t1_2,,running
Status,904,15093402628,/g3t1_3,,running
Status,905,15097936088,/g3t1_2,,fail
Status,909,15099488797,/g3t1_3,,success
Status,910,15114127456,/g4t1,,fail
Status,911,15138781852,/g3t1_1,,running
Status,912,15143652420,/g3t1_2,,running
Status,913,15143740855,/g3t1_1,,success
Status,914,15143834249,/g3t1_3,,running
Status,915,15148017349,/g3t1_2,,success
Status,916,15148948638,/g3t1_3,,success
Status,917,15188771495,/g3t1_1,,running
Status,918,15192997973,/g3t1_1,,success
Status,919,15193311933,/g3t1_2,,running
Status,920,15193919306,/g3t1_3,,running
Status,921,15197963503,/g3t1_2,,success
Status,922,15200257716,/g3t1_3,,fail
Status,923,15214585278,/g4t1,,fail
Status,924,15238842535,/g3t1_1,,running
Status,925,15242691922,/g3t1_1,,success
Status,926,15243413714,/g3t1_2,,running
Status,927,15243842725,/g3t1_3,,running
Status,928,15247948950,/g3t1_2,,success
Status,929,15248963732,/g3t1_3,,success
Status,930,15289002815,/g3t1_1,,running
Status,931,15293042889,/g3t1_1,,success
Status,932,15293519168,/g3t1_2,,running
Status,933,15294446332,/g3t1_3,,running
Status,937,15301558418,/g3t1_2,,success
Status,938,15301826867,/g3t1_3,,fail
Status,939,15314445614,/g4t1,,fail
Status,940,15339146094,/g3t1_1,,running
Status,941,15343421598,/g3t1_1,,success
Status,942,15344371887,/g3t1_2,,running
Status,943,15344844437,/g3t1_3,,running
Status,944,15349508886,/g3t1_2,,success
Status,945,15349577724,/g3t1_3,,success
Status,946,15389355931,/g3t1_1,,running
Status,947,15393387029,/g3t1_1,,success
Status,948,15393695967,/g3t1_2,,running
Status,949,15394576677,/g3t1_3,,running
Status,950,15399220172,/g3t1_2,,fail
Status,951,15399290324,/g3t1_3,,success
Status,952,15414827546,/g4t1,,fail
Status,953,15439281834,/g3t1_1,,running
Status,954,15443792889,/g3t1_1,,fail
Status,955,15443881868,/g3t1_2,,running
Status,956,15444775634,/g3t1_3,,running
Status,957,15448155970,/g3t1_2,,fail
Status,958,15449477980,/g3t1_3,,success
Status,959,15489492678,/g3t1_1,,running
Status,960,15494051585,/g3t1_2,,running
Status,961,15494156341,/g3t1_1,,success
Status,962,15494771806,/g3t1_3,,running
Status,965,15498874216,/g3t1_2,,success
Status,967,15501500958,/g3t1_3,,success
Status,968,15514412077,/g4t1,,fail
Status,969,15539248539,/g3t1_1,,running
Status,970,15542435675,/g3t1_1,,fail
Status,971,15543864889,/g3t1_2,,running
Status,972,15544750400,/g3t1_3,,running
Status,973,15547009637,/g3t1_2,,success
Status,974,15547263267,/g3t1_3,,success
Status,975,15589095125,/g3t1_1,,running
Status,976,15591149946,/g3t1_1,,success
Status,977,15593680133,/g3t1_2,,running
Status,978,15594627154,/g3t1_3,,running
Status,979,15595382658,/g3t1_2,,fail
Status,980,15596543010,/g3t1_3,,success
Status,981,15615167840,/g4t1,,fail
Status,982,15639838385,/g3t1_1,,running
Status,983,15644273259,/g3t1_1,,success
Status,984,15644347319,/g3t1_2,,running
Status,985,15645095068,/g3t1_3,,running
Status,986,15648887480,/g3t1_2,,success
Status,987,15649901418,/g3t1_3,,success
Status,988,15689899595,/g3t1_1,,running
Status,989,15693897370,/g3t1_1,,success
Status,990,15694407247,/g3t1_2,,running
Status,991,15698894923,/g3t1_3,,running
Status,992,15700573960,/g3t1_2,,success
Status,993,15705689905,/g3t1_3,,success
Status,994,15714742268,/g4t1,,fail
Status,995,15739313532,/g3t1_1,,running
Status,996,15741672091,/g3t1_1,,fail
Status,997,15744090374,/g3t1_2,,running
Status,998,15744914442,/g3t1_3,,running
Status,999,15746181113,/g3t1_2,,fail
Status,1000,15747074283,/g3t1_3,,success
Status,1001,15789631736,/g3t1_1,,running
Status,1002,15791321326,/g3t1_1,,fail
Status,1003,15794264030,/g3t1_2,,running
Status,1004,15795043743,/g3t1_3,,running
Status,1005,15796749311,/g3t1_2,,success
Status,1006,15796777758,/g3t1_3,,success
Status,1007,15814935205,/g4t1,,fail
Status,1008,15840089157,/g3t1_1,,running
Status,1009,15844765885,/g3t1_1,,success
Status,1010,15844841624,/g3t1_2,,running
Status,1011,15845537228,/g3t1_3,,running
Status,1012,15849979546,/g3t1_2,,fail
Status,1013,15851180557,/g3t1_3,,success
Status,1014,15890406579,/g3t1_1,,running
Status,1015,15895136467,/g3t1_2,,running
Status,1016,15895208925,/g3t1_1,,success
Status,1017,15895796603,/g3t1_3,,running
Status,1018,15900557643,/g3t1_2,,success
Status,1019,15901655841,/g3t1_3,,success
Status,1020,15915381616,/g4t1,,fail
Status,1021,15940432423,/g3t1_1,,running
Status,1022,15944903614,/g3t1_1,,success
Status,1023,15944973369,/g3t1_2,,running
Status,1024,15945574077,/g3t1_3,,running
Status,1025,15950292077,/g3t1_2,,success
Status,1026,15950770843,/g3t1_3,,success
Status,1027,15990619793,/g3t1_1,,running
Status,1028,15994707318,/g3t1_1,,fail
Status,1029,15994863994,/g3t1_2,,running
Status,1030,15995800876,/g3t1_3,,running
Status,1031,16000195173,/g3t1_2,,success
Status,1032,16001395696,/g3t1_3,,success
Status,1033,16015426178,/g4t1,,fail
Status,1034,16040636677,/g3t1_1,,running
Status,1035,16045128805,/g3t1_2,,running
Status,1036,16045218701,/g3t1_1,,success
Status,1037,16046081500,/g3t1_3,,running
Status,1038,16049667510,/g3t1_2,,success
Status,1039,16051616813,/g3t1_3,,success
Status,1040,16090832355,/g3t1_1,,running
Status,1041,16094709088,/g3t1_1,,success
Status,1042,16095168240,/g3t1_2,,running
Status,1043,16096142873,/g3t1_3,,running
Status,1044,16099528597,/g3t1_2,,fail
Status,1045,16101796542,/g3t1_3,,success
Status,1046,16115513020,/g4t1,,fail
Status,1047,16140744317,/g3t1_1,,running
Status,1048,16145456172,/g3t1_2,,running
Status,1049,16145550555,/g3t1_1,,success
Status,1050,16146192185,/g3t1_3,,running
Status,1051,16151254296,/g3t1_2,,success
Status,1052,16152301310,/g3t1_3,,success
Status,1053,16190979938,/g3t1_1,,running
Status,1054,16195614414,/g3t1_2,,running
Status,1055,16196281782,/g3t1_1,,success
Status,1056,16196376181,/g3t1_3,,running
Status,1057,16200382391,/g3t1_2,,success
Status,1058,16203186631,/g3t1_3,,success
Status,1059,16215759571,/g4t1,,fail
Status,1060,16241298677,/g3t1_1,,running
Status,1061,16245684066,/g3t1_2,,running
Status,1062,16245876007,/g3t1_1,,fail
Status,1063,16246358481,/g3t1_3,,running
Status,1064,16250310553,/g3t1_2,,success
Status,1065,16251374634,/g3t1_3,,success
Status,1066,16291548440,/g3t1_1,,running
Status,1067,16296017967,/g3t1_2,,running
Status,1068,16296771057,/g3t1_3,,running
Status,1069,16297573270,/g3t1_1,,success
Status,1070,16302005922,/g3t1_2,,fail
Status,1071,16302455043,/g3t1_3,,success
Status,1072,16315878568,/g4t1,,fail
Status,1073,16341809972,/g3t1_1,,running
Status,1074,16345917122,/g3t1_2,,running
Status,1075,16346001147,/g3t1_1,,success
Status,1076,16346587459,/g3t1_3,,running
Status,1077,16350022371,/g3t1_2,,success
Status,1078,16350933216,/g3t1_3,,success
Status,1079,16392040699,/g3t1_1,,running
Status,1080,16395983784,/g3t1_2,,running
Status,1081,16396081373,/g3t1_1,,success
Status,1082,16396932524,/g3t1_3,,running
Status,1083,16403530612,/g3t1_2,,success
Status,1084,16403653840,/g3t1_3,,success
Status,1085,16415981471,/g4t1,,fail
Status,1086,16441960208,/g3t1_1,,running
Status,1087,16446238029,/g3t1_2,,running
Status,1088,16446489147,/g3t1_1,,success
Status,1089,16446865110,/g3t1_3,,running
Status,1090,16452419254,/g3t1_2,,success
Status,1091,16452490290,/g3t1_3,,success
Status,1092,16492128548,/g3t1_1,,running
Status,1093,16496426279,/g3t1_2,,running
Status,1094,16497682633,/g3t1_3,,running
Status,1095,16498185799,/g3t1_1,,success
Status,1099,16503068175,/g3t1_3,,success
Status,1100,16503164867,/g3t1_2,,fail
Status,1101,16516145285,/g4t1,,fail
Status,1102,16542308689,/g3t1_1,,running
Status,1103,16546423402,/g3t1_2,,running
Status,1104,16547157599,/g3t1_3,,running
Status,1105,16547621813,/g3t1_1,,success
Status,1106,16551518184,/g3t1_3,,fail
Status,1107,16551587284,/g3t1_2,,success
Status,1108,16592409842,/g3t1_1,,running
Status,1109,16596503018,/g3t1_2,,running
Status,1110,16596616457,/g3t1_1,,fail
Status,1111,16597359231,/g3t1_3,,running
Status,1112,16602700499,/g3t1_2,,success
Status,1113,16603087428,/g3t1_3,,success
Status,1114,16615746430,/g4t1,,fail
Status,1115,16642503576,/g3t1_1,,running
Status,1116,16644744606,/g3t1_1,,success
Status,1117,16646196798,/g3t1_2,,running
Status,1118,16646958406,/g3t1_3,,running
Status,1119,16648699987,/g3t1_2,,success
Status,1120,16649666803,/g3t1_3,,success
Status,1121,16692119627,/g3t1_1,,running
Status,1122,16695065174,/g3t1_1,,success
Status,1123,16696063121,/g3t1_2,,running
Status,1124,16696980021,/g3t1_3,,running
Status,1125,16697897800,/g3t1_2,,success
Status,1129,16698913647,/g3t1_3,,success
Status,1130,16715752618,/g4t1,,fail
Status,1131,16742851801,/g3t1_1,,running
Status,1132,16746868773,/g3t1_2,,running
Status,1133,16747415807,/g3t1_1,,success
Status,1134,16747470622,/g3t1_3,,running
Status,1135,16749857927,/g3t1_2,,fail
Status,1136,16751243700,/g3t1_3,,success
Status,1137,16792858346,/g3t1_1,,running
Status,1138,16796941880,/g3t1_2,,running
Status,1139,16798301613,/g3t1_3,,running
Status,1140,16798956018,/g3t1_1,,success
Status,1141,16802968099,/g3t1_2,,fail
Status,1142,16803035989,/g3t1_3,,fail
Status,1143,16816439126,/g4t1,,fail
Status,1144,16842785856,/g3t1_1,,running
Status,1145,16846757758,/g3t1_2,,running
Status,1146,16847595099,/g3t1_1,,success
Status,1147,16847704271,/g3t1_3,,running
Status,1148,16851196551,/g3t1_2,,fail
Status,1149,16852572432,/g3t1_3,,success
Status,1150,16892965352,/g3t1_1,,running
Status,1151,16897050879,/g3t1_2,,running
Status,1152,16898359107,/g3t1_3,,running
Status,1153,16898462399,/g3t1_1,,success
Status,1157,16901654599,/g3t1_2,,fail
Status,1158,16903259233,/g3t1_3,,fail
Status,1159,16916552288,/g4t1,,fail
Status,1160,16943161378,/g3t1_1,,running
Status,1161,16947032526,/g3t1_2,,running
Status,1162,16947471275,/g3t1_1,,success
Status,1163,16948951175,/g3t1_3,,running
Status,1164,16951840417,/g3t1_2,,fail
Status,1165,16952861394,/g3t1_3,,success
Status,1166,16993249467,/g3t1_1,,running
Status,1167,16996739913,/g3t1_2,,running
Status,1168,16997050220,/g3t1_1,,success
Status,1169,16997605411,/g3t1_3,,running
Status,1170,17000263581,/g3t1_2,,success
Status,1171,17000302901,/g3t1_3,,success
Status,1172,17016244210,/g4t1,,fail
Status,1173,17043298412,/g3t1_1,,running
Status,1174,17047725683,/g3t1_2,,running
Status,1175,17048097042,/g3t1_3,,running
Status,1176,17048154750,/g3t1_1,,success
Status,1177,17050810306,/g3t1_2,,fail
Status,1178,17052788786,/g3t1_3,,success
Status,1179,17094682026,/g3t1_1,,running
Status,1180,17097267390,/g3t1_2,,running
Status,1181,17097637541,/g3t1_1,,success
Status,1182,17098729373,/g3t1_3,,running
Status,1186,17101898390,/g3t1_2,,fail
Status,1187,17102291235,/g3t1_3,,success
Status,1188,17116983380,/g4t1,,fail
Status,1189,17143710359,/g3t1_1,,running
Status,1190,17146644091,/g3t1_1,,success
Status,1191,17147013174,/g3t1_2,,running
Status,1192,17147887075,/g3t1_3,,running
Status,1193,17149852180,/g3t1_2,,success
Status,1194,17150799654,/g3t1_3,,success
Status,1195,17193889295,/g3t1_1,,running
Status,1196,17197454655,/g3t1_2,,running
Status,1197,17198361420,/g3t1_3,,running
Status,1198,17198460345,/g3t1_1,,fail
Status,1199,17200623341,/g3t1_2,,success
Status,1200,17201846374,/g3t1_3,,fail
Status,1201,17216704276,/g4t1,,success
Status,1202,17243869497,/g3t1_1,,running
Status,1203,17247604155,/g3t1_2,,running
Status,1204,17248356239,/g3t1_1,,fail
Status,1205,17248441795,/g3t1_3,,running
Status,1206,17253651566,/g3t1_3,,fail
Status,1207,17254059802,/g3t1_2,,success
Status,1208,17293498383,/g3t1_1,,running
Status,1209,17295956801,/g3t1_1,,success
Status,1210,17297173427,/g3t1_2,,running
Status,1211,17298181984,/g3t1_3,,running
Status,1213,17299008077,/g3t1_2,,success
Status,1216,17299939252,/g3t1_3,,success
Status,1217,17316262275,/g4t1,,success
Status,1218,17343954043,/g3t1_1,,running
Status,1219,17346116028,/g3t1_1,,success
Status,1220,17347205695,/g3t1_2,,running
Status,1221,17348150161,/g3t1_3,,running
Status,1222,17349200831,/g3t1_2,,success
Status,1223,17350224234,/g3t1_3,,success
Status,1224,17393880350,/g3t1_1,,running
Status,1225,17397906886,/g3t1_2,,running
Status,1226,17398501940,/g3t1_1,,success
Status,1227,17398585182,/g3t1_3,,running
Status,1228,17401682581,/g3t1_2,,success
Status,1229,17402967331,/g3t1_3,,success
Status,1230,17416984660,/g4t1,,fail
Status,1231,17444347072,/g3t1_1,,running
Status,1232,17447955233,/g3t1_2,,running
Status,1233,17448502164,/g3t1_1,,fail
Status,1234,17449619222,/g3t1_3,,running
Status,1235,17452208220,/g3t1_2,,success
Status,1236,17452713920,/g3t1_3,,success
Status,1237,17494467613,/g3t1_1,,running
Status,1238,17498562459,/g3t1_2,,running
Status,1239,17498915592,/g3t1_1,,fail
Status,1240,17498979715,/g3t1_3,,running
Status,1244,17503462258,/g3t1_2,,success
Status,1245,17503519596,/g3t1_3,,fail
Status,1246,17517142459,/g4t1,,fail
Status,1247,17544652919,/g3t1_1,,running
Status,1248,17548713959,/g3t1_2,,running
Status,1249,17549938454,/g3t1_3,,running
Status,1250,17550308564,/g3t1_1,,success
Status,1251,17554747127,/g3t1_3,,fail
Status,1252,17554865136,/g3t1_2,,success
Status,1253,17594708636,/g3t1_1,,running
Status,1254,17598651141,/g3t1_2,,running
Status,1255,17598899481,/g3t1_1,,fail
Status,1256,17599021088,/g3t1_3,,running
Status,1257,17603411529,/g3t1_2,,success
Status,1258,17604286308,/g3t1_3,,success
Status,1259,17617004576,/g4t1,,fail
Status,1260,17644151628,/g3t1_1,,running
Status,1261,17646557762,/g3t1_1,,fail
Status,1262,17648871066,/g3t1_2,,running
Status,1263,17648912519,/g3t1_3,,running
Status,1264,17650614484,/g3t1_2,,success
Status,1265,17650634070,/g3t1_3,,success
Status,1266,17694148843,/g3t1_1,,running
Status,1267,17695783539,/g3t1_1,,success
Status,1268,17698161909,/g3t1_2,,running
Status,1269,17698700392,/g3t1_3,,running
Status,1273,17700036850,/g3t1_2,,success
Status,1274,17700227106,/g3t1_3,,success
Status,1275,17716628917,/g4t1,,fail
Status,1276,17744730378,/g3t1_1,,running
Status,1277,17747531132,/g3t1_1,,success
Status,1278,17748059900,/g3t1_2,,running
Status,1279,17748942511,/g3t1_3,,running
Status,1280,17750401298,/g3t1_3,,fail
Status,1281,17750425451,/g3t1_2,,success
Status,1282,17795184535,/g3t1_1,,running
Status,1283,17798805981,/g3t1_2,,running
Status,1284,17799457021,/g3t1_1,,success
Status,1285,17799535462,/g3t1_3,,running
Status,1286,17802527388,/g3t1_2,,success
Status,1287,17803540869,/g3t1_3,,fail
Status,1288,17817290009,/g4t1,,fail
Status,1289,17845010580,/g3t1_1,,running
Status,1290,17849047367,/g3t1_2,,running
Status,1291,17852838106,/g3t1_3,,running
Status,1292,17852912674,/g3t1_1,,success
Status,1293,17857606066,/g3t1_2,,success
Status,1294,17864932344,/g3t1_3,,success
Status,1295,17895053447,/g3t1_1,,running
Status,1296,17899020591,/g3t1_1,,success
Status,1297,17899113848,/g3t1_2,,running
Status,1301,17899802732,/g3t1_3,,running
Status,1302,17904549149,/g3t1_2,,success
Status,1303,17904847948,/g3t1_3,,fail
Status,1304,17917559620,/g4t1,,fail
Status,1305,17945175759,/g3t1_1,,running
Status,1306,17948760699,/g3t1_2,,running
Status,1307,17949278584,/g3t1_1,,success
Status,1308,17949748911,/g3t1_3,,running
Status,1309,17952437504,/g3t1_2,,success
Status,1310,17952539804,/g3t1_3,,success
Status,1311,17995089354,/g3t1_1,,running
Status,1312,17996594460,/g3t1_1,,success
Status,1313,17998599324,/g3t1_2,,running
Status,1314,17999446339,/g3t1_3,,running
Status,1315,18000773368,/g3t1_2,,success
Status,1316,18000879018,/g3t1_3,,success
Status,1317,18016834487,/g4t1,,fail
Status,1318,18045019782,/g3t1_1,,running
Status,1319,18047092227,/g3t1_1,,success
Status,1320,18048826616,/g3t1_2,,running
Status,1321,18049878545,/g3t1_3,,running
Status,1322,18051887239,/g3t1_2,,success
Status,1323,18052500094,/g3t1_3,,fail
Status,1324,18095374292,/g3t1_1,,running
Status,1325,18098949884,/g3t1_1,,success
Status,1326,18099001559,/g3t1_2,,running
Status,1330,18099905679,/g3t1_3,,running
Status,1331,18101935266,/g3t1_2,,success
Status,1332,18103100905,/g3t1_3,,success
Status,1333,18117230632,/g4t1,,fail
Status,1334,18145878298,/g3t1_1,,running
Status,1335,18149313055,/g3t1_2,,running
Status,1336,18150353572,/g3t1_1,,success
Status,1337,18150434237,/g3t1_3,,running
Status,1338,18153089224,/g3t1_2,,fail
Status,1339,18154291391,/g3t1_3,,fail
Status,1340,18196028494,/g3t1_1,,running
Status,1341,18199659820,/g3t1_2,,running
Status,1342,18200268588,/g3t1_3,,running
Status,1343,18201011377,/g3t1_1,,fail
Status,1344,18203829761,/g3t1_2,,fail
Status,1345,18204777638,/g3t1_3,,success
Status,1346,18217868225,/g4t1,,success
Status,1347,18246091387,/g3t1_1,,running
Status,1348,18250458884,/g3t1_2,,running
Status,1349,18251107339,/g3t1_3,,running
Status,1350,18251171251,/g3t1_1,,success
Status,1351,18255159358,/g3t1_2,,fail
Status,1352,18256532406,/g3t1_3,,fail
Status,1353,18295638528,/g3t1_1,,running
Status,1354,18298324417,/g3t1_1,,fail
Status,1356,18299313121,/g3t1_2,,running
Status,1359,18299962781,/g3t1_3,,running
Status,1360,18301309985,/g3t1_2,,fail
Status,1361,18302437738,/g3t1_3,,success
Status,1362,18317379177,/g4t1,,success
Status,1363,18346037043,/g3t1_1,,running
Status,1364,18348999337,/g3t1_1,,success
Status,1365,18349824068,/g3t1_2,,running
Status,1366,18350562072,/g3t1_3,,running
Status,1367,18356068973,/g3t1_2,,success
Status,1368,18356148598,/g3t1_3,,fail
Status,1369,18396407506,/g3t1_1,,running
Status,1370,18400229426,/g3t1_2,,running
Status,1371,18400689046,/g3t1_1,,fail
Status,1372,18400787688,/g3t1_3,,running
Status,1373,18403787514,/g3t1_2,,success
Status,1374,18405001669,/g3t1_3,,success
Status,1375,18417954263,/g4t1,,success
Status,1376,18446538180,/g3t1_1,,running
Status,1377,18450478361,/g3t1_2,,running
Status,1378,18450908356,/g3t1_3,,running
Status,1379,18451034147,/g3t1_1,,success
Status,1380,18455531680,/g3t1_3,,success
Status,1381,18455619724,/g3t1_2,,success
Status,1382,18496220294,/g3t1_1,,running
Status,1383,18498443389,/g3t1_1,,success
Status,1387,18499757607,/g3t1_2,,running
Status,1388,18500650545,/g3t1_3,,running
Status,1389,18502733326,/g3t1_2,,success
Status,1390,18503657468,/g3t1_3,,fail
Status,1391,18517794960,/g4t1,,fail
Status,1392,18546494011,/g3t1_1,,running
Status,1393,18550245061,/g3t1_1,,fail
Status,1394,18550310648,/g3t1_2,,running
Status,1395,18551145965,/g3t1_3,,running
Status,1396,18554383533,/g3t1_2,,success
Status,1397,18555420204,/g3t1_3,,fail
Status,1398,18596795265,/g3t1_1,,running
Status,1399,18600669009,/g3t1_2,,running
Status,1400,18601385382,/g3t1_3,,running
Status,1401,18602553666,/g3t1_1,,fail
Status,1402,18605863965,/g3t1_2,,fail
Status,1403,18605962164,/g3t1_3,,fail
Status,1404,18618219104,/g4t1,,success
Status,1405,18646919528,/g3t1_1,,running
Status,1406,18650627499,/g3t1_2,,running
Status,1407,18651680850,/g3t1_3,,running
Status,1408,18652111276,/g3t1_1,,fail
Status,1409,18654929008,/g3t1_2,,success
Status,1410,18656021975,/g3t1_3,,success
Status,1411,18696548070,/g3t1_1,,running
Status,1412,18698677178,/g3t1_1,,success
Status,1416,18700374992,/g3t1_2,,running
Status,1417,18700996887,/g3t1_3,,running
Status,1418,18701949914,/g3t1_2,,fail
Status,1419,18702876150,/g3t1_3,,fail
Status,1420,18717747666,/g4t1,,success
Status,1421,18746982134,/g3t1_1,,running
Status,1422,18750559144,/g3t1_1,,success
Status,1423,18750610955,/g3t1_2,,running
Status,1424,18751576835,/g3t1_3,,running
Status,1425,18753483790,/g3t1_2,,fail
Status,1426,18754732150,/g3t1_3,,success
Status,1427,18797193335,/g3t1_1,,running
Status,1428,18801086336,/g3t1_2,,running
Status,1429,18801174264,/g3t1_1,,success
Status,1430,18801651398,/g3t1_3,,running
Status,1431,18804627364,/g3t1_2,,success
Status,1432,18805103198,/g3t1_3,,success
Status,1433,18818250115,/g4t1,,success
Status,1434,18847148639,/g3t1_1,,running
Status,1435,18850922784,/g3t1_2,,running
Status,1436,18851224417,/g3t1_1,,success
Status,1437,18851540434,/g3t1_3,,running
Status,1438,18854404956,/g3t1_2,,fail
Status,1439,18855163934,/g3t1_3,,fail
Status,1440,18897302660,/g3t1_1,,running
Status,1444,18901104054,/g3t1_2,,running
Status,1445,18901178610,/g3t1_1,,fail
Status,1446,18901785285,/g3t1_3,,running
Status,1447,18904327706,/g3t1_2,,success
Status,1448,18905284738,/g3t1_3,,success
Status,1449,18918106192,/g4t1,,success
Status,1450,18947628527,/g3t1_1,,running
Status,1451,18951429165,/g3t1_2,,running
Status,1452,18951499541,/g3t1_1,,success
Status,1453,18951840101,/g3t1_3,,running
Status,1454,18954578315,/g3t1_2,,success
Status,1455,18955376192,/g3t1_3,,fail
Status,1456,18997515481,/g3t1_1,,running
Status,1457,19000617245,/g3t1_1,,success
Status,1458,19001312437,/g3t1_2,,running
Status,1459,19001832929,/g3t1_3,,running
Status,1460,19005034226,/g3t1_3,,success
Status,1461,19005220593,/g3t1_2,,success
Status,1462,19018500325,/g4t1,,fail
Status,1463,19047959103,/g3t1_1,,running
Status,1464,19051539296,/g3t1_2,,running
Status,1465,19051871724,/g3t1_1,,success
Status,1466,19051936070,/g3t1_3,,running
Status,1467,19055763479,/g3t1_3,,success
Status,1468,19056332809,/g3t1_2,,success
Status,1469,19097567826,/g3t1_1,,running
Status,1473,19099865508,/g3t1_1,,fail
Status,1474,19100965574,/g3t1_2,,running
Status,1475,19101663019,/g3t1_3,,running
Status,1476,19103251941,/g3t1_2,,fail
Status,1477,19103508974,/g3t1_3,,success
Status,1478,19118697555,/g4t1,,fail
Status,1479,19147517488,/g3t1_1,,running
Status,1480,19150363866,/g3t1_1,,success
Status,1481,19151038080,/g3t1_2,,running
Status,1482,19151714722,/g3t1_3,,running
Status,1483,19153610109,/g3t1_2,,fail
Status,1484,19153658934,/g3t1_3,,success
Status,1485,19197659770,/g3t1_1,,running
Status,1486,19199924484,/g3t1_1,,fail
Status,1487,19201349664,/g3t1_2,,running
Status,1488,19201788043,/g3t1_3,,running
Status,1489,19202799046,/g3t1_2,,fail
Status,1490,19203954932,/g3t1_3,,fail
Status,1491,19218408869,/g4t1,,success
Status,1492,19247794757,/g3t1_1,,running
Status,1493,19249315050,/g3t1_1,,fail
Status,1494,19251923026,/g3t1_2,,running
Status,1495,19252106450,/g3t1_3,,running
Status,1496,19254777826,/g3t1_2,,fail
Status,1497,19255826799,/g3t1_3,,success
Status,1498,19298079121,/g3t1_1,,running
Status,1502,19300802248,/g3t1_1,,fail
Status,1503,19301428022,/g3t1_2,,running
Status,1504,19302127778,/g3t1_3,,running
Status,1505,19304005546,/g3t1_2,,success
Status,1506,19304362991,/g3t1_3,,success
Status,1507,19318497912,/g4t1,,fail
Status,1508,19348514207,/g3t1_1,,running
Status,1509,19352183473,/g3t1_2,,running
Status,1510,19352271410,/g3t1_1,,success
Status,1511,19352541225,/g3t1_3,,running
Status,1512,19356490446,/g3t1_2,,success
Status,1513,19357822015,/g3t1_3,,success
Status,1514,19398856160,/g3t1_1,,running
Status,1515,19402510250,/g3t1_2,,running
Status,1516,19402601410,/g3t1_3,,running
Status,1517,19403226152,/g3t1_1,,success
Status,1518,19405803119,/g3t1_2,,fail
Status,1519,19406884302,/g3t1_3,,fail
Status,1520,19419011259,/g4t1,,success
Status,1521,19449006337,/g3t1_1,,running
Status,1522,19452322599,/g3t1_2,,running
Status,1523,19452832302,/g3t1_3,,running
Status,1524,19452963121,/g3t1_1,,fail
Status,1525,19457112652,/g3t1_2,,success
Status,1526,19457773321,/g3t1_3,,success
Status,1527,19499113191,/g3t1_1,,running
Status,1531,19503511150,/g3t1_2,,running
Status,1532,19503651627,/g3t1_3,,running
Status,1533,19503744178,/g3t1_1,,success
Status,1534,19507252499,/g3t1_2,,success
Status,1535,19507952131,/g3t1_3,,success
Status,1536,19519298705,/g4t1,,fail
Status,1537,19549280255,/g3t1_1,,running
Status,1538,19552853826,/g3t1_2,,running
Status,1539,19552963130,/g3t1_3,,running
Status,1540,19553657778,/g3t1_1,,success
Status,1541,19558555936,/g3t1_2,,success
Status,1542,19562246235,/g3t1_3,,success
Status,1543,19599343293,/g3t1_1,,running
Status,1544,19602697627,/g3t1_2,,running
Status,1545,19603153356,/g3t1_3,,running
Status,1546,19604198328,/g3t1_1,,fail
Status,1547,19607293492,/g3t1_2,,success
Status,1548,19607579810,/g3t1_3,,success
Status,1549,19619429034,/g4t1,,fail
Status,1550,19649395761,/g3t1_1,,running
Status,1551,19652811170,/g3t1_2,,running
Status,1552,19653182566,/g3t1_3,,running
Status,1553,19654511844,/g3t1_1,,success
Status,1554,19656867225,/g3t1_2,,success
Status,1555,19657960320,/g3t1_3,,success
Status,1556,19699642118,/g3t1_1,,running
Status,1557,19702801757,/g3t1_2,,running
Status,1558,19703418875,/g3t1_3,,running
Status,1559,19703567704,/g3t1_1,,fail
Status,1560,19707773151,/g3t1_3,,success
Status,1561,19707854782,/g3t1_2,,success
Status,1562,19719515244,/g4t1,,fail
Status,1563,19749652149,/g3t1_1,,running
Status,1564,19753072494,/g3t1_2,,running
Status,1565,19753473120,/g3t1_3,,running
Status,1566,19755406881,/g3t1_1,,success
Status,1567,19757504568,/g3t1_2,,success
Status,1568,19758660954,/g3t1_3,,success
Status,1569,19799744225,/g3t1_1,,running
Status,1570,19803071752,/g3t1_2,,running
Status,1571,19803494615,/g3t1_3,,running
Status,1572,19804651011,/g3t1_1,,fail
Status,1573,19806680899,/g3t1_2,,success
Status,1574,19808848272,/g3t1_3,,success
Status,1575,19819697774,/g4t1,,fail
Status,1576,19849969515,/g3t1_1,,running
Status,1577,19853886575,/g3t1_2,,running
Status,1578,19854049781,/g3t1_3,,running
Status,1579,19854879081,/g3t1_1,,fail
Status,1580,19859081396,/g3t1_3,,success
Status,1581,19859145128,/g3t1_2,,success
Status,1582,19900121313,/g3t1_1,,running
Status,1583,19903285087,/g3t1_2,,running
Status,1584,19903863139,/g3t1_3,,running
Status,1585,19903999266,/g3t1_1,,success
Status,1586,19907036630,/g3t1_2,,success
Status,1587,19908011046,/g3t1_3,,success
Status,1588,19919894948,/g4t1,,fail
Status,1589,19950050583,/g3t1_1,,running
Status,1590,19953539272,/g3t1_2,,running
Status,1591,19954096805,/g3t1_1,,fail
Status,1592,19954178819,/g3t1_3,,running
Status,1593,19958293507,/g3t1_2,,success
Status,1594,19961882853,/g3t1_3,,success
Status,1595,20000454692,/g3t1_1,,running
Status,1596,20003676463,/g3t1_2,,running
Status,1597,20004301957,/g3t1_3,,running
Status,1598,20004827338,/g3t1_1,,fail
Status,1599,20008681712,/g3t1_2,,success
Status,1600,20010209439,/g3t1_3,,success
Status,1601,20019880686,/g4t1,,fail
Status,1602,20050335874,/g3t1_1,,running
Status,1603,20053777752,/g3t1_2,,running
Status,1604,20054221113,/g3t1_3,,running
Status,1605,20054289062,/g3t1_1,,success
Status,1606,20059968013,/g3t1_2,,success
Status,1607,20060039769,/g3t1_3,,success
Status,1608,20100591906,/g3t1_1,,running
Status,1609,20103750986,/g3t1_2,,running
Status,1610,20104262317,/g3t1_3,,running
Status,1611,20105074832,/g3t1_1,,fail
Status,1612,20108097046,/g3t1_2,,success
Status,1613,20109173009,/g3t1_3,,success
Status,1614,20120131751,/g4t1,,fail
Status,1615,20150836323,/g3t1_1,,running
Status,1616,20154035204,/g3t1_2,,running
Status,1617,20154519266,/g3t1_3,,running
Status,1618,20155044065,/g3t1_1,,fail
Status,1619,20158647120,/g3t1_2,,success
Status,1620,20159510812,/g3t1_3,,success
Status,1621,20200963668,/g3t1_1,,running
Status,1622,20203994906,/g3t1_2,,running
Status,1623,20204441205,/g3t1_3,,running
Status,1624,20205675239,/g3t1_1,,success
Status,1625,20208871014,/g3t1_2,,success
Status,1626,20209642276,/g3t1_3,,success
Status,1627,20220323921,/g4t1,,fail
Status,1628,20250964539,/g3t1_1,,running
Status,1629,20254505232,/g3t1_2,,running
Status,1630,20254583377,/g3t1_3,,running
Status,1631,20254622173,/g3t1_1,,fail
Status,1632,20260249205,/g3t1_2,,success
Status,1633,20260577827,/g3t1_3,,success
Status,1634,20301194666,/g3t1_1,,running
Status,1635,20304403306,/g3t1_2,,running
Status,1636,20305334057,/g3t1_3,,running
Status,1637,20305682971,/g3t1_1,,success
Status,1638,20308976496,/g3t1_2,,success
Status,1639,20311382867,/g3t1_3,,success
Status,1640,20320257343,/g4t1,,fail
Status,1641,20351316578,/g3t1_1,,running
Status,1642,20354641407,/g3t1_2,,running
Status,1643,20354728394,/g3t1_3,,running
Status,1644,20355137322,/g3t1_1,,fail
Status,1645,20360975764,/g3t1_2,,success
Status,1646,20361039487,/g3t1_3,,success
Status,1647,20401391621,/g3t1_1,,running
Status,1648,20404710355,/g3t1_2,,running
Status,1649,20404814252,/g3t1_3,,running
Status,1650,20405446075,/g3t1_1,,fail
Status,1651,20409004643,/g3t1_2,,success
Status,1652,20411256536,/g3t1_3,,success
Status,1653,20420427329,/g4t1,,fail
Status,1654,20451559981,/g3t1_1,,running
Status,1655,20454669402,/g3t1_2,,running
Status,1656,20455354671,/g3t1_3,,running
Status,1657,20455457494,/g3t1_1,,fail
Status,1658,20461597717,/g3t1_3,,success
