
Status,1,20669039206,g4t1,,init
Status,4,26281749111,g3t1_1,,init
Status,5,26295202499,g3t1_1,,init
Status,6,26295227308,g3t1_1,,running
Status,7,26296253145,g3t1_1,,success
Status,9,26485527685,g3t1_2,,init
Status,10,26496804518,g3t1_2,,init
Status,11,26496830073,g3t1_2,,running
Status,12,26498051447,g3t1_2,,success
Status,13,26696842070,g3t1_2,,running
Status,14,26697358249,g3t1_2,,success
Status,16,26791240574,g3t1_4,,init
Status,17,26801954812,g3t1_4,,init
Status,18,26802406398,g3t1_4,,running
Status,19,26804561082,g3t1_4,,success
Status,20,26897361359,g3t1_2,,running
Status,21,26898218807,g3t1_2,,success
Status,22,27098157529,g3t1_2,,running
Status,23,27099005934,g3t1_2,,success
Status,24,27297544549,g3t1_2,,running
Status,25,27298788066,g3t1_2,,success
Status,26,27497567849,g3t1_2,,running
Status,27,27498830413,g3t1_2,,success
Status,28,27687539096,g4t1,,success
Status,29,27697524331,g3t1_2,,running
Status,30,27698934090,g3t1_2,,success
Status,31,27802340208,g3t1_4,,running
Status,32,27809290034,g3t1_4,,success
Status,33,27897669399,g3t1_2,,running
Status,34,27899068286,g3t1_2,,success
Status,35,28097839682,g3t1_2,,running
Status,36,28098995161,g3t1_2,,success
Status,37,28297930981,g3t1_2,,running
Status,38,28299005080,g3t1_2,,success
Status,39,28498033326,g3t1_2,,running
Status,40,28499229789,g3t1_2,,success
Status,41,28687989342,g4t1,,success
Status,42,28698908766,g3t1_2,,running
Status,43,28700246232,g3t1_2,,success
Status,44,28802614193,g3t1_4,,running
Status,45,28809063519,g3t1_4,,success
Status,46,28898261117,g3t1_2,,running
Status,47,28899963978,g3t1_2,,success
Status,48,29098323474,g3t1_2,,running
Status,49,29099460721,g3t1_2,,success
Status,50,29298384680,g3t1_2,,running
Status,51,29299561853,g3t1_2,,success
Status,52,29498522712,g3t1_2,,running
Status,53,29499662174,g3t1_2,,success
Status,54,29687322604,g4t1,,success
Status,55,29698245372,g3t1_2,,running
Status,56,29698796208,g3t1_2,,success
Status,57,29802590305,g3t1_4,,running
Status,58,29811952017,g3t1_4,,success
Status,59,29898560520,g3t1_2,,running
Status,60,29899765208,g3t1_2,,success
Status,61,30098459734,g3t1_2,,running
Status,62,30099195114,g3t1_2,,success
Status,63,30298441958,g3t1_2,,running
Status,64,30298984665,g3t1_2,,success
Status,65,30498555611,g3t1_2,,running
Status,66,30499113955,g3t1_2,,success
Status,67,30687580029,g4t1,,success
Status,68,30698550809,g3t1_2,,running
Status,69,30699123356,g3t1_2,,success
Status,70,30802330231,g3t1_4,,running
Status,71,30805322386,g3t1_4,,success
Status,72,30898592630,g3t1_2,,running
Status,73,30899080462,g3t1_2,,success
Status,74,31099025066,g3t1_2,,running
Status,75,31100437420,g3t1_2,,success
Status,76,31296365404,g3t1_1,,running
Status,77,31297894830,g3t1_1,,success
Status,78,31298957416,g3t1_2,,running
Status,79,31300023510,g3t1_2,,success
Status,80,31499106330,g3t1_2,,running
Status,81,31500187917,g3t1_2,,success
Status,82,31687893641,g4t1,,success
Status,83,31699154511,g3t1_2,,running
Status,84,31700624712,g3t1_2,,success
Status,85,31802711731,g3t1_4,,running
Status,86,31809784456,g3t1_4,,success
Status,87,31899280099,g3t1_2,,running
Status,88,31900427095,g3t1_2,,success
Status,89,32099325819,g3t1_2,,running
Status,90,32100456452,g3t1_2,,success
Status,91,32299883521,g3t1_2,,running
Status,92,32301071508,g3t1_2,,success
Status,93,32500246842,g3t1_2,,running
Status,94,32501398047,g3t1_2,,success
Status,95,32688002686,g4t1,,success
Status,96,32699677869,g3t1_2,,running
Status,97,32701138099,g3t1_2,,success
Status,98,32802797964,g3t1_4,,running
Status,99,32809763790,g3t1_4,,success
Status,100,32899789342,g3t1_2,,running
Status,101,32901044867,g3t1_2,,success
Status,102,33099838610,g3t1_2,,running
Status,103,33100990727,g3t1_2,,success
Status,104,33300376043,g3t1_2,,running
Status,105,33301990568,g3t1_2,,success
Status,106,33501400594,g3t1_2,,running
Status,107,33501844144,g3t1_2,,success
Status,108,33688839270,g4t1,,success
Status,109,33700255342,g3t1_2,,running
Status,110,33701663804,g3t1_2,,success
Status,111,33802847735,g3t1_4,,running
Status,112,33812785915,g3t1_4,,success
Status,113,33900329741,g3t1_2,,running
Status,114,33901483095,g3t1_2,,success
Status,115,34100271118,g3t1_2,,running
Status,116,34101566819,g3t1_2,,success
Status,117,34300890896,g3t1_2,,running
Status,118,34302217440,g3t1_2,,success
Status,119,34501119710,g3t1_2,,running
Status,120,34502281861,g3t1_2,,success
Status,121,34688137997,g4t1,,success
Status,122,34700841097,g3t1_2,,running
Status,123,34702142848,g3t1_2,,success
Status,124,34802924473,g3t1_4,,running
Status,125,34809381025,g3t1_4,,success
Status,126,34901270574,g3t1_2,,running
Status,127,34902056509,g3t1_2,,success
Status,128,35101276590,g3t1_2,,running
Status,129,35102431558,g3t1_2,,success
Status,130,35301752485,g3t1_2,,running
Status,131,35303061626,g3t1_2,,success
Status,132,35501774533,g3t1_2,,running
Status,133,35503027853,g3t1_2,,success
Status,134,35688141819,g4t1,,success
Status,135,35701505934,g3t1_2,,running
Status,136,35702832526,g3t1_2,,success
Status,137,35803057916,g3t1_4,,running
Status,138,35809951607,g3t1_4,,success
Status,139,35901685269,g3t1_2,,running
Status,140,35902873581,g3t1_2,,success
Status,141,36102133344,g3t1_2,,running
Status,142,36103354216,g3t1_2,,success
Status,143,36295728557,g3t1_1,,running
Status,144,36296638234,g3t1_1,,success
Status,145,36301620284,g3t1_2,,running
Status,146,36302552340,g3t1_2,,success
Status,147,36501923545,g3t1_2,,running
Status,148,36503099154,g3t1_2,,success
Status,149,36688373487,g4t1,,success
Status,150,36702024196,g3t1_2,,running
Status,151,36703470498,g3t1_2,,success
Status,152,36803599011,g3t1_4,,running
Status,153,36810080522,g3t1_4,,success
Status,154,36902434221,g3t1_2,,running
Status,155,36903915638,g3t1_2,,success
Status,156,37102606325,g3t1_2,,running
Status,157,37104134876,g3t1_2,,success
Status,158,37302750190,g3t1_2,,running
Status,159,37304219622,g3t1_2,,success
Status,160,37502895226,g3t1_2,,running
Status,161,37504396521,g3t1_2,,success
Status,162,37688788817,g4t1,,success
Status,163,37702620762,g3t1_2,,running
Status,164,37704235322,g3t1_2,,success
Status,165,37803731093,g3t1_4,,running
Status,166,37810119249,g3t1_4,,success
Status,167,37903341728,g3t1_2,,running
Status,168,37904403075,g3t1_2,,success
Status,169,38104073111,g3t1_2,,running
Status,170,38104348676,g3t1_2,,success
Status,171,38304172556,g3t1_2,,running
Status,172,38304466159,g3t1_2,,success
Status,173,38504268829,g3t1_2,,running
Status,174,38504555714,g3t1_2,,success
Status,175,38688433752,g4t1,,success
Status,176,38703221957,g3t1_2,,running
Status,177,38704418003,g3t1_2,,success
Status,178,38803411874,g3t1_4,,running
Status,179,38812129350,g3t1_4,,success
Status,180,38903201076,g3t1_2,,running
Status,181,38904432322,g3t1_2,,success
Status,182,39103845628,g3t1_2,,running
Status,183,39105391623,g3t1_2,,success
Status,184,39304793813,g3t1_2,,running
Status,185,39304954351,g3t1_2,,success
Status,186,39504565908,g3t1_2,,running
Status,187,39504621315,g3t1_2,,success
Status,188,39689330528,g4t1,,success
Status,189,39703729787,g3t1_2,,running
Status,190,39705068740,g3t1_2,,success
Status,191,39803614174,g3t1_4,,running
Status,192,39809423603,g3t1_4,,success
Status,193,39903696893,g3t1_2,,running
Status,194,39904763272,g3t1_2,,success
Status,195,40104233979,g3t1_2,,running
Status,196,40105735505,g3t1_2,,success
Status,197,40304264869,g3t1_2,,running
Status,198,40305800954,g3t1_2,,success
Status,199,40504421825,g3t1_2,,running
Status,200,40505649041,g3t1_2,,success
Status,201,40689126865,g4t1,,success
Status,202,40704228719,g3t1_2,,running
Status,203,40705424849,g3t1_2,,success
Status,204,40804039757,g3t1_4,,running
Status,205,40810305578,g3t1_4,,success
Status,206,40904564218,g3t1_2,,running
Status,207,40905956617,g3t1_2,,success
Status,208,41104666799,g3t1_2,,running
Status,209,41106069502,g3t1_2,,success
Status,210,41297229822,g3t1_1,,running
Status,211,41298096419,g3t1_1,,success
Status,212,41304267845,g3t1_2,,running
Status,213,41305629907,g3t1_2,,success
Status,214,41504506703,g3t1_2,,running
Status,215,41505950433,g3t1_2,,success
Status,216,41689278987,g4t1,,success
Status,217,41704830035,g3t1_2,,running
Status,218,41706235462,g3t1_2,,success
Status,219,41804123928,g3t1_4,,running
Status,220,41810680049,g3t1_4,,success
Status,221,41905302721,g3t1_2,,running
Status,222,41906650869,g3t1_2,,success
Status,223,42105618558,g3t1_2,,running
Status,224,42106908505,g3t1_2,,success
Status,225,42305434619,g3t1_2,,running
Status,226,42306619309,g3t1_2,,success
Status,227,42505560642,g3t1_2,,running
Status,228,42506825532,g3t1_2,,success
Status,229,42688974617,g4t1,,success
Status,230,42705354838,g3t1_2,,running
Status,231,42706522639,g3t1_2,,success
Status,232,42803839872,g3t1_4,,running
Status,233,42810230510,g3t1_4,,success
Status,234,42905262878,g3t1_2,,running
Status,235,42906316708,g3t1_2,,success
Status,236,43105666558,g3t1_2,,running
Status,237,43106696326,g3t1_2,,success
Status,238,43305828050,g3t1_2,,running
Status,239,43306956958,g3t1_2,,success
Status,240,43505949537,g3t1_2,,running
Status,241,43507178384,g3t1_2,,success
Status,242,43689369728,g4t1,,success
Status,243,43705698781,g3t1_2,,running
Status,244,43706789322,g3t1_2,,success
Status,245,43803937918,g3t1_4,,running
Status,246,43812324894,g3t1_4,,success
Status,247,43905775215,g3t1_2,,running
Status,248,43906808712,g3t1_2,,success
Status,249,44106340904,g3t1_2,,running
Status,250,44107684909,g3t1_2,,success
Status,251,44306469021,g3t1_2,,running
Status,252,44307797063,g3t1_2,,success
Status,253,44506579180,g3t1_2,,running
Status,254,44507908518,g3t1_2,,success
Status,255,44690007363,g4t1,,success
Status,256,44706355080,g3t1_2,,running
Status,257,44707639214,g3t1_2,,success
Status,258,44803975282,g3t1_4,,running
Status,259,44810249430,g3t1_4,,success
Status,260,44906411366,g3t1_2,,running
Status,261,44907416209,g3t1_2,,success
Status,262,45106883932,g3t1_2,,running
Status,263,45108215251,g3t1_2,,success
Status,264,45306920176,g3t1_2,,running
Status,265,45308338751,g3t1_2,,success
Status,266,45507063057,g3t1_2,,running
Status,267,45508408783,g3t1_2,,success
Status,268,45689745048,g4t1,,success
Status,269,45706868832,g3t1_2,,running
Status,270,45708201926,g3t1_2,,success
Status,271,45804069994,g3t1_4,,running
Status,272,45810592531,g3t1_4,,success
Status,273,45906981311,g3t1_2,,running
Status,274,45908055213,g3t1_2,,success
Status,275,46107384985,g3t1_2,,running
Status,276,46108614246,g3t1_2,,success
Status,277,46296668447,g3t1_1,,running
Status,278,46296869685,g3t1_1,,success
Status,279,46307034948,g3t1_2,,running
Status,280,46307812953,g3t1_2,,success
Status,281,46507270667,g3t1_2,,running
Status,282,46508444144,g3t1_2,,success
Status,283,46689981180,g4t1,,success
Status,284,46707466869,g3t1_2,,running
Status,285,46708607387,g3t1_2,,success
Status,286,46804375620,g3t1_4,,running
Status,287,46811319805,g3t1_4,,success
Status,288,46907416135,g3t1_2,,running
Status,289,46908580895,g3t1_2,,success
Status,290,47107578686,g3t1_2,,running
Status,291,47108982044,g3t1_2,,success
Status,292,47307981329,g3t1_2,,running
Status,293,47309977633,g3t1_2,,success
Status,294,47508178511,g3t1_2,,running
Status,295,47509843839,g3t1_2,,success
Status,296,47689614172,g4t1,,success
Status,297,47707916724,g3t1_2,,running
Status,298,47709096459,g3t1_2,,success
Status,299,47804344587,g3t1_4,,running
Status,300,47810936116,g3t1_4,,success
Status,301,47907967436,g3t1_2,,running
Status,302,47909117670,g3t1_2,,success
Status,303,48108373213,g3t1_2,,running
Status,304,48109822683,g3t1_2,,success
Status,305,48308494050,g3t1_2,,running
Status,306,48309926775,g3t1_2,,success
Status,307,48508462709,g3t1_2,,running
Status,308,48509929181,g3t1_2,,success
Status,309,48689676426,g4t1,,success
Status,310,48708326368,g3t1_2,,running
Status,311,48709770067,g3t1_2,,success
Status,312,48804323764,g3t1_4,,running
Status,313,48813254576,g3t1_4,,success
Status,314,48908286841,g3t1_2,,running
Status,315,48909417884,g3t1_2,,success
Status,316,49108950419,g3t1_2,,running
Status,317,49110261408,g3t1_2,,success
Status,318,49309067736,g3t1_2,,running
Status,319,49310388147,g3t1_2,,success
Status,320,49509087125,g3t1_2,,running
Status,321,49510373599,g3t1_2,,success
Status,322,49690053851,g4t1,,success
Status,323,49708980616,g3t1_2,,running
Status,324,49710351286,g3t1_2,,success
Status,325,49804492889,g3t1_4,,running
Status,326,49810411284,g3t1_4,,success
Status,327,49908988159,g3t1_2,,running
Status,328,49910022705,g3t1_2,,success
Status,329,50109458096,g3t1_2,,running
Status,330,50110659974,g3t1_2,,success
Status,331,50309618509,g3t1_2,,running
Status,332,50310984647,g3t1_2,,success
Status,333,50509740054,g3t1_2,,running
Status,334,50511098428,g3t1_2,,success
Status,335,50690040642,g4t1,,success
Status,336,50709471521,g3t1_2,,running
Status,337,50710825364,g3t1_2,,success
Status,338,50805043156,g3t1_4,,running
Status,339,50810938345,g3t1_4,,success
Status,340,50910539123,g3t1_2,,running
Status,341,50910758290,g3t1_2,,success
Status,342,51109471191,g3t1_2,,running
Status,343,51110691851,g3t1_2,,success
Status,344,51296811341,g3t1_1,,running
Status,345,51298363603,g3t1_1,,success
Status,346,51310029299,g3t1_2,,running
Status,347,51311439877,g3t1_2,,success
Status,348,51510138881,g3t1_2,,running
Status,349,51511641810,g3t1_2,,success
Status,350,51690062974,g4t1,,success
Status,351,51709794816,g3t1_2,,running
Status,352,51711099848,g3t1_2,,success
Status,353,51804780485,g3t1_4,,running
Status,354,51811495821,g3t1_4,,success
Status,355,51909907120,g3t1_2,,running
Status,356,51910851736,g3t1_2,,success
Status,357,52110429386,g3t1_2,,running
Status,358,52111898995,g3t1_2,,success
Status,359,52310508021,g3t1_2,,running
Status,360,52311914863,g3t1_2,,success
Status,361,52510165691,g3t1_2,,running
Status,362,52511451014,g3t1_2,,success
Status,363,52690396344,g4t1,,success
Status,364,52710334402,g3t1_2,,running
Status,365,52711544096,g3t1_2,,success
Status,366,52804788413,g3t1_4,,running
Status,367,52811378020,g3t1_4,,success
Status,368,52910234088,g3t1_2,,running
Status,369,52911045938,g3t1_2,,success
Status,370,53110796772,g3t1_2,,running
Status,371,53112139364,g3t1_2,,success
Status,372,53310953343,g3t1_2,,running
Status,373,53312335061,g3t1_2,,success
Status,374,53511004030,g3t1_2,,running
Status,375,53512222761,g3t1_2,,success
Status,376,53690690366,g4t1,,success
Status,377,53710589329,g3t1_2,,running
Status,378,53711667396,g3t1_2,,success
Status,379,53805402051,g3t1_4,,running
Status,380,53813218743,g3t1_4,,success
Status,381,53911057754,g3t1_2,,running
Status,382,53912093874,g3t1_2,,success
Status,383,54110967166,g3t1_2,,running
Status,384,54112108496,g3t1_2,,success
Status,385,54311416656,g3t1_2,,running
Status,386,54312568303,g3t1_2,,success
Status,387,54511520668,g3t1_2,,running
Status,388,54512751740,g3t1_2,,success
Status,389,54690300108,g4t1,,success
Status,390,54711218875,g3t1_2,,running
Status,391,54712410460,g3t1_2,,success
Status,392,54805101694,g3t1_4,,running
Status,393,54815178804,g3t1_4,,success
Status,394,54911353120,g3t1_2,,running
Status,395,54912406281,g3t1_2,,success
Status,396,55111766412,g3t1_2,,running
Status,397,55112963286,g3t1_2,,success
Status,398,55311786294,g3t1_2,,running
Status,399,55313006371,g3t1_2,,success
Status,400,55511853583,g3t1_2,,running
Status,401,55513129718,g3t1_2,,success
Status,402,55690614967,g4t1,,success
Status,403,55711719771,g3t1_2,,running
Status,404,55712868677,g3t1_2,,success
Status,405,55805019566,g3t1_4,,running
Status,406,55811744410,g3t1_4,,success
Status,407,55911767488,g3t1_2,,running
Status,408,55913065527,g3t1_2,,success
Status,409,56112293217,g3t1_2,,running
Status,410,56113699033,g3t1_2,,success
Status,411,56296944852,g3t1_1,,running
Status,412,56298182938,g3t1_1,,success
Status,413,56312126774,g3t1_2,,running
Status,414,56313546542,g3t1_2,,success
Status,416,56512565502,g3t1_2,,running
Status,417,56514428126,g3t1_2,,success
Status,419,56690437598,g4t1,,success
Status,420,56712203605,g3t1_2,,running
Status,421,56713570509,g3t1_2,,success
Status,423,56805125367,g3t1_4,,running
Status,424,56812001733,g3t1_4,,success
Status,425,56912293415,g3t1_2,,running
Status,426,56913917582,g3t1_2,,success
Status,428,57113287397,g3t1_2,,running
Status,429,57113718849,g3t1_2,,success
Status,431,57313278476,g3t1_2,,running
Status,432,57314755606,g3t1_2,,success
Status,434,57513575100,g3t1_2,,running
Status,435,57514989916,g3t1_2,,success
Status,437,57690814499,g4t1,,success
Status,438,57712862952,g3t1_2,,running
Status,439,57713931653,g3t1_2,,success
Status,441,57805717873,g3t1_4,,running
Status,442,57812551911,g3t1_4,,success
Status,443,57913431690,g3t1_2,,running
Status,444,57914954885,g3t1_2,,success
Status,446,58113346748,g3t1_2,,running
Status,447,58114719629,g3t1_2,,success
Status,449,58314749398,g3t1_2,,running
Status,450,58314882196,g3t1_2,,success
Status,452,58513446829,g3t1_2,,running
Status,453,58514806727,g3t1_2,,success
Status,455,58691115016,g4t1,,success
Status,456,58713487897,g3t1_2,,running
Status,457,58714792899,g3t1_2,,success
Status,459,58805667514,g3t1_4,,running
Status,460,58815105596,g3t1_4,,success
Status,461,58914113944,g3t1_2,,running
Status,462,58915432513,g3t1_2,,success
Status,464,59114063640,g3t1_2,,running
Status,465,59115437252,g3t1_2,,success
Status,467,59314013666,g3t1_2,,running
Status,468,59315304372,g3t1_2,,success
Status,470,59513982253,g3t1_2,,running
Status,471,59515302741,g3t1_2,,success
Status,473,59691222380,g4t1,,success
Status,474,59713902235,g3t1_2,,running
Status,475,59715060654,g3t1_2,,success
Status,477,59805550690,g3t1_4,,running
Status,478,59811789671,g3t1_4,,success
Status,479,59913978558,g3t1_2,,running
Status,480,59915008389,g3t1_2,,success
Status,482,60114189905,g3t1_2,,running
Status,483,60115329043,g3t1_2,,success
Status,485,60314220972,g3t1_2,,running
Status,486,60315481132,g3t1_2,,success
Status,488,60514593516,g3t1_2,,running
Status,489,60515864079,g3t1_2,,success
Status,491,60691520382,g4t1,,success
Status,492,60714358982,g3t1_2,,running
Status,493,60715500138,g3t1_2,,success
Status,495,60805950001,g3t1_4,,running
Status,496,60813056321,g3t1_4,,success
Status,497,60914518239,g3t1_2,,running
Status,498,60915747785,g3t1_2,,success
Status,500,61114938401,g3t1_2,,running
Status,501,61116283756,g3t1_2,,success
Status,503,61296944394,g3t1_1,,running
Status,504,61298519692,g3t1_1,,success
Status,505,61314693267,g3t1_2,,running
Status,506,61315952938,g3t1_2,,success
Status,508,61514858645,g3t1_2,,running
Status,509,61516083350,g3t1_2,,success
Status,511,61691464456,g4t1,,success
Status,512,61714937911,g3t1_2,,running
Status,513,61716234718,g3t1_2,,success
Status,515,61805743570,g3t1_4,,running
Status,516,61812278678,g3t1_4,,success
Status,517,61914897208,g3t1_2,,running
Status,518,61916079108,g3t1_2,,success
Status,520,62115446144,g3t1_2,,running
Status,521,62116837614,g3t1_2,,success
Status,523,62315513586,g3t1_2,,running
Status,524,62316821244,g3t1_2,,success
Status,526,62515642577,g3t1_2,,running
Status,527,62516760093,g3t1_2,,success
Status,529,62691544491,g4t1,,success
Status,530,62715670193,g3t1_2,,running
Status,531,62716995320,g3t1_2,,success
Status,533,62806185336,g3t1_4,,running
Status,534,62811670151,g3t1_4,,success
Status,535,62915797883,g3t1_2,,running
Status,536,62917096297,g3t1_2,,success
Status,538,63116589406,g3t1_2,,running
Status,539,63116722745,g3t1_2,,success
Status,541,63317208969,g3t1_2,,running
Status,542,63317490879,g3t1_2,,success
Status,544,63516415318,g3t1_2,,running
Status,545,63518033131,g3t1_2,,success
Status,547,63691864057,g4t1,,success
Status,548,63715974947,g3t1_2,,running
Status,549,63717499095,g3t1_2,,success
Status,551,63805786011,g3t1_4,,running
Status,552,63813730305,g3t1_4,,success
Status,553,63916062376,g3t1_2,,running
Status,554,63917289086,g3t1_2,,success
Status,556,64116379931,g3t1_2,,running
Status,557,64117690393,g3t1_2,,success
Status,559,64316612989,g3t1_2,,running
Status,560,64317964144,g3t1_2,,success
Status,562,64516347190,g3t1_2,,running
Status,563,64517557605,g3t1_2,,success
Status,565,64691791795,g4t1,,success
Status,566,64716989082,g3t1_2,,running
Status,567,64718205621,g3t1_2,,success
Status,569,64805956847,g3t1_4,,running
Status,570,64813013128,g3t1_4,,success
Status,571,64916541530,g3t1_2,,running
Status,572,64917867750,g3t1_2,,success
Status,574,65117151905,g3t1_2,,running
Status,575,65118562590,g3t1_2,,success
Status,577,65317274166,g3t1_2,,running
Status,578,65318690290,g3t1_2,,success
Status,580,65517362717,g3t1_2,,running
Status,581,65518906313,g3t1_2,,success
Status,583,65691869842,g4t1,,success
Status,584,65716877574,g3t1_2,,running
Status,585,65718034606,g3t1_2,,success
Status,587,65805745484,g3t1_4,,running
Status,588,65808563320,g3t1_4,,success
Status,589,65917196365,g3t1_2,,running
Status,590,65918382875,g3t1_2,,success
Status,592,66117139170,g3t1_2,,running
Status,593,66118365025,g3t1_2,,success
Status,595,66297225950,g3t1_1,,running
Status,596,66297825411,g3t1_1,,success
Status,597,66317326469,g3t1_2,,running
Status,598,66318669475,g3t1_2,,success
Status,600,66517338304,g3t1_2,,running
Status,601,66517403328,g3t1_2,,success
Status,603,66691240626,g4t1,,success
Status,604,66717054757,g3t1_2,,running
Status,605,66717567645,g3t1_2,,success
Status,607,66805887950,g3t1_4,,running
Status,608,66811208236,g3t1_4,,success
Status,609,66917054384,g3t1_2,,running
Status,610,66917613451,g3t1_2,,success
Status,612,67117566138,g3t1_2,,running
Status,613,67118882921,g3t1_2,,success
Status,615,67318453103,g3t1_2,,running
Status,616,67318626036,g3t1_2,,success
Status,618,67517716059,g3t1_2,,running
Status,619,67517904125,g3t1_2,,success
Status,620,67691848021,g4t1,,success
Status,621,67717359100,g3t1_2,,running
Status,622,67717994613,g3t1_2,,success
Status,623,67806263876,g3t1_4,,running
Status,624,67808427641,g3t1_4,,success
Status,625,67917427493,g3t1_2,,running
Status,626,67918034092,g3t1_2,,success
Status,628,67950452796,g3t1_4,,status
Status,629,68117501131,g3t1_2,,running
Status,630,68118051625,g3t1_2,,success
