
Status,2,3489053767,/g4t1,,init
Status,4,8709931665,/g3t1_1,,init
Status,5,8710834167,/g3t1_2,,init
Status,7,8721339633,/g3t1_1,,init
Status,8,8721360407,/g3t1_1,,running
Status,9,8721387133,/g3t1_2,,init
Status,10,8721394968,/g3t1_2,,running
Status,11,8722391964,/g3t1_1,,success
Status,12,8722593439,/g3t1_2,,success
Status,13,8771580644,/g3t1_1,,running
Status,14,8771599098,/g3t1_2,,running
Status,15,8771962979,/g3t1_1,,success
Status,16,8772222867,/g3t1_2,,success
Status,17,8821632556,/g3t1_1,,running
Status,18,8821660871,/g3t1_2,,running
Status,19,8822059255,/g3t1_1,,success
Status,20,8822133212,/g3t1_2,,success
Status,21,8871689177,/g3t1_1,,running
Status,22,8871705490,/g3t1_2,,running
Status,23,8872344947,/g3t1_2,,success
Status,24,8872449066,/g3t1_1,,success
Status,25,8921794085,/g3t1_1,,running
Status,26,8921814780,/g3t1_2,,running
Status,27,8922154581,/g3t1_2,,success
Status,28,8922360881,/g3t1_1,,success
Status,32,8971748653,/g3t1_1,,running
Status,33,8971763123,/g3t1_2,,running
Status,34,8972200402,/g3t1_1,,success
Status,35,8972398346,/g3t1_2,,success
Status,37,9006685448,/g3t1_3,,init
Status,38,9012558147,/g3t1_3,,init
Status,39,9012572211,/g3t1_3,,running
Status,40,9013212463,/g3t1_3,,success
Status,41,9022052656,/g3t1_1,,running
Status,42,9022070186,/g3t1_2,,running
Status,43,9022569363,/g3t1_2,,success
Status,44,9022696959,/g3t1_1,,success
Status,45,9063054932,/g3t1_3,,running
Status,46,9064316485,/g3t1_3,,success
Status,47,9072602843,/g3t1_1,,running
Status,48,9072675424,/g3t1_2,,running
Status,49,9074464666,/g3t1_1,,success
Status,50,9075292326,/g3t1_2,,success
Status,51,9107131430,/g4t1,,success
Status,52,9113379278,/g3t1_3,,running
Status,53,9115124424,/g3t1_3,,success
Status,54,9122663640,/g3t1_2,,running
Status,55,9122746234,/g3t1_1,,running
Status,56,9124308636,/g3t1_1,,success
Status,57,9125472974,/g3t1_2,,success
Status,58,9163757530,/g3t1_3,,running
Status,59,9165483811,/g3t1_3,,success
Status,63,9172845557,/g3t1_2,,running
Status,64,9172909055,/g3t1_1,,running
Status,65,9174928514,/g3t1_2,,success
Status,66,9176065322,/g3t1_1,,success
Status,67,9206875211,/g4t1,,success
Status,68,9213563884,/g3t1_3,,running
Status,69,9214668568,/g3t1_3,,success
Status,70,9222757868,/g3t1_2,,running
Status,71,9222805316,/g3t1_1,,running
Status,72,9223996029,/g3t1_2,,success
Status,73,9224685004,/g3t1_1,,success
Status,74,9263877928,/g3t1_3,,running
Status,75,9265665398,/g3t1_3,,success
Status,76,9273150481,/g3t1_2,,running
Status,77,9273226988,/g3t1_1,,running
Status,78,9274778321,/g3t1_1,,success
Status,79,9275742940,/g3t1_2,,success
Status,80,9307121192,/g4t1,,success
Status,81,9313751265,/g3t1_3,,running
Status,82,9315250538,/g3t1_3,,success
Status,83,9323261956,/g3t1_1,,running
Status,84,9323322736,/g3t1_2,,running
Status,85,9324977087,/g3t1_1,,success
Status,86,9325835881,/g3t1_2,,success
Status,87,9364271014,/g3t1_3,,running
Status,88,9365971433,/g3t1_3,,success
Status,92,9373487009,/g3t1_1,,running
Status,93,9373545023,/g3t1_2,,running
Status,94,9375156314,/g3t1_1,,success
Status,95,9376119070,/g3t1_2,,success
Status,96,9407358220,/g4t1,,fail
Status,97,9414525470,/g3t1_3,,running
Status,98,9416194311,/g3t1_3,,success
Status,99,9423487366,/g3t1_1,,running
Status,100,9423548603,/g3t1_2,,running
Status,101,9425049866,/g3t1_1,,success
Status,102,9425978287,/g3t1_2,,success
Status,103,9464672800,/g3t1_3,,running
Status,104,9466280959,/g3t1_3,,success
Status,105,9473518834,/g3t1_1,,running
Status,106,9473578053,/g3t1_2,,running
Status,107,9475153962,/g3t1_2,,success
Status,108,9475984841,/g3t1_1,,success
Status,109,9507483124,/g4t1,,fail
Status,110,9514528612,/g3t1_3,,running
Status,111,9515964053,/g3t1_3,,success
Status,112,9523607758,/g3t1_1,,running
Status,113,9523676828,/g3t1_2,,running
Status,114,9525544839,/g3t1_1,,success
Status,115,9527002238,/g3t1_2,,success
Status,116,9564971845,/g3t1_3,,running
Status,120,9566941284,/g3t1_3,,success
Status,121,9573818475,/g3t1_1,,running
Status,122,9573892924,/g3t1_2,,running
Status,123,9575779130,/g3t1_1,,success
Status,124,9576958512,/g3t1_2,,success
Status,125,9607421432,/g4t1,,fail
Status,126,9614669120,/g3t1_3,,running
Status,127,9615718072,/g3t1_3,,success
Status,128,9623689193,/g3t1_1,,running
Status,129,9623736802,/g3t1_2,,running
Status,130,9624905024,/g3t1_1,,success
Status,131,9625462357,/g3t1_2,,success
Status,132,9664996502,/g3t1_3,,running
Status,133,9666700376,/g3t1_3,,success
Status,134,9673912579,/g3t1_1,,running
Status,135,9673988908,/g3t1_2,,running
Status,136,9675478281,/g3t1_1,,success
Status,137,9676486770,/g3t1_2,,success
Status,138,9707947446,/g4t1,,fail
Status,139,9715020431,/g3t1_3,,running
Status,140,9716343239,/g3t1_3,,success
Status,141,9724306569,/g3t1_1,,running
Status,142,9724384869,/g3t1_2,,running
Status,143,9726361648,/g3t1_1,,success
Status,144,9727446232,/g3t1_2,,success
Status,145,9765111790,/g3t1_3,,running
Status,148,9766602483,/g3t1_3,,success
Status,150,9774207431,/g3t1_1,,running
Status,151,9774259716,/g3t1_2,,running
Status,152,9777514067,/g3t1_1,,success
Status,153,9777797569,/g3t1_2,,success
Status,154,9808021879,/g4t1,,fail
Status,155,9815378641,/g3t1_3,,running
Status,156,9816974310,/g3t1_3,,success
Status,157,9824590545,/g3t1_1,,running
Status,158,9824657504,/g3t1_2,,running
Status,159,9826175487,/g3t1_1,,success
Status,160,9827253756,/g3t1_2,,success
Status,161,9865332105,/g3t1_3,,running
Status,162,9866355367,/g3t1_3,,success
Status,163,9874142400,/g3t1_1,,running
Status,164,9874182673,/g3t1_2,,running
Status,165,9875649713,/g3t1_2,,success
Status,166,9876070326,/g3t1_1,,success
Status,167,9908030506,/g4t1,,fail
Status,168,9915588545,/g3t1_3,,running
Status,169,9916957394,/g3t1_3,,success
Status,170,9924596026,/g3t1_1,,running
Status,171,9924686657,/g3t1_2,,running
Status,172,9926918659,/g3t1_1,,success
Status,173,9926970327,/g3t1_2,,success
Status,174,9965729946,/g3t1_3,,running
Status,178,9967158841,/g3t1_3,,success
Status,179,9974440689,/g3t1_1,,running
Status,180,9974719203,/g3t1_2,,running
Status,181,9976908411,/g3t1_1,,success
Status,182,9978510251,/g3t1_2,,success
Status,183,10008045740,/g4t1,,fail
Status,184,10015861546,/g3t1_3,,running
Status,185,10017401778,/g3t1_3,,success
Status,186,10024678233,/g3t1_1,,running
Status,187,10024752633,/g3t1_2,,running
Status,188,10026668839,/g3t1_1,,success
Status,189,10028679446,/g3t1_2,,success
Status,190,10065889063,/g3t1_3,,running
Status,191,10067056631,/g3t1_3,,success
Status,192,10074688772,/g3t1_1,,running
Status,193,10074764090,/g3t1_2,,running
Status,194,10076314336,/g3t1_1,,success
Status,195,10077624862,/g3t1_2,,success
Status,196,10108277349,/g4t1,,fail
Status,197,10116099740,/g3t1_3,,running
Status,198,10117654272,/g3t1_3,,success
Status,199,10125104108,/g3t1_1,,running
Status,200,10125160847,/g3t1_2,,running
Status,201,10126795735,/g3t1_1,,success
Status,202,10127940815,/g3t1_2,,success
Status,203,10166181582,/g3t1_3,,running
Status,207,10167801988,/g3t1_3,,success
Status,208,10175296840,/g3t1_1,,running
Status,209,10175376880,/g3t1_2,,running
Status,210,10178509757,/g3t1_1,,success
Status,211,10178576562,/g3t1_2,,success
Status,212,10208291957,/g4t1,,fail
Status,213,10216344180,/g3t1_3,,running
Status,214,10218006138,/g3t1_3,,success
Status,215,10225212228,/g3t1_1,,running
Status,216,10225269444,/g3t1_2,,running
Status,217,10226718293,/g3t1_1,,success
Status,218,10227818909,/g3t1_2,,success
Status,219,10266321552,/g3t1_3,,running
Status,220,10267994893,/g3t1_3,,success
Status,221,10275365637,/g3t1_1,,running
Status,222,10275444253,/g3t1_2,,running
Status,223,10277170460,/g3t1_1,,success
Status,224,10278069762,/g3t1_2,,success
Status,225,10308464641,/g4t1,,fail
Status,226,10316471243,/g3t1_3,,running
Status,227,10318224911,/g3t1_3,,success
Status,228,10325258946,/g3t1_1,,running
Status,229,10325482190,/g3t1_2,,running
Status,230,10327053408,/g3t1_1,,success
Status,231,10328077351,/g3t1_2,,success
Status,233,10366951299,/g3t1_3,,running
Status,236,10369028693,/g3t1_3,,success
Status,237,10375832068,/g3t1_1,,running
Status,238,10375915709,/g3t1_2,,running
Status,239,10377912325,/g3t1_1,,success
Status,240,10378747104,/g3t1_2,,success
Status,241,10408627768,/g4t1,,fail
Status,242,10416930140,/g3t1_3,,running
Status,243,10418628225,/g3t1_3,,success
Status,244,10425779703,/g3t1_1,,running
Status,245,10425872670,/g3t1_2,,running
Status,246,10427658643,/g3t1_1,,success
Status,247,10428654046,/g3t1_2,,success
Status,248,10467028582,/g3t1_3,,running
Status,249,10468751211,/g3t1_3,,success
Status,250,10475794634,/g3t1_1,,running
Status,251,10475866926,/g3t1_2,,running
Status,252,10478010569,/g3t1_1,,success
Status,253,10478338087,/g3t1_2,,success
Status,254,10508775769,/g4t1,,fail
Status,255,10517210895,/g3t1_3,,running
Status,256,10519312946,/g3t1_3,,success
Status,257,10525758075,/g3t1_1,,running
Status,258,10525837374,/g3t1_2,,running
Status,259,10529194122,/g3t1_2,,success
Status,260,10529273879,/g3t1_1,,success
Status,264,10567693450,/g3t1_3,,running
Status,265,10569603539,/g3t1_3,,success
Status,266,10576077122,/g3t1_1,,running
Status,267,10576155963,/g3t1_2,,running
Status,268,10578433588,/g3t1_1,,success
Status,269,10579026747,/g3t1_2,,success
Status,270,10609144204,/g4t1,,fail
Status,271,10617434008,/g3t1_3,,running
Status,272,10619596648,/g3t1_3,,success
Status,273,10625896382,/g3t1_1,,running
Status,274,10625974081,/g3t1_2,,running
Status,275,10626980466,/g3t1_1,,success
Status,276,10627594091,/g3t1_2,,success
Status,277,10667120026,/g3t1_3,,running
Status,278,10667781905,/g3t1_3,,success
Status,279,10675680374,/g3t1_1,,running
Status,280,10675769336,/g3t1_2,,running
Status,281,10676337257,/g3t1_1,,success
Status,282,10676655433,/g3t1_2,,success
Status,283,10708644739,/g4t1,,fail
Status,284,10717754324,/g3t1_3,,running
Status,285,10719337307,/g3t1_3,,success
Status,286,10726369573,/g3t1_1,,running
Status,287,10726435909,/g3t1_2,,running
Status,288,10728149471,/g3t1_1,,success
Status,289,10729351174,/g3t1_2,,success
Status,293,10768107882,/g3t1_3,,running
Status,294,10769877314,/g3t1_3,,success
Status,295,10776636773,/g3t1_1,,running
Status,296,10776712387,/g3t1_2,,running
Status,297,10778664898,/g3t1_2,,success
Status,298,10779566975,/g3t1_1,,success
Status,299,10809445729,/g4t1,,fail
Status,300,10818192884,/g3t1_3,,running
Status,301,10819914418,/g3t1_3,,success
Status,302,10826565051,/g3t1_1,,running
Status,303,10826641530,/g3t1_2,,running
Status,304,10829430231,/g3t1_1,,success
Status,305,10830374500,/g3t1_2,,success
Status,306,10867868102,/g3t1_3,,running
Status,307,10868768423,/g3t1_3,,success
Status,308,10876310737,/g3t1_1,,running
Status,309,10876354863,/g3t1_2,,running
Status,310,10877283579,/g3t1_1,,success
Status,311,10877786137,/g3t1_2,,success
Status,312,10909524822,/g4t1,,fail
Status,313,10918417026,/g3t1_3,,running
Status,314,10920468135,/g3t1_3,,success
Status,315,10926903568,/g3t1_1,,running
Status,316,10926990839,/g3t1_2,,running
Status,317,10929708871,/g3t1_2,,success
Status,318,10929776489,/g3t1_1,,success
Status,322,10968715876,/g3t1_3,,running
Status,323,10970722981,/g3t1_3,,success
Status,324,10977102169,/g3t1_1,,running
Status,325,10977167080,/g3t1_2,,running
Status,326,10979342321,/g3t1_2,,success
Status,327,10979995078,/g3t1_1,,success
Status,328,11009603982,/g4t1,,fail
Status,329,11018544827,/g3t1_3,,running
Status,330,11020471126,/g3t1_3,,success
Status,331,11027009850,/g3t1_1,,running
Status,332,11027130695,/g3t1_2,,running
Status,333,11029299138,/g3t1_1,,success
Status,334,11030014700,/g3t1_2,,success
Status,335,11068786441,/g3t1_3,,running
Status,336,11070353479,/g3t1_3,,success
Status,337,11077203771,/g3t1_1,,running
Status,338,11077302772,/g3t1_2,,running
Status,339,11079375812,/g3t1_1,,success
Status,340,11080590272,/g3t1_2,,success
Status,341,11109589678,/g4t1,,fail
Status,342,11118718800,/g3t1_3,,running
Status,343,11120707674,/g3t1_3,,success
Status,344,11127429368,/g3t1_1,,running
Status,345,11127525331,/g3t1_2,,running
Status,346,11129232891,/g3t1_1,,success
Status,347,11130662200,/g3t1_2,,success
Status,351,11168940405,/g3t1_3,,running
Status,352,11171064316,/g3t1_3,,success
Status,353,11177572430,/g3t1_1,,running
Status,354,11177680645,/g3t1_2,,running
Status,355,11180689740,/g3t1_1,,success
Status,356,11181211256,/g3t1_2,,success
Status,357,11209493065,/g4t1,,fail
Status,358,11219098581,/g3t1_3,,running
Status,359,11221154155,/g3t1_3,,success
Status,360,11227676650,/g3t1_1,,running
Status,361,11227752373,/g3t1_2,,running
Status,362,11229454780,/g3t1_1,,success
Status,363,11230782577,/g3t1_2,,success
Status,364,11268547396,/g3t1_3,,running
Status,365,11269835712,/g3t1_3,,success
Status,366,11277041185,/g3t1_1,,running
Status,367,11277129717,/g3t1_2,,running
Status,368,11277593631,/g3t1_1,,success
Status,369,11277968470,/g3t1_2,,success
Status,370,11308984003,/g4t1,,fail
Status,371,11318996173,/g3t1_3,,running
Status,372,11320216703,/g3t1_3,,success
Status,373,11327748658,/g3t1_1,,running
Status,374,11327824098,/g3t1_2,,running
Status,375,11329564631,/g3t1_1,,success
Status,376,11331034673,/g3t1_2,,success
Status,380,11369538058,/g3t1_3,,running
Status,381,11371099142,/g3t1_3,,success
Status,382,11377947123,/g3t1_1,,running
Status,383,11378039867,/g3t1_2,,running
Status,384,11379971456,/g3t1_2,,success
Status,385,11381256288,/g3t1_1,,success
Status,386,11409953845,/g4t1,,fail
Status,387,11419525346,/g3t1_3,,running
Status,388,11421398335,/g3t1_3,,success
Status,389,11428031242,/g3t1_1,,running
Status,390,11428119309,/g3t1_2,,running
Status,391,11430396454,/g3t1_2,,success
Status,392,11431590938,/g3t1_1,,success
Status,393,11469613110,/g3t1_3,,running
Status,394,11471502951,/g3t1_3,,success
Status,395,11478615727,/g3t1_1,,running
Status,396,11478723299,/g3t1_2,,running
Status,397,11481274580,/g3t1_2,,success
Status,398,11482665031,/g3t1_1,,success
Status,399,11509085829,/g4t1,,fail
Status,400,11519307622,/g3t1_3,,running
Status,401,11520024241,/g3t1_3,,success
Status,402,11527612191,/g3t1_1,,running
Status,403,11527638177,/g3t1_2,,running
Status,404,11528367900,/g3t1_2,,success
Status,405,11528515882,/g3t1_1,,success
Status,406,11569913684,/g3t1_3,,running
Status,407,11571571130,/g3t1_3,,success
Status,408,11578352691,/g3t1_2,,running
Status,409,11578417600,/g3t1_1,,running
Status,410,11580681719,/g3t1_1,,success
Status,411,11581280949,/g3t1_2,,success
Status,412,11610049453,/g4t1,,fail
Status,413,11619989264,/g3t1_3,,running
Status,414,11621914703,/g3t1_3,,success
Status,415,11628703774,/g3t1_2,,running
Status,416,11628796178,/g3t1_1,,running
Status,417,11630773325,/g3t1_2,,success
Status,418,11631910886,/g3t1_1,,success
Status,419,11669902944,/g3t1_3,,running
Status,420,11671633053,/g3t1_3,,success
Status,421,11678400097,/g3t1_2,,running
Status,422,11678466305,/g3t1_1,,running
Status,423,11681097604,/g3t1_2,,success
Status,424,11681384720,/g3t1_1,,success
Status,425,11710060090,/g4t1,,fail
Status,426,11720127228,/g3t1_3,,running
Status,427,11722281649,/g3t1_3,,success
Status,428,11728635233,/g3t1_1,,running
Status,429,11728712851,/g3t1_2,,running
Status,430,11730667229,/g3t1_1,,success
Status,431,11731671021,/g3t1_2,,success
Status,432,11770273417,/g3t1_3,,running
Status,433,11772247768,/g3t1_3,,success
Status,434,11778726229,/g3t1_2,,running
Status,435,11778789196,/g3t1_1,,running
Status,436,11780416963,/g3t1_2,,success
Status,437,11781536609,/g3t1_1,,success
Status,438,11810025842,/g4t1,,fail
Status,439,11820319863,/g3t1_3,,running
Status,440,11822586718,/g3t1_3,,success
Status,441,11828859356,/g3t1_2,,running
Status,442,11828956780,/g3t1_1,,running
Status,443,11830868318,/g3t1_2,,success
Status,444,11832045161,/g3t1_1,,success
Status,445,11870555572,/g3t1_3,,running
Status,446,11872617140,/g3t1_3,,success
Status,447,11878894682,/g3t1_2,,running
Status,448,11878962921,/g3t1_1,,running
Status,449,11880705811,/g3t1_1,,success
Status,450,11882152891,/g3t1_2,,success
Status,451,11910233042,/g4t1,,fail
Status,452,11920802264,/g3t1_3,,running
Status,453,11923498052,/g3t1_3,,success
Status,454,11929072787,/g3t1_2,,running
Status,455,11929144746,/g3t1_1,,running
Status,456,11932185196,/g3t1_2,,success
Status,457,11932253986,/g3t1_1,,success
Status,458,11970735076,/g3t1_3,,running
Status,459,11972180998,/g3t1_3,,success
Status,460,11978768588,/g3t1_2,,running
Status,461,11978816565,/g3t1_1,,running
Status,462,11979955562,/g3t1_2,,success
Status,463,11980665190,/g3t1_1,,success
Status,464,12010176762,/g4t1,,fail
Status,465,12021175597,/g3t1_3,,running
Status,466,12023544570,/g3t1_3,,success
Status,467,12029312175,/g3t1_2,,running
Status,468,12029379495,/g3t1_1,,running
Status,469,12031283612,/g3t1_2,,success
Status,470,12032405488,/g3t1_1,,success
Status,471,12070961003,/g3t1_3,,running
Status,472,12072830885,/g3t1_3,,success
Status,473,12079223179,/g3t1_2,,running
Status,474,12079288570,/g3t1_1,,running
Status,475,12081438029,/g3t1_2,,success
Status,476,12082635465,/g3t1_1,,success
Status,477,12110474543,/g4t1,,fail
Status,478,12121188861,/g3t1_3,,running
Status,479,12122794672,/g3t1_3,,success
Status,480,12129591197,/g3t1_2,,running
Status,481,12129658172,/g3t1_1,,running
Status,482,12131525404,/g3t1_2,,success
Status,483,12132776315,/g3t1_1,,success
Status,484,12171244122,/g3t1_3,,running
Status,485,12172931515,/g3t1_3,,success
Status,486,12179431248,/g3t1_2,,running
Status,487,12179516705,/g3t1_1,,running
Status,488,12181653136,/g3t1_2,,success
Status,489,12182851052,/g3t1_1,,success
Status,490,12210586321,/g4t1,,fail
Status,491,12221364691,/g3t1_3,,running
Status,492,12223298303,/g3t1_3,,success
Status,493,12229630169,/g3t1_2,,running
Status,494,12229700152,/g3t1_1,,running
Status,495,12231397074,/g3t1_2,,success
Status,496,12232417331,/g3t1_1,,success
Status,497,12271514058,/g3t1_3,,running
Status,498,12273651511,/g3t1_3,,success
Status,499,12279615648,/g3t1_2,,running
Status,500,12279697758,/g3t1_1,,running
Status,501,12282188211,/g3t1_1,,success
Status,502,12283229116,/g3t1_2,,success
Status,503,12310908713,/g4t1,,fail
Status,504,12321540802,/g3t1_3,,running
Status,505,12323186933,/g3t1_3,,success
Status,506,12329877412,/g3t1_2,,running
Status,507,12329942693,/g3t1_1,,running
Status,508,12332382150,/g3t1_2,,success
Status,509,12332809898,/g3t1_1,,success
Status,513,12371967511,/g3t1_3,,running
Status,514,12375700437,/g3t1_3,,success
Status,515,12379836750,/g3t1_2,,running
Status,516,12379906083,/g3t1_1,,running
Status,517,12382542476,/g3t1_2,,success
Status,518,12383234589,/g3t1_1,,success
Status,519,12410928848,/g4t1,,fail
Status,520,12421814386,/g3t1_3,,running
Status,521,12424132890,/g3t1_3,,success
Status,522,12430170010,/g3t1_2,,running
Status,523,12430257505,/g3t1_1,,running
Status,524,12432105354,/g3t1_2,,success
Status,525,12433004490,/g3t1_1,,success
Status,526,12471491926,/g3t1_3,,running
Status,527,12472270141,/g3t1_3,,success
Status,528,12479590500,/g3t1_2,,running
Status,529,12479615482,/g3t1_1,,running
Status,530,12480574801,/g3t1_2,,success
Status,531,12480777053,/g3t1_1,,success
Status,532,12511145721,/g4t1,,fail
Status,533,12521761536,/g3t1_3,,running
Status,534,12523680844,/g3t1_3,,success
Status,535,12530202556,/g3t1_1,,running
Status,536,12530360692,/g3t1_2,,running
Status,537,12532220228,/g3t1_2,,success
Status,538,12533297590,/g3t1_1,,success
Status,542,12571971857,/g3t1_3,,running
Status,543,12574426269,/g3t1_3,,success
Status,544,12580429607,/g3t1_1,,running
Status,545,12580573043,/g3t1_2,,running
Status,546,12583639315,/g3t1_1,,success
Status,547,12583955219,/g3t1_2,,success
Status,548,12611205968,/g4t1,,fail
Status,549,12621937474,/g3t1_3,,running
Status,550,12623779009,/g3t1_3,,success
Status,551,12630400899,/g3t1_2,,running
Status,552,12630484700,/g3t1_1,,running
Status,553,12632669496,/g3t1_1,,success
Status,554,12633977115,/g3t1_2,,success
Status,555,12672422096,/g3t1_3,,running
Status,556,12674375815,/g3t1_3,,success
Status,557,12680618075,/g3t1_2,,running
Status,558,12680680520,/g3t1_1,,running
Status,559,12682851675,/g3t1_1,,success
Status,560,12683981767,/g3t1_2,,success
Status,561,12711328203,/g4t1,,fail
Status,562,12722171013,/g3t1_3,,running
Status,563,12724244527,/g3t1_3,,success
Status,564,12730689409,/g3t1_1,,running
Status,565,12730771273,/g3t1_2,,running
Status,566,12733559643,/g3t1_2,,success
Status,567,12733857708,/g3t1_1,,success
Status,571,12772493996,/g3t1_3,,running
Status,572,12774434072,/g3t1_3,,success
Status,573,12780843423,/g3t1_2,,running
Status,574,12780906513,/g3t1_1,,running
Status,575,12782884460,/g3t1_2,,success
Status,576,12783705789,/g3t1_1,,success
Status,577,12811654439,/g4t1,,fail
Status,578,12822706268,/g3t1_3,,running
Status,579,12824661439,/g3t1_3,,success
Status,580,12830975690,/g3t1_2,,running
Status,581,12831039873,/g3t1_1,,running
Status,582,12832686581,/g3t1_2,,success
Status,583,12834115627,/g3t1_1,,success
Status,584,12872839699,/g3t1_3,,running
Status,585,12874882832,/g3t1_3,,success
Status,586,12881023715,/g3t1_1,,running
Status,587,12881096101,/g3t1_2,,running
Status,588,12882948715,/g3t1_2,,success
Status,589,12883899882,/g3t1_1,,success
Status,590,12911720153,/g4t1,,fail
Status,591,12922929766,/g3t1_3,,running
Status,592,12924408344,/g3t1_3,,success
Status,593,12931204595,/g3t1_2,,running
Status,594,12931272217,/g3t1_1,,running
Status,595,12933044892,/g3t1_2,,success
Status,596,12934312457,/g3t1_1,,success
Status,600,12973063508,/g3t1_3,,running
Status,601,12975336182,/g3t1_3,,success
Status,602,12981441760,/g3t1_2,,running
Status,603,12982069158,/g3t1_1,,running
Status,604,12984101100,/g3t1_2,,success
Status,605,12985524975,/g3t1_1,,success
Status,606,13011604487,/g4t1,,fail
Status,607,13022549241,/g3t1_3,,running
Status,608,13023219526,/g3t1_3,,success
Status,609,13031129900,/g3t1_2,,running
Status,610,13031187066,/g3t1_1,,running
Status,611,13032741484,/g3t1_2,,success
Status,612,13033777012,/g3t1_1,,success
Status,613,13072635228,/g3t1_3,,running
Status,614,13073391177,/g3t1_3,,success
Status,615,13081486800,/g3t1_2,,running
Status,616,13081537253,/g3t1_1,,running
Status,617,13082498405,/g3t1_1,,success
Status,618,13082962113,/g3t1_2,,success
Status,619,13111951921,/g4t1,,fail
Status,620,13123464134,/g3t1_3,,running
Status,621,13125508261,/g3t1_3,,success
Status,622,13131488411,/g3t1_2,,running
Status,623,13131571239,/g3t1_1,,running
Status,624,13133689510,/g3t1_2,,success
Status,625,13134920193,/g3t1_1,,success
Status,629,13173431273,/g3t1_3,,running
Status,630,13175263107,/g3t1_3,,success
Status,631,13181836183,/g3t1_2,,running
Status,632,13181914768,/g3t1_1,,running
Status,633,13184197719,/g3t1_2,,success
Status,634,13185145006,/g3t1_1,,success
Status,635,13211915231,/g4t1,,fail
Status,636,13223411040,/g3t1_3,,running
Status,637,13225098944,/g3t1_3,,success
Status,638,13231843023,/g3t1_2,,running
Status,639,13231923358,/g3t1_1,,running
Status,640,13233755599,/g3t1_2,,success
Status,641,13234840979,/g3t1_1,,success
Status,642,13273196783,/g3t1_3,,running
Status,643,13274529599,/g3t1_3,,success
Status,644,13281446256,/g3t1_2,,running
Status,645,13281510435,/g3t1_1,,running
Status,646,13282430078,/g3t1_2,,success
Status,647,13283521909,/g3t1_1,,success
Status,648,13311257423,/g4t1,,fail
Status,649,13323153041,/g3t1_3,,running
Status,650,13323895220,/g3t1_3,,success
Status,651,13331975138,/g3t1_2,,running
Status,652,13332049459,/g3t1_1,,running
Status,653,13334229884,/g3t1_2,,success
Status,654,13335416576,/g3t1_1,,success
Status,658,13373740159,/g3t1_3,,running
Status,659,13375399248,/g3t1_3,,success
Status,660,13382148062,/g3t1_2,,running
Status,661,13382219358,/g3t1_1,,running
Status,662,13384778018,/g3t1_2,,success
Status,663,13385709923,/g3t1_1,,success
Status,664,13412036277,/g4t1,,fail
Status,665,13423934467,/g3t1_3,,running
Status,666,13425605706,/g3t1_3,,success
Status,667,13432279571,/g3t1_2,,running
Status,668,13432406502,/g3t1_1,,running
Status,669,13434240977,/g3t1_2,,success
Status,670,13435555831,/g3t1_1,,success
Status,671,13474169915,/g3t1_3,,running
Status,672,13475894135,/g3t1_3,,success
Status,673,13482288877,/g3t1_2,,running
Status,674,13482419826,/g3t1_1,,running
Status,675,13485361493,/g3t1_2,,success
Status,676,13485764179,/g3t1_1,,success
Status,677,13512702472,/g4t1,,fail
Status,678,13524040924,/g3t1_3,,running
Status,679,13525985150,/g3t1_3,,success
Status,680,13532728841,/g3t1_2,,running
Status,681,13532795528,/g3t1_1,,running
Status,682,13535179245,/g3t1_2,,success
Status,683,13536247891,/g3t1_1,,success
Status,687,13574393345,/g3t1_3,,running
Status,688,13575991453,/g3t1_3,,success
Status,689,13582497675,/g3t1_2,,running
Status,690,13582569871,/g3t1_1,,running
Status,691,13584603232,/g3t1_2,,success
Status,692,13586317143,/g3t1_1,,success
Status,693,13612153381,/g4t1,,fail
Status,694,13624080415,/g3t1_3,,running
Status,695,13625225069,/g3t1_3,,success
Status,696,13632446404,/g3t1_2,,running
Status,697,13632493779,/g3t1_1,,running
Status,698,13634331099,/g3t1_1,,success
Status,699,13634544023,/g3t1_2,,success
Status,700,13674267858,/g3t1_3,,running
Status,701,13675481147,/g3t1_3,,success
Status,702,13682889653,/g3t1_2,,running
Status,703,13682959696,/g3t1_1,,running
Status,704,13685817805,/g3t1_2,,success
Status,705,13685889559,/g3t1_1,,success
Status,706,13712713279,/g4t1,,fail
Status,707,13724572588,/g3t1_3,,running
Status,708,13726621474,/g3t1_3,,success
Status,709,13732860565,/g3t1_1,,running
Status,710,13732919431,/g3t1_2,,running
Status,711,13734524153,/g3t1_1,,success
Status,712,13735755113,/g3t1_2,,success
Status,716,13774911680,/g3t1_3,,running
Status,717,13776733697,/g3t1_3,,success
Status,718,13783148168,/g3t1_1,,running
Status,719,13783258022,/g3t1_2,,running
Status,720,13785561495,/g3t1_2,,success
Status,721,13786538482,/g3t1_1,,success
Status,722,13812898851,/g4t1,,fail
Status,723,13824822749,/g3t1_3,,running
Status,724,13826855480,/g3t1_3,,success
Status,725,13833389107,/g3t1_2,,running
Status,726,13833456260,/g3t1_1,,running
Status,727,13836175240,/g3t1_2,,success
Status,728,13836246591,/g3t1_1,,success
Status,729,13875142918,/g3t1_3,,running
Status,730,13876933000,/g3t1_3,,success
Status,731,13883450353,/g3t1_1,,running
Status,732,13883542078,/g3t1_2,,running
Status,733,13885448733,/g3t1_2,,success
Status,734,13886551487,/g3t1_1,,success
Status,735,13913284307,/g4t1,,fail
Status,736,13925264887,/g3t1_3,,running
Status,737,13927214684,/g3t1_3,,success
Status,738,13933660588,/g3t1_2,,running
Status,739,13933728036,/g3t1_1,,running
Status,740,13935783911,/g3t1_1,,success
Status,741,13937034214,/g3t1_2,,success
Status,745,13974725848,/g3t1_3,,running
Status,746,13975562531,/g3t1_3,,success
Status,747,13983196095,/g3t1_2,,running
Status,748,13983220476,/g3t1_1,,running
Status,749,13983817270,/g3t1_1,,success
Status,750,13984227071,/g3t1_2,,success
Status,751,14013341104,/g4t1,,fail
Status,752,14025383247,/g3t1_3,,running
Status,753,14027264681,/g3t1_3,,success
Status,754,14033910587,/g3t1_2,,running
Status,755,14033975927,/g3t1_1,,running
Status,756,14037275861,/g3t1_1,,success
Status,757,14037340852,/g3t1_2,,success
Status,758,14075568102,/g3t1_3,,running
Status,759,14077478024,/g3t1_3,,success
Status,760,14083917733,/g3t1_2,,running
Status,761,14083983877,/g3t1_1,,running
Status,762,14086080628,/g3t1_1,,success
Status,763,14087073400,/g3t1_2,,success
Status,764,14113717421,/g4t1,,fail
Status,765,14125543089,/g3t1_3,,running
Status,766,14127337585,/g3t1_3,,success
Status,767,14134207294,/g3t1_2,,running
Status,768,14134275953,/g3t1_1,,running
Status,769,14137403282,/g3t1_1,,success
Status,770,14137863919,/g3t1_2,,success
Status,774,14175849710,/g3t1_3,,running
Status,775,14177523930,/g3t1_3,,success
Status,776,14184385613,/g3t1_1,,running
Status,777,14184451470,/g3t1_2,,running
Status,778,14185873924,/g3t1_1,,success
Status,779,14187473582,/g3t1_2,,success
Status,780,14213772318,/g4t1,,fail
Status,781,14225736969,/g3t1_3,,running
Status,782,14227528738,/g3t1_3,,success
Status,783,14234462450,/g3t1_1,,running
Status,784,14234531963,/g3t1_2,,running
Status,785,14236649054,/g3t1_2,,success
Status,786,14237927584,/g3t1_1,,success
Status,787,14276029849,/g3t1_3,,running
Status,788,14278103918,/g3t1_3,,success
Status,789,14284480039,/g3t1_1,,running
Status,790,14284608771,/g3t1_2,,running
Status,791,14287279914,/g3t1_2,,success
Status,792,14287333414,/g3t1_1,,success
Status,793,14313941594,/g4t1,,fail
Status,794,14326061473,/g3t1_3,,running
Status,795,14328155642,/g3t1_3,,success
Status,796,14334655919,/g3t1_1,,running
Status,797,14334748140,/g3t1_2,,running
Status,798,14336973241,/g3t1_1,,success
Status,799,14338057327,/g3t1_2,,success
Status,803,14376042344,/g3t1_3,,running
Status,804,14377913227,/g3t1_3,,success
Status,805,14384662394,/g3t1_2,,running
Status,806,14384726728,/g3t1_1,,running
Status,807,14386410698,/g3t1_2,,success
Status,808,14387668139,/g3t1_1,,success
Status,809,14414122884,/g4t1,,fail
Status,810,14426187261,/g3t1_3,,running
Status,811,14428199652,/g3t1_3,,success
Status,812,14434857961,/g3t1_2,,running
Status,813,14434932649,/g3t1_1,,running
Status,814,14437711156,/g3t1_2,,success
Status,815,14438702232,/g3t1_1,,success
Status,816,14476761577,/g3t1_3,,running
Status,817,14478658798,/g3t1_3,,success
Status,818,14485338528,/g3t1_2,,running
Status,819,14485405896,/g3t1_1,,running
Status,820,14486938312,/g3t1_2,,success
Status,821,14487935120,/g3t1_1,,success
Status,822,14514031284,/g4t1,,fail
Status,823,14526406836,/g3t1_3,,running
Status,824,14527820687,/g3t1_3,,success
Status,825,14535241616,/g3t1_1,,running
Status,826,14535313923,/g3t1_2,,running
Status,827,14538930949,/g3t1_2,,success
Status,828,14539336175,/g3t1_1,,success
Status,832,14576764795,/g3t1_3,,running
Status,833,14578691591,/g3t1_3,,success
Status,834,14585462551,/g3t1_2,,running
Status,835,14585554372,/g3t1_1,,running
Status,836,14587254406,/g3t1_1,,success
Status,837,14588841754,/g3t1_2,,success
Status,838,14614322773,/g4t1,,fail
Status,839,14626711738,/g3t1_3,,running
Status,840,14628618432,/g3t1_3,,success
Status,841,14635436713,/g3t1_2,,running
Status,842,14635516163,/g3t1_1,,running
Status,843,14637719901,/g3t1_1,,success
Status,844,14638705538,/g3t1_2,,success
Status,845,14677140668,/g3t1_3,,running
Status,846,14679048498,/g3t1_3,,success
Status,847,14685589485,/g3t1_1,,running
Status,848,14685679584,/g3t1_2,,running
Status,849,14687994418,/g3t1_2,,success
Status,850,14689150086,/g3t1_1,,success
Status,851,14714437891,/g4t1,,fail
Status,852,14727014373,/g3t1_3,,running
Status,853,14728403285,/g3t1_3,,success
Status,854,14735550077,/g3t1_1,,running
Status,855,14735620512,/g3t1_2,,running
Status,856,14737741666,/g3t1_1,,success
Status,857,14738969236,/g3t1_2,,success
Status,861,14777610097,/g3t1_3,,running
Status,862,14779378319,/g3t1_3,,success
Status,863,14785774146,/g3t1_1,,running
Status,864,14785874056,/g3t1_2,,running
Status,865,14787746094,/g3t1_1,,success
Status,866,14789158944,/g3t1_2,,success
Status,867,14814539939,/g4t1,,fail
Status,868,14827451461,/g3t1_3,,running
Status,869,14829276340,/g3t1_3,,success
Status,870,14835758028,/g3t1_1,,running
Status,871,14835827346,/g3t1_2,,running
Status,872,14838354325,/g3t1_1,,success
Status,873,14840306555,/g3t1_2,,success
Status,874,14877076652,/g3t1_3,,running
Status,875,14877737964,/g3t1_3,,success
Status,876,14885309978,/g3t1_1,,running
Status,877,14885410959,/g3t1_2,,running
Status,878,14886027659,/g3t1_1,,success
Status,879,14886270877,/g3t1_2,,success
Status,880,14913900837,/g4t1,,fail
Status,881,14927454083,/g3t1_3,,running
Status,882,14928636704,/g3t1_3,,success
Status,883,14935859812,/g3t1_1,,running
Status,884,14935931976,/g3t1_2,,running
Status,885,14937863069,/g3t1_1,,success
Status,886,14939145680,/g3t1_2,,success
Status,890,14977896879,/g3t1_3,,running
Status,891,14979863292,/g3t1_3,,success
Status,892,14986148069,/g3t1_1,,running
Status,893,14986217409,/g3t1_2,,running
Status,894,14988327285,/g3t1_1,,success
Status,895,14989454987,/g3t1_2,,success
Status,896,15014625854,/g4t1,,fail
Status,897,15028050142,/g3t1_3,,running
Status,898,15029933601,/g3t1_3,,success
Status,899,15036231498,/g3t1_1,,running
Status,900,15036298191,/g3t1_2,,running
Status,901,15038417427,/g3t1_1,,success
Status,902,15039998935,/g3t1_2,,success
Status,903,15078164326,/g3t1_3,,running
Status,904,15080301460,/g3t1_3,,success
Status,905,15086436694,/g3t1_1,,running
Status,906,15086513004,/g3t1_2,,running
Status,907,15088244207,/g3t1_1,,success
Status,908,15089471996,/g3t1_2,,success
Status,909,15114787930,/g4t1,,fail
Status,910,15128272957,/g3t1_3,,running
Status,911,15130144465,/g3t1_3,,success
Status,912,15136583833,/g3t1_1,,running
Status,913,15136687778,/g3t1_2,,running
Status,914,15138627110,/g3t1_1,,success
Status,915,15139440237,/g3t1_2,,success
Status,919,15178372337,/g3t1_3,,running
Status,920,15180490267,/g3t1_3,,success
Status,921,15186610031,/g3t1_1,,running
Status,922,15186676816,/g3t1_2,,running
Status,923,15188774888,/g3t1_1,,success
Status,924,15189839309,/g3t1_2,,success
Status,925,15214785924,/g4t1,,fail
Status,926,15228593972,/g3t1_3,,running
Status,927,15230754376,/g3t1_3,,success
Status,928,15236749858,/g3t1_1,,running
Status,929,15236838740,/g3t1_2,,running
Status,930,15239234517,/g3t1_1,,success
Status,931,15239772184,/g3t1_2,,success
Status,932,15278718218,/g3t1_3,,running
Status,933,15280381451,/g3t1_3,,success
Status,934,15286874410,/g3t1_1,,running
Status,935,15286937468,/g3t1_2,,running
Status,936,15288475849,/g3t1_1,,success
Status,937,15289842364,/g3t1_2,,success
Status,938,15315021695,/g4t1,,fail
Status,939,15329131755,/g3t1_3,,running
Status,940,15330777789,/g3t1_3,,success
Status,941,15337070905,/g3t1_1,,running
Status,942,15337147177,/g3t1_2,,running
Status,943,15338794595,/g3t1_1,,success
Status,944,15339840394,/g3t1_2,,success
Status,948,15379110811,/g3t1_3,,running
Status,949,15380882436,/g3t1_3,,success
Status,950,15387031950,/g3t1_1,,running
Status,951,15387089049,/g3t1_2,,running
Status,952,15388893765,/g3t1_1,,success
Status,953,15390116509,/g3t1_2,,success
Status,954,15415025568,/g4t1,,fail
Status,955,15429581839,/g3t1_3,,running
Status,956,15431779524,/g3t1_3,,success
Status,957,15437178737,/g3t1_1,,running
Status,958,15437249442,/g3t1_2,,running
Status,959,15439843325,/g3t1_1,,success
Status,960,15440416192,/g3t1_2,,success
Status,961,15479292878,/g3t1_3,,running
Status,962,15480933878,/g3t1_3,,success
Status,963,15487327400,/g3t1_1,,running
Status,964,15487397138,/g3t1_2,,running
Status,965,15489521822,/g3t1_1,,success
Status,966,15490691675,/g3t1_2,,success
Status,967,15515276624,/g4t1,,fail
Status,968,15529467319,/g3t1_3,,running
Status,969,15531196809,/g3t1_3,,success
Status,970,15537400289,/g3t1_1,,running
Status,971,15537468596,/g3t1_2,,running
Status,972,15539456414,/g3t1_1,,success
Status,973,15540977117,/g3t1_2,,success
Status,974,15579794502,/g3t1_3,,running
Status,975,15581970414,/g3t1_3,,success
Status,976,15587839164,/g3t1_1,,running
Status,977,15587921043,/g3t1_2,,running
Status,978,15589837098,/g3t1_1,,success
Status,979,15591142881,/g3t1_2,,success
Status,980,15615006187,/g4t1,,fail
Status,981,15629775271,/g3t1_3,,running
Status,982,15631452301,/g3t1_3,,success
Status,983,15637903718,/g3t1_1,,running
Status,984,15637998090,/g3t1_2,,running
Status,985,15640088847,/g3t1_1,,success
Status,986,15641128106,/g3t1_2,,success
Status,987,15679820431,/g3t1_3,,running
Status,988,15681583647,/g3t1_3,,success
Status,989,15687859598,/g3t1_1,,running
Status,990,15687928373,/g3t1_2,,running
Status,991,15691380354,/g3t1_1,,success
Status,992,15692149490,/g3t1_2,,success
Status,993,15715211155,/g4t1,,fail
Status,994,15729981703,/g3t1_3,,running
Status,995,15732062031,/g3t1_3,,success
Status,996,15738000372,/g3t1_1,,running
Status,997,15738090745,/g3t1_2,,running
Status,998,15740003824,/g3t1_1,,success
Status,999,15740969186,/g3t1_2,,success
Status,1000,15779887161,/g3t1_3,,running
Status,1001,15782088411,/g3t1_3,,success
Status,1002,15788431099,/g3t1_1,,running
Status,1003,15788586400,/g3t1_2,,running
Status,1004,15790025241,/g3t1_1,,success
Status,1005,15790904318,/g3t1_2,,success
Status,1006,15815641635,/g4t1,,fail
Status,1007,15830240427,/g3t1_3,,running
Status,1008,15832315226,/g3t1_3,,success
Status,1009,15838212146,/g3t1_1,,running
Status,1010,15838277158,/g3t1_2,,running
Status,1011,15840286247,/g3t1_1,,success
Status,1012,15841508837,/g3t1_2,,success
Status,1013,15880588742,/g3t1_3,,running
Status,1014,15882696275,/g3t1_3,,success
Status,1015,15888316538,/g3t1_1,,running
Status,1016,15888391942,/g3t1_2,,running
Status,1017,15890095193,/g3t1_1,,success
Status,1018,15891222814,/g3t1_2,,success
Status,1019,15915675915,/g4t1,,fail
Status,1020,15930600175,/g3t1_3,,running
Status,1021,15932555618,/g3t1_3,,success
Status,1022,15938389572,/g3t1_1,,running
Status,1023,15938479926,/g3t1_2,,running
Status,1024,15940477068,/g3t1_1,,success
Status,1025,15941290916,/g3t1_2,,success
Status,1026,15980909340,/g3t1_3,,running
Status,1027,15982640523,/g3t1_3,,success
Status,1028,15988771444,/g3t1_1,,running
Status,1029,15988854298,/g3t1_2,,running
Status,1030,15990361085,/g3t1_1,,success
Status,1031,15991504776,/g3t1_2,,success
Status,1032,16015777081,/g4t1,,fail
Status,1033,16030889834,/g3t1_3,,running
Status,1034,16032604619,/g3t1_3,,success
Status,1035,16038734001,/g3t1_1,,running
Status,1036,16038839912,/g3t1_2,,running
Status,1037,16040631750,/g3t1_1,,success
Status,1038,16041684724,/g3t1_2,,success
Status,1039,16081177030,/g3t1_3,,running
Status,1040,16082986907,/g3t1_3,,success
Status,1041,16089022504,/g3t1_1,,running
Status,1042,16089101649,/g3t1_2,,running
Status,1043,16090876147,/g3t1_1,,success
Status,1044,16091905441,/g3t1_2,,success
Status,1045,16116001514,/g4t1,,fail
Status,1046,16131150997,/g3t1_3,,running
Status,1047,16132884755,/g3t1_3,,success
Status,1048,16138932188,/g3t1_1,,running
Status,1049,16138998212,/g3t1_2,,running
Status,1050,16140941446,/g3t1_1,,success
Status,1051,16141898328,/g3t1_2,,success
Status,1052,16181346477,/g3t1_3,,running
Status,1053,16182944518,/g3t1_3,,success
Status,1054,16189058884,/g3t1_1,,running
Status,1055,16189116284,/g3t1_2,,running
Status,1056,16191561192,/g3t1_1,,success
Status,1057,16191629685,/g3t1_2,,success
Status,1058,16216012161,/g4t1,,fail
Status,1059,16231380163,/g3t1_3,,running
Status,1060,16233239443,/g3t1_3,,success
Status,1061,16238964929,/g3t1_1,,running
Status,1062,16239106573,/g3t1_2,,running
Status,1063,16240876335,/g3t1_1,,success
Status,1064,16241798390,/g3t1_2,,success
Status,1065,16281623001,/g3t1_3,,running
Status,1066,16283360040,/g3t1_3,,success
Status,1067,16289333632,/g3t1_1,,running
Status,1068,16289391602,/g3t1_2,,running
Status,1069,16290932112,/g3t1_2,,success
Status,1070,16292082774,/g3t1_1,,success
Status,1071,16316163197,/g4t1,,fail
Status,1072,16331740326,/g3t1_3,,running
Status,1073,16333610011,/g3t1_3,,success
Status,1074,16339460677,/g3t1_1,,running
Status,1075,16339527511,/g3t1_2,,running
Status,1076,16341647019,/g3t1_1,,success
Status,1077,16342451499,/g3t1_2,,success
Status,1081,16381656724,/g3t1_3,,running
Status,1082,16383354844,/g3t1_3,,success
Status,1083,16389642608,/g3t1_1,,running
Status,1084,16389730194,/g3t1_2,,running
Status,1085,16391372791,/g3t1_1,,success
Status,1086,16392403562,/g3t1_2,,success
Status,1087,16416257786,/g4t1,,fail
Status,1088,16431974281,/g3t1_3,,running
Status,1089,16433967328,/g3t1_3,,success
Status,1090,16439581636,/g3t1_1,,running
Status,1091,16439652402,/g3t1_2,,running
Status,1092,16441531329,/g3t1_1,,success
Status,1093,16442564220,/g3t1_2,,success
Status,1094,16482037593,/g3t1_3,,running
Status,1095,16483853354,/g3t1_3,,success
Status,1096,16489606764,/g3t1_1,,running
Status,1097,16489662670,/g3t1_2,,running
Status,1098,16491226146,/g3t1_1,,success
Status,1099,16492276852,/g3t1_2,,success
Status,1100,16516355207,/g4t1,,fail
Status,1101,16532124608,/g3t1_3,,running
Status,1102,16533588171,/g3t1_3,,success
Status,1103,16539917185,/g3t1_1,,running
Status,1104,16540004991,/g3t1_2,,running
Status,1105,16542006842,/g3t1_1,,success
Status,1106,16543068857,/g3t1_2,,success
Status,1110,16582365332,/g3t1_3,,running
Status,1111,16584269997,/g3t1_3,,success
Status,1112,16589752169,/g3t1_1,,running
Status,1113,16589807548,/g3t1_2,,running
Status,1114,16591283890,/g3t1_1,,success
Status,1115,16592679538,/g3t1_2,,success
Status,1116,16616599263,/g4t1,,fail
Status,1117,16632367456,/g3t1_3,,running
Status,1118,16633969214,/g3t1_3,,success
Status,1119,16639992611,/g3t1_1,,running
Status,1120,16640065386,/g3t1_2,,running
Status,1121,16642511665,/g3t1_1,,success
Status,1122,16643468748,/g3t1_2,,success
Status,1123,16682663211,/g3t1_3,,running
Status,1124,16684365644,/g3t1_3,,success
Status,1125,16690300849,/g3t1_1,,running
Status,1126,16690363657,/g3t1_2,,running
Status,1127,16693266108,/g3t1_1,,success
Status,1128,16693717082,/g3t1_2,,success
Status,1129,16716140026,/g4t1,,fail
Status,1130,16732126033,/g3t1_3,,running
Status,1131,16732767279,/g3t1_3,,success
Status,1132,16739617220,/g3t1_1,,running
Status,1133,16739843680,/g3t1_2,,running
Status,1134,16740208667,/g3t1_1,,success
Status,1135,16740595722,/g3t1_2,,success
Status,1139,16782481781,/g3t1_3,,running
Status,1140,16783765136,/g3t1_3,,success
Status,1141,16791567853,/g3t1_1,,running
Status,1142,16791662568,/g3t1_2,,running
Status,1143,16792281978,/g3t1_1,,success
Status,1144,16793401149,/g3t1_2,,success
Status,1145,16816718624,/g4t1,,fail
Status,1146,16832677339,/g3t1_3,,running
Status,1147,16834234081,/g3t1_3,,success
Status,1148,16840751755,/g3t1_1,,running
Status,1149,16840839577,/g3t1_2,,running
Status,1150,16843505130,/g3t1_1,,success
Status,1151,16845050838,/g3t1_2,,success
Status,1152,16882366445,/g3t1_3,,running
Status,1153,16882923781,/g3t1_3,,success
Status,1154,16890077824,/g3t1_1,,running
Status,1155,16890101858,/g3t1_2,,running
Status,1156,16890879705,/g3t1_1,,success
Status,1157,16891247334,/g3t1_2,,success
Status,1158,16915996890,/g4t1,,fail
Status,1159,16932468451,/g3t1_3,,running
Status,1160,16933280916,/g3t1_3,,success
Status,1161,16940129361,/g3t1_1,,running
Status,1162,16940154427,/g3t1_2,,running
Status,1163,16940734338,/g3t1_1,,success
Status,1164,16941043564,/g3t1_2,,success
Status,1168,16983285485,/g3t1_3,,running
Status,1169,16984898569,/g3t1_3,,success
Status,1170,16990529082,/g3t1_1,,running
Status,1171,16990604382,/g3t1_2,,running
Status,1172,16992474968,/g3t1_1,,success
Status,1173,16993707388,/g3t1_2,,success
Status,1174,17016947177,/g4t1,,fail
Status,1175,17033484975,/g3t1_3,,running
Status,1176,17035096970,/g3t1_3,,success
Status,1177,17041011036,/g3t1_1,,running
Status,1178,17041099458,/g3t1_2,,running
Status,1179,17042720373,/g3t1_1,,success
Status,1180,17043985663,/g3t1_2,,success
Status,1181,17083784841,/g3t1_3,,running
Status,1182,17085524328,/g3t1_3,,success
Status,1183,17090957070,/g3t1_1,,running
Status,1184,17091043667,/g3t1_2,,running
Status,1185,17092838882,/g3t1_1,,success
Status,1186,17094070235,/g3t1_2,,success
Status,1187,17117151123,/g4t1,,fail
Status,1188,17133862059,/g3t1_3,,running
Status,1189,17135561367,/g3t1_3,,success
Status,1190,17141236459,/g3t1_1,,running
Status,1191,17141305746,/g3t1_2,,running
Status,1192,17143454564,/g3t1_1,,success
Status,1193,17144726240,/g3t1_2,,success
Status,1197,17183782564,/g3t1_3,,running
Status,1198,17185355897,/g3t1_3,,success
Status,1199,17191385929,/g3t1_1,,running
Status,1200,17191456878,/g3t1_2,,running
Status,1201,17193719914,/g3t1_1,,success
Status,1202,17194771002,/g3t1_2,,success
Status,1203,17217033863,/g4t1,,fail
Status,1204,17234109301,/g3t1_3,,running
Status,1205,17235815138,/g3t1_3,,success
Status,1206,17241449257,/g3t1_2,,running
Status,1207,17241531505,/g3t1_1,,running
Status,1208,17243184289,/g3t1_1,,success
Status,1209,17244411547,/g3t1_2,,success
Status,1210,17283933839,/g3t1_3,,running
Status,1211,17285722477,/g3t1_3,,success
Status,1212,17291678616,/g3t1_1,,running
Status,1213,17291769352,/g3t1_2,,running
Status,1214,17294617569,/g3t1_2,,success
Status,1215,17295036380,/g3t1_1,,success
Status,1216,17317116348,/g4t1,,fail
Status,1217,17334324660,/g3t1_3,,running
Status,1218,17336014008,/g3t1_3,,success
Status,1219,17341861322,/g3t1_1,,running
Status,1220,17341929546,/g3t1_2,,running
Status,1221,17343945228,/g3t1_2,,success
Status,1222,17344789138,/g3t1_1,,success
Status,1226,17384154962,/g3t1_3,,running
Status,1227,17385784879,/g3t1_3,,success
Status,1228,17392015004,/g3t1_1,,running
Status,1229,17392080754,/g3t1_2,,running
Status,1230,17393783968,/g3t1_1,,success
Status,1231,17396103757,/g3t1_2,,success
Status,1232,17417273163,/g4t1,,fail
Status,1233,17434587338,/g3t1_3,,running
Status,1234,17436236146,/g3t1_3,,success
Status,1235,17442023575,/g3t1_2,,running
Status,1236,17442094601,/g3t1_1,,running
Status,1237,17443569305,/g3t1_2,,success
Status,1238,17444916815,/g3t1_1,,success
Status,1239,17484645200,/g3t1_3,,running
Status,1240,17486566388,/g3t1_3,,success
Status,1241,17492213107,/g3t1_2,,running
Status,1242,17492283338,/g3t1_1,,running
Status,1243,17495069348,/g3t1_2,,success
Status,1244,17495168284,/g3t1_1,,success
Status,1245,17517549620,/g4t1,,fail
Status,1246,17534803846,/g3t1_3,,running
Status,1247,17536601986,/g3t1_3,,success
Status,1248,17542352018,/g3t1_2,,running
Status,1249,17542416237,/g3t1_1,,running
Status,1250,17544578533,/g3t1_2,,success
Status,1251,17545130967,/g3t1_1,,success
Status,1255,17585135773,/g3t1_3,,running
Status,1256,17586789923,/g3t1_3,,success
Status,1257,17592562098,/g3t1_2,,running
Status,1258,17592653884,/g3t1_1,,running
Status,1259,17594642631,/g3t1_2,,success
Status,1260,17595588571,/g3t1_1,,success
Status,1261,17617786058,/g4t1,,fail
Status,1262,17635064278,/g3t1_3,,running
Status,1263,17637193094,/g3t1_3,,success
Status,1264,17642496264,/g3t1_2,,running
Status,1265,17642583179,/g3t1_1,,running
Status,1266,17644268215,/g3t1_2,,success
Status,1267,17645463898,/g3t1_1,,success
Status,1268,17685272116,/g3t1_3,,running
Status,1269,17687015437,/g3t1_3,,success
Status,1270,17692663087,/g3t1_2,,running
Status,1271,17692741291,/g3t1_1,,running
Status,1272,17694584788,/g3t1_2,,success
Status,1273,17695616714,/g3t1_1,,success
Status,1274,17717821198,/g4t1,,fail
Status,1275,17735212950,/g3t1_3,,running
Status,1276,17737358158,/g3t1_3,,success
Status,1277,17742647266,/g3t1_2,,running
Status,1278,17742717910,/g3t1_1,,running
Status,1279,17744181595,/g3t1_2,,success
Status,1280,17745696293,/g3t1_1,,success
Status,1284,17785500050,/g3t1_3,,running
Status,1285,17787444001,/g3t1_3,,success
Status,1286,17793099872,/g3t1_2,,running
Status,1287,17793168506,/g3t1_1,,running
Status,1288,17795113210,/g3t1_1,,success
Status,1289,17796293366,/g3t1_2,,success
Status,1290,17817124250,/g4t1,,fail
Status,1291,17834800605,/g3t1_3,,running
Status,1292,17835416961,/g3t1_3,,success
Status,1293,17842406839,/g3t1_2,,running
Status,1294,17842509738,/g3t1_1,,running
Status,1295,17843088907,/g3t1_2,,success
Status,1296,17843448951,/g3t1_1,,success
Status,1297,17885296852,/g3t1_3,,running
Status,1298,17886358215,/g3t1_3,,success
Status,1299,17892858776,/g3t1_2,,running
Status,1300,17892904957,/g3t1_1,,running
Status,1301,17894679313,/g3t1_2,,success
Status,1302,17894721088,/g3t1_1,,success
Status,1303,17918089919,/g4t1,,fail
Status,1304,17935697713,/g3t1_3,,running
Status,1305,17937117042,/g3t1_3,,success
Status,1306,17943152435,/g3t1_2,,running
Status,1307,17943217646,/g3t1_1,,running
Status,1308,17945056828,/g3t1_2,,success
Status,1309,17945955536,/g3t1_1,,success
Status,1313,17985873212,/g3t1_3,,running
Status,1314,17987606545,/g3t1_3,,success
Status,1315,17993626365,/g3t1_2,,running
Status,1316,17993697515,/g3t1_1,,running
Status,1317,17995364153,/g3t1_2,,success
Status,1318,17996614812,/g3t1_1,,success
Status,1319,18017949092,/g4t1,,fail
Status,1320,18035968683,/g3t1_3,,running
Status,1321,18037758936,/g3t1_3,,success
Status,1322,18043476515,/g3t1_2,,running
Status,1323,18043563080,/g3t1_1,,running
Status,1324,18045494301,/g3t1_2,,success
Status,1325,18046609572,/g3t1_1,,success
Status,1326,18086112354,/g3t1_3,,running
Status,1327,18087920687,/g3t1_3,,success
Status,1328,18093633335,/g3t1_2,,running
Status,1329,18093733092,/g3t1_1,,running
Status,1330,18095615103,/g3t1_2,,success
Status,1331,18096801438,/g3t1_1,,success
Status,1332,18118242310,/g4t1,,fail
Status,1333,18135920593,/g3t1_3,,running
Status,1334,18137486590,/g3t1_3,,success
Status,1335,18143731044,/g3t1_2,,running
Status,1336,18143797395,/g3t1_1,,running
Status,1337,18145443248,/g3t1_2,,success
Status,1338,18146666293,/g3t1_1,,success
Status,1342,18186346665,/g3t1_3,,running
Status,1343,18188172298,/g3t1_3,,success
Status,1344,18193851974,/g3t1_2,,running
Status,1345,18194032169,/g3t1_1,,running
Status,1346,18196707328,/g3t1_1,,success
Status,1347,18196770977,/g3t1_2,,success
Status,1348,18218234358,/g4t1,,fail
Status,1349,18236340085,/g3t1_3,,running
Status,1350,18238323705,/g3t1_3,,success
Status,1351,18243864466,/g3t1_2,,running
Status,1352,18243955194,/g3t1_1,,running
Status,1353,18249159682,/g3t1_2,,success
Status,1354,18249248577,/g3t1_1,,success
Status,1355,18286480462,/g3t1_3,,running
Status,1356,18288327823,/g3t1_3,,success
Status,1357,18294074222,/g3t1_2,,running
Status,1358,18294191533,/g3t1_1,,running
Status,1359,18296005175,/g3t1_2,,success
Status,1360,18297309695,/g3t1_1,,success
Status,1361,18318464751,/g4t1,,fail
Status,1362,18336242407,/g3t1_3,,running
Status,1363,18337588930,/g3t1_3,,success
Status,1364,18343633254,/g3t1_2,,running
Status,1365,18343711308,/g3t1_1,,running
Status,1366,18345308663,/g3t1_1,,success
Status,1367,18345342985,/g3t1_2,,success
Status,1371,18386166007,/g3t1_3,,running
Status,1372,18386949217,/g3t1_3,,success
Status,1373,18393600208,/g3t1_2,,running
Status,1374,18393705057,/g3t1_1,,running
Status,1375,18394255471,/g3t1_2,,success
Status,1376,18394554333,/g3t1_1,,success
Status,1377,18417732903,/g4t1,,fail
Status,1378,18436745830,/g3t1_3,,running
Status,1379,18438886131,/g3t1_3,,success
Status,1380,18444180617,/g3t1_2,,running
Status,1381,18444247660,/g3t1_1,,running
Status,1382,18446459893,/g3t1_2,,success
Status,1383,18447298630,/g3t1_1,,success
Status,1384,18487029439,/g3t1_3,,running
Status,1385,18489056731,/g3t1_3,,success
Status,1386,18494703490,/g3t1_2,,running
Status,1387,18494794908,/g3t1_1,,running
Status,1388,18497205294,/g3t1_2,,success
Status,1389,18498335930,/g3t1_1,,success
Status,1390,18518603883,/g4t1,,fail
Status,1391,18537172385,/g3t1_3,,running
Status,1392,18539040086,/g3t1_3,,success
Status,1393,18544314373,/g3t1_2,,running
Status,1394,18544388332,/g3t1_1,,running
Status,1395,18546267711,/g3t1_2,,success
Status,1396,18547638761,/g3t1_1,,success
Status,1400,18587335686,/g3t1_3,,running
Status,1401,18589053145,/g3t1_3,,success
Status,1402,18594526069,/g3t1_2,,running
Status,1403,18594665967,/g3t1_1,,running
Status,1404,18596660187,/g3t1_2,,success
Status,1405,18598298811,/g3t1_1,,success
Status,1406,18618827951,/g4t1,,fail
Status,1407,18637505328,/g3t1_3,,running
Status,1408,18639656960,/g3t1_3,,success
Status,1409,18644847364,/g3t1_2,,running
Status,1410,18644921500,/g3t1_1,,running
Status,1411,18647172694,/g3t1_2,,success
Status,1412,18648422001,/g3t1_1,,success
Status,1413,18687294482,/g3t1_3,,running
Status,1414,18688589297,/g3t1_3,,success
Status,1415,18694640874,/g3t1_2,,running
Status,1416,18694699333,/g3t1_1,,running
Status,1417,18695908777,/g3t1_1,,success
Status,1418,18696418755,/g3t1_2,,success
Status,1419,18718529932,/g4t1,,fail
Status,1420,18737649737,/g3t1_3,,running
Status,1421,18739363994,/g3t1_3,,success
Status,1422,18744770497,/g3t1_2,,running
Status,1423,18744829378,/g3t1_1,,running
Status,1424,18746485181,/g3t1_2,,success
Status,1425,18747711918,/g3t1_1,,success
Status,1429,18787982980,/g3t1_3,,running
Status,1430,18789914955,/g3t1_3,,success
Status,1431,18794941015,/g3t1_2,,running
Status,1432,18795001385,/g3t1_1,,running
Status,1433,18796824455,/g3t1_1,,success
Status,1434,18797598276,/g3t1_2,,success
Status,1435,18819061434,/g4t1,,fail
Status,1436,18837937769,/g3t1_3,,running
Status,1437,18840281088,/g3t1_3,,success
Status,1438,18845113789,/g3t1_2,,running
Status,1439,18845187441,/g3t1_1,,running
Status,1440,18847370353,/g3t1_2,,success
Status,1441,18848591019,/g3t1_1,,success
Status,1442,18887841347,/g3t1_3,,running
Status,1443,18889308248,/g3t1_3,,success
Status,1444,18894946150,/g3t1_2,,running
Status,1445,18894998165,/g3t1_1,,running
Status,1446,18896137266,/g3t1_2,,success
Status,1447,18896762038,/g3t1_1,,success
Status,1448,18918901917,/g4t1,,fail
Status,1449,18938227121,/g3t1_3,,running
Status,1450,18939887360,/g3t1_3,,success
Status,1451,18945785753,/g3t1_2,,running
Status,1452,18945864507,/g3t1_1,,running
Status,1453,18947626385,/g3t1_2,,success
Status,1454,18948270166,/g3t1_1,,success
Status,1458,18988438009,/g3t1_3,,running
Status,1459,18990075884,/g3t1_3,,success
Status,1460,18995821730,/g3t1_2,,running
Status,1461,18995910546,/g3t1_1,,running
Status,1462,18998035172,/g3t1_1,,success
Status,1463,18999315013,/g3t1_2,,success
Status,1464,19019230811,/g4t1,,fail
Status,1465,19038601065,/g3t1_3,,running
Status,1466,19040153605,/g3t1_3,,success
Status,1467,19045670480,/g3t1_2,,running
Status,1468,19045757181,/g3t1_1,,running
Status,1469,19047340447,/g3t1_2,,success
Status,1470,19048591367,/g3t1_1,,success
Status,1471,19088414292,/g3t1_3,,running
Status,1472,19090379210,/g3t1_3,,success
Status,1473,19096146397,/g3t1_2,,running
Status,1474,19096217319,/g3t1_1,,running
Status,1475,19098208701,/g3t1_2,,success
Status,1476,19099327319,/g3t1_1,,success
Status,1477,19119292682,/g4t1,,fail
Status,1478,19138598131,/g3t1_3,,running
Status,1479,19140121264,/g3t1_3,,success
Status,1480,19145893247,/g3t1_1,,running
Status,1481,19145962762,/g3t1_2,,running
Status,1482,19148171012,/g3t1_1,,success
Status,1483,19149104277,/g3t1_2,,success
Status,1487,19188901220,/g3t1_3,,running
Status,1488,19190675811,/g3t1_3,,success
Status,1489,19196301059,/g3t1_2,,running
Status,1490,19196384149,/g3t1_1,,running
Status,1491,19198129703,/g3t1_2,,success
Status,1492,19199263247,/g3t1_1,,success
Status,1493,19219469876,/g4t1,,fail
Status,1494,19238872015,/g3t1_3,,running
Status,1495,19240668082,/g3t1_3,,success
Status,1496,19246346479,/g3t1_1,,running
Status,1497,19246411695,/g3t1_2,,running
Status,1498,19248186613,/g3t1_2,,success
Status,1499,19249322487,/g3t1_1,,success
Status,1500,19289041237,/g3t1_3,,running
Status,1501,19291299016,/g3t1_3,,success
Status,1502,19296295257,/g3t1_2,,running
Status,1503,19296364052,/g3t1_1,,running
Status,1504,19298567447,/g3t1_2,,success
Status,1505,19299648237,/g3t1_1,,success
Status,1506,19319569657,/g4t1,,fail
Status,1507,19339244883,/g3t1_3,,running
Status,1508,19340955330,/g3t1_3,,success
Status,1509,19346567947,/g3t1_1,,running
Status,1510,19346665117,/g3t1_2,,running
Status,1511,19348433880,/g3t1_2,,success
Status,1512,19349854747,/g3t1_1,,success
Status,1516,19389247122,/g3t1_3,,running
Status,1517,19390975057,/g3t1_3,,success
Status,1518,19396675047,/g3t1_2,,running
Status,1519,19396744880,/g3t1_1,,running
Status,1520,19398790253,/g3t1_1,,success
Status,1521,19399740401,/g3t1_2,,success
Status,1522,19419741224,/g4t1,,fail
Status,1523,19439221359,/g3t1_3,,running
Status,1524,19440922227,/g3t1_3,,success
Status,1525,19446819405,/g3t1_1,,running
Status,1526,19446884859,/g3t1_2,,running
Status,1527,19448737768,/g3t1_2,,success
Status,1528,19449921563,/g3t1_1,,success
Status,1529,19489714356,/g3t1_3,,running
Status,1530,19491215040,/g3t1_3,,success
Status,1531,19496931984,/g3t1_1,,running
Status,1532,19497026307,/g3t1_2,,running
Status,1533,19499013874,/g3t1_2,,success
Status,1534,19500334092,/g3t1_1,,success
Status,1535,19519918697,/g4t1,,fail
Status,1536,19539571265,/g3t1_3,,running
Status,1537,19541038164,/g3t1_3,,success
Status,1538,19547061940,/g3t1_2,,running
Status,1539,19547131759,/g3t1_1,,running
Status,1540,19549259862,/g3t1_2,,success
Status,1541,19550143036,/g3t1_1,,success
Status,1542,19590139219,/g3t1_3,,running
Status,1543,19592185070,/g3t1_3,,success
Status,1544,19597107903,/g3t1_2,,running
Status,1545,19597175165,/g3t1_1,,running
Status,1546,19599096616,/g3t1_1,,success
Status,1547,19599939139,/g3t1_2,,success
Status,1548,19619956464,/g4t1,,fail
Status,1549,19639781991,/g3t1_3,,running
Status,1550,19641560267,/g3t1_3,,success
Status,1551,19647220374,/g3t1_1,,running
Status,1552,19647310251,/g3t1_2,,running
Status,1553,19649247555,/g3t1_2,,success
Status,1554,19650364308,/g3t1_1,,success
Status,1555,19690229155,/g3t1_3,,running
Status,1556,19691889193,/g3t1_3,,success
Status,1557,19697559460,/g3t1_2,,running
Status,1558,19697632521,/g3t1_1,,running
Status,1559,19699489476,/g3t1_2,,success
Status,1560,19701004805,/g3t1_1,,success
Status,1561,19719895807,/g4t1,,fail
Status,1562,19740225888,/g3t1_3,,running
Status,1563,19741821531,/g3t1_3,,success
Status,1564,19747440548,/g3t1_2,,running
Status,1565,19747528650,/g3t1_1,,running
Status,1566,19749582952,/g3t1_1,,success
Status,1567,19750408261,/g3t1_2,,success
Status,1568,19789827784,/g3t1_3,,running
Status,1569,19790653563,/g3t1_3,,success
Status,1570,19796963010,/g3t1_2,,running
Status,1571,19796996975,/g3t1_1,,running
Status,1572,19797602625,/g3t1_2,,success
Status,1573,19797919711,/g3t1_1,,success
Status,1574,19819794583,/g4t1,,fail
Status,1575,19839936551,/g3t1_3,,running
Status,1576,19840338135,/g3t1_3,,success
Status,1577,19847122081,/g3t1_2,,running
Status,1578,19847147774,/g3t1_1,,running
Status,1579,19847583651,/g3t1_2,,success
Status,1580,19847859502,/g3t1_1,,success
Status,1581,19889919087,/g3t1_3,,running
Status,1582,19890504933,/g3t1_3,,success
Status,1583,19897223256,/g3t1_2,,running
Status,1584,19897251946,/g3t1_1,,running
Status,1585,19897925286,/g3t1_2,,success
Status,1586,19898202252,/g3t1_1,,success
Status,1587,19920060876,/g4t1,,fail
Status,1588,19940075532,/g3t1_3,,running
Status,1589,19940491435,/g3t1_3,,success
Status,1590,19947197835,/g3t1_2,,running
Status,1591,19947262284,/g3t1_1,,running
Status,1592,19948005924,/g3t1_1,,success
Status,1593,19948022608,/g3t1_2,,success
Status,1594,19990113210,/g3t1_3,,running
Status,1595,19990657262,/g3t1_3,,success
Status,1596,19997324619,/g3t1_2,,running
Status,1597,19997347527,/g3t1_1,,running
Status,1598,19997722435,/g3t1_2,,success
Status,1599,19998158550,/g3t1_1,,success
Status,1600,20019469603,/g4t1,,fail
Status,1601,20040205228,/g3t1_3,,running
Status,1602,20040694419,/g3t1_3,,success
Status,1603,20047327018,/g3t1_1,,running
Status,1604,20047344218,/g3t1_2,,running
Status,1605,20047763293,/g3t1_2,,success
Status,1606,20048118205,/g3t1_1,,success
Status,1607,20090302080,/g3t1_3,,running
Status,1608,20090689898,/g3t1_3,,success
Status,1609,20097581960,/g3t1_2,,running
Status,1610,20097602121,/g3t1_1,,running
Status,1611,20098153112,/g3t1_2,,success
Status,1612,20098382064,/g3t1_1,,success
Status,1613,20119665187,/g4t1,,fail
Status,1614,20140358514,/g3t1_3,,running
Status,1615,20140985539,/g3t1_3,,success
Status,1616,20147574721,/g3t1_2,,running
Status,1617,20147594748,/g3t1_1,,running
Status,1618,20148144569,/g3t1_1,,success
Status,1619,20148406759,/g3t1_2,,success
Status,1620,20190482316,/g3t1_3,,running
Status,1621,20190947445,/g3t1_3,,success
Status,1622,20197700999,/g3t1_1,,running
Status,1623,20197720295,/g3t1_2,,running
Status,1624,20198500592,/g3t1_1,,success
Status,1625,20198869795,/g3t1_2,,success
Status,1626,20219811249,/g4t1,,fail
Status,1627,20240620392,/g3t1_3,,running
Status,1628,20247915072,/g3t1_2,,running
Status,1629,20247960183,/g3t1_1,,running
Status,1630,20320620484,/g4t1,,success
Status,1634,20420862084,/g4t1,,success
Status,1635,20521121991,/g4t1,,success
Status,1639,20621390845,/g4t1,,success
Status,1640,20721761822,/g4t1,,success
Status,1644,20821921642,/g4t1,,success
Status,1645,20922086630,/g4t1,,success
Status,1649,21022151094,/g4t1,,success
Status,1650,21122259943,/g4t1,,success
Status,1654,21222061214,/g4t1,,success
Status,1655,21322475561,/g4t1,,success
Status,1659,21422592851,/g4t1,,success
Status,1660,21522844885,/g4t1,,success
Status,1664,21622966440,/g4t1,,success
Status,1665,21723296505,/g4t1,,success
Status,1669,21823338305,/g4t1,,success
