
Status,2,20399837245,/g4t1,,init
Status,4,25717554767,/g3t1_1,,init
Status,5,25731872085,/g3t1_1,,init
Status,6,25731921004,/g3t1_1,,running
Status,7,25734712655,/g3t1_1,,success
Status,8,26024477531,/g3t1_2,,init
Status,10,26046454925,/g3t1_2,,init
Status,11,26046486408,/g3t1_2,,running
Status,12,26048497425,/g3t1_2,,success
Status,14,26223425213,/g3t1_3,,init
Status,15,26227359901,/g3t1_3,,init
Status,16,26227372969,/g3t1_3,,running
Status,17,26228273633,/g3t1_3,,success
Status,18,26246438536,/g3t1_2,,running
Status,19,26246901480,/g3t1_2,,success
Status,20,26325383357,/g3t1_4,,init
Status,22,26340085179,/g3t1_4,,init
Status,23,26340108948,/g3t1_4,,running
Status,24,26342598851,/g3t1_4,,success
Status,25,26447366658,/g3t1_2,,running
Status,26,26447737268,/g3t1_2,,success
Status,27,26647219600,/g3t1_2,,running
Status,28,26647687634,/g3t1_2,,success
Status,29,26847674742,/g3t1_2,,running
Status,30,26848088269,/g3t1_2,,success
Status,31,27047738104,/g3t1_2,,running
Status,32,27048025936,/g3t1_2,,success
Status,33,27247926541,/g3t1_2,,running
Status,34,27248518839,/g3t1_2,,success
Status,35,27341340683,/g3t1_4,,running
Status,36,27348817285,/g3t1_4,,success
Status,37,27409356020,/g4t1,,success
Status,38,27447746054,/g3t1_2,,running
Status,39,27448659269,/g3t1_2,,success
Status,40,27648602579,/g3t1_2,,running
Status,41,27648995307,/g3t1_2,,success
Status,42,27848463901,/g3t1_2,,running
Status,43,27848822386,/g3t1_2,,success
Status,44,28048697385,/g3t1_2,,running
Status,45,28049452717,/g3t1_2,,success
Status,46,28248992184,/g3t1_2,,running
Status,47,28249626778,/g3t1_2,,success
Status,48,28341602434,/g3t1_4,,running
Status,49,28352228608,/g3t1_4,,success
Status,50,28409157944,/g4t1,,success
Status,51,28449068356,/g3t1_2,,running
Status,52,28449590112,/g3t1_2,,success
Status,53,28649184821,/g3t1_2,,running
Status,54,28649838456,/g3t1_2,,success
Status,55,28849400974,/g3t1_2,,running
Status,56,28849743250,/g3t1_2,,success
Status,57,29049621753,/g3t1_2,,running
Status,58,29050301805,/g3t1_2,,success
Status,59,29249916773,/g3t1_2,,running
Status,60,29250956475,/g3t1_2,,success
Status,61,29341342097,/g3t1_4,,running
Status,62,29349086919,/g3t1_4,,success
Status,63,29409515376,/g4t1,,success
Status,64,29449815295,/g3t1_2,,running
Status,65,29450416390,/g3t1_2,,success
Status,66,29650373174,/g3t1_2,,running
Status,67,29651264546,/g3t1_2,,success
Status,68,29850503528,/g3t1_2,,running
Status,69,29851150962,/g3t1_2,,success
Status,70,30050796797,/g3t1_2,,running
Status,71,30051144554,/g3t1_2,,success
Status,72,30251099524,/g3t1_2,,running
Status,73,30251487106,/g3t1_2,,success
Status,74,30341702609,/g3t1_4,,running
Status,75,30354014239,/g3t1_4,,success
Status,76,30409413449,/g4t1,,success
Status,77,30451000878,/g3t1_2,,running
Status,78,30451562187,/g3t1_2,,success
Status,79,30651369545,/g3t1_2,,running
Status,80,30651754981,/g3t1_2,,success
Status,81,30732767935,/g3t1_1,,running
Status,82,30733331462,/g3t1_1,,success
Status,83,30851379208,/g3t1_2,,running
Status,84,30851844898,/g3t1_2,,success
Status,85,31051456740,/g3t1_2,,running
Status,86,31052321789,/g3t1_2,,success
Status,87,31252021512,/g3t1_2,,running
Status,88,31252926843,/g3t1_2,,success
Status,89,31341890799,/g3t1_4,,running
Status,90,31352662995,/g3t1_4,,success
Status,91,31410071423,/g4t1,,success
Status,92,31451711891,/g3t1_2,,running
Status,93,31452266079,/g3t1_2,,success
Status,94,31652234916,/g3t1_2,,running
Status,95,31652589467,/g3t1_2,,success
Status,96,31852241907,/g3t1_2,,running
Status,97,31852572531,/g3t1_2,,success
Status,98,32052223663,/g3t1_2,,running
Status,99,32052981708,/g3t1_2,,success
Status,100,32252457864,/g3t1_2,,running
Status,101,32253075170,/g3t1_2,,success
Status,102,32341898922,/g3t1_4,,running
Status,103,32348996784,/g3t1_4,,success
Status,104,32409748467,/g4t1,,success
Status,105,32452734059,/g3t1_2,,running
Status,106,32453149375,/g3t1_2,,success
Status,107,32652955339,/g3t1_2,,running
Status,108,32653310606,/g3t1_2,,success
Status,109,32853231579,/g3t1_2,,running
Status,110,32853977229,/g3t1_2,,success
Status,111,33053411909,/g3t1_2,,running
Status,112,33054123271,/g3t1_2,,success
Status,113,33253620103,/g3t1_2,,running
Status,114,33254251248,/g3t1_2,,success
Status,115,33342123029,/g3t1_4,,running
Status,116,33349792139,/g3t1_4,,success
Status,117,33410368327,/g4t1,,success
Status,118,33453464315,/g3t1_2,,running
Status,119,33453897509,/g3t1_2,,success
Status,120,33653926001,/g3t1_2,,running
Status,121,33654397432,/g3t1_2,,success
Status,122,33854343104,/g3t1_2,,running
Status,123,33855323676,/g3t1_2,,success
Status,124,34054591915,/g3t1_2,,running
Status,125,34055061746,/g3t1_2,,success
Status,126,34254746043,/g3t1_2,,running
Status,127,34255431122,/g3t1_2,,success
Status,128,34342662728,/g3t1_4,,running
Status,129,34349619624,/g3t1_4,,success
Status,130,34410654049,/g4t1,,success
Status,131,34454508505,/g3t1_2,,running
Status,132,34454972609,/g3t1_2,,success
Status,133,34655072214,/g3t1_2,,running
Status,134,34655559953,/g3t1_2,,success
Status,135,34855065950,/g3t1_2,,running
Status,136,34855493112,/g3t1_2,,success
Status,137,35055589167,/g3t1_2,,running
Status,138,35056099737,/g3t1_2,,success
Status,139,35255533988,/g3t1_2,,running
Status,140,35256016986,/g3t1_2,,success
Status,141,35342404816,/g3t1_4,,running
Status,142,35350111738,/g3t1_4,,success
Status,143,35410379756,/g4t1,,success
Status,144,35455756662,/g3t1_2,,running
Status,145,35455824460,/g3t1_2,,success
Status,146,35655232329,/g3t1_2,,running
Status,147,35655480503,/g3t1_2,,success
Status,148,35732959075,/g3t1_1,,running
Status,149,35733691532,/g3t1_1,,success
Status,150,35856065792,/g3t1_2,,running
Status,151,35856915911,/g3t1_2,,success
Status,152,36056145874,/g3t1_2,,running
Status,153,36056905752,/g3t1_2,,success
Status,154,36228404894,/g3t1_3,,running
Status,155,36229138595,/g3t1_3,,success
Status,156,36256223720,/g3t1_2,,running
Status,157,36256285625,/g3t1_2,,success
Status,158,36342926677,/g3t1_4,,running
Status,159,36350392226,/g3t1_4,,success
Status,160,36410934479,/g4t1,,success
Status,161,36456022616,/g3t1_2,,running
Status,162,36456444973,/g3t1_2,,success
Status,163,36656673816,/g3t1_2,,running
Status,164,36656989624,/g3t1_2,,success
Status,165,36856795979,/g3t1_2,,running
Status,166,36857623389,/g3t1_2,,success
Status,167,37056886414,/g3t1_2,,running
Status,168,37057178043,/g3t1_2,,success
Status,169,37257312337,/g3t1_2,,running
Status,170,37257771912,/g3t1_2,,success
Status,171,37342699404,/g3t1_4,,running
Status,172,37350513370,/g3t1_4,,success
Status,173,37411163235,/g4t1,,success
Status,174,37457076961,/g3t1_2,,running
Status,175,37457989922,/g3t1_2,,success
Status,176,37657398214,/g3t1_2,,running
Status,177,37658255446,/g3t1_2,,success
Status,178,37857821521,/g3t1_2,,running
Status,179,37858147080,/g3t1_2,,success
Status,180,38058242504,/g3t1_2,,running
Status,181,38058921394,/g3t1_2,,success
Status,182,38258479838,/g3t1_2,,running
Status,183,38259305099,/g3t1_2,,success
Status,184,38343083658,/g3t1_4,,running
Status,185,38350716910,/g3t1_4,,success
Status,186,38411487906,/g4t1,,success
Status,187,38458285299,/g3t1_2,,running
Status,188,38458712025,/g3t1_2,,success
Status,189,38658776462,/g3t1_2,,running
Status,190,38659557242,/g3t1_2,,success
Status,191,38859025670,/g3t1_2,,running
Status,192,38859554258,/g3t1_2,,success
Status,193,39059393240,/g3t1_2,,running
Status,194,39059694559,/g3t1_2,,success
Status,195,39259554526,/g3t1_2,,running
Status,196,39259983504,/g3t1_2,,success
Status,197,39343366572,/g3t1_4,,running
Status,198,39350885839,/g3t1_4,,success
Status,199,39411327527,/g4t1,,success
Status,200,39459449360,/g3t1_2,,running
Status,201,39460075417,/g3t1_2,,success
Status,202,39659779016,/g3t1_2,,running
Status,203,39660295183,/g3t1_2,,success
Status,204,39859984887,/g3t1_2,,running
Status,205,39860858676,/g3t1_2,,success
Status,206,40060105350,/g3t1_2,,running
Status,207,40060847283,/g3t1_2,,success
Status,208,40260237065,/g3t1_2,,running
Status,209,40260779250,/g3t1_2,,success
Status,210,40343276032,/g3t1_4,,running
Status,211,40352129287,/g3t1_4,,success
Status,212,40411392276,/g4t1,,success
Status,213,40460146244,/g3t1_2,,running
Status,214,40460993422,/g3t1_2,,success
Status,215,40661017836,/g3t1_2,,running
Status,216,40661088193,/g3t1_2,,success
Status,217,40732992198,/g3t1_1,,running
Status,218,40733644978,/g3t1_1,,success
Status,219,40860454764,/g3t1_2,,running
Status,220,40860721620,/g3t1_2,,success
Status,221,41060961023,/g3t1_2,,running
Status,222,41061453519,/g3t1_2,,success
Status,223,41261161164,/g3t1_2,,running
Status,224,41262130523,/g3t1_2,,success
Status,225,41343474293,/g3t1_4,,running
Status,227,41353441765,/g3t1_4,,success
Status,228,41411522018,/g4t1,,success
Status,229,41460968273,/g3t1_2,,running
Status,230,41461189739,/g3t1_2,,success
Status,231,41661473206,/g3t1_2,,running
Status,232,41662136307,/g3t1_2,,success
Status,233,41861799507,/g3t1_2,,running
Status,234,41862596621,/g3t1_2,,success
Status,235,42061958433,/g3t1_2,,running
Status,236,42062458235,/g3t1_2,,success
Status,237,42262204540,/g3t1_2,,running
Status,238,42262661360,/g3t1_2,,success
Status,239,42343555615,/g3t1_4,,running
Status,240,42351071804,/g3t1_4,,success
Status,241,42411678046,/g4t1,,success
Status,242,42461941719,/g3t1_2,,running
Status,243,42462469636,/g3t1_2,,success
Status,244,42662437774,/g3t1_2,,running
Status,245,42662781864,/g3t1_2,,success
Status,246,42862773666,/g3t1_2,,running
Status,247,42863382235,/g3t1_2,,success
Status,248,43063057261,/g3t1_2,,running
Status,249,43063704723,/g3t1_2,,success
Status,250,43263295508,/g3t1_2,,running
Status,251,43263886702,/g3t1_2,,success
Status,252,43343823211,/g3t1_4,,running
Status,253,43351820300,/g3t1_4,,success
Status,254,43411821096,/g4t1,,success
Status,255,43462674657,/g3t1_2,,running
Status,256,43462849652,/g3t1_2,,success
Status,257,43663619243,/g3t1_2,,running
Status,258,43664124832,/g3t1_2,,success
Status,259,43863710349,/g3t1_2,,running
Status,260,43864330292,/g3t1_2,,success
Status,261,44063634860,/g3t1_2,,running
Status,262,44064017659,/g3t1_2,,success
Status,263,44264290089,/g3t1_2,,running
Status,264,44264445880,/g3t1_2,,success
Status,265,44343976082,/g3t1_4,,running
Status,266,44351364943,/g3t1_4,,success
Status,267,44411975214,/g4t1,,success
Status,268,44463870718,/g3t1_2,,running
Status,269,44464512853,/g3t1_2,,success
Status,270,44664382212,/g3t1_2,,running
Status,271,44664854086,/g3t1_2,,success
Status,272,44864423443,/g3t1_2,,running
Status,273,44864796044,/g3t1_2,,success
Status,274,45064676987,/g3t1_2,,running
Status,275,45065244980,/g3t1_2,,success
Status,276,45264945504,/g3t1_2,,running
Status,277,45265322456,/g3t1_2,,success
Status,278,45344172261,/g3t1_4,,running
Status,279,45352375193,/g3t1_4,,success
Status,280,45412047253,/g4t1,,success
Status,281,45464736968,/g3t1_2,,running
Status,282,45465120471,/g3t1_2,,success
Status,283,45665360798,/g3t1_2,,running
Status,284,45666106227,/g3t1_2,,success
Status,285,45733327554,/g3t1_1,,running
Status,286,45733388530,/g3t1_1,,success
Status,287,45865547694,/g3t1_2,,running
Status,288,45866177104,/g3t1_2,,success
Status,289,46065880911,/g3t1_2,,running
Status,290,46066467582,/g3t1_2,,success
Status,291,46228809700,/g3t1_3,,running
Status,292,46229123928,/g3t1_3,,fail
Status,293,46265647603,/g3t1_2,,running
Status,294,46266005705,/g3t1_2,,success
Status,295,46344376575,/g3t1_4,,running
Status,296,46355347869,/g3t1_4,,success
Status,297,46412272208,/g4t1,,success
Status,299,46465969445,/g3t1_2,,running
Status,300,46466086669,/g3t1_2,,success
Status,301,46666422860,/g3t1_2,,running
Status,302,46666792751,/g3t1_2,,success
Status,303,46866529740,/g3t1_2,,running
Status,304,46867176901,/g3t1_2,,success
Status,305,47066840581,/g3t1_2,,running
Status,306,47067284388,/g3t1_2,,success
Status,307,47267075553,/g3t1_2,,running
Status,308,47267488239,/g3t1_2,,success
Status,309,47344252697,/g3t1_4,,running
Status,310,47348536266,/g3t1_4,,fail
Status,311,47412415209,/g4t1,,success
Status,312,47466972551,/g3t1_2,,running
Status,313,47467574568,/g3t1_2,,success
Status,314,47667490380,/g3t1_2,,running
Status,315,47667566761,/g3t1_2,,success
Status,316,47867684223,/g3t1_2,,running
Status,317,47868311905,/g3t1_2,,success
Status,318,48067805604,/g3t1_2,,running
Status,319,48068478851,/g3t1_2,,success
Status,320,48267898823,/g3t1_2,,running
Status,321,48267993726,/g3t1_2,,success
Status,322,48344113980,/g3t1_4,,running
Status,323,48344676860,/g3t1_4,,fail
Status,324,48412519862,/g4t1,,success
Status,325,48467804933,/g3t1_2,,running
Status,326,48468530052,/g3t1_2,,success
Status,327,48668350559,/g3t1_2,,running
Status,328,48668848807,/g3t1_2,,success
Status,329,48868166470,/g3t1_2,,running
Status,330,48869020132,/g3t1_2,,success
Status,331,49068519898,/g3t1_2,,running
Status,332,49068913883,/g3t1_2,,success
Status,333,49268593666,/g3t1_2,,running
Status,334,49269071825,/g3t1_2,,success
Status,335,49344802514,/g3t1_4,,running
Status,336,49345221338,/g3t1_4,,fail
Status,337,49412837062,/g4t1,,success
Status,338,49468470691,/g3t1_2,,running
Status,339,49469007265,/g3t1_2,,success
Status,340,49668895789,/g3t1_2,,running
Status,341,49669871527,/g3t1_2,,success
Status,342,49869031620,/g3t1_2,,running
Status,343,49869964722,/g3t1_2,,success
Status,344,50069236324,/g3t1_2,,running
Status,345,50069755661,/g3t1_2,,success
Status,346,50269493170,/g3t1_2,,running
Status,347,50269981080,/g3t1_2,,success
Status,348,50344694950,/g3t1_4,,running
Status,349,50345064797,/g3t1_4,,fail
Status,350,50412786672,/g4t1,,success
Status,351,50469496293,/g3t1_2,,running
Status,352,50470400023,/g3t1_2,,success
Status,353,50669885274,/g3t1_2,,running
Status,354,50670456817,/g3t1_2,,success
Status,355,50733437094,/g3t1_1,,running
Status,356,50734270251,/g3t1_1,,success
Status,357,50870298746,/g3t1_2,,running
Status,358,50870890300,/g3t1_2,,success
Status,359,51070445952,/g3t1_2,,running
Status,360,51071162592,/g3t1_2,,success
Status,361,51270660600,/g3t1_2,,running
Status,362,51271180973,/g3t1_2,,success
Status,363,51344947745,/g3t1_4,,running
Status,364,51345397811,/g3t1_4,,fail
Status,365,51413071797,/g4t1,,success
Status,366,51470936103,/g3t1_2,,running
Status,367,51471554796,/g3t1_2,,success
Status,368,51671316989,/g3t1_2,,running
Status,369,51671707024,/g3t1_2,,success
Status,370,51871523908,/g3t1_2,,running
Status,371,51871992982,/g3t1_2,,success
Status,372,52071590118,/g3t1_2,,running
Status,373,52071995888,/g3t1_2,,success
Status,374,52271920083,/g3t1_2,,running
Status,375,52272272167,/g3t1_2,,success
Status,376,52345268755,/g3t1_4,,running
Status,377,52346182842,/g3t1_4,,fail
Status,378,52413647160,/g4t1,,success
Status,379,52471592670,/g3t1_2,,running
Status,380,52472169897,/g3t1_2,,success
Status,381,52671903525,/g3t1_2,,running
Status,382,52672760030,/g3t1_2,,success
Status,383,52872313332,/g3t1_2,,running
Status,384,52872800458,/g3t1_2,,success
Status,385,53072437682,/g3t1_2,,running
Status,386,53073369910,/g3t1_2,,success
Status,387,53272403439,/g3t1_2,,running
Status,388,53273096720,/g3t1_2,,success
Status,389,53345277406,/g3t1_4,,running
Status,390,53345846755,/g3t1_4,,fail
Status,391,53413596279,/g4t1,,success
Status,392,53472588177,/g3t1_2,,running
Status,393,53472937626,/g3t1_2,,success
Status,394,53672918475,/g3t1_2,,running
Status,395,53673381079,/g3t1_2,,success
Status,396,53872962507,/g3t1_2,,running
Status,397,53873351836,/g3t1_2,,success
Status,398,54073274577,/g3t1_2,,running
Status,399,54073712154,/g3t1_2,,success
Status,400,54273571719,/g3t1_2,,running
Status,401,54273936769,/g3t1_2,,success
Status,402,54345650337,/g3t1_4,,running
Status,403,54346012239,/g3t1_4,,fail
Status,404,54413790452,/g4t1,,success
Status,405,54473325280,/g3t1_2,,running
Status,406,54473524612,/g3t1_2,,success
Status,407,54673734816,/g3t1_2,,running
Status,408,54674206620,/g3t1_2,,success
Status,409,54874213323,/g3t1_2,,running
Status,410,54875143440,/g3t1_2,,success
Status,411,55074283620,/g3t1_2,,running
Status,412,55074770028,/g3t1_2,,success
Status,413,55274672979,/g3t1_2,,running
Status,414,55275041602,/g3t1_2,,success
Status,415,55345678309,/g3t1_4,,running
Status,416,55346492473,/g3t1_4,,fail
Status,417,55413933589,/g4t1,,success
Status,418,55473718929,/g3t1_2,,running
Status,419,55473794328,/g3t1_2,,success
Status,420,55674767678,/g3t1_2,,running
Status,421,55675539315,/g3t1_2,,success
Status,422,55733577221,/g3t1_1,,running
Status,423,55734243776,/g3t1_1,,success
Status,424,55874864928,/g3t1_2,,running
Status,425,55875426386,/g3t1_2,,success
Status,426,56075462914,/g3t1_2,,running
Status,427,56076316809,/g3t1_2,,success
Status,428,56228866100,/g3t1_3,,running
Status,429,56228937190,/g3t1_3,,fail
Status,430,56275191815,/g3t1_2,,running
Status,431,56275793773,/g3t1_2,,success
Status,432,56345958903,/g3t1_4,,running
Status,433,56346972662,/g3t1_4,,fail
Status,434,56414292229,/g4t1,,success
Status,435,56475277219,/g3t1_2,,running
Status,436,56475344468,/g3t1_2,,success
Status,439,56675318175,/g3t1_2,,running
Status,440,56675579168,/g3t1_2,,fail
Status,441,56875503403,/g3t1_2,,running
Status,442,56875831989,/g3t1_2,,fail
Status,443,57075572805,/g3t1_2,,running
Status,444,57075920120,/g3t1_2,,fail
Status,445,57275990505,/g3t1_2,,running
Status,446,57276060098,/g3t1_2,,fail
Status,447,57346241164,/g3t1_4,,running
Status,448,57346798189,/g3t1_4,,fail
Status,449,57414491034,/g4t1,,success
Status,450,57475783121,/g3t1_2,,running
Status,451,57476259057,/g3t1_2,,fail
Status,452,57676000807,/g3t1_2,,running
Status,453,57676747617,/g3t1_2,,fail
Status,454,57876525092,/g3t1_2,,running
Status,455,57876884024,/g3t1_2,,fail
Status,456,58076683562,/g3t1_2,,running
Status,457,58076754667,/g3t1_2,,fail
Status,458,58276701703,/g3t1_2,,running
Status,459,58277105067,/g3t1_2,,fail
Status,460,58346557765,/g3t1_4,,running
Status,461,58347169303,/g3t1_4,,fail
Status,462,58415006889,/g4t1,,success
Status,463,58476263382,/g3t1_2,,running
Status,464,58476411995,/g3t1_2,,fail
Status,465,58676983956,/g3t1_2,,running
Status,466,58677248807,/g3t1_2,,fail
Status,467,58877244644,/g3t1_2,,running
Status,468,58877517381,/g3t1_2,,fail
Status,469,59077233971,/g3t1_2,,running
Status,470,59077633292,/g3t1_2,,fail
Status,471,59277765571,/g3t1_2,,running
Status,472,59278394463,/g3t1_2,,fail
Status,473,59346341682,/g3t1_4,,running
Status,474,59347164835,/g3t1_4,,fail
Status,475,59414811821,/g4t1,,success
Status,476,59477716902,/g3t1_2,,running
Status,477,59478285129,/g3t1_2,,fail
Status,478,59677973481,/g3t1_2,,running
Status,479,59678425931,/g3t1_2,,fail
Status,480,59878316269,/g3t1_2,,running
Status,481,59878638754,/g3t1_2,,fail
Status,482,60078899812,/g3t1_2,,running
Status,483,60079230659,/g3t1_2,,fail
Status,484,60278751399,/g3t1_2,,running
Status,485,60279089334,/g3t1_2,,fail
Status,486,60346558214,/g3t1_4,,running
Status,487,60347200873,/g3t1_4,,fail
Status,488,60415113214,/g4t1,,success
Status,489,60478942181,/g3t1_2,,running
Status,490,60479002726,/g3t1_2,,fail
Status,491,60679066603,/g3t1_2,,running
Status,492,60679371701,/g3t1_2,,fail
Status,493,60733837671,/g3t1_1,,running
Status,494,60734013649,/g3t1_1,,success
Status,495,60879276861,/g3t1_2,,running
Status,496,60879526918,/g3t1_2,,fail
Status,497,61079611914,/g3t1_2,,running
Status,498,61079914453,/g3t1_2,,fail
Status,499,61279460090,/g3t1_2,,running
Status,500,61279687713,/g3t1_2,,fail
Status,501,61346794864,/g3t1_4,,running
Status,502,61347457370,/g3t1_4,,fail
Status,503,61415318082,/g4t1,,success
Status,504,61479765390,/g3t1_2,,running
Status,505,61479824251,/g3t1_2,,fail
Status,506,61679899177,/g3t1_2,,running
Status,507,61680241333,/g3t1_2,,fail
Status,508,61880420361,/g3t1_2,,running
Status,509,61880513805,/g3t1_2,,fail
Status,510,62080356934,/g3t1_2,,running
Status,511,62080631613,/g3t1_2,,fail
Status,512,62280580845,/g3t1_2,,running
Status,513,62281053741,/g3t1_2,,fail
Status,514,62346869774,/g3t1_4,,running
Status,515,62347530355,/g3t1_4,,fail
Status,516,62415571502,/g4t1,,success
Status,517,62480730811,/g3t1_2,,running
Status,518,62480789903,/g3t1_2,,fail
Status,519,62681023779,/g3t1_2,,running
Status,520,62681099247,/g3t1_2,,fail
Status,521,62881241851,/g3t1_2,,running
Status,522,62881306270,/g3t1_2,,fail
Status,523,63081409715,/g3t1_2,,running
Status,524,63081479632,/g3t1_2,,fail
Status,525,63281582096,/g3t1_2,,running
Status,526,63281644279,/g3t1_2,,fail
Status,527,63347184855,/g3t1_4,,running
Status,528,63347819851,/g3t1_4,,fail
Status,529,63415708776,/g4t1,,success
Status,530,63481481683,/g3t1_2,,running
Status,531,63481808108,/g3t1_2,,fail
Status,532,63682002822,/g3t1_2,,running
Status,533,63682131365,/g3t1_2,,fail
Status,534,63881871136,/g3t1_2,,running
Status,535,63881996792,/g3t1_2,,fail
Status,536,64082307387,/g3t1_2,,running
Status,537,64082372574,/g3t1_2,,fail
Status,538,64282573021,/g3t1_2,,running
Status,539,64283136335,/g3t1_2,,fail
Status,540,64347368908,/g3t1_4,,running
Status,541,64348069121,/g3t1_4,,fail
Status,542,64415678312,/g4t1,,success
Status,543,64481999932,/g3t1_2,,running
Status,544,64482094219,/g3t1_2,,fail
Status,545,64683048323,/g3t1_2,,running
Status,546,64683311101,/g3t1_2,,fail
Status,547,64883187232,/g3t1_2,,running
Status,548,64883645258,/g3t1_2,,fail
Status,549,65083534781,/g3t1_2,,running
Status,550,65083802060,/g3t1_2,,fail
Status,551,65283644941,/g3t1_2,,running
Status,552,65283827124,/g3t1_2,,fail
Status,553,65347497270,/g3t1_4,,running
Status,554,65348172768,/g3t1_4,,fail
Status,555,65415832269,/g4t1,,success
Status,556,65483525730,/g3t1_2,,running
Status,557,65483594126,/g3t1_2,,fail
Status,558,65683554109,/g3t1_2,,running
Status,559,65683619401,/g3t1_2,,fail
Status,560,65733906765,/g3t1_1,,running
Status,561,65734360748,/g3t1_1,,success
Status,562,65884095228,/g3t1_2,,running
Status,563,65884174573,/g3t1_2,,fail
Status,564,66084001616,/g3t1_2,,running
Status,565,66084066900,/g3t1_2,,fail
Status,566,66229019029,/g3t1_3,,running
Status,567,66229080997,/g3t1_3,,fail
Status,568,66284061714,/g3t1_2,,running
Status,569,66284291971,/g3t1_2,,fail
Status,570,66347578636,/g3t1_4,,running
Status,571,66348697844,/g3t1_4,,fail
Status,572,66415924478,/g4t1,,success
Status,573,66483717683,/g3t1_2,,running
Status,574,66483765091,/g3t1_2,,fail
Status,575,66684219033,/g3t1_2,,running
Status,576,66684651481,/g3t1_2,,fail
Status,578,66884306971,/g3t1_2,,running
Status,579,66884867367,/g3t1_2,,fail
Status,580,67084953767,/g3t1_2,,running
Status,581,67085105477,/g3t1_2,,fail
Status,582,67285052263,/g3t1_2,,running
Status,583,67285375589,/g3t1_2,,fail
Status,584,67347739686,/g3t1_4,,running
Status,585,67348030352,/g3t1_4,,fail
Status,586,67416058469,/g4t1,,success
Status,587,67484748461,/g3t1_2,,running
Status,588,67484788375,/g3t1_2,,fail
Status,589,67685587532,/g3t1_2,,running
Status,590,67685697404,/g3t1_2,,fail
Status,591,67885649357,/g3t1_2,,running
Status,592,67886219161,/g3t1_2,,fail
Status,593,68086132449,/g3t1_2,,running
Status,594,68086222157,/g3t1_2,,fail
Status,595,68286512372,/g3t1_2,,running
Status,596,68286583090,/g3t1_2,,fail
Status,597,68347953120,/g3t1_4,,running
Status,598,68348352044,/g3t1_4,,fail
Status,599,68416301590,/g4t1,,success
Status,600,68486572302,/g3t1_2,,running
Status,601,68486632056,/g3t1_2,,fail
Status,602,68686842833,/g3t1_2,,running
Status,603,68687296764,/g3t1_2,,fail
Status,604,68887181744,/g3t1_2,,running
Status,605,68887450871,/g3t1_2,,fail
Status,606,69087306535,/g3t1_2,,running
Status,607,69087378620,/g3t1_2,,fail
Status,608,69287414484,/g3t1_2,,running
Status,609,69287490503,/g3t1_2,,fail
Status,610,69347901284,/g3t1_4,,running
Status,611,69348743071,/g3t1_4,,fail
Status,612,69416468590,/g4t1,,success
Status,613,69487442833,/g3t1_2,,running
Status,614,69487692506,/g3t1_2,,fail
Status,615,69687705703,/g3t1_2,,running
Status,616,69687775971,/g3t1_2,,fail
Status,617,69887573198,/g3t1_2,,running
Status,618,69887808743,/g3t1_2,,fail
Status,619,70088033331,/g3t1_2,,running
Status,620,70088117400,/g3t1_2,,fail
Status,621,70288239102,/g3t1_2,,running
Status,622,70288314039,/g3t1_2,,fail
Status,623,70348018348,/g3t1_4,,running
Status,624,70348763496,/g3t1_4,,fail
Status,625,70416062612,/g4t1,,success
Status,626,70487981426,/g3t1_2,,running
Status,627,70488067644,/g3t1_2,,fail
Status,628,70688489481,/g3t1_2,,running
Status,629,70688559108,/g3t1_2,,fail
Status,630,70733835173,/g3t1_1,,running
Status,631,70734508564,/g3t1_1,,success
Status,632,70888699590,/g3t1_2,,running
Status,633,70888981683,/g3t1_2,,fail
Status,634,71088852101,/g3t1_2,,running
Status,635,71088921361,/g3t1_2,,fail
Status,636,71288814619,/g3t1_2,,running
Status,637,71289275451,/g3t1_2,,fail
Status,638,71348197844,/g3t1_4,,running
Status,639,71348996718,/g3t1_4,,fail
Status,640,71416759631,/g4t1,,success
Status,641,71488922650,/g3t1_2,,running
Status,642,71488981962,/g3t1_2,,fail
Status,643,71689349049,/g3t1_2,,running
Status,644,71689420795,/g3t1_2,,fail
Status,646,71889143057,/g3t1_2,,running
Status,647,71889571422,/g3t1_2,,fail
Status,648,72090000497,/g3t1_2,,running
Status,649,72090167925,/g3t1_2,,fail
Status,650,72290205812,/g3t1_2,,running
Status,651,72290290996,/g3t1_2,,fail
Status,652,72348404267,/g3t1_4,,running
Status,653,72349353792,/g3t1_4,,fail
Status,654,72416902438,/g4t1,,success
Status,655,72490251583,/g3t1_2,,running
Status,656,72490330985,/g3t1_2,,fail
Status,657,72690698098,/g3t1_2,,running
Status,658,72690765658,/g3t1_2,,fail
Status,659,72890826429,/g3t1_2,,running
Status,660,72890950236,/g3t1_2,,fail
Status,661,73090905465,/g3t1_2,,running
Status,662,73090967017,/g3t1_2,,fail
Status,663,73291303727,/g3t1_2,,running
Status,664,73291376421,/g3t1_2,,fail
Status,665,73348404608,/g3t1_4,,running
Status,666,73349289152,/g3t1_4,,fail
Status,667,73417052130,/g4t1,,success
Status,668,73491075649,/g3t1_2,,running
Status,669,73491536517,/g3t1_2,,fail
Status,670,73691236604,/g3t1_2,,running
Status,671,73691532216,/g3t1_2,,fail
Status,672,73891703824,/g3t1_2,,running
Status,673,73891776386,/g3t1_2,,fail
Status,674,74091864370,/g3t1_2,,running
Status,675,74092291646,/g3t1_2,,fail
Status,676,74292020269,/g3t1_2,,running
Status,677,74292250497,/g3t1_2,,fail
Status,678,74348525917,/g3t1_4,,running
Status,679,74349184430,/g3t1_4,,fail
Status,680,74417266602,/g4t1,,success
Status,681,74492183883,/g3t1_2,,running
Status,682,74492245328,/g3t1_2,,fail
Status,683,74692510257,/g3t1_2,,running
Status,684,74692595889,/g3t1_2,,fail
Status,685,74892691028,/g3t1_2,,running
Status,686,74892761854,/g3t1_2,,fail
Status,687,75092973698,/g3t1_2,,running
Status,688,75093050184,/g3t1_2,,fail
Status,689,75293320494,/g3t1_2,,running
Status,690,75293398301,/g3t1_2,,fail
Status,691,75348702716,/g3t1_4,,running
Status,692,75349927612,/g3t1_4,,fail
Status,693,75417508055,/g4t1,,success
Status,694,75493088063,/g3t1_2,,running
Status,695,75493342360,/g3t1_2,,fail
Status,696,75693548818,/g3t1_2,,running
Status,697,75693823388,/g3t1_2,,fail
Status,698,75734449864,/g3t1_1,,running
Status,699,75734863245,/g3t1_1,,success
Status,700,75892964016,/g3t1_2,,running
Status,701,75892994135,/g3t1_2,,fail
Status,702,76093875751,/g3t1_2,,running
Status,703,76093937694,/g3t1_2,,fail
Status,704,76229345463,/g3t1_3,,running
Status,705,76229724724,/g3t1_3,,fail
Status,706,76293946439,/g3t1_2,,running
Status,707,76294282734,/g3t1_2,,fail
Status,708,76348789477,/g3t1_4,,running
Status,709,76349362311,/g3t1_4,,fail
Status,710,76418098698,/g4t1,,success
Status,711,76494254416,/g3t1_2,,running
Status,712,76494313797,/g3t1_2,,fail
Status,713,76694503679,/g3t1_2,,running
Status,714,76694564114,/g3t1_2,,fail
Status,715,76895054862,/g3t1_2,,running
Status,716,76895158416,/g3t1_2,,fail
Status,717,77095137974,/g3t1_2,,running
Status,718,77095237838,/g3t1_2,,fail
Status,719,77295132069,/g3t1_2,,running
Status,720,77295207219,/g3t1_2,,fail
Status,721,77348983328,/g3t1_4,,running
Status,722,77349451445,/g3t1_4,,fail
Status,723,77417955103,/g4t1,,success
Status,724,77495142200,/g3t1_2,,running
Status,725,77495430855,/g3t1_2,,fail
Status,726,77695415255,/g3t1_2,,running
Status,727,77695611979,/g3t1_2,,fail
Status,728,77895610172,/g3t1_2,,running
Status,729,77895684203,/g3t1_2,,fail
Status,730,78095884898,/g3t1_2,,running
Status,731,78095962752,/g3t1_2,,fail
Status,732,78296246151,/g3t1_2,,running
Status,733,78296872542,/g3t1_2,,fail
Status,734,78349162290,/g3t1_4,,running
Status,735,78349946204,/g3t1_4,,fail
Status,736,78418475435,/g4t1,,success
Status,737,78496107737,/g3t1_2,,running
Status,738,78496168854,/g3t1_2,,fail
Status,739,78696321628,/g3t1_2,,running
Status,740,78696385863,/g3t1_2,,fail
Status,741,78896304022,/g3t1_2,,running
Status,742,78896367948,/g3t1_2,,fail
Status,743,79096399673,/g3t1_2,,running
Status,744,79096734809,/g3t1_2,,fail
Status,745,79296643829,/g3t1_2,,running
Status,746,79296723291,/g3t1_2,,fail
Status,747,79349210901,/g3t1_4,,running
Status,748,79349611208,/g3t1_4,,fail
Status,749,79418329133,/g4t1,,success
Status,750,79496787763,/g3t1_2,,running
Status,751,79496848505,/g3t1_2,,fail
Status,752,79697046063,/g3t1_2,,running
Status,753,79697117517,/g3t1_2,,fail
Status,754,79897425714,/g3t1_2,,running
Status,755,79897501928,/g3t1_2,,fail
Status,756,80097612830,/g3t1_2,,running
Status,757,80097683128,/g3t1_2,,fail
Status,758,80297656905,/g3t1_2,,running
Status,759,80297717185,/g3t1_2,,fail
Status,760,80349246726,/g3t1_4,,running
Status,761,80350118673,/g3t1_4,,fail
Status,762,80418729831,/g4t1,,success
Status,763,80497908799,/g3t1_2,,running
Status,764,80498215048,/g3t1_2,,fail
Status,765,80698408019,/g3t1_2,,running
Status,766,80698495153,/g3t1_2,,fail
Status,767,80734664416,/g3t1_1,,running
Status,768,80735148893,/g3t1_1,,success
Status,769,80898392229,/g3t1_2,,running
Status,770,80898695160,/g3t1_2,,fail
Status,771,81098818578,/g3t1_2,,running
Status,772,81099151293,/g3t1_2,,fail
Status,773,81299058149,/g3t1_2,,running
Status,774,81299447267,/g3t1_2,,fail
Status,775,81349384439,/g3t1_4,,running
Status,776,81350300789,/g3t1_4,,fail
Status,777,81418785427,/g4t1,,success
Status,778,81498775233,/g3t1_2,,running
Status,779,81499187820,/g3t1_2,,fail
Status,780,81699460677,/g3t1_2,,running
Status,781,81699552202,/g3t1_2,,fail
Status,782,81899719667,/g3t1_2,,running
Status,783,81899799524,/g3t1_2,,fail
Status,784,82099591411,/g3t1_2,,running
Status,785,82099652508,/g3t1_2,,fail
Status,786,82300103218,/g3t1_2,,running
Status,787,82300187769,/g3t1_2,,fail
Status,788,82349719925,/g3t1_4,,running
Status,789,82350275505,/g3t1_4,,fail
Status,790,82419131475,/g4t1,,success
Status,791,82499984292,/g3t1_2,,running
Status,792,82500044363,/g3t1_2,,fail
Status,793,82700035769,/g3t1_2,,running
Status,794,82700122406,/g3t1_2,,fail
Status,795,82900380061,/g3t1_2,,running
Status,796,82900443563,/g3t1_2,,fail
Status,797,83100421652,/g3t1_2,,running
Status,798,83100481372,/g3t1_2,,fail
Status,799,83300725750,/g3t1_2,,running
Status,800,83300797886,/g3t1_2,,fail
Status,801,83349296456,/g3t1_4,,running
Status,802,83349477788,/g3t1_4,,fail
Status,803,83419462236,/g4t1,,success
Status,804,83500848173,/g3t1_2,,running
Status,805,83500908001,/g3t1_2,,fail
Status,806,83700340771,/g3t1_2,,running
Status,807,83700366132,/g3t1_2,,fail
Status,808,83901067602,/g3t1_2,,running
Status,809,83901368152,/g3t1_2,,fail
Status,810,84101534009,/g3t1_2,,running
Status,811,84101607145,/g3t1_2,,fail
Status,812,84301741494,/g3t1_2,,running
Status,813,84301832573,/g3t1_2,,fail
Status,814,84349907402,/g3t1_4,,running
Status,815,84350631147,/g3t1_4,,fail
Status,816,84419323029,/g4t1,,success
Status,817,84501935088,/g3t1_2,,running
Status,818,84502011363,/g3t1_2,,fail
Status,819,84701923923,/g3t1_2,,running
Status,820,84702207301,/g3t1_2,,fail
Status,821,84901989755,/g3t1_2,,running
Status,822,84902201010,/g3t1_2,,fail
Status,823,85102373178,/g3t1_2,,running
Status,824,85102820638,/g3t1_2,,fail
Status,825,85302580904,/g3t1_2,,running
Status,826,85303064608,/g3t1_2,,fail
Status,827,85350162797,/g3t1_4,,running
Status,828,85351160682,/g3t1_4,,fail
Status,829,85419504788,/g4t1,,success
Status,830,85502788244,/g3t1_2,,running
Status,831,85503176046,/g3t1_2,,fail
Status,832,85702834312,/g3t1_2,,running
Status,833,85703281598,/g3t1_2,,fail
Status,834,85734852114,/g3t1_1,,running
Status,835,85735274671,/g3t1_1,,success
Status,836,85903385903,/g3t1_2,,running
Status,837,85903456453,/g3t1_2,,fail
Status,838,86103197576,/g3t1_2,,running
Status,839,86103259713,/g3t1_2,,fail
Status,840,86229603935,/g3t1_3,,running
Status,841,86229677791,/g3t1_3,,fail
Status,842,86303606906,/g3t1_2,,running
Status,843,86303666048,/g3t1_2,,fail
Status,844,86350247097,/g3t1_4,,running
Status,845,86350893979,/g3t1_4,,fail
Status,846,86419713932,/g4t1,,success
Status,847,86503503104,/g3t1_2,,running
Status,848,86503562824,/g3t1_2,,fail
Status,849,86703700145,/g3t1_2,,running
Status,850,86703763566,/g3t1_2,,fail
Status,851,86904012231,/g3t1_2,,running
Status,852,86904365182,/g3t1_2,,fail
Status,857,87104054006,/g3t1_2,,running
Status,858,87104120038,/g3t1_2,,fail
Status,859,87304423754,/g3t1_2,,running
Status,860,87304500990,/g3t1_2,,fail
Status,861,87350701090,/g3t1_4,,running
Status,862,87351329172,/g3t1_4,,fail
Status,863,87419737037,/g4t1,,success
Status,864,87504477001,/g3t1_2,,running
Status,865,87504537393,/g3t1_2,,fail
Status,866,87704853135,/g3t1_2,,running
Status,867,87705309431,/g3t1_2,,fail
Status,868,87905161075,/g3t1_2,,running
Status,869,87905607752,/g3t1_2,,fail
Status,870,88105246081,/g3t1_2,,running
Status,871,88105311571,/g3t1_2,,fail
Status,872,88305425445,/g3t1_2,,running
Status,873,88305496707,/g3t1_2,,fail
Status,874,88350555637,/g3t1_4,,running
Status,875,88351517952,/g3t1_4,,fail
Status,876,88419895358,/g4t1,,success
Status,877,88505575930,/g3t1_2,,running
Status,878,88505635150,/g3t1_2,,fail
Status,879,88705715670,/g3t1_2,,running
Status,880,88706129476,/g3t1_2,,fail
Status,881,88905509191,/g3t1_2,,running
Status,882,88905956658,/g3t1_2,,fail
Status,883,89106351463,/g3t1_2,,running
Status,884,89106419201,/g3t1_2,,fail
Status,885,89305558089,/g3t1_2,,running
Status,886,89305587918,/g3t1_2,,fail
Status,887,89350624926,/g3t1_4,,running
Status,888,89351288430,/g3t1_4,,fail
Status,889,89419991861,/g4t1,,success
Status,890,89506464851,/g3t1_2,,running
Status,891,89506524105,/g3t1_2,,fail
Status,892,89706822306,/g3t1_2,,running
Status,893,89707180080,/g3t1_2,,fail
Status,894,89907080449,/g3t1_2,,running
Status,895,89907291824,/g3t1_2,,fail
Status,896,90107189586,/g3t1_2,,running
Status,897,90107262032,/g3t1_2,,fail
Status,898,90307549130,/g3t1_2,,running
Status,899,90307797707,/g3t1_2,,fail
Status,900,90350960117,/g3t1_4,,running
Status,901,90351629949,/g3t1_4,,fail
Status,902,90420241989,/g4t1,,success
Status,903,90507395808,/g3t1_2,,running
Status,904,90507673049,/g3t1_2,,fail
Status,905,90707474361,/g3t1_2,,running
Status,906,90707757706,/g3t1_2,,fail
Status,907,90735190045,/g3t1_1,,running
Status,908,90735254527,/g3t1_1,,fail
Status,909,90907964743,/g3t1_2,,running
Status,910,90908037454,/g3t1_2,,fail
Status,911,91108119077,/g3t1_2,,running
Status,912,91108190109,/g3t1_2,,fail
Status,913,91308220505,/g3t1_2,,running
Status,914,91308335839,/g3t1_2,,fail
Status,915,91350917731,/g3t1_4,,running
Status,916,91351883428,/g3t1_4,,fail
Status,917,91420505110,/g4t1,,success
Status,918,91508142243,/g3t1_2,,running
Status,919,91508370227,/g3t1_2,,fail
Status,920,91708375021,/g3t1_2,,running
Status,921,91708687337,/g3t1_2,,fail
Status,922,91908470003,/g3t1_2,,running
Status,923,91909087066,/g3t1_2,,fail
Status,924,92108817216,/g3t1_2,,running
Status,925,92109085862,/g3t1_2,,fail
Status,926,92308958031,/g3t1_2,,running
Status,927,92309207148,/g3t1_2,,fail
Status,928,92351120400,/g3t1_4,,running
Status,929,92351853347,/g3t1_4,,fail
Status,930,92420505846,/g4t1,,success
Status,931,92509070924,/g3t1_2,,running
Status,932,92509158124,/g3t1_2,,fail
Status,933,92709268321,/g3t1_2,,running
Status,934,92709682421,/g3t1_2,,fail
Status,935,92909351094,/g3t1_2,,running
Status,936,92909707158,/g3t1_2,,fail
Status,937,93109882815,/g3t1_2,,running
Status,938,93109973646,/g3t1_2,,fail
Status,939,93310409426,/g3t1_2,,running
Status,940,93310481742,/g3t1_2,,fail
Status,941,93351284718,/g3t1_4,,running
Status,942,93351931042,/g3t1_4,,fail
Status,943,93420565132,/g4t1,,success
Status,944,93509985313,/g3t1_2,,running
Status,945,93510158955,/g3t1_2,,fail
Status,946,93710333883,/g3t1_2,,running
Status,947,93710397552,/g3t1_2,,fail
Status,948,93910750218,/g3t1_2,,running
Status,949,93911044208,/g3t1_2,,fail
Status,950,94110968003,/g3t1_2,,running
Status,951,94111039171,/g3t1_2,,fail
Status,952,94311026323,/g3t1_2,,running
Status,953,94311497591,/g3t1_2,,fail
Status,954,94351190655,/g3t1_4,,running
Status,955,94352486021,/g3t1_4,,fail
Status,956,94420736902,/g4t1,,success
Status,957,94511101429,/g3t1_2,,running
Status,958,94511221271,/g3t1_2,,fail
Status,959,94711313573,/g3t1_2,,running
Status,960,94711849129,/g3t1_2,,fail
Status,961,94911583252,/g3t1_2,,running
Status,962,94911653238,/g3t1_2,,fail
Status,963,95111642216,/g3t1_2,,running
Status,964,95111721674,/g3t1_2,,fail
Status,965,95311942964,/g3t1_2,,running
Status,966,95312167766,/g3t1_2,,fail
Status,967,95351405104,/g3t1_4,,running
Status,968,95352270519,/g3t1_4,,fail
Status,969,95420979673,/g4t1,,success
Status,970,95512068685,/g3t1_2,,running
Status,971,95512129896,/g3t1_2,,fail
Status,972,95711993669,/g3t1_2,,running
Status,973,95712346380,/g3t1_2,,fail
Status,974,95734942778,/g3t1_1,,running
Status,975,95735268254,/g3t1_1,,fail
Status,976,95912547993,/g3t1_2,,running
Status,977,95913072932,/g3t1_2,,fail
Status,978,96113113790,/g3t1_2,,running
Status,979,96113196690,/g3t1_2,,fail
Status,980,96229656570,/g3t1_3,,running
Status,981,96229989735,/g3t1_3,,fail
Status,982,96313076220,/g3t1_2,,running
Status,983,96313150143,/g3t1_2,,fail
Status,984,96351509039,/g3t1_4,,running
Status,985,96351929649,/g3t1_4,,fail
Status,986,96421129854,/g4t1,,success
Status,987,96513210461,/g3t1_2,,running
Status,988,96513286208,/g3t1_2,,fail
Status,989,96713605950,/g3t1_2,,running
Status,990,96713951287,/g3t1_2,,fail
Status,991,96913721276,/g3t1_2,,running
Status,992,96913810732,/g3t1_2,,fail
Status,993,97114175426,/g3t1_2,,running
Status,994,97114261227,/g3t1_2,,fail
Status,995,97314571847,/g3t1_2,,running
Status,996,97314646385,/g3t1_2,,fail
Status,997,97351691914,/g3t1_4,,running
Status,998,97352026739,/g3t1_4,,fail
Status,999,97421271958,/g4t1,,success
Status,1000,97514645976,/g3t1_2,,running
Status,1001,97514719401,/g3t1_2,,fail
Status,1002,97714964106,/g3t1_2,,running
Status,1003,97715035959,/g3t1_2,,fail
Status,1004,97915206915,/g3t1_2,,running
Status,1005,97915284842,/g3t1_2,,fail
Status,1006,98115462468,/g3t1_2,,running
Status,1007,98115541995,/g3t1_2,,fail
Status,1008,98315749033,/g3t1_2,,running
Status,1009,98315822377,/g3t1_2,,fail
Status,1010,98351954749,/g3t1_4,,running
Status,1011,98352708395,/g3t1_4,,fail
Status,1012,98421447757,/g4t1,,success
Status,1013,98515565370,/g3t1_2,,running
Status,1014,98515641737,/g3t1_2,,fail
Status,1015,98716009048,/g3t1_2,,running
Status,1016,98716109365,/g3t1_2,,fail
Status,1017,98915747373,/g3t1_2,,running
Status,1018,98916019745,/g3t1_2,,fail
Status,1019,99116332508,/g3t1_2,,running
Status,1020,99116741909,/g3t1_2,,fail
Status,1021,99316507419,/g3t1_2,,running
Status,1022,99316584415,/g3t1_2,,fail
Status,1023,99351973949,/g3t1_4,,running
Status,1024,99352524257,/g3t1_4,,fail
Status,1025,99421602483,/g4t1,,success
Status,1026,99516509754,/g3t1_2,,running
Status,1027,99516895314,/g3t1_2,,fail
Status,1028,99716854739,/g3t1_2,,running
Status,1029,99716924971,/g3t1_2,,fail
Status,1030,99917115638,/g3t1_2,,running
Status,1031,99917194227,/g3t1_2,,fail
Status,1032,100117280291,/g3t1_2,,running
Status,1033,100117361275,/g3t1_2,,fail
Status,1034,100317521177,/g3t1_2,,running
Status,1035,100317605685,/g3t1_2,,fail
Status,1036,100352021677,/g3t1_4,,running
Status,1037,100352907356,/g3t1_4,,fail
Status,1038,100421842270,/g4t1,,success
Status,1039,100517441470,/g3t1_2,,running
Status,1040,100517515044,/g3t1_2,,fail
Status,1041,100717635787,/g3t1_2,,running
Status,1042,100717933723,/g3t1_2,,fail
Status,1043,100735165604,/g3t1_1,,running
Status,1044,100735465947,/g3t1_1,,fail
Status,1045,100918243189,/g3t1_2,,running
Status,1046,100918314391,/g3t1_2,,fail
Status,1047,101117900292,/g3t1_2,,running
Status,1048,101117967230,/g3t1_2,,fail
Status,1049,101318188645,/g3t1_2,,running
Status,1050,101318562625,/g3t1_2,,fail
Status,1051,101352296364,/g3t1_4,,running
Status,1052,101352846069,/g3t1_4,,fail
Status,1053,101421804846,/g4t1,,success
Status,1054,101518661255,/g3t1_2,,running
Status,1055,101518729645,/g3t1_2,,fail
Status,1056,101718862539,/g3t1_2,,running
Status,1057,101719077074,/g3t1_2,,fail
Status,1058,101919187894,/g3t1_2,,running
Status,1059,101919264303,/g3t1_2,,fail
Status,1060,102119189079,/g3t1_2,,running
Status,1061,102119516575,/g3t1_2,,fail
Status,1062,102319366057,/g3t1_2,,running
Status,1063,102319646070,/g3t1_2,,fail
Status,1065,102352257340,/g3t1_4,,running
Status,1066,102353044962,/g3t1_4,,fail
Status,1067,102422223084,/g4t1,,success
Status,1068,102519441858,/g3t1_2,,running
Status,1069,102519512150,/g3t1_2,,fail
Status,1070,102719505050,/g3t1_2,,running
Status,1071,102720236308,/g3t1_2,,fail
Status,1072,102919124562,/g3t1_2,,running
Status,1073,102919165872,/g3t1_2,,fail
Status,1074,103119767528,/g3t1_2,,running
Status,1075,103119838253,/g3t1_2,,fail
Status,1076,103319885525,/g3t1_2,,running
Status,1077,103319954998,/g3t1_2,,fail
Status,1078,103352666998,/g3t1_4,,running
Status,1079,103353613274,/g3t1_4,,fail
Status,1080,103422300487,/g4t1,,success
Status,1081,103519687342,/g3t1_2,,running
Status,1082,103520059342,/g3t1_2,,fail
Status,1083,103720331920,/g3t1_2,,running
Status,1084,103720412297,/g3t1_2,,fail
Status,1085,103920562989,/g3t1_2,,running
Status,1086,103920649130,/g3t1_2,,fail
Status,1087,104120764387,/g3t1_2,,running
Status,1088,104120867798,/g3t1_2,,fail
Status,1089,104320688296,/g3t1_2,,running
Status,1090,104320778441,/g3t1_2,,fail
Status,1091,104352697994,/g3t1_4,,running
Status,1092,104353277845,/g3t1_4,,fail
Status,1093,104422313492,/g4t1,,success
Status,1094,104520791236,/g3t1_2,,running
Status,1095,104520861393,/g3t1_2,,fail
Status,1096,104721046387,/g3t1_2,,running
Status,1097,104721149553,/g3t1_2,,fail
Status,1098,104921367341,/g3t1_2,,running
Status,1099,104921448788,/g3t1_2,,fail
Status,1100,105121690830,/g3t1_2,,running
Status,1101,105121789734,/g3t1_2,,fail
Status,1102,105321643068,/g3t1_2,,running
Status,1103,105321908118,/g3t1_2,,fail
Status,1104,105352799959,/g3t1_4,,running
Status,1105,105353366557,/g3t1_4,,fail
Status,1106,105422660451,/g4t1,,success
Status,1107,105521661525,/g3t1_2,,running
Status,1108,105521963761,/g3t1_2,,fail
Status,1109,105722260298,/g3t1_2,,running
Status,1110,105722915392,/g3t1_2,,fail
Status,1111,105734974622,/g3t1_1,,running
Status,1112,105735339393,/g3t1_1,,fail
Status,1113,105922577883,/g3t1_2,,running
Status,1114,105922824688,/g3t1_2,,fail
Status,1115,106122954715,/g3t1_2,,running
Status,1116,106123035945,/g3t1_2,,fail
Status,1117,106229874107,/g3t1_3,,running
Status,1118,106230267505,/g3t1_3,,fail
Status,1119,106322840385,/g3t1_2,,running
Status,1120,106323059126,/g3t1_2,,fail
Status,1121,106352982126,/g3t1_4,,running
Status,1122,106353519467,/g3t1_4,,fail
Status,1123,106422767392,/g4t1,,success
Status,1124,106523039768,/g3t1_2,,running
Status,1125,106523500068,/g3t1_2,,fail
Status,1126,106722729860,/g3t1_2,,running
Status,1127,106723085719,/g3t1_2,,fail
Status,1128,106923437934,/g3t1_2,,running
Status,1129,106923828063,/g3t1_2,,fail
Status,1130,107123440353,/g3t1_2,,running
Status,1131,107123762351,/g3t1_2,,fail
Status,1132,107323673933,/g3t1_2,,running
Status,1133,107323763304,/g3t1_2,,fail
Status,1134,107353125293,/g3t1_4,,running
Status,1135,107353508420,/g3t1_4,,fail
Status,1136,107423084495,/g4t1,,success
Status,1138,107523686993,/g3t1_2,,running
Status,1139,107523759354,/g3t1_2,,fail
Status,1140,107724069514,/g3t1_2,,running
Status,1141,107724141590,/g3t1_2,,fail
Status,1142,107924322573,/g3t1_2,,running
Status,1143,107924399849,/g3t1_2,,fail
Status,1144,108124475308,/g3t1_2,,running
Status,1145,108124913398,/g3t1_2,,fail
Status,1146,108324598114,/g3t1_2,,running
Status,1147,108324678236,/g3t1_2,,fail
Status,1148,108353230931,/g3t1_4,,running
Status,1149,108353997015,/g3t1_4,,fail
Status,1150,108423397405,/g4t1,,success
Status,1151,108524580286,/g3t1_2,,running
Status,1152,108524641283,/g3t1_2,,fail
Status,1153,108724838531,/g3t1_2,,running
Status,1154,108724907004,/g3t1_2,,fail
Status,1155,108925201094,/g3t1_2,,running
Status,1156,108925297688,/g3t1_2,,fail
Status,1157,109125080686,/g3t1_2,,running
Status,1158,109125525053,/g3t1_2,,fail
Status,1159,109325494269,/g3t1_2,,running
Status,1160,109325589681,/g3t1_2,,fail
Status,1161,109353365344,/g3t1_4,,running
Status,1162,109354000242,/g3t1_4,,fail
Status,1163,109423380311,/g4t1,,success
Status,1164,109525524704,/g3t1_2,,running
Status,1165,109525750953,/g3t1_2,,fail
Status,1166,109725688492,/g3t1_2,,running
Status,1167,109726200039,/g3t1_2,,fail
Status,1168,109925883097,/g3t1_2,,running
Status,1169,109926352043,/g3t1_2,,fail
Status,1170,110126217121,/g3t1_2,,running
Status,1171,110126333161,/g3t1_2,,fail
Status,1172,110326338840,/g3t1_2,,running
Status,1173,110326667723,/g3t1_2,,fail
Status,1174,110353676998,/g3t1_4,,running
Status,1175,110354465406,/g3t1_4,,fail
Status,1176,110423519644,/g4t1,,success
Status,1177,110526533956,/g3t1_2,,running
Status,1178,110526594564,/g3t1_2,,fail
Status,1179,110726651134,/g3t1_2,,running
Status,1180,110727036670,/g3t1_2,,fail
Status,1181,110735497065,/g3t1_1,,running
Status,1182,110735892102,/g3t1_1,,fail
Status,1183,110926919043,/g3t1_2,,running
Status,1184,110927193905,/g3t1_2,,fail
Status,1185,111127034077,/g3t1_2,,running
Status,1186,111127336857,/g3t1_2,,fail
Status,1187,111327285820,/g3t1_2,,running
Status,1188,111327632800,/g3t1_2,,fail
Status,1189,111353918397,/g3t1_4,,running
Status,1190,111354314970,/g3t1_4,,fail
Status,1191,111423628175,/g4t1,,success
Status,1192,111527254260,/g3t1_2,,running
Status,1193,111527314116,/g3t1_2,,fail
Status,1194,111727444270,/g3t1_2,,running
Status,1195,111727813509,/g3t1_2,,fail
Status,1196,111928076352,/g3t1_2,,running
Status,1197,111928158282,/g3t1_2,,fail
Status,1198,112128164489,/g3t1_2,,running
Status,1199,112128402344,/g3t1_2,,fail
Status,1200,112328299104,/g3t1_2,,running
Status,1201,112328653097,/g3t1_2,,fail
Status,1202,112353859982,/g3t1_4,,running
Status,1203,112354539104,/g3t1_4,,fail
Status,1204,112423819813,/g4t1,,success
Status,1205,112528445810,/g3t1_2,,running
Status,1206,112528698818,/g3t1_2,,fail
Status,1207,112728645255,/g3t1_2,,running
Status,1208,112728736222,/g3t1_2,,fail
Status,1209,112928804423,/g3t1_2,,running
Status,1210,112929101398,/g3t1_2,,fail
Status,1211,113129116464,/g3t1_2,,running
Status,1212,113129191335,/g3t1_2,,fail
Status,1213,113329344649,/g3t1_2,,running
Status,1214,113329417177,/g3t1_2,,fail
Status,1215,113354538167,/g3t1_4,,running
Status,1216,113354861653,/g3t1_4,,fail
Status,1217,113423876683,/g4t1,,success
Status,1218,113529594697,/g3t1_2,,running
Status,1219,113529654076,/g3t1_2,,fail
Status,1220,113729888745,/g3t1_2,,running
Status,1221,113729961741,/g3t1_2,,fail
Status,1222,113929726012,/g3t1_2,,running
Status,1223,113929930423,/g3t1_2,,fail
Status,1224,114130289075,/g3t1_2,,running
Status,1225,114130370613,/g3t1_2,,fail
Status,1226,114330422111,/g3t1_2,,running
Status,1227,114330845016,/g3t1_2,,fail
Status,1228,114354322626,/g3t1_4,,running
Status,1229,114354878139,/g3t1_4,,fail
Status,1230,114424178953,/g4t1,,success
Status,1231,114530702985,/g3t1_2,,running
Status,1232,114530769657,/g3t1_2,,fail
Status,1233,114731058050,/g3t1_2,,running
Status,1234,114731134778,/g3t1_2,,fail
Status,1235,114931298575,/g3t1_2,,running
Status,1236,114931371494,/g3t1_2,,fail
Status,1237,115131417065,/g3t1_2,,running
Status,1238,115131842452,/g3t1_2,,fail
Status,1239,115331594564,/g3t1_2,,running
Status,1240,115331664551,/g3t1_2,,fail
Status,1241,115354341172,/g3t1_4,,running
Status,1242,115354963331,/g3t1_4,,fail
Status,1243,115424281844,/g4t1,,success
Status,1244,115531513842,/g3t1_2,,running
Status,1245,115531919478,/g3t1_2,,fail
Status,1246,115731976694,/g3t1_2,,running
Status,1247,115732050423,/g3t1_2,,fail
Status,1248,115735371168,/g3t1_1,,running
Status,1249,115735619684,/g3t1_1,,fail
Status,1250,115931811556,/g3t1_2,,running
Status,1251,115931982188,/g3t1_2,,fail
Status,1252,116132485238,/g3t1_2,,running
Status,1253,116132565141,/g3t1_2,,fail
Status,1254,116229995085,/g3t1_3,,running
Status,1255,116230463617,/g3t1_3,,fail
Status,1256,116332262518,/g3t1_2,,running
Status,1257,116332331901,/g3t1_2,,fail
Status,1258,116354686722,/g3t1_4,,running
Status,1259,116355263166,/g3t1_4,,fail
Status,1260,116424516104,/g4t1,,success
Status,1261,116532522844,/g3t1_2,,running
Status,1262,116532583064,/g3t1_2,,fail
Status,1263,116732753942,/g3t1_2,,running
Status,1264,116732826218,/g3t1_2,,fail
Status,1265,116932786656,/g3t1_2,,running
Status,1266,116933218628,/g3t1_2,,fail
Status,1267,117132848289,/g3t1_2,,running
Status,1268,117133225313,/g3t1_2,,fail
Status,1269,117333389541,/g3t1_2,,running
Status,1270,117333463912,/g3t1_2,,fail
Status,1271,117354777793,/g3t1_4,,running
Status,1272,117355137746,/g3t1_4,,fail
Status,1273,117424608946,/g4t1,,success
Status,1274,117533523121,/g3t1_2,,running
Status,1275,117533594428,/g3t1_2,,fail
Status,1278,117733811211,/g3t1_2,,running
Status,1279,117733882892,/g3t1_2,,fail
Status,1280,117933850692,/g3t1_2,,running
Status,1281,117933921925,/g3t1_2,,fail
Status,1282,118134174595,/g3t1_2,,running
Status,1283,118134556348,/g3t1_2,,fail
Status,1284,118334594018,/g3t1_2,,running
Status,1285,118334666132,/g3t1_2,,fail
Status,1286,118354949875,/g3t1_4,,running
Status,1287,118355594759,/g3t1_4,,fail
Status,1288,118424752640,/g4t1,,success
Status,1289,118534852455,/g3t1_2,,running
Status,1290,118534911886,/g3t1_2,,fail
Status,1291,118734924025,/g3t1_2,,running
Status,1292,118735007441,/g3t1_2,,fail
Status,1293,118934706125,/g3t1_2,,running
Status,1294,118934979190,/g3t1_2,,fail
Status,1295,119135113739,/g3t1_2,,running
Status,1296,119135713174,/g3t1_2,,fail
Status,1297,119335638615,/g3t1_2,,running
Status,1298,119335710701,/g3t1_2,,fail
Status,1299,119354952734,/g3t1_4,,running
Status,1300,119355352673,/g3t1_4,,fail
Status,1301,119424939991,/g4t1,,success
Status,1302,119535616493,/g3t1_2,,running
Status,1303,119535686388,/g3t1_2,,fail
Status,1304,119735824778,/g3t1_2,,running
Status,1305,119736135184,/g3t1_2,,fail
Status,1306,119936022640,/g3t1_2,,running
Status,1307,119936088504,/g3t1_2,,fail
Status,1308,120135979803,/g3t1_2,,running
Status,1309,120136068163,/g3t1_2,,fail
Status,1310,120336248330,/g3t1_2,,running
Status,1311,120336367739,/g3t1_2,,fail
Status,1312,120355069269,/g3t1_4,,running
Status,1313,120355581494,/g3t1_4,,fail
Status,1314,120425081710,/g4t1,,success
Status,1315,120536357155,/g3t1_2,,running
Status,1316,120536762153,/g3t1_2,,fail
Status,1317,120735517286,/g3t1_1,,running
Status,1318,120736181914,/g3t1_1,,fail
Status,1319,120736268737,/g3t1_2,,running
Status,1320,120736903429,/g3t1_2,,fail
Status,1321,120936683143,/g3t1_2,,running
Status,1322,120937161100,/g3t1_2,,fail
Status,1323,121136728691,/g3t1_2,,running
Status,1324,121136789611,/g3t1_2,,fail
Status,1325,121337198765,/g3t1_2,,running
Status,1326,121337530570,/g3t1_2,,fail
Status,1327,121355561912,/g3t1_4,,running
Status,1328,121356482428,/g3t1_4,,fail
Status,1329,121425322251,/g4t1,,success
Status,1330,121537446192,/g3t1_2,,running
Status,1331,121537519841,/g3t1_2,,fail
Status,1332,121737976293,/g3t1_2,,running
Status,1333,121738162929,/g3t1_2,,fail
Status,1334,121937895566,/g3t1_2,,running
Status,1335,121937973741,/g3t1_2,,fail
Status,1336,122138151042,/g3t1_2,,running
Status,1337,122138585426,/g3t1_2,,fail
Status,1338,122338543607,/g3t1_2,,running
Status,1339,122339006076,/g3t1_2,,fail
Status,1340,122355263798,/g3t1_4,,running
Status,1341,122356124968,/g3t1_4,,fail
Status,1342,122425633164,/g4t1,,success
Status,1343,122538806893,/g3t1_2,,running
Status,1344,122538879095,/g3t1_2,,fail
Status,1345,122738923731,/g3t1_2,,running
Status,1346,122738992498,/g3t1_2,,fail
Status,1347,122938735520,/g3t1_2,,running
Status,1348,122939002287,/g3t1_2,,fail
Status,1349,123138870669,/g3t1_2,,running
Status,1350,123139293902,/g3t1_2,,fail
Status,1351,123339091085,/g3t1_2,,running
Status,1352,123339457657,/g3t1_2,,fail
Status,1353,123355337501,/g3t1_4,,running
Status,1354,123355920724,/g3t1_4,,fail
Status,1355,123425756690,/g4t1,,success
Status,1356,123539397189,/g3t1_2,,running
Status,1357,123539662853,/g3t1_2,,fail
Status,1358,123739449321,/g3t1_2,,running
Status,1359,123739509011,/g3t1_2,,fail
Status,1360,123939422604,/g3t1_2,,running
Status,1361,123939482714,/g3t1_2,,fail
Status,1362,124139631164,/g3t1_2,,running
Status,1363,124139696958,/g3t1_2,,fail
Status,1364,124339674108,/g3t1_2,,running
Status,1365,124340001611,/g3t1_2,,fail
Status,1366,124355545792,/g3t1_4,,running
Status,1367,124355891977,/g3t1_4,,fail
Status,1368,124425742378,/g4t1,,success
Status,1369,124539546466,/g3t1_2,,running
Status,1370,124539905658,/g3t1_2,,fail
Status,1371,124739402811,/g3t1_2,,running
Status,1372,124739741072,/g3t1_2,,fail
Status,1373,124940008261,/g3t1_2,,running
Status,1374,124940070254,/g3t1_2,,fail
Status,1375,125140070334,/g3t1_2,,running
Status,1376,125140128040,/g3t1_2,,fail
Status,1377,125340623461,/g3t1_2,,running
Status,1378,125340684339,/g3t1_2,,fail
Status,1379,125355680053,/g3t1_4,,running
Status,1380,125356211513,/g3t1_4,,fail
Status,1381,125425339583,/g4t1,,success
Status,1382,125540496632,/g3t1_2,,running
Status,1383,125540568228,/g3t1_2,,fail
Status,1384,125735795097,/g3t1_1,,running
Status,1385,125736210576,/g3t1_1,,fail
Status,1386,125740113043,/g3t1_2,,running
Status,1387,125740644159,/g3t1_2,,fail
Status,1388,125940430677,/g3t1_2,,running
Status,1389,125940751397,/g3t1_2,,fail
Status,1390,126139877644,/g3t1_2,,running
Status,1391,126139895855,/g3t1_2,,fail
Status,1392,126229945919,/g3t1_3,,running
Status,1393,126230339684,/g3t1_3,,fail
Status,1395,126255346228,/g3t1_4,,status
Status,1396,126340279121,/g3t1_2,,running
Status,1397,126340477158,/g3t1_2,,fail
Status,1398,126426212746,/g4t1,,success
Status,1399,126540165783,/g3t1_2,,running
Status,1400,126540191994,/g3t1_2,,fail
Status,1401,126740298874,/g3t1_2,,running
Status,1402,126740319067,/g3t1_2,,fail
Status,1404,126923914203,/g3t1_3,,status
Status,1405,126941057760,/g3t1_2,,running
Status,1406,126941129331,/g3t1_2,,fail
Status,1407,127140623325,/g3t1_2,,running
Status,1408,127140644120,/g3t1_2,,fail
Status,1409,127340875804,/g3t1_2,,running
Status,1410,127341099374,/g3t1_2,,fail
