
Status,2,3495553236,/g4t1,,init
Status,3,8609885527,/g3t1_1,,init
Status,5,8622691096,/g3t1_1,,init
Status,6,8622708653,/g3t1_1,,running
Status,7,8623276581,/g3t1_1,,success
Status,8,8722860089,/g3t1_1,,running
Status,9,8722876175,/g3t1_1,,success
Status,10,8822819487,/g3t1_1,,running
Status,11,8822978869,/g3t1_1,,success
Status,13,8892597599,/g3t1_2,,init
Status,14,8899318108,/g3t1_2,,init
Status,15,8899334425,/g3t1_2,,running
Status,16,8899754133,/g3t1_2,,success
Status,17,8923054101,/g3t1_1,,running
Status,18,8923069603,/g3t1_1,,success
Status,19,8942931937,/g4t1,,success
Status,21,8993102226,/g3t1_3,,init
Status,22,8999453810,/g3t1_2,,running
Status,23,8999525836,/g3t1_2,,success
Status,24,9000654355,/g3t1_3,,init
Status,25,9000669728,/g3t1_3,,running
Status,26,9001111930,/g3t1_3,,success
Status,27,9023073096,/g3t1_1,,running
Status,28,9023108347,/g3t1_1,,success
Status,29,9043429706,/g4t1,,success
Status,30,9063568496,/g4t1,,success
Status,31,9100346666,/g3t1_2,,running
Status,32,9100481881,/g3t1_2,,success
Status,33,9101331100,/g3t1_3,,running
Status,34,9102054746,/g3t1_3,,success
Status,35,9123833175,/g3t1_1,,running
Status,36,9124063589,/g3t1_1,,success
Status,37,9144794626,/g4t1,,success
Status,38,9164770683,/g4t1,,success
Status,39,9184760823,/g4t1,,success
Status,40,9200398563,/g3t1_2,,running
Status,41,9200650778,/g3t1_2,,success
Status,42,9201469279,/g3t1_3,,running
Status,43,9201794508,/g3t1_3,,success
Status,44,9204651444,/g4t1,,success
Status,45,9223909657,/g3t1_1,,running
Status,46,9224320486,/g3t1_1,,success
Status,47,9224955373,/g4t1,,success
Status,48,9245221980,/g4t1,,success
Status,49,9265070178,/g4t1,,success
Status,50,9285270450,/g4t1,,success
Status,51,9300591770,/g3t1_2,,running
Status,52,9301188836,/g3t1_2,,success
Status,53,9301398874,/g3t1_3,,running
Status,54,9302286580,/g3t1_3,,success
Status,55,9305112639,/g4t1,,success
Status,56,9323957781,/g3t1_1,,running
Status,57,9324564588,/g3t1_1,,success
Status,58,9325313414,/g4t1,,fail
Status,59,9345662620,/g4t1,,success
Status,60,9365751832,/g4t1,,success
Status,61,9385860468,/g4t1,,success
Status,62,9401387468,/g3t1_2,,running
Status,63,9401456439,/g3t1_2,,success
Status,64,9401490897,/g3t1_3,,running
Status,65,9402345909,/g3t1_3,,success
Status,66,9405792013,/g4t1,,success
Status,67,9424401236,/g3t1_1,,running
Status,68,9424471509,/g3t1_1,,success
Status,69,9426033395,/g4t1,,fail
Status,70,9446120765,/g4t1,,success
Status,71,9466484215,/g4t1,,success
Status,72,9486682414,/g4t1,,success
Status,73,9501476496,/g3t1_2,,running
Status,74,9501554474,/g3t1_2,,success
Status,75,9501771708,/g3t1_3,,running
Status,76,9502287439,/g3t1_3,,success
Status,77,9506467882,/g4t1,,success
Status,78,9524482281,/g3t1_1,,running
Status,79,9524775938,/g3t1_1,,success
Status,80,9526600245,/g4t1,,fail
Status,81,9546922886,/g4t1,,success
Status,82,9567149048,/g4t1,,success
Status,83,9587339620,/g4t1,,success
Status,84,9601452488,/g3t1_2,,running
Status,85,9601884334,/g3t1_2,,success
Status,86,9602461829,/g3t1_3,,running
Status,87,9602728329,/g3t1_3,,success
Status,88,9607299347,/g4t1,,fail
Status,89,9624602119,/g3t1_1,,running
Status,90,9624912190,/g3t1_1,,success
Status,91,9627362522,/g4t1,,fail
Status,92,9647592400,/g4t1,,success
Status,93,9667740059,/g4t1,,success
Status,94,9688091455,/g4t1,,success
Status,95,9700993764,/g3t1_2,,running
Status,96,9701018051,/g3t1_2,,success
Status,97,9701526973,/g3t1_3,,running
Status,98,9701717685,/g3t1_3,,success
Status,99,9707216984,/g4t1,,fail
Status,100,9724062421,/g3t1_1,,running
Status,101,9724095845,/g3t1_1,,success
Status,102,9727206190,/g4t1,,fail
Status,103,9747216071,/g4t1,,success
Status,104,9767687599,/g4t1,,success
Status,105,9787610721,/g4t1,,success
Status,106,9800821685,/g3t1_2,,running
Status,107,9801048902,/g3t1_2,,success
Status,108,9801498892,/g3t1_3,,running
Status,109,9801587715,/g3t1_3,,success
Status,110,9807557255,/g4t1,,fail
Status,111,9824251849,/g3t1_1,,running
Status,112,9824381676,/g3t1_1,,success
Status,113,9827817961,/g4t1,,fail
Status,114,9848086998,/g4t1,,success
Status,115,9868067604,/g4t1,,success
Status,116,9888042283,/g4t1,,success
Status,117,9901055846,/g3t1_2,,running
Status,118,9901139089,/g3t1_2,,success
Status,119,9901551354,/g3t1_3,,running
Status,120,9901743252,/g3t1_3,,success
Status,121,9908031084,/g4t1,,fail
Status,122,9924494867,/g3t1_1,,running
Status,123,9924611969,/g3t1_1,,success
Status,124,9928833691,/g4t1,,fail
Status,125,9948599871,/g4t1,,success
Status,126,9968628722,/g4t1,,success
Status,127,9988793742,/g4t1,,success
Status,128,10001497250,/g3t1_2,,running
Status,129,10001542879,/g3t1_2,,success
Status,130,10001927024,/g3t1_3,,running
Status,131,10002050603,/g3t1_3,,success
Status,132,10009014863,/g4t1,,fail
Status,133,10025072924,/g3t1_1,,running
Status,134,10025448239,/g3t1_1,,success
Status,135,10029501190,/g4t1,,fail
Status,136,10049687618,/g4t1,,success
Status,137,10069833442,/g4t1,,success
Status,138,10089871725,/g4t1,,success
Status,139,10102354704,/g3t1_2,,running
Status,140,10102620013,/g3t1_2,,success
Status,141,10102959495,/g3t1_3,,running
Status,142,10103021699,/g3t1_3,,success
Status,143,10110192034,/g4t1,,fail
Status,144,10125240068,/g3t1_1,,running
Status,145,10125620523,/g3t1_1,,success
Status,146,10130199056,/g4t1,,fail
Status,147,10150407471,/g4t1,,success
Status,148,10170664868,/g4t1,,success
Status,149,10190768205,/g4t1,,success
Status,150,10202369498,/g3t1_2,,running
Status,151,10202455002,/g3t1_2,,success
Status,152,10202666346,/g3t1_3,,running
Status,153,10203610321,/g3t1_3,,success
Status,154,10210478001,/g4t1,,fail
Status,155,10225288356,/g3t1_1,,running
Status,156,10225714050,/g3t1_1,,success
Status,157,10231067685,/g4t1,,fail
Status,158,10251077228,/g4t1,,success
Status,159,10271220978,/g4t1,,success
Status,160,10291384808,/g4t1,,success
Status,161,10302242777,/g3t1_2,,running
Status,162,10302320512,/g3t1_2,,success
Status,163,10302975846,/g3t1_3,,running
Status,164,10303352108,/g3t1_3,,success
Status,165,10311507055,/g4t1,,fail
Status,166,10325689468,/g3t1_1,,running
Status,167,10325924087,/g3t1_1,,success
Status,168,10331713748,/g4t1,,fail
Status,169,10351729015,/g4t1,,success
Status,170,10371974062,/g4t1,,success
Status,171,10392124409,/g4t1,,success
Status,172,10402168939,/g3t1_2,,running
Status,173,10402596651,/g3t1_2,,success
Status,174,10402645546,/g3t1_3,,running
Status,175,10403148799,/g3t1_3,,success
Status,176,10412063502,/g4t1,,fail
Status,177,10425674416,/g3t1_1,,running
Status,178,10425844555,/g3t1_1,,success
Status,179,10432413325,/g4t1,,fail
Status,180,10452585354,/g4t1,,success
Status,181,10472585176,/g4t1,,success
Status,182,10492871218,/g4t1,,success
Status,183,10502788299,/g3t1_2,,running
Status,184,10502932637,/g3t1_3,,running
Status,185,10503075273,/g3t1_2,,success
Status,186,10503635678,/g3t1_3,,success
Status,187,10512656008,/g4t1,,fail
Status,188,10525683174,/g3t1_1,,running
Status,189,10525838808,/g3t1_1,,success
Status,190,10533119137,/g4t1,,fail
Status,191,10553383415,/g4t1,,success
Status,192,10573426291,/g4t1,,success
Status,193,10593815342,/g4t1,,success
Status,194,10603281866,/g3t1_2,,running
Status,195,10603425937,/g3t1_2,,success
Status,196,10603464546,/g3t1_3,,running
Status,197,10603903466,/g3t1_3,,success
Status,198,10613617053,/g4t1,,fail
Status,199,10625731743,/g3t1_1,,running
Status,200,10626154367,/g3t1_1,,success
Status,201,10633964387,/g4t1,,fail
Status,202,10653937163,/g4t1,,success
Status,203,10673862112,/g4t1,,success
Status,204,10694120032,/g4t1,,success
Status,205,10702641072,/g3t1_2,,running
Status,206,10703205456,/g3t1_2,,success
Status,207,10703443818,/g3t1_3,,running
Status,208,10703693726,/g3t1_3,,success
Status,209,10714190169,/g4t1,,fail
Status,210,10726021153,/g3t1_1,,running
Status,211,10726131697,/g3t1_1,,success
Status,212,10734285588,/g4t1,,fail
Status,213,10754424018,/g4t1,,success
Status,214,10774434389,/g4t1,,success
Status,215,10794788666,/g4t1,,success
Status,216,10803102458,/g3t1_2,,running
Status,217,10803253225,/g3t1_2,,success
Status,218,10803289427,/g3t1_3,,running
Status,219,10803765863,/g3t1_3,,success
Status,220,10814876740,/g4t1,,fail
Status,221,10825902856,/g3t1_1,,running
Status,222,10826295588,/g3t1_1,,success
Status,223,10834831963,/g4t1,,fail
Status,224,10855160338,/g4t1,,success
Status,225,10875330731,/g4t1,,success
Status,226,10895491693,/g4t1,,success
Status,227,10903052244,/g3t1_2,,running
Status,228,10903676303,/g3t1_2,,success
Status,229,10903744222,/g3t1_3,,running
Status,230,10904841512,/g3t1_3,,success
Status,231,10915667501,/g4t1,,fail
Status,232,10926311549,/g3t1_1,,running
Status,233,10926555688,/g3t1_1,,success
Status,234,10935656334,/g4t1,,fail
Status,235,10955554021,/g4t1,,success
Status,236,10975660193,/g4t1,,success
Status,237,10996020884,/g4t1,,success
Status,238,11002862537,/g3t1_2,,running
Status,239,11003339475,/g3t1_2,,success
Status,240,11003401419,/g3t1_3,,running
Status,241,11004079858,/g3t1_3,,success
Status,242,11016733827,/g4t1,,fail
Status,243,11026248832,/g3t1_1,,running
Status,244,11026550367,/g3t1_1,,success
Status,245,11036320490,/g4t1,,fail
Status,246,11056671358,/g4t1,,success
Status,247,11076789122,/g4t1,,success
Status,248,11096949292,/g4t1,,success
Status,249,11103096852,/g3t1_2,,running
Status,250,11103598608,/g3t1_3,,running
Status,251,11103666569,/g3t1_2,,success
Status,252,11104485848,/g3t1_3,,success
Status,253,11117023908,/g4t1,,fail
Status,254,11126386940,/g3t1_1,,running
Status,255,11126811342,/g3t1_1,,success
Status,256,11137274152,/g4t1,,fail
Status,257,11157474128,/g4t1,,success
Status,258,11177742649,/g4t1,,success
Status,259,11197636945,/g4t1,,success
Status,260,11203443363,/g3t1_2,,running
Status,261,11204251840,/g3t1_3,,running
Status,262,11204314639,/g3t1_2,,success
Status,263,11204368658,/g3t1_3,,success
Status,264,11217744695,/g4t1,,fail
Status,265,11226931607,/g3t1_1,,running
Status,266,11227023414,/g3t1_1,,success
Status,267,11238011874,/g4t1,,fail
Status,268,11257526822,/g4t1,,success
Status,269,11278054850,/g4t1,,success
Status,270,11298047286,/g4t1,,success
Status,271,11303213758,/g3t1_2,,running
Status,272,11303766145,/g3t1_2,,success
Status,273,11303937487,/g3t1_3,,running
Status,274,11305023418,/g3t1_3,,success
Status,275,11318358513,/g4t1,,fail
Status,276,11326550796,/g3t1_1,,running
Status,277,11326860384,/g3t1_1,,success
Status,278,11338408364,/g4t1,,fail
Status,279,11358280807,/g4t1,,success
Status,280,11378695671,/g4t1,,success
Status,281,11398780637,/g4t1,,success
Status,282,11403418259,/g3t1_2,,running
Status,283,11404011063,/g3t1_3,,running
Status,284,11404070941,/g3t1_2,,success
Status,285,11404782174,/g3t1_3,,success
Status,286,11418918230,/g4t1,,fail
Status,287,11427383721,/g3t1_1,,running
Status,288,11427597860,/g3t1_1,,success
Status,289,11439730028,/g4t1,,fail
Status,290,11459240675,/g4t1,,success
Status,291,11479417483,/g4t1,,success
Status,292,11499440669,/g4t1,,success
Status,293,11503916155,/g3t1_2,,running
Status,294,11504396511,/g3t1_3,,running
Status,295,11504505565,/g3t1_2,,success
Status,296,11505665255,/g3t1_3,,success
Status,297,11519469823,/g4t1,,fail
Status,298,11527222356,/g3t1_1,,running
Status,299,11527431394,/g3t1_1,,success
Status,300,11539737775,/g4t1,,fail
Status,301,11559516246,/g4t1,,success
Status,302,11580009852,/g4t1,,success
Status,303,11600244126,/g4t1,,success
Status,304,11603844405,/g3t1_2,,running
Status,305,11604251416,/g3t1_2,,success
Status,306,11604364846,/g3t1_3,,running
Status,307,11605017143,/g3t1_3,,success
Status,308,11619927114,/g4t1,,fail
Status,309,11627161900,/g3t1_1,,running
Status,310,11628256790,/g3t1_1,,success
Status,311,11640690376,/g4t1,,fail
Status,312,11660600140,/g4t1,,success
Status,313,11680769798,/g4t1,,success
Status,314,11701125502,/g4t1,,success
Status,315,11704013389,/g3t1_2,,running
Status,316,11704104480,/g3t1_2,,success
Status,317,11704155427,/g3t1_3,,running
Status,318,11704743368,/g3t1_3,,success
Status,319,11720406030,/g4t1,,fail
Status,320,11726504420,/g3t1_1,,running
Status,321,11726599753,/g3t1_1,,success
Status,322,11740497004,/g4t1,,fail
Status,323,11760555531,/g4t1,,success
Status,324,11781314310,/g4t1,,success
Status,325,11801722029,/g4t1,,success
Status,326,11804048874,/g3t1_2,,running
Status,327,11804585098,/g3t1_2,,success
Status,328,11804641866,/g3t1_3,,running
Status,329,11804932868,/g3t1_3,,success
Status,330,11821629481,/g4t1,,fail
Status,331,11827493204,/g3t1_1,,running
Status,332,11827744972,/g3t1_1,,success
Status,333,11841774284,/g4t1,,fail
Status,334,11861813422,/g4t1,,success
Status,335,11882022917,/g4t1,,success
Status,336,11902312977,/g4t1,,success
Status,337,11904525948,/g3t1_2,,running
Status,338,11904584259,/g3t1_2,,success
Status,339,11904685193,/g3t1_3,,running
Status,340,11905207370,/g3t1_3,,success
Status,341,11922370876,/g4t1,,fail
Status,342,11927471210,/g3t1_1,,running
Status,343,11927919384,/g3t1_1,,success
Status,344,11942405647,/g4t1,,fail
Status,345,11962876983,/g4t1,,success
Status,346,11982808404,/g4t1,,success
Status,347,12002829630,/g4t1,,success
Status,348,12005252466,/g3t1_2,,running
Status,349,12005298482,/g3t1_3,,running
Status,350,12005373317,/g3t1_2,,success
Status,351,12005615448,/g3t1_3,,success
Status,352,12022951790,/g4t1,,fail
Status,353,12027887604,/g3t1_1,,running
Status,354,12027960587,/g3t1_1,,success
Status,355,12042929065,/g4t1,,fail
Status,356,12063452269,/g4t1,,success
Status,357,12083431739,/g4t1,,success
Status,358,12103474837,/g4t1,,success
Status,359,12104379522,/g3t1_2,,running
Status,360,12104799702,/g3t1_3,,running
Status,361,12105515356,/g3t1_3,,success
Status,362,12105581396,/g3t1_2,,success
Status,363,12123788122,/g4t1,,fail
Status,364,12127569145,/g3t1_1,,running
Status,365,12127905290,/g3t1_1,,success
Status,366,12143915895,/g4t1,,fail
Status,367,12164079619,/g4t1,,success
Status,368,12184401544,/g4t1,,success
Status,369,12204549360,/g4t1,,success
Status,370,12204645004,/g3t1_2,,running
Status,371,12205345680,/g3t1_2,,success
Status,372,12205444268,/g3t1_3,,running
Status,373,12205989725,/g3t1_3,,success
Status,374,12224867836,/g4t1,,fail
Status,375,12227764016,/g3t1_1,,running
Status,376,12228061835,/g3t1_1,,success
Status,377,12245095014,/g4t1,,fail
Status,378,12265230532,/g4t1,,success
Status,379,12285620172,/g4t1,,success
Status,380,12305120679,/g3t1_2,,running
Status,381,12305426224,/g3t1_3,,running
Status,382,12305486326,/g3t1_2,,success
Status,383,12305668652,/g4t1,,success
Status,384,12305713986,/g3t1_3,,success
Status,385,12325630022,/g4t1,,fail
Status,386,12327847253,/g3t1_1,,running
Status,387,12328094759,/g3t1_1,,success
Status,388,12345898416,/g4t1,,fail
Status,389,12365855456,/g4t1,,success
Status,390,12386014900,/g4t1,,success
Status,391,12405200421,/g3t1_2,,running
Status,392,12405840200,/g3t1_3,,running
Status,393,12405972300,/g4t1,,success
Status,394,12406697624,/g3t1_3,,success
Status,395,12406765440,/g3t1_2,,success
Status,396,12426251374,/g4t1,,fail
Status,397,12428390898,/g3t1_1,,running
Status,398,12428799490,/g3t1_1,,success
Status,399,12446360692,/g4t1,,fail
Status,400,12466537486,/g4t1,,success
Status,401,12486579969,/g4t1,,success
Status,402,12505263905,/g3t1_2,,running
Status,403,12505696151,/g3t1_3,,running
Status,404,12505764455,/g3t1_2,,success
Status,405,12506309443,/g3t1_3,,success
Status,406,12506615039,/g4t1,,fail
Status,407,12526782728,/g4t1,,fail
Status,408,12527854221,/g3t1_1,,running
Status,409,12528261267,/g3t1_1,,success
Status,410,12546797266,/g4t1,,fail
Status,411,12567048561,/g4t1,,success
Status,412,12587242335,/g4t1,,success
Status,413,12605444650,/g3t1_2,,running
Status,414,12605527891,/g3t1_3,,running
Status,415,12606093203,/g3t1_3,,success
Status,416,12606202198,/g3t1_2,,success
Status,417,12607178902,/g4t1,,fail
Status,418,12627233266,/g4t1,,success
Status,419,12628050617,/g3t1_1,,running
Status,420,12628410532,/g3t1_1,,success
Status,421,12647753980,/g4t1,,fail
Status,422,12667806182,/g4t1,,success
Status,423,12687661203,/g4t1,,success
Status,424,12705635576,/g3t1_2,,running
Status,425,12705729069,/g3t1_2,,success
Status,426,12705990167,/g3t1_3,,running
Status,427,12706679034,/g3t1_3,,success
Status,428,12707453680,/g4t1,,fail
Status,429,12728075791,/g4t1,,success
Status,430,12728228876,/g3t1_1,,running
Status,431,12728963335,/g3t1_1,,success
Status,432,12748054650,/g4t1,,success
Status,433,12768229155,/g4t1,,success
Status,434,12788339833,/g4t1,,success
Status,435,12806041905,/g3t1_2,,running
Status,436,12806119902,/g3t1_2,,success
Status,437,12806405329,/g3t1_3,,running
Status,438,12806438576,/g3t1_3,,success
Status,439,12807988632,/g4t1,,fail
Status,440,12828618295,/g4t1,,success
Status,441,12828700683,/g3t1_1,,running
Status,442,12828919901,/g3t1_1,,success
Status,443,12848660617,/g4t1,,fail
Status,444,12868714776,/g4t1,,success
Status,445,12888868049,/g4t1,,success
Status,446,12905885626,/g3t1_2,,running
Status,447,12906542108,/g3t1_3,,running
Status,448,12906590594,/g3t1_2,,success
Status,449,12906644674,/g3t1_3,,success
Status,450,12908702465,/g4t1,,fail
Status,451,12929562757,/g3t1_1,,running
Status,452,12929626130,/g4t1,,success
Status,453,12929645418,/g3t1_1,,success
Status,454,12949298994,/g4t1,,success
Status,455,12969444573,/g4t1,,success
Status,456,12989473128,/g4t1,,success
Status,457,13006087268,/g3t1_2,,running
Status,458,13006184301,/g3t1_3,,running
Status,459,13006720665,/g3t1_2,,success
Status,460,13006782923,/g3t1_3,,success
Status,461,13009572913,/g4t1,,fail
Status,462,13029364796,/g3t1_1,,running
Status,463,13029785211,/g3t1_1,,success
Status,464,13029852723,/g4t1,,success
Status,465,13049840684,/g4t1,,fail
Status,466,13070008582,/g4t1,,success
Status,467,13090165083,/g4t1,,success
Status,468,13106378347,/g3t1_2,,running
Status,469,13106482405,/g3t1_3,,running
Status,470,13106815813,/g3t1_2,,success
Status,471,13106995625,/g3t1_3,,success
Status,472,13110009528,/g4t1,,fail
Status,473,13128938023,/g3t1_1,,running
Status,474,13129272696,/g3t1_1,,success
Status,475,13130124218,/g4t1,,success
Status,476,13150387064,/g4t1,,success
Status,477,13170611774,/g4t1,,success
Status,478,13190792934,/g4t1,,success
Status,479,13206460686,/g3t1_2,,running
Status,480,13206535889,/g3t1_3,,running
Status,481,13206566419,/g3t1_2,,success
Status,482,13206682959,/g3t1_3,,success
Status,483,13210505081,/g4t1,,fail
Status,484,13229406401,/g3t1_1,,running
Status,485,13229777794,/g3t1_1,,success
Status,486,13230753803,/g4t1,,fail
Status,487,13251053181,/g4t1,,success
Status,488,13271052976,/g4t1,,success
Status,489,13291240489,/g4t1,,success
Status,490,13306480652,/g3t1_2,,running
Status,491,13306826731,/g3t1_3,,running
Status,492,13306878946,/g3t1_2,,success
Status,493,13306966427,/g3t1_3,,success
Status,494,13311281700,/g4t1,,fail
Status,495,13329408253,/g3t1_1,,running
Status,496,13329543014,/g3t1_1,,success
Status,497,13331541874,/g4t1,,success
Status,498,13351664360,/g4t1,,success
Status,499,13371759210,/g4t1,,success
Status,500,13391953368,/g4t1,,success
Status,501,13406490916,/g3t1_2,,running
Status,502,13406563726,/g3t1_3,,running
Status,503,13407286701,/g3t1_3,,success
Status,504,13407356308,/g3t1_2,,success
Status,505,13412088028,/g4t1,,fail
Status,506,13429789441,/g3t1_1,,running
Status,507,13429869122,/g3t1_1,,success
Status,508,13432205412,/g4t1,,fail
Status,509,13452314582,/g4t1,,success
Status,510,13472396464,/g4t1,,success
Status,511,13492475297,/g4t1,,success
Status,512,13506671112,/g3t1_2,,running
Status,513,13506764312,/g3t1_2,,success
Status,514,13506831519,/g3t1_3,,running
Status,515,13506969001,/g3t1_3,,success
Status,516,13512595352,/g4t1,,fail
Status,517,13529500527,/g3t1_1,,running
Status,518,13529697079,/g3t1_1,,success
Status,519,13532574464,/g4t1,,success
Status,520,13553123619,/g4t1,,success
Status,521,13573113460,/g4t1,,success
Status,522,13593435480,/g4t1,,success
Status,523,13606882791,/g3t1_2,,running
Status,524,13606945977,/g3t1_3,,running
Status,525,13607047765,/g3t1_2,,success
Status,526,13607363367,/g3t1_3,,success
Status,527,13613576594,/g4t1,,fail
Status,528,13629922206,/g3t1_1,,running
Status,529,13630001125,/g3t1_1,,success
Status,530,13633487207,/g4t1,,fail
Status,531,13653801097,/g4t1,,success
Status,532,13673816025,/g4t1,,success
Status,533,13694062591,/g4t1,,success
Status,534,13706828790,/g3t1_2,,running
Status,535,13706890953,/g3t1_3,,running
Status,536,13707388921,/g3t1_2,,success
Status,537,13708117643,/g3t1_3,,success
Status,538,13714248006,/g4t1,,fail
Status,539,13729793412,/g3t1_1,,running
Status,540,13730162208,/g3t1_1,,success
Status,541,13734235118,/g4t1,,success
Status,542,13754893277,/g4t1,,success
Status,543,13773960168,/g4t1,,success
Status,544,13793988902,/g4t1,,success
Status,545,13806067048,/g3t1_2,,running
Status,546,13806099399,/g3t1_2,,success
Status,547,13806366592,/g3t1_3,,running
Status,548,13806416810,/g3t1_3,,success
Status,549,13814077943,/g4t1,,fail
Status,550,13829456811,/g3t1_1,,running
Status,551,13829811788,/g3t1_1,,success
Status,552,13834497565,/g4t1,,fail
Status,553,13854905675,/g4t1,,success
Status,554,13875148012,/g4t1,,success
Status,555,13895170899,/g4t1,,success
Status,556,13907205969,/g3t1_2,,running
Status,557,13907347337,/g3t1_2,,success
Status,558,13907411281,/g3t1_3,,running
Status,559,13907505639,/g3t1_3,,success
Status,560,13915298077,/g4t1,,fail
Status,561,13929908873,/g3t1_1,,running
Status,562,13930249535,/g3t1_1,,success
Status,563,13935536971,/g4t1,,success
Status,564,13955758563,/g4t1,,success
Status,565,13975974630,/g4t1,,success
Status,566,13996067390,/g4t1,,success
Status,567,14007179913,/g3t1_2,,running
Status,568,14007262796,/g3t1_3,,running
Status,569,14007470042,/g3t1_2,,success
Status,570,14008300048,/g3t1_3,,success
Status,571,14016053396,/g4t1,,fail
Status,572,14030072962,/g3t1_1,,running
Status,573,14030778741,/g3t1_1,,success
Status,574,14036390177,/g4t1,,fail
Status,575,14055685748,/g4t1,,success
Status,576,14076169920,/g4t1,,success
Status,577,14095950929,/g4t1,,success
Status,578,14106617914,/g3t1_2,,running
Status,579,14107082683,/g3t1_3,,running
Status,580,14107168772,/g3t1_2,,success
Status,581,14107229577,/g3t1_3,,success
Status,582,14116426199,/g4t1,,fail
Status,583,14130350272,/g3t1_1,,running
Status,584,14130654494,/g3t1_1,,success
Status,585,14137060137,/g4t1,,success
Status,586,14157018166,/g4t1,,success
Status,587,14177384335,/g4t1,,success
Status,588,14197493783,/g4t1,,success
Status,589,14207352680,/g3t1_2,,running
Status,590,14207429734,/g3t1_3,,running
Status,591,14207477188,/g3t1_2,,success
Status,592,14208300483,/g3t1_3,,success
Status,593,14217404928,/g4t1,,fail
Status,594,14230622274,/g3t1_1,,running
Status,595,14230925086,/g3t1_1,,success
Status,596,14237640358,/g4t1,,fail
Status,597,14257816601,/g4t1,,success
Status,598,14277966728,/g4t1,,success
Status,599,14298155457,/g4t1,,success
Status,600,14307811276,/g3t1_2,,running
Status,601,14307875857,/g3t1_3,,running
Status,602,14308208003,/g3t1_2,,success
Status,603,14308239136,/g3t1_3,,success
Status,604,14317961527,/g4t1,,fail
Status,605,14330667972,/g3t1_1,,running
Status,606,14331233833,/g3t1_1,,success
Status,607,14338277499,/g4t1,,success
Status,608,14358554335,/g4t1,,success
Status,609,14378656699,/g4t1,,success
Status,610,14398927176,/g4t1,,success
Status,611,14407798152,/g3t1_2,,running
Status,612,14407973321,/g3t1_3,,running
Status,613,14408557244,/g3t1_3,,success
Status,614,14408613988,/g3t1_2,,success
Status,615,14418862591,/g4t1,,fail
Status,616,14431501259,/g3t1_1,,running
Status,617,14431585093,/g3t1_1,,success
Status,618,14438874059,/g4t1,,fail
Status,619,14459277455,/g4t1,,success
Status,620,14479177236,/g4t1,,success
Status,621,14499566636,/g4t1,,success
Status,622,14507881063,/g3t1_2,,running
Status,623,14507953742,/g3t1_3,,running
Status,624,14508249783,/g3t1_2,,success
Status,625,14508283831,/g3t1_3,,success
Status,626,14519699666,/g4t1,,fail
Status,627,14530875741,/g3t1_1,,running
Status,628,14531540005,/g3t1_1,,success
Status,629,14539609048,/g4t1,,success
Status,630,14560039020,/g4t1,,success
Status,631,14580226838,/g4t1,,success
Status,632,14600714228,/g4t1,,success
Status,633,14608023204,/g3t1_2,,running
Status,634,14608084125,/g3t1_3,,running
Status,635,14608114194,/g3t1_2,,success
Status,636,14608181656,/g3t1_3,,success
Status,637,14620430887,/g4t1,,fail
Status,638,14631138628,/g3t1_1,,running
Status,639,14631524119,/g3t1_1,,success
Status,640,14640696443,/g4t1,,fail
Status,641,14660917129,/g4t1,,success
Status,642,14681154121,/g4t1,,success
Status,643,14701266641,/g4t1,,success
Status,644,14707871486,/g3t1_2,,running
Status,645,14708025438,/g3t1_3,,running
Status,646,14708052806,/g3t1_2,,success
Status,647,14708125425,/g3t1_3,,success
Status,648,14721350347,/g4t1,,fail
Status,649,14731390800,/g3t1_1,,running
Status,650,14731454391,/g3t1_1,,success
Status,651,14741340389,/g4t1,,success
Status,652,14761456461,/g4t1,,success
Status,653,14781649542,/g4t1,,success
Status,654,14801726862,/g4t1,,success
Status,655,14808441019,/g3t1_2,,running
Status,656,14808571238,/g3t1_2,,success
Status,657,14808614579,/g3t1_3,,running
Status,658,14809230827,/g3t1_3,,success
Status,659,14821862148,/g4t1,,fail
Status,660,14831358330,/g3t1_1,,running
Status,661,14831785902,/g3t1_1,,success
Status,662,14841718996,/g4t1,,fail
Status,663,14862080302,/g4t1,,success
Status,664,14882292682,/g4t1,,success
Status,665,14902422259,/g4t1,,success
Status,666,14908317576,/g3t1_2,,running
Status,667,14908405227,/g3t1_3,,running
Status,668,14909205523,/g3t1_2,,success
Status,669,14909276922,/g3t1_3,,success
Status,670,14922604537,/g4t1,,fail
Status,671,14931388859,/g3t1_1,,running
Status,672,14931767994,/g3t1_1,,success
Status,673,14942814256,/g4t1,,success
Status,674,14962921992,/g4t1,,success
Status,675,14983101977,/g4t1,,success
Status,676,15003097012,/g4t1,,success
Status,677,15008632356,/g3t1_2,,running
Status,678,15008768165,/g3t1_2,,success
Status,679,15008803864,/g3t1_3,,running
Status,680,15009025479,/g3t1_3,,success
Status,681,15023266207,/g4t1,,fail
Status,682,15031530593,/g3t1_1,,running
Status,683,15031885996,/g3t1_1,,success
Status,684,15043298165,/g4t1,,fail
Status,685,15063575507,/g4t1,,success
Status,686,15083861654,/g4t1,,success
Status,687,15103751454,/g4t1,,success
Status,688,15108635879,/g3t1_2,,running
Status,689,15108851777,/g3t1_3,,running
Status,690,15109926113,/g3t1_2,,success
Status,691,15110001551,/g3t1_3,,success
Status,692,15124077373,/g4t1,,fail
Status,693,15131623690,/g3t1_1,,running
Status,694,15132248938,/g3t1_1,,success
Status,695,15144390064,/g4t1,,success
Status,696,15164487294,/g4t1,,success
Status,697,15184544800,/g4t1,,success
Status,698,15204706526,/g4t1,,success
Status,699,15208903698,/g3t1_2,,running
Status,700,15208978352,/g3t1_3,,running
Status,701,15209274389,/g3t1_2,,success
Status,702,15209340514,/g3t1_3,,success
Status,703,15224710129,/g4t1,,fail
Status,704,15231841555,/g3t1_1,,running
Status,705,15232027553,/g3t1_1,,success
Status,706,15244953523,/g4t1,,fail
Status,707,15265235871,/g4t1,,success
Status,708,15285164185,/g4t1,,success
Status,709,15305378335,/g4t1,,success
Status,710,15308767932,/g3t1_2,,running
Status,711,15309194734,/g3t1_3,,running
Status,712,15309389184,/g3t1_2,,success
Status,713,15309426865,/g3t1_3,,success
Status,714,15325351865,/g4t1,,fail
Status,715,15332002548,/g3t1_1,,running
Status,716,15332425576,/g3t1_1,,success
Status,717,15345816082,/g4t1,,success
Status,718,15365693084,/g4t1,,success
Status,719,15385788227,/g4t1,,success
Status,720,15405910139,/g4t1,,success
Status,721,15409245336,/g3t1_3,,running
Status,722,15409952681,/g3t1_3,,success
Status,723,15410048148,/g3t1_2,,running
Status,724,15410329784,/g3t1_2,,success
Status,725,15426034313,/g4t1,,fail
Status,726,15432202859,/g3t1_1,,running
Status,727,15432390606,/g3t1_1,,success
Status,728,15446207451,/g4t1,,fail
Status,729,15466298352,/g4t1,,success
Status,730,15486479536,/g4t1,,success
Status,731,15506567144,/g4t1,,success
Status,732,15509352592,/g3t1_2,,running
Status,733,15509426287,/g3t1_3,,running
Status,734,15509695410,/g3t1_2,,success
Status,735,15509737732,/g3t1_3,,success
Status,736,15526706940,/g4t1,,fail
Status,737,15532079777,/g3t1_1,,running
Status,738,15532613059,/g3t1_1,,success
Status,739,15546944143,/g4t1,,success
Status,740,15567121498,/g4t1,,success
Status,741,15587438101,/g4t1,,success
Status,742,15607455927,/g4t1,,success
Status,743,15609222956,/g3t1_2,,running
Status,744,15609336365,/g3t1_3,,running
Status,745,15609369112,/g3t1_2,,success
Status,746,15609750204,/g3t1_3,,success
Status,747,15627522771,/g4t1,,fail
Status,748,15632256660,/g3t1_1,,running
Status,749,15632634369,/g3t1_1,,success
Status,750,15647601296,/g4t1,,fail
Status,751,15667745577,/g4t1,,success
Status,752,15687855096,/g4t1,,success
Status,753,15707932252,/g4t1,,success
Status,754,15709248540,/g3t1_2,,running
Status,755,15709343513,/g3t1_3,,running
Status,756,15709594531,/g3t1_3,,success
Status,757,15709907586,/g3t1_2,,success
Status,758,15728496704,/g4t1,,fail
Status,759,15732627120,/g3t1_1,,running
Status,760,15733454800,/g3t1_1,,success
Status,761,15747700141,/g4t1,,success
Status,762,15767700010,/g4t1,,success
Status,763,15788793952,/g4t1,,success
Status,764,15808862127,/g4t1,,success
Status,765,15809525215,/g3t1_2,,running
Status,766,15809622027,/g3t1_3,,running
Status,767,15809946714,/g3t1_2,,success
Status,768,15810003299,/g3t1_3,,success
Status,769,15828967205,/g4t1,,fail
Status,770,15832612985,/g3t1_1,,running
Status,771,15832936073,/g3t1_1,,success
Status,772,15848956091,/g4t1,,fail
Status,773,15869150214,/g4t1,,success
Status,774,15889578115,/g4t1,,success
Status,775,15909267316,/g4t1,,success
Status,776,15909392333,/g3t1_2,,running
Status,777,15909424092,/g3t1_3,,running
Status,778,15910296804,/g3t1_2,,success
Status,779,15910358853,/g3t1_3,,success
Status,780,15929513176,/g4t1,,fail
Status,781,15933053212,/g3t1_1,,running
Status,782,15933128072,/g3t1_1,,success
Status,783,15949664731,/g4t1,,success
Status,784,15969806095,/g4t1,,success
Status,785,15989982426,/g4t1,,success
Status,786,16009673392,/g3t1_2,,running
Status,787,16009742172,/g3t1_3,,running
Status,788,16010023274,/g4t1,,success
Status,789,16010080914,/g3t1_2,,success
Status,790,16010295885,/g3t1_3,,success
Status,791,16030118790,/g4t1,,fail
Status,792,16032824240,/g3t1_1,,running
Status,793,16033325567,/g3t1_1,,success
Status,794,16050171100,/g4t1,,fail
Status,795,16070321231,/g4t1,,success
Status,796,16090910549,/g4t1,,success
Status,797,16109592465,/g3t1_2,,running
Status,798,16110176551,/g3t1_3,,running
Status,799,16110580676,/g3t1_3,,success
Status,800,16110637410,/g3t1_2,,success
Status,801,16110748918,/g4t1,,success
Status,802,16130659741,/g4t1,,fail
Status,803,16132950985,/g3t1_1,,running
Status,804,16133179657,/g3t1_1,,success
Status,805,16150923182,/g4t1,,success
Status,806,16171088545,/g4t1,,success
Status,807,16191179366,/g4t1,,success
Status,808,16210161080,/g3t1_2,,running
Status,809,16210249679,/g3t1_3,,running
Status,810,16210342479,/g3t1_2,,success
Status,811,16210554931,/g3t1_3,,success
Status,812,16210876818,/g4t1,,fail
Status,813,16231530426,/g4t1,,success
Status,814,16233085455,/g3t1_1,,running
Status,815,16233399716,/g3t1_1,,success
Status,816,16251410668,/g4t1,,fail
Status,817,16271530795,/g4t1,,success
Status,818,16291707740,/g4t1,,success
Status,819,16309957692,/g3t1_2,,running
Status,820,16310127995,/g3t1_3,,running
Status,821,16310423384,/g3t1_2,,success
Status,822,16310483076,/g3t1_3,,success
Status,823,16311635545,/g4t1,,fail
Status,824,16331925248,/g4t1,,success
Status,825,16333099836,/g3t1_1,,running
Status,826,16333709101,/g3t1_1,,success
Status,827,16352220095,/g4t1,,success
Status,828,16372273086,/g4t1,,success
Status,829,16392637503,/g4t1,,success
Status,830,16410307433,/g3t1_2,,running
Status,831,16410410503,/g3t1_3,,running
Status,832,16410758779,/g3t1_3,,success
Status,833,16411036339,/g3t1_2,,success
Status,834,16412215826,/g4t1,,fail
Status,835,16432647794,/g4t1,,success
Status,836,16433606075,/g3t1_1,,running
Status,837,16434143449,/g3t1_1,,success
Status,838,16452679450,/g4t1,,fail
Status,839,16473011406,/g4t1,,success
Status,840,16493771139,/g4t1,,success
Status,841,16511245911,/g3t1_2,,running
Status,842,16511306265,/g3t1_3,,running
Status,843,16511435064,/g3t1_2,,success
Status,844,16511458216,/g3t1_3,,success
Status,845,16513331013,/g4t1,,fail
Status,846,16533334613,/g4t1,,success
Status,847,16533383212,/g3t1_1,,running
Status,848,16533631982,/g3t1_1,,success
Status,849,16553450329,/g4t1,,success
Status,850,16573522935,/g4t1,,success
Status,851,16593673467,/g4t1,,success
Status,852,16610425426,/g3t1_2,,running
Status,853,16610495106,/g3t1_3,,running
Status,854,16610523578,/g3t1_3,,success
Status,855,16610700267,/g3t1_2,,success
Status,856,16613698957,/g4t1,,fail
Status,857,16633748458,/g3t1_1,,running
Status,858,16633805282,/g4t1,,success
Status,859,16633881404,/g3t1_1,,success
Status,860,16653999909,/g4t1,,fail
Status,861,16674367400,/g4t1,,success
Status,862,16694184672,/g4t1,,success
Status,863,16710837921,/g3t1_2,,running
Status,864,16710894239,/g3t1_3,,running
Status,865,16710920665,/g3t1_3,,success
Status,866,16711036802,/g3t1_2,,success
Status,867,16714075739,/g4t1,,fail
Status,868,16733752998,/g3t1_1,,running
Status,869,16734493464,/g4t1,,success
Status,870,16734569973,/g3t1_1,,success
Status,871,16754747914,/g4t1,,success
Status,872,16774958762,/g4t1,,success
Status,873,16794815022,/g4t1,,success
Status,874,16811079081,/g3t1_2,,running
Status,875,16811150562,/g3t1_3,,running
Status,876,16811482336,/g3t1_3,,success
Status,877,16811526928,/g3t1_2,,success
Status,878,16814748481,/g4t1,,fail
Status,879,16834134780,/g3t1_1,,running
Status,880,16834273803,/g3t1_1,,success
Status,881,16835446408,/g4t1,,fail
Status,882,16855215268,/g4t1,,success
Status,883,16875362608,/g4t1,,success
Status,884,16895529870,/g4t1,,success
Status,885,16911029764,/g3t1_2,,running
Status,886,16911105641,/g3t1_3,,running
Status,887,16911394475,/g3t1_2,,success
Status,888,16911651771,/g3t1_3,,success
Status,889,16915639123,/g4t1,,fail
Status,890,16934306229,/g3t1_1,,running
Status,891,16934740659,/g3t1_1,,success
Status,892,16935201006,/g4t1,,success
Status,893,16955706458,/g4t1,,success
Status,894,16976081930,/g4t1,,success
Status,895,16995839510,/g4t1,,success
Status,896,17011192342,/g3t1_2,,running
Status,897,17011270206,/g3t1_3,,running
Status,898,17011358542,/g3t1_2,,success
Status,899,17011597602,/g3t1_3,,success
Status,900,17015816985,/g4t1,,fail
Status,901,17034170669,/g3t1_1,,running
Status,902,17034533082,/g3t1_1,,success
Status,903,17036103212,/g4t1,,fail
Status,904,17056318278,/g4t1,,success
Status,905,17076726382,/g4t1,,success
Status,906,17096707346,/g4t1,,success
Status,907,17111685316,/g3t1_3,,running
Status,908,17111743307,/g3t1_2,,running
Status,909,17111762964,/g3t1_2,,success
Status,910,17111783017,/g3t1_3,,success
Status,911,17116704984,/g4t1,,fail
Status,912,17134569187,/g3t1_1,,running
Status,913,17134921916,/g3t1_1,,success
Status,914,17136685206,/g4t1,,success
Status,915,17157116232,/g4t1,,success
Status,916,17177368691,/g4t1,,success
Status,917,17197521682,/g4t1,,success
Status,918,17211397081,/g3t1_2,,running
Status,919,17211567636,/g3t1_3,,running
Status,920,17211808440,/g3t1_3,,success
Status,921,17211889605,/g3t1_2,,success
Status,922,17217567098,/g4t1,,fail
Status,923,17234570719,/g3t1_1,,running
Status,924,17234986805,/g3t1_1,,success
Status,925,17237500680,/g4t1,,fail
Status,926,17257776903,/g4t1,,success
Status,927,17277845844,/g4t1,,success
Status,928,17297940217,/g4t1,,success
Status,929,17311657491,/g3t1_2,,running
Status,930,17311707599,/g3t1_3,,running
Status,931,17311794309,/g3t1_2,,success
Status,932,17311813182,/g3t1_3,,success
Status,933,17317704449,/g4t1,,fail
Status,934,17334582955,/g3t1_1,,running
Status,935,17335163118,/g3t1_1,,success
Status,936,17338033495,/g4t1,,success
Status,937,17358323419,/g4t1,,success
Status,938,17378593785,/g4t1,,success
Status,939,17398548695,/g4t1,,success
Status,940,17411375534,/g3t1_2,,running
Status,941,17411453561,/g3t1_3,,running
Status,942,17411888923,/g3t1_3,,success
Status,943,17411948169,/g3t1_2,,success
Status,944,17418614553,/g4t1,,fail
Status,945,17435153716,/g3t1_1,,running
Status,946,17435291117,/g3t1_1,,success
Status,947,17438708300,/g4t1,,fail
Status,948,17458917639,/g4t1,,success
Status,949,17478755089,/g4t1,,success
Status,950,17498715372,/g4t1,,success
Status,951,17511860167,/g3t1_2,,running
Status,952,17511990317,/g3t1_3,,running
Status,953,17512016468,/g3t1_2,,success
Status,954,17512032670,/g3t1_3,,success
Status,955,17519095444,/g4t1,,fail
Status,956,17534903627,/g3t1_1,,running
Status,957,17534959834,/g3t1_1,,success
Status,958,17539299681,/g4t1,,success
Status,959,17559684343,/g4t1,,success
Status,960,17579533064,/g4t1,,success
Status,961,17599742650,/g4t1,,success
Status,962,17611789884,/g3t1_2,,running
Status,963,17611840947,/g3t1_3,,running
Status,964,17611949164,/g3t1_2,,success
Status,965,17611970403,/g3t1_3,,success
Status,966,17619691829,/g4t1,,fail
Status,967,17634997483,/g3t1_1,,running
Status,968,17635292023,/g3t1_1,,success
Status,969,17639743651,/g4t1,,fail
Status,970,17660454856,/g4t1,,success
Status,971,17680364389,/g4t1,,success
Status,972,17700844227,/g4t1,,success
Status,973,17712647929,/g3t1_2,,running
Status,974,17712715302,/g3t1_3,,running
Status,975,17712739917,/g3t1_2,,success
Status,976,17713242231,/g3t1_3,,success
Status,977,17720443476,/g4t1,,fail
Status,978,17735130028,/g3t1_1,,running
Status,979,17735421486,/g3t1_1,,success
Status,980,17740718710,/g4t1,,success
Status,981,17760743644,/g4t1,,success
Status,982,17781057826,/g4t1,,success
Status,983,17801430597,/g4t1,,success
Status,984,17811874246,/g3t1_2,,running
Status,985,17811916558,/g3t1_3,,running
Status,986,17811966597,/g3t1_3,,success
Status,987,17812098040,/g3t1_2,,success
Status,988,17821113848,/g4t1,,fail
Status,989,17835234101,/g3t1_1,,running
Status,990,17835500436,/g3t1_1,,success
Status,991,17841113626,/g4t1,,fail
Status,992,17861699902,/g4t1,,success
Status,993,17881570246,/g4t1,,success
Status,994,17901419276,/g4t1,,success
Status,995,17912035307,/g3t1_2,,running
Status,996,17912112655,/g3t1_3,,running
Status,997,17912489857,/g3t1_3,,success
Status,998,17912561322,/g3t1_2,,success
Status,999,17921580430,/g4t1,,fail
Status,1000,17935187358,/g3t1_1,,running
Status,1001,17935542483,/g3t1_1,,success
Status,1002,17942222597,/g4t1,,success
Status,1003,17962103530,/g4t1,,success
Status,1004,17982323103,/g4t1,,success
Status,1005,18002356621,/g4t1,,success
Status,1006,18012804351,/g3t1_3,,running
Status,1007,18012866251,/g3t1_2,,running
Status,1008,18012886773,/g3t1_2,,success
Status,1009,18012904833,/g3t1_3,,success
Status,1010,18022367715,/g4t1,,fail
Status,1011,18035500573,/g3t1_1,,running
Status,1012,18035857768,/g3t1_1,,success
Status,1013,18042751096,/g4t1,,fail
Status,1014,18062698810,/g4t1,,success
Status,1015,18082895733,/g4t1,,success
Status,1016,18102820703,/g4t1,,success
Status,1017,18112454771,/g3t1_3,,running
Status,1018,18112750106,/g3t1_2,,running
Status,1019,18112804253,/g3t1_3,,success
Status,1020,18112842537,/g3t1_2,,success
Status,1021,18122822116,/g4t1,,fail
Status,1022,18135546729,/g3t1_1,,running
Status,1023,18136224355,/g3t1_1,,success
Status,1024,18143018322,/g4t1,,success
Status,1025,18163269052,/g4t1,,success
Status,1026,18183535585,/g4t1,,success
Status,1027,18203587594,/g4t1,,success
Status,1028,18212704092,/g3t1_2,,running
Status,1029,18212786416,/g3t1_3,,running
Status,1030,18213372530,/g3t1_3,,success
Status,1031,18213436508,/g3t1_2,,success
Status,1032,18223513033,/g4t1,,fail
Status,1033,18236105267,/g3t1_1,,running
Status,1034,18236247440,/g3t1_1,,success
Status,1035,18243835143,/g4t1,,fail
Status,1036,18264028233,/g4t1,,success
Status,1037,18284496283,/g4t1,,success
Status,1038,18304514123,/g4t1,,success
Status,1039,18312696614,/g3t1_3,,running
Status,1040,18312775132,/g3t1_2,,running
Status,1041,18313205012,/g3t1_2,,success
Status,1042,18313322650,/g3t1_3,,success
Status,1043,18324402620,/g4t1,,fail
Status,1044,18336029305,/g3t1_1,,running
Status,1045,18336721341,/g3t1_1,,success
Status,1046,18344787984,/g4t1,,success
Status,1047,18365138263,/g4t1,,success
Status,1048,18385235293,/g4t1,,success
Status,1049,18405278403,/g4t1,,success
Status,1050,18413151741,/g3t1_3,,running
Status,1051,18413236268,/g3t1_2,,running
Status,1052,18413845449,/g3t1_3,,success
Status,1053,18413914174,/g3t1_2,,success
Status,1054,18425648120,/g4t1,,fail
Status,1055,18436089645,/g3t1_1,,running
Status,1056,18436719548,/g3t1_1,,success
Status,1057,18445612336,/g4t1,,fail
Status,1058,18465785903,/g4t1,,success
Status,1059,18485919602,/g4t1,,success
Status,1060,18506020376,/g4t1,,success
Status,1061,18512971951,/g3t1_2,,running
Status,1062,18513308510,/g3t1_3,,running
Status,1063,18513436430,/g3t1_2,,success
Status,1064,18513696298,/g3t1_3,,success
Status,1065,18526257396,/g4t1,,fail
Status,1066,18536299108,/g3t1_1,,running
Status,1067,18536700410,/g3t1_1,,success
Status,1068,18546270671,/g4t1,,success
Status,1069,18566430534,/g4t1,,success
Status,1070,18586500565,/g4t1,,success
Status,1071,18606686413,/g4t1,,success
Status,1072,18613023436,/g3t1_3,,running
Status,1073,18613387212,/g3t1_2,,running
Status,1074,18613461866,/g3t1_2,,success
Status,1075,18613723219,/g3t1_3,,success
Status,1076,18627124222,/g4t1,,fail
Status,1077,18636352465,/g3t1_1,,running
Status,1078,18636637512,/g3t1_1,,success
Status,1079,18646911763,/g4t1,,fail
Status,1080,18667090971,/g4t1,,success
Status,1081,18687547148,/g4t1,,success
Status,1082,18707558140,/g4t1,,success
Status,1083,18713856687,/g3t1_2,,running
Status,1084,18714042661,/g3t1_3,,running
Status,1085,18714122700,/g3t1_3,,success
Status,1086,18714434723,/g3t1_2,,success
Status,1087,18727580067,/g4t1,,fail
Status,1088,18736524977,/g3t1_1,,running
Status,1089,18736919083,/g3t1_1,,success
Status,1090,18747578502,/g4t1,,success
Status,1091,18767790063,/g4t1,,success
Status,1092,18787926557,/g4t1,,success
Status,1093,18807980402,/g4t1,,success
Status,1094,18813319605,/g3t1_2,,running
Status,1095,18813388174,/g3t1_3,,running
Status,1096,18813583506,/g3t1_3,,success
Status,1097,18813634949,/g3t1_2,,success
Status,1098,18828168051,/g4t1,,fail
Status,1099,18836669958,/g3t1_1,,running
Status,1100,18836957452,/g3t1_1,,success
Status,1101,18848083445,/g4t1,,fail
Status,1102,18868372370,/g4t1,,success
Status,1103,18888555595,/g4t1,,success
Status,1104,18909093661,/g4t1,,success
Status,1105,18913779224,/g3t1_2,,running
Status,1106,18913841197,/g3t1_3,,running
Status,1107,18913861528,/g3t1_2,,success
Status,1108,18913881973,/g3t1_3,,success
Status,1109,18928953512,/g4t1,,fail
Status,1110,18936819354,/g3t1_1,,running
Status,1111,18937292716,/g3t1_1,,success
Status,1112,18948821584,/g4t1,,success
Status,1113,18969324077,/g4t1,,success
Status,1114,18989414458,/g4t1,,success
Status,1115,19009438393,/g4t1,,success
Status,1116,19013866556,/g3t1_3,,running
Status,1117,19013937353,/g3t1_2,,running
Status,1118,19013963150,/g3t1_3,,success
Status,1119,19014016635,/g3t1_2,,success
Status,1120,19029610561,/g4t1,,fail
Status,1121,19036984722,/g3t1_1,,running
Status,1122,19037242363,/g3t1_1,,success
Status,1123,19049694218,/g4t1,,fail
Status,1124,19069849662,/g4t1,,success
Status,1125,19090009676,/g4t1,,success
Status,1126,19110086417,/g4t1,,success
Status,1127,19113880552,/g3t1_3,,running
Status,1128,19113947621,/g3t1_2,,running
Status,1129,19114219850,/g3t1_3,,success
Status,1130,19114284112,/g3t1_2,,success
Status,1131,19130473525,/g4t1,,fail
Status,1132,19137025726,/g3t1_1,,running
Status,1133,19137486263,/g3t1_1,,success
Status,1134,19150407146,/g4t1,,success
Status,1135,19170541043,/g4t1,,success
Status,1136,19190700054,/g4t1,,success
Status,1137,19210859822,/g4t1,,success
Status,1138,19214271149,/g3t1_3,,running
Status,1139,19214332248,/g3t1_2,,running
Status,1140,19214373132,/g3t1_3,,success
Status,1141,19214395376,/g3t1_2,,success
Status,1142,19230753609,/g4t1,,fail
Status,1143,19237347876,/g3t1_1,,running
Status,1144,19237416840,/g3t1_1,,success
Status,1145,19251125777,/g4t1,,fail
Status,1146,19270912899,/g4t1,,success
Status,1147,19291233598,/g4t1,,success
Status,1148,19311477402,/g4t1,,success
Status,1149,19314777482,/g3t1_3,,running
Status,1150,19314834081,/g3t1_2,,running
Status,1151,19314855185,/g3t1_3,,success
Status,1152,19314919783,/g3t1_2,,success
Status,1153,19331652719,/g4t1,,fail
Status,1154,19337316007,/g3t1_1,,running
Status,1155,19338170678,/g3t1_1,,success
Status,1156,19351422148,/g4t1,,success
Status,1157,19371769679,/g4t1,,success
Status,1158,19391947293,/g4t1,,success
Status,1159,19412061613,/g4t1,,success
Status,1160,19413998909,/g3t1_3,,running
Status,1161,19414490386,/g3t1_2,,running
Status,1162,19414888595,/g3t1_3,,success
Status,1163,19414972072,/g3t1_2,,success
Status,1164,19432114604,/g4t1,,fail
Status,1165,19437590051,/g3t1_1,,running
Status,1166,19437751239,/g3t1_1,,success
Status,1167,19452185102,/g4t1,,fail
Status,1168,19472297027,/g4t1,,success
Status,1169,19492850661,/g4t1,,success
Status,1170,19512793331,/g4t1,,success
Status,1171,19514161588,/g3t1_3,,running
Status,1172,19514936015,/g3t1_2,,running
Status,1173,19515016355,/g3t1_2,,success
Status,1174,19515149249,/g3t1_3,,success
Status,1175,19532867628,/g4t1,,fail
Status,1176,19537608422,/g3t1_1,,running
Status,1177,19538247553,/g3t1_1,,success
Status,1178,19553080633,/g4t1,,success
Status,1179,19573166209,/g4t1,,success
Status,1180,19593284930,/g4t1,,success
Status,1181,19613345659,/g4t1,,success
Status,1182,19614428889,/g3t1_3,,running
Status,1183,19614608770,/g3t1_2,,running
Status,1184,19614782065,/g3t1_2,,success
Status,1185,19615160905,/g3t1_3,,success
Status,1186,19633506976,/g4t1,,fail
Status,1187,19637878217,/g3t1_1,,running
Status,1188,19638404113,/g3t1_1,,success
Status,1189,19653700570,/g4t1,,fail
Status,1190,19673749915,/g4t1,,success
Status,1191,19693618267,/g4t1,,success
Status,1192,19714055147,/g4t1,,success
Status,1193,19714479911,/g3t1_3,,running
Status,1194,19714576967,/g3t1_2,,running
Status,1195,19715438732,/g3t1_2,,success
Status,1196,19715551530,/g3t1_3,,success
Status,1197,19734249580,/g4t1,,fail
Status,1198,19737885088,/g3t1_1,,running
Status,1199,19738347005,/g3t1_1,,success
Status,1200,19754360437,/g4t1,,success
Status,1201,19774685091,/g4t1,,success
Status,1202,19794576773,/g4t1,,success
Status,1203,19814864076,/g3t1_3,,running
Status,1204,19814950130,/g3t1_2,,running
Status,1205,19814981426,/g4t1,,success
Status,1206,19815082664,/g3t1_3,,success
Status,1207,19815494118,/g3t1_2,,success
Status,1208,19834996808,/g4t1,,fail
Status,1209,19837950549,/g3t1_1,,running
Status,1210,19838311714,/g3t1_1,,success
Status,1211,19855004133,/g4t1,,fail
Status,1212,19875377767,/g4t1,,success
Status,1213,19895557019,/g4t1,,success
Status,1214,19915036332,/g3t1_3,,running
Status,1215,19915170214,/g3t1_2,,running
Status,1216,19915206718,/g3t1_3,,success
Status,1217,19915227901,/g3t1_2,,success
Status,1218,19915556296,/g4t1,,success
Status,1219,19935973029,/g4t1,,fail
Status,1220,19938138983,/g3t1_1,,running
Status,1221,19938391629,/g3t1_1,,success
Status,1222,19955989288,/g4t1,,success
Status,1223,19976340047,/g4t1,,success
Status,1224,19996431963,/g4t1,,success
Status,1225,20015268040,/g3t1_3,,running
Status,1226,20015433594,/g3t1_3,,success
Status,1227,20015480523,/g3t1_2,,running
Status,1228,20016275437,/g3t1_2,,success
Status,1229,20016352923,/g4t1,,fail
Status,1230,20036614681,/g4t1,,success
Status,1231,20038207471,/g3t1_1,,running
Status,1232,20038824250,/g3t1_1,,success
Status,1233,20056725434,/g4t1,,fail
Status,1234,20077071419,/g4t1,,success
Status,1235,20097017715,/g4t1,,success
Status,1236,20114986035,/g3t1_3,,running
Status,1237,20115068762,/g3t1_2,,running
Status,1238,20115394632,/g3t1_2,,success
Status,1239,20116062179,/g3t1_3,,success
Status,1240,20116896415,/g4t1,,fail
Status,1241,20137174856,/g4t1,,success
Status,1242,20138672758,/g3t1_1,,running
Status,1243,20138726683,/g3t1_1,,success
Status,1244,20157311345,/g4t1,,success
Status,1245,20177605489,/g4t1,,success
Status,1246,20197760163,/g4t1,,success
Status,1247,20215273544,/g3t1_3,,running
Status,1248,20215353917,/g3t1_2,,running
Status,1249,20215594523,/g3t1_2,,success
Status,1250,20215659419,/g3t1_3,,success
Status,1251,20217555188,/g4t1,,fail
Status,1252,20237925555,/g4t1,,success
Status,1253,20238382840,/g3t1_1,,running
Status,1254,20239060562,/g3t1_1,,success
Status,1255,20257887982,/g4t1,,fail
Status,1256,20278060460,/g4t1,,success
Status,1257,20298174730,/g4t1,,success
Status,1258,20315029830,/g3t1_3,,running
Status,1259,20315362904,/g3t1_2,,running
Status,1260,20315418456,/g3t1_3,,success
Status,1261,20315444298,/g3t1_2,,success
Status,1262,20318016101,/g4t1,,fail
Status,1263,20338524154,/g4t1,,success
Status,1264,20338604700,/g3t1_1,,running
Status,1265,20338994955,/g3t1_1,,success
Status,1266,20358970164,/g4t1,,success
Status,1267,20378814264,/g4t1,,success
Status,1268,20398968409,/g4t1,,success
Status,1269,20415822557,/g3t1_3,,running
Status,1270,20415885214,/g3t1_2,,running
Status,1271,20416043780,/g3t1_3,,success
Status,1272,20416199846,/g3t1_2,,success
Status,1273,20418888955,/g4t1,,fail
Status,1274,20439091059,/g3t1_1,,running
Status,1275,20439168509,/g4t1,,success
Status,1276,20439294275,/g3t1_1,,success
Status,1277,20459389907,/g4t1,,fail
Status,1278,20479460226,/g4t1,,success
Status,1279,20499682860,/g4t1,,success
Status,1280,20515602020,/g3t1_3,,running
Status,1281,20515681003,/g3t1_2,,running
Status,1282,20515899959,/g3t1_2,,success
Status,1283,20515961006,/g3t1_3,,success
Status,1284,20519483427,/g4t1,,fail
Status,1285,20539065937,/g3t1_1,,running
Status,1286,20539475594,/g3t1_1,,success
Status,1287,20539815950,/g4t1,,success
Status,1288,20560234441,/g4t1,,success
Status,1289,20580415700,/g4t1,,success
Status,1290,20600574191,/g4t1,,success
Status,1291,20615847158,/g3t1_3,,running
Status,1292,20615925775,/g3t1_2,,running
Status,1293,20616221967,/g3t1_3,,success
Status,1294,20616282796,/g3t1_2,,success
Status,1295,20620219780,/g4t1,,fail
Status,1296,20639560539,/g3t1_1,,running
Status,1297,20640322551,/g3t1_1,,success
Status,1298,20640362634,/g4t1,,fail
Status,1299,20661008160,/g4t1,,success
Status,1300,20681050111,/g4t1,,success
Status,1301,20701313944,/g4t1,,success
Status,1302,20715959539,/g3t1_3,,running
Status,1303,20716068390,/g3t1_2,,running
Status,1304,20716472603,/g3t1_2,,success
Status,1305,20716542716,/g3t1_3,,success
Status,1306,20721090793,/g4t1,,fail
Status,1307,20739261381,/g3t1_1,,running
Status,1308,20739921557,/g3t1_1,,success
Status,1309,20741007011,/g4t1,,success
Status,1310,20761484949,/g4t1,,success
Status,1311,20781583295,/g4t1,,success
Status,1312,20801701804,/g4t1,,success
Status,1313,20816124449,/g3t1_3,,running
Status,1314,20816316445,/g3t1_2,,running
Status,1315,20816360904,/g3t1_2,,success
Status,1316,20816858829,/g3t1_3,,success
Status,1317,20821701259,/g4t1,,fail
Status,1318,20839359124,/g3t1_1,,running
Status,1319,20840274321,/g3t1_1,,success
Status,1320,20841780078,/g4t1,,fail
Status,1321,20862115249,/g4t1,,success
Status,1322,20882200242,/g4t1,,success
Status,1323,20902325906,/g4t1,,success
Status,1324,20916391893,/g3t1_3,,running
Status,1325,20916674016,/g3t1_2,,running
Status,1326,20917087330,/g3t1_3,,success
Status,1327,20917272347,/g3t1_2,,success
Status,1328,20922377590,/g4t1,,fail
Status,1329,20939418455,/g3t1_1,,running
Status,1330,20939941389,/g3t1_1,,success
Status,1331,20942303171,/g4t1,,success
Status,1332,20962700511,/g4t1,,success
Status,1333,20982790767,/g4t1,,success
Status,1334,21002849125,/g4t1,,success
Status,1335,21016633169,/g3t1_3,,running
Status,1336,21016696408,/g3t1_2,,running
Status,1337,21017049442,/g3t1_3,,success
Status,1338,21017105528,/g3t1_2,,success
Status,1339,21022738236,/g4t1,,fail
Status,1340,21039578525,/g3t1_1,,running
Status,1341,21039949758,/g3t1_1,,success
Status,1342,21042979220,/g4t1,,fail
Status,1343,21063162386,/g4t1,,success
Status,1344,21083481250,/g4t1,,success
Status,1345,21103550403,/g4t1,,success
Status,1346,21116853988,/g3t1_3,,running
Status,1347,21116909125,/g3t1_2,,running
Status,1348,21116933028,/g3t1_3,,success
Status,1349,21117174147,/g3t1_2,,success
Status,1350,21123524110,/g4t1,,fail
Status,1351,21140093101,/g3t1_1,,running
Status,1352,21140218936,/g3t1_1,,success
Status,1353,21143769337,/g4t1,,success
Status,1354,21164104378,/g4t1,,success
Status,1355,21184065286,/g4t1,,success
Status,1356,21204119879,/g4t1,,success
Status,1357,21217004840,/g3t1_3,,running
Status,1358,21217074455,/g3t1_2,,running
Status,1359,21217985097,/g3t1_3,,success
Status,1360,21218040529,/g3t1_2,,success
Status,1361,21224206800,/g4t1,,fail
Status,1362,21239988714,/g3t1_1,,running
Status,1363,21240431999,/g3t1_1,,success
Status,1364,21244460645,/g4t1,,fail
Status,1365,21264317435,/g4t1,,success
Status,1366,21284713935,/g4t1,,success
Status,1367,21305047524,/g4t1,,success
Status,1368,21317147373,/g3t1_3,,running
Status,1369,21317267859,/g3t1_2,,running
Status,1370,21317482267,/g3t1_2,,success
Status,1371,21318059539,/g3t1_3,,success
Status,1372,21324855012,/g4t1,,fail
Status,1373,21340293668,/g3t1_1,,running
Status,1374,21340698390,/g3t1_1,,success
Status,1375,21345148593,/g4t1,,success
Status,1376,21365419107,/g4t1,,success
Status,1377,21385425746,/g4t1,,success
Status,1378,21405558512,/g4t1,,success
Status,1379,21417717225,/g3t1_2,,running
Status,1380,21417766225,/g3t1_3,,running
Status,1381,21417978040,/g3t1_3,,success
Status,1382,21418021617,/g3t1_2,,success
Status,1383,21425698609,/g4t1,,fail
Status,1384,21440229365,/g3t1_1,,running
Status,1385,21440731558,/g3t1_1,,success
Status,1386,21445719765,/g4t1,,fail
Status,1387,21465308854,/g4t1,,success
Status,1388,21485267603,/g4t1,,success
Status,1389,21506180701,/g4t1,,success
Status,1390,21517737942,/g3t1_3,,running
Status,1391,21517803229,/g3t1_2,,running
Status,1392,21517937755,/g3t1_3,,success
Status,1393,21518132537,/g3t1_2,,success
Status,1394,21526023429,/g4t1,,fail
Status,1395,21540463360,/g3t1_1,,running
Status,1396,21540539842,/g3t1_1,,success
Status,1397,21546353048,/g4t1,,success
Status,1398,21566567480,/g4t1,,success
Status,1399,21586576140,/g4t1,,success
Status,1400,21606649868,/g4t1,,success
Status,1401,21617440971,/g3t1_3,,running
Status,1402,21617517324,/g3t1_2,,running
Status,1403,21617778236,/g3t1_3,,success
Status,1404,21617839478,/g3t1_2,,success
Status,1405,21626861201,/g4t1,,fail
Status,1406,21640752340,/g3t1_1,,running
Status,1407,21641079737,/g3t1_1,,success
Status,1408,21646890060,/g4t1,,fail
Status,1409,21667261108,/g4t1,,success
Status,1410,21687305712,/g4t1,,success
Status,1411,21707438657,/g4t1,,success
Status,1412,21717401882,/g3t1_3,,running
Status,1413,21717481222,/g3t1_2,,running
Status,1414,21717563229,/g3t1_2,,success
Status,1415,21717755232,/g3t1_3,,success
Status,1416,21727604056,/g4t1,,fail
Status,1417,21740988355,/g3t1_1,,running
Status,1418,21741355583,/g3t1_1,,success
Status,1419,21747621515,/g4t1,,success
Status,1420,21768218116,/g4t1,,success
Status,1421,21788161683,/g4t1,,success
Status,1422,21808277942,/g4t1,,success
Status,1423,21818251360,/g3t1_2,,running
Status,1424,21818312541,/g3t1_2,,success
Status,1425,21818336470,/g3t1_3,,running
Status,1426,21818358310,/g3t1_3,,success
Status,1427,21828429204,/g4t1,,fail
Status,1428,21841009868,/g3t1_1,,running
Status,1429,21841464274,/g3t1_1,,success
Status,1430,21848246920,/g4t1,,fail
Status,1431,21868512589,/g4t1,,success
Status,1432,21888741054,/g4t1,,success
Status,1433,21908978394,/g4t1,,success
Status,1434,21917479043,/g3t1_3,,running
Status,1435,21917664902,/g3t1_2,,running
Status,1436,21918232995,/g3t1_3,,success
Status,1437,21918311930,/g3t1_2,,success
Status,1438,21929124865,/g4t1,,fail
Status,1439,21941023809,/g3t1_1,,running
Status,1440,21941613518,/g3t1_1,,success
Status,1441,21948963192,/g4t1,,success
Status,1442,21969418676,/g4t1,,success
Status,1443,21989494109,/g4t1,,success
Status,1444,22008877081,/g4t1,,success
Status,1445,22017098921,/g3t1_3,,running
Status,1446,22017117713,/g3t1_2,,running
Status,1447,22017126404,/g3t1_3,,success
Status,1448,22017133162,/g3t1_2,,success
Status,1449,22028832614,/g4t1,,fail
Status,1450,22040617372,/g3t1_1,,running
Status,1451,22040637577,/g3t1_1,,success
Status,1452,22048683228,/g4t1,,fail
Status,1453,22069723211,/g4t1,,success
Status,1454,22089836171,/g4t1,,success
Status,1455,22109950932,/g4t1,,success
Status,1456,22118465989,/g3t1_3,,running
Status,1457,22118518040,/g3t1_2,,running
Status,1458,22118578127,/g3t1_2,,success
Status,1459,22118596727,/g3t1_3,,success
Status,1460,22130032033,/g4t1,,fail
Status,1461,22141104800,/g3t1_1,,running
Status,1462,22141642133,/g3t1_1,,success
Status,1463,22150240451,/g4t1,,success
Status,1464,22170384257,/g4t1,,success
Status,1465,22190490453,/g4t1,,success
Status,1466,22210727630,/g4t1,,success
Status,1467,22218233901,/g3t1_3,,running
Status,1468,22218285450,/g3t1_2,,running
Status,1469,22218305474,/g3t1_3,,success
Status,1470,22218494966,/g3t1_2,,success
Status,1471,22230822167,/g4t1,,fail
Status,1472,22241630488,/g3t1_1,,running
Status,1473,22241860012,/g3t1_1,,success
Status,1474,22250801650,/g4t1,,fail
Status,1475,22271023790,/g4t1,,success
Status,1476,22291209911,/g4t1,,success
Status,1477,22311294261,/g4t1,,success
Status,1478,22317870993,/g3t1_2,,running
Status,1479,22317950489,/g3t1_3,,running
Status,1480,22318530159,/g3t1_3,,success
Status,1481,22318590830,/g3t1_2,,success
Status,1482,22331474351,/g4t1,,fail
Status,1483,22341307166,/g3t1_1,,running
Status,1484,22341583182,/g3t1_1,,success
Status,1485,22351632922,/g4t1,,success
Status,1486,22371552999,/g4t1,,success
Status,1487,22391852708,/g4t1,,success
Status,1488,22411869506,/g4t1,,success
Status,1489,22418729499,/g3t1_3,,running
Status,1490,22418793652,/g3t1_3,,success
Status,1491,22418881845,/g3t1_2,,running
Status,1492,22418902944,/g3t1_2,,success
Status,1493,22432040881,/g4t1,,fail
Status,1494,22441775708,/g3t1_1,,running
Status,1495,22441842067,/g3t1_1,,success
Status,1496,22452094321,/g4t1,,fail
Status,1497,22472402151,/g4t1,,success
Status,1498,22492661432,/g4t1,,success
Status,1499,22512515348,/g4t1,,success
Status,1500,22518178230,/g3t1_3,,running
Status,1501,22518239829,/g3t1_2,,running
Status,1502,22518719798,/g3t1_3,,success
Status,1503,22518776805,/g3t1_2,,success
Status,1504,22532430191,/g4t1,,fail
Status,1505,22541556570,/g3t1_1,,running
Status,1506,22542071861,/g3t1_1,,success
Status,1507,22552364709,/g4t1,,success
Status,1508,22572841388,/g4t1,,success
Status,1509,22593122812,/g4t1,,success
Status,1510,22613148481,/g4t1,,success
Status,1511,22618295801,/g3t1_3,,running
Status,1512,22618439794,/g3t1_2,,running
Status,1513,22618767353,/g3t1_2,,success
Status,1514,22619674577,/g3t1_3,,success
Status,1515,22633203740,/g4t1,,fail
Status,1516,22642318906,/g3t1_1,,running
Status,1517,22642383795,/g3t1_1,,success
Status,1518,22653795713,/g4t1,,fail
Status,1519,22673956218,/g4t1,,success
Status,1520,22693951180,/g4t1,,success
Status,1521,22713598107,/g4t1,,success
Status,1522,22717916781,/g3t1_3,,running
Status,1523,22717958296,/g3t1_2,,running
Status,1524,22718167104,/g3t1_2,,success
Status,1525,22718183575,/g3t1_3,,success
Status,1526,22733576228,/g4t1,,fail
Status,1527,22741360146,/g3t1_1,,running
Status,1528,22741386068,/g3t1_1,,success
Status,1529,22753540874,/g4t1,,success
Status,1530,22774370778,/g4t1,,success
Status,1531,22794381427,/g4t1,,success
Status,1532,22814733310,/g4t1,,success
Status,1533,22818607748,/g3t1_3,,running
Status,1534,22818683874,/g3t1_2,,running
Status,1535,22819034816,/g3t1_3,,success
Status,1536,22819090561,/g3t1_2,,success
Status,1537,22834719371,/g4t1,,fail
Status,1538,22841979712,/g3t1_1,,running
Status,1539,22842332652,/g3t1_1,,success
Status,1540,22854855987,/g4t1,,fail
Status,1541,22875160540,/g4t1,,success
Status,1542,22895358170,/g4t1,,success
Status,1543,22915408973,/g4t1,,success
Status,1544,22918872108,/g3t1_2,,running
Status,1545,22918933524,/g3t1_3,,running
Status,1546,22919204265,/g3t1_2,,success
Status,1547,22919360880,/g3t1_3,,success
