
Status,2,3556903891,/g4t1,,init
Status,3,8672736811,/g3t1_1,,init
Status,5,8697482262,/g3t1_1,,init
Status,6,8697526092,/g3t1_1,,running
Status,7,8698717784,/g3t1_1,,success
Status,8,8797487931,/g3t1_1,,running
Status,9,8797896213,/g3t1_1,,success
Status,11,8878492416,/g3t1_2,,init
Status,12,8897559675,/g3t1_1,,running
Status,13,8897762380,/g3t1_1,,success
Status,14,8902535412,/g3t1_2,,init
Status,15,8902580772,/g3t1_2,,running
Status,16,8904316548,/g3t1_2,,success
Status,17,8997647591,/g3t1_1,,running
Status,18,8997875313,/g3t1_1,,success
Status,19,9002569157,/g3t1_2,,running
Status,20,9003164774,/g3t1_2,,success
Status,21,9017866815,/g4t1,,success
Status,22,9097714951,/g3t1_1,,running
Status,23,9097898677,/g3t1_1,,success
Status,24,9102674626,/g3t1_2,,running
Status,25,9102796410,/g3t1_2,,success
Status,26,9118251089,/g4t1,,success
Status,27,9138409874,/g4t1,,success
Status,28,9176315293,/g3t1_3,,init
Status,30,9197759272,/g3t1_1,,running
Status,31,9197958157,/g3t1_1,,success
Status,32,9198517930,/g4t1,,success
Status,33,9202411499,/g3t1_3,,init
Status,34,9202450531,/g3t1_3,,running
Status,35,9202778387,/g3t1_2,,running
Status,36,9203129615,/g3t1_2,,success
Status,37,9204281498,/g3t1_3,,success
Status,38,9218657437,/g4t1,,success
Status,39,9238874242,/g4t1,,success
Status,40,9258921567,/g4t1,,success
Status,41,9278887970,/g4t1,,success
Status,42,9297824716,/g3t1_1,,running
Status,43,9298041262,/g3t1_1,,success
Status,44,9298818282,/g4t1,,success
Status,45,9302748928,/g3t1_3,,running
Status,46,9302927948,/g3t1_2,,running
Status,47,9303068955,/g3t1_3,,success
Status,48,9303183130,/g3t1_2,,success
Status,49,9319069310,/g4t1,,success
Status,50,9339197178,/g4t1,,success
Status,51,9359256433,/g4t1,,success
Status,52,9379350816,/g4t1,,success
Status,53,9398100419,/g3t1_1,,running
Status,54,9398130219,/g3t1_1,,success
Status,55,9399285722,/g4t1,,fail
Status,56,9402547985,/g3t1_3,,running
Status,57,9402888481,/g3t1_3,,success
Status,58,9402960850,/g3t1_2,,running
Status,59,9403132556,/g3t1_2,,success
Status,60,9419446319,/g4t1,,success
Status,61,9439576174,/g4t1,,success
Status,62,9459727025,/g4t1,,success
Status,63,9479862620,/g4t1,,success
Status,64,9497960054,/g3t1_1,,running
Status,65,9498261378,/g3t1_1,,success
Status,66,9499683455,/g4t1,,fail
Status,67,9502681371,/g3t1_3,,running
Status,68,9502824885,/g3t1_3,,success
Status,69,9503193725,/g3t1_2,,running
Status,70,9503517753,/g3t1_2,,success
Status,71,9520175422,/g4t1,,success
Status,72,9540076160,/g4t1,,success
Status,73,9560166683,/g4t1,,success
Status,74,9580207064,/g4t1,,success
Status,75,9598031692,/g3t1_1,,running
Status,76,9598115250,/g3t1_1,,success
Status,77,9600118143,/g4t1,,fail
Status,78,9602859109,/g3t1_3,,running
Status,79,9602891159,/g3t1_3,,success
Status,80,9603024072,/g3t1_2,,running
Status,81,9603249824,/g3t1_2,,success
Status,82,9620443507,/g4t1,,fail
Status,83,9640469502,/g4t1,,success
Status,84,9660568150,/g4t1,,success
Status,85,9680637973,/g4t1,,success
Status,86,9698211289,/g3t1_1,,running
Status,87,9698249326,/g3t1_1,,success
Status,88,9700676823,/g4t1,,fail
Status,89,9703103396,/g3t1_3,,running
Status,90,9703292444,/g3t1_2,,running
Status,91,9703315888,/g3t1_2,,success
Status,92,9703333079,/g3t1_3,,success
Status,93,9720833863,/g4t1,,fail
Status,94,9740936761,/g4t1,,success
Status,95,9761062660,/g4t1,,success
Status,96,9781091206,/g4t1,,success
Status,97,9798405827,/g3t1_1,,running
Status,98,9798430467,/g3t1_1,,success
Status,99,9801310562,/g4t1,,fail
Status,100,9803098043,/g3t1_3,,running
Status,101,9803274909,/g3t1_2,,running
Status,102,9803304096,/g3t1_3,,success
Status,103,9803491850,/g3t1_2,,success
Status,104,9821446522,/g4t1,,fail
Status,105,9841497823,/g4t1,,success
Status,106,9861610385,/g4t1,,success
Status,107,9881601679,/g4t1,,success
Status,108,9898408983,/g3t1_1,,running
Status,109,9898688405,/g3t1_1,,success
Status,110,9901585913,/g4t1,,fail
Status,111,9903088827,/g3t1_3,,running
Status,112,9903448429,/g3t1_2,,running
Status,113,9903479806,/g3t1_3,,success
Status,114,9903489272,/g3t1_2,,success
Status,115,9921809923,/g4t1,,fail
Status,116,9941879932,/g4t1,,success
Status,117,9961944419,/g4t1,,success
Status,118,9982011645,/g4t1,,success
Status,119,9998521304,/g3t1_1,,running
Status,120,9998544759,/g3t1_1,,success
Status,121,10001923785,/g4t1,,fail
Status,122,10003053033,/g3t1_3,,running
Status,123,10003239338,/g3t1_2,,running
Status,124,10003412160,/g3t1_3,,success
Status,125,10003515030,/g3t1_2,,success
Status,126,10022251163,/g4t1,,fail
Status,127,10042258936,/g4t1,,success
Status,128,10062406114,/g4t1,,success
Status,129,10082422948,/g4t1,,success
Status,130,10098512092,/g3t1_1,,running
Status,131,10098672654,/g3t1_1,,success
Status,132,10102427544,/g4t1,,fail
Status,133,10103226637,/g3t1_3,,running
Status,134,10103387024,/g3t1_3,,success
Status,135,10103463417,/g3t1_2,,running
Status,136,10103641339,/g3t1_2,,success
Status,137,10122585185,/g4t1,,fail
Status,138,10142688645,/g4t1,,success
Status,139,10162753548,/g4t1,,success
Status,140,10182802735,/g4t1,,success
Status,141,10198647683,/g3t1_1,,running
Status,142,10198720527,/g3t1_1,,success
Status,143,10203130199,/g4t1,,fail
Status,144,10203690728,/g3t1_3,,running
Status,145,10203723435,/g3t1_3,,success
Status,146,10203807946,/g3t1_2,,running
Status,147,10203828549,/g3t1_2,,success
Status,148,10223178158,/g4t1,,fail
Status,149,10243289228,/g4t1,,success
Status,150,10263389294,/g4t1,,success
Status,151,10283421194,/g4t1,,success
Status,152,10298747436,/g3t1_1,,running
Status,153,10298880178,/g3t1_1,,success
Status,154,10303704790,/g4t1,,fail
Status,155,10303800721,/g3t1_3,,running
Status,156,10303815780,/g3t1_2,,running
Status,157,10303825121,/g3t1_3,,success
Status,158,10303916933,/g3t1_2,,success
Status,159,10323537641,/g4t1,,fail
Status,160,10343681148,/g4t1,,success
Status,161,10363801817,/g4t1,,success
Status,162,10383810504,/g4t1,,success
Status,163,10398855770,/g3t1_1,,running
Status,164,10398993376,/g3t1_1,,success
Status,165,10403976382,/g3t1_3,,running
Status,166,10403999383,/g3t1_2,,running
Status,167,10404006592,/g3t1_3,,success
Status,168,10404012721,/g4t1,,fail
Status,169,10404019033,/g3t1_2,,success
Status,170,10424142165,/g4t1,,fail
Status,171,10444107461,/g4t1,,success
Status,172,10464171540,/g4t1,,success
Status,173,10484228500,/g4t1,,success
Status,174,10498891025,/g3t1_1,,running
Status,175,10499004257,/g3t1_1,,success
Status,176,10503695090,/g3t1_3,,running
Status,177,10503724048,/g3t1_2,,running
Status,178,10503770084,/g3t1_3,,success
Status,179,10504112874,/g3t1_2,,success
Status,180,10504128811,/g4t1,,fail
Status,181,10524380983,/g4t1,,success
Status,182,10544544256,/g4t1,,success
Status,183,10564624105,/g4t1,,success
Status,184,10584659941,/g4t1,,success
Status,185,10599101243,/g3t1_1,,running
Status,186,10599125067,/g3t1_1,,success
Status,187,10603859604,/g3t1_3,,running
Status,188,10603882157,/g3t1_2,,running
Status,189,10603892457,/g3t1_3,,success
Status,190,10603970707,/g3t1_2,,success
Status,191,10604546310,/g4t1,,fail
Status,192,10624806952,/g4t1,,success
Status,193,10644901492,/g4t1,,success
Status,194,10665058609,/g4t1,,success
Status,195,10685084809,/g4t1,,success
Status,196,10699215113,/g3t1_1,,running
Status,197,10699245218,/g3t1_1,,success
Status,198,10704064010,/g3t1_3,,running
Status,199,10704092380,/g3t1_3,,success
Status,200,10704104193,/g3t1_2,,running
Status,201,10704114542,/g3t1_2,,success
Status,202,10705018983,/g4t1,,fail
Status,203,10725267030,/g4t1,,success
Status,204,10745379130,/g4t1,,success
Status,205,10765479619,/g4t1,,success
Status,206,10785563127,/g4t1,,success
Status,207,10799196448,/g3t1_1,,running
Status,208,10799223465,/g3t1_1,,success
Status,209,10804273695,/g3t1_3,,running
Status,210,10804304461,/g3t1_2,,running
Status,211,10804317103,/g3t1_2,,success
Status,212,10804441880,/g3t1_3,,success
Status,213,10805627248,/g4t1,,fail
Status,214,10825713217,/g4t1,,success
Status,215,10845806216,/g4t1,,success
Status,216,10865901403,/g4t1,,success
Status,217,10885998748,/g4t1,,success
Status,218,10899266252,/g3t1_1,,running
Status,219,10899294023,/g3t1_1,,success
Status,220,10904223695,/g3t1_3,,running
Status,221,10904246342,/g3t1_2,,running
Status,222,10904253884,/g3t1_3,,success
Status,223,10904259761,/g3t1_2,,success
Status,224,10905926763,/g4t1,,fail
Status,225,10926067513,/g4t1,,success
Status,226,10946224541,/g4t1,,success
Status,227,10966296242,/g4t1,,success
Status,228,10986534158,/g4t1,,success
Status,229,10999268005,/g3t1_1,,running
Status,230,10999386794,/g3t1_1,,success
Status,231,11004065735,/g3t1_3,,running
Status,232,11004178374,/g3t1_2,,running
Status,233,11004204419,/g3t1_3,,success
Status,234,11004211349,/g3t1_2,,success
Status,235,11006276619,/g4t1,,fail
Status,236,11026548285,/g4t1,,success
Status,237,11046804832,/g4t1,,success
Status,238,11066781034,/g4t1,,success
Status,239,11086895379,/g4t1,,success
Status,240,11099355507,/g3t1_1,,running
Status,241,11099526473,/g3t1_1,,success
Status,242,11104166531,/g3t1_3,,running
Status,243,11104197590,/g3t1_2,,running
Status,244,11104299072,/g3t1_3,,success
Status,245,11104351075,/g3t1_2,,success
Status,246,11106832741,/g4t1,,fail
Status,247,11127050596,/g4t1,,success
Status,248,11147153529,/g4t1,,success
Status,249,11167224194,/g4t1,,success
Status,250,11187348505,/g4t1,,success
Status,251,11199492027,/g3t1_1,,running
Status,252,11199515614,/g3t1_1,,success
Status,253,11204416553,/g3t1_3,,running
Status,254,11204462548,/g3t1_2,,running
Status,255,11204473239,/g3t1_2,,success
Status,256,11204658248,/g3t1_3,,success
Status,257,11207314669,/g4t1,,fail
Status,258,11227508252,/g4t1,,success
Status,259,11247533374,/g4t1,,success
Status,260,11267623760,/g4t1,,success
Status,261,11287685193,/g4t1,,success
Status,262,11299507408,/g3t1_1,,running
Status,263,11299612074,/g3t1_1,,success
Status,264,11304651258,/g3t1_3,,running
Status,265,11304690496,/g3t1_2,,running
Status,266,11304698906,/g3t1_2,,success
Status,267,11304705156,/g3t1_3,,success
Status,268,11307545765,/g4t1,,fail
Status,269,11327900055,/g4t1,,success
Status,270,11347959832,/g4t1,,success
Status,271,11368074047,/g4t1,,success
Status,272,11388094605,/g4t1,,success
Status,273,11399577328,/g3t1_1,,running
Status,274,11399791183,/g3t1_1,,success
Status,275,11404514202,/g3t1_2,,running
Status,276,11404539463,/g3t1_3,,running
Status,277,11404555383,/g3t1_3,,success
Status,278,11404575969,/g3t1_2,,success
Status,279,11408002263,/g4t1,,fail
Status,280,11428337530,/g4t1,,success
Status,281,11448358418,/g4t1,,success
Status,282,11468495695,/g4t1,,success
Status,283,11488599396,/g4t1,,success
Status,284,11499863467,/g3t1_1,,running
Status,285,11499987231,/g3t1_1,,success
Status,286,11504616361,/g3t1_3,,running
Status,287,11504638508,/g3t1_2,,running
Status,288,11504661491,/g3t1_3,,success
Status,289,11504755929,/g3t1_2,,success
Status,290,11508467934,/g4t1,,fail
Status,291,11528789528,/g4t1,,success
Status,292,11548847587,/g4t1,,success
Status,293,11568937376,/g4t1,,success
Status,294,11589095676,/g4t1,,success
Status,295,11599819873,/g3t1_1,,running
Status,296,11599841641,/g3t1_1,,success
Status,297,11604685758,/g3t1_2,,running
Status,298,11604717772,/g3t1_3,,running
Status,299,11604850765,/g3t1_3,,success
Status,300,11604864959,/g3t1_2,,success
Status,301,11609025037,/g4t1,,fail
Status,302,11629194156,/g4t1,,success
Status,303,11649385425,/g4t1,,success
Status,304,11669482558,/g4t1,,success
Status,305,11689597403,/g4t1,,success
Status,306,11699880884,/g3t1_1,,running
Status,307,11699996553,/g3t1_1,,success
Status,308,11704950168,/g3t1_2,,running
Status,309,11705007179,/g3t1_3,,running
Status,310,11705020436,/g3t1_3,,success
Status,311,11705190703,/g3t1_2,,success
Status,312,11709550905,/g4t1,,fail
Status,313,11729596832,/g4t1,,success
Status,314,11749751640,/g4t1,,success
Status,315,11769855939,/g4t1,,success
Status,316,11789926741,/g4t1,,success
Status,317,11799911220,/g3t1_1,,running
Status,318,11800042850,/g3t1_1,,success
Status,319,11804915161,/g3t1_2,,running
Status,320,11804937778,/g3t1_3,,running
Status,321,11804949038,/g3t1_2,,success
Status,322,11805024530,/g3t1_3,,success
Status,323,11809939646,/g4t1,,fail
Status,324,11830052901,/g4t1,,success
Status,325,11850131237,/g4t1,,success
Status,326,11870286643,/g4t1,,success
Status,327,11890339304,/g4t1,,success
Status,328,11900087792,/g3t1_1,,running
Status,329,11900127789,/g3t1_1,,success
Status,330,11905056214,/g3t1_3,,running
Status,331,11905083401,/g3t1_2,,running
Status,332,11905094629,/g3t1_2,,success
Status,333,11905102254,/g3t1_3,,success
Status,334,11910294932,/g4t1,,fail
Status,335,11930555182,/g4t1,,success
Status,336,11950593251,/g4t1,,success
Status,337,11970693813,/g4t1,,success
Status,338,11990767892,/g4t1,,success
Status,339,12000102895,/g3t1_1,,running
Status,340,12000243583,/g3t1_1,,success
Status,341,12004997463,/g3t1_3,,running
Status,342,12005092365,/g3t1_2,,running
Status,343,12005127837,/g3t1_3,,success
Status,344,12005237799,/g3t1_2,,success
Status,345,12010878323,/g4t1,,fail
Status,346,12031001600,/g4t1,,success
Status,347,12051041897,/g4t1,,success
Status,348,12071071067,/g4t1,,success
Status,349,12091199833,/g4t1,,success
Status,350,12100259774,/g3t1_1,,running
Status,351,12100280605,/g3t1_1,,success
Status,352,12105373401,/g3t1_3,,running
Status,353,12105401243,/g3t1_2,,running
Status,354,12105432605,/g3t1_2,,success
Status,355,12105516055,/g3t1_3,,success
Status,356,12111294956,/g4t1,,fail
Status,357,12131424489,/g4t1,,success
Status,358,12151693107,/g4t1,,success
Status,359,12171708799,/g4t1,,success
Status,360,12191744501,/g4t1,,success
Status,361,12200366443,/g3t1_1,,running
Status,362,12200461403,/g3t1_1,,success
Status,363,12205332930,/g3t1_3,,running
Status,364,12205353605,/g3t1_2,,running
Status,365,12205360368,/g3t1_3,,success
Status,366,12205366256,/g3t1_2,,success
Status,367,12211783879,/g4t1,,fail
Status,368,12231908299,/g4t1,,success
Status,369,12251963445,/g4t1,,success
Status,370,12272107552,/g4t1,,success
Status,371,12292212225,/g4t1,,success
Status,372,12300378047,/g3t1_1,,running
Status,373,12300498330,/g3t1_1,,success
Status,374,12305345812,/g3t1_3,,running
Status,375,12305368077,/g3t1_2,,running
Status,376,12305395935,/g3t1_2,,success
Status,377,12305476656,/g3t1_3,,success
Status,378,12312157247,/g4t1,,fail
Status,379,12332428718,/g4t1,,success
Status,380,12352477158,/g4t1,,success
Status,381,12372602160,/g4t1,,success
Status,382,12392662088,/g4t1,,success
Status,383,12400471419,/g3t1_1,,running
Status,384,12400772482,/g3t1_1,,success
Status,385,12405456926,/g3t1_2,,running
Status,386,12405481960,/g3t1_3,,running
Status,387,12405499924,/g3t1_2,,success
Status,388,12405587228,/g3t1_3,,success
Status,389,12412705691,/g4t1,,fail
Status,390,12432862709,/g4t1,,success
Status,391,12453036424,/g4t1,,success
Status,392,12472965654,/g4t1,,success
Status,393,12493182521,/g4t1,,success
Status,394,12500522184,/g3t1_1,,running
Status,395,12500743259,/g3t1_1,,success
Status,396,12505568316,/g3t1_3,,running
Status,397,12505592274,/g3t1_2,,running
Status,398,12505612459,/g3t1_2,,success
Status,399,12505618721,/g3t1_3,,success
Status,400,12513233695,/g4t1,,fail
Status,401,12533318791,/g4t1,,success
Status,402,12553602297,/g4t1,,success
Status,403,12573471579,/g4t1,,success
Status,404,12593498227,/g4t1,,success
Status,405,12600575478,/g3t1_1,,running
Status,406,12600740950,/g3t1_1,,success
Status,407,12605521330,/g3t1_3,,running
Status,408,12605551661,/g3t1_2,,running
Status,409,12605739828,/g3t1_3,,success
Status,410,12605757734,/g3t1_2,,success
Status,411,12613550812,/g4t1,,fail
Status,412,12633663522,/g4t1,,success
Status,413,12653858952,/g4t1,,success
Status,414,12673928744,/g4t1,,success
Status,415,12694022556,/g4t1,,success
Status,416,12700808549,/g3t1_1,,running
Status,417,12700836898,/g3t1_1,,success
Status,418,12705662182,/g3t1_2,,running
Status,419,12705707090,/g3t1_3,,running
Status,420,12705727746,/g3t1_2,,success
Status,421,12705740115,/g3t1_3,,success
Status,422,12714006536,/g4t1,,fail
Status,423,12734232933,/g4t1,,success
Status,424,12754335400,/g4t1,,success
Status,425,12774409396,/g4t1,,success
Status,426,12794499997,/g4t1,,success
Status,427,12800786144,/g3t1_1,,running
Status,428,12800807137,/g3t1_1,,success
Status,429,12805680277,/g3t1_3,,running
Status,430,12805748710,/g3t1_2,,running
Status,431,12805852537,/g3t1_3,,success
Status,432,12805869381,/g3t1_2,,success
Status,433,12814587482,/g4t1,,fail
Status,434,12834578380,/g4t1,,success
Status,435,12854781412,/g4t1,,success
Status,436,12874876697,/g4t1,,success
Status,437,12894971507,/g4t1,,success
Status,438,12900829548,/g3t1_1,,running
Status,439,12901138762,/g3t1_1,,success
Status,440,12905824771,/g3t1_3,,running
Status,441,12905846765,/g3t1_2,,running
Status,442,12905863344,/g3t1_2,,success
Status,443,12905870669,/g3t1_3,,success
Status,444,12915015110,/g4t1,,fail
Status,445,12935132376,/g4t1,,success
Status,446,12955377661,/g4t1,,success
Status,447,12975388680,/g4t1,,success
Status,448,12995471792,/g4t1,,success
Status,449,13000875676,/g3t1_1,,running
Status,450,13000986077,/g3t1_1,,success
Status,451,13005893567,/g3t1_2,,running
Status,452,13005932201,/g3t1_3,,running
Status,453,13005942944,/g3t1_3,,success
Status,454,13005952189,/g3t1_2,,success
Status,455,13015550324,/g4t1,,fail
Status,456,13035627885,/g4t1,,success
Status,457,13055644936,/g4t1,,success
Status,458,13075849833,/g4t1,,success
Status,459,13095970933,/g4t1,,success
Status,460,13100968644,/g3t1_1,,running
Status,461,13101017811,/g3t1_1,,success
Status,462,13106035488,/g3t1_2,,running
Status,463,13106057239,/g3t1_3,,running
Status,464,13106080110,/g3t1_3,,success
Status,465,13106085897,/g3t1_2,,success
Status,466,13115955120,/g4t1,,fail
Status,467,13136148814,/g4t1,,success
Status,468,13156245635,/g4t1,,success
Status,469,13176333465,/g4t1,,success
Status,470,13196414798,/g4t1,,success
Status,471,13201232012,/g3t1_1,,running
Status,472,13201253772,/g3t1_1,,success
Status,473,13206004096,/g3t1_2,,running
Status,474,13206029317,/g3t1_3,,running
Status,475,13206114147,/g3t1_3,,success
Status,476,13206136201,/g3t1_2,,success
Status,477,13216481120,/g4t1,,fail
Status,478,13236719678,/g4t1,,success
Status,479,13256682486,/g4t1,,success
Status,480,13276761231,/g4t1,,success
Status,481,13296883926,/g4t1,,success
Status,482,13301309708,/g3t1_1,,running
Status,483,13301330760,/g3t1_1,,success
Status,484,13306101311,/g3t1_2,,running
Status,485,13306118525,/g3t1_3,,running
Status,486,13306135646,/g3t1_2,,success
Status,487,13306142827,/g3t1_3,,success
Status,488,13316961996,/g4t1,,fail
Status,489,13337266727,/g4t1,,success
Status,490,13357160849,/g4t1,,success
Status,491,13377336044,/g4t1,,success
Status,492,13397427584,/g4t1,,success
Status,493,13401481009,/g3t1_1,,running
Status,494,13401508398,/g3t1_1,,success
Status,495,13406173167,/g3t1_3,,running
Status,496,13406202820,/g3t1_2,,running
Status,497,13406349598,/g3t1_2,,success
Status,498,13406392866,/g3t1_3,,success
Status,499,13417539258,/g4t1,,fail
Status,500,13437579773,/g4t1,,success
Status,501,13457639446,/g4t1,,success
Status,502,13477704786,/g4t1,,success
Status,503,13497771084,/g4t1,,success
Status,504,13501386406,/g3t1_1,,running
Status,505,13501513037,/g3t1_1,,success
Status,506,13506187838,/g3t1_3,,running
Status,507,13506258345,/g3t1_2,,running
Status,508,13506354629,/g3t1_2,,success
Status,509,13506372928,/g3t1_3,,success
Status,510,13518037330,/g4t1,,fail
Status,511,13537950058,/g4t1,,success
Status,512,13558089289,/g4t1,,success
Status,513,13578031108,/g4t1,,success
Status,514,13598230766,/g4t1,,success
Status,515,13601491144,/g3t1_1,,running
Status,516,13601511388,/g3t1_1,,success
Status,517,13606368400,/g3t1_2,,running
Status,518,13606392980,/g3t1_3,,running
Status,519,13606402870,/g3t1_2,,success
Status,520,13606515110,/g3t1_3,,success
Status,521,13618529937,/g4t1,,fail
Status,522,13638535370,/g4t1,,success
Status,523,13658578279,/g4t1,,success
Status,524,13678640588,/g4t1,,success
Status,525,13698781224,/g4t1,,success
Status,526,13701686613,/g3t1_1,,running
Status,527,13701707446,/g3t1_1,,success
Status,528,13706409454,/g3t1_2,,running
Status,529,13706546126,/g3t1_3,,running
Status,530,13706566927,/g3t1_3,,success
Status,531,13706575279,/g3t1_2,,success
Status,532,13718815646,/g4t1,,fail
Status,533,13739014046,/g4t1,,success
Status,534,13758996094,/g4t1,,success
Status,535,13779197057,/g4t1,,success
Status,536,13799248203,/g4t1,,success
Status,537,13801715232,/g3t1_1,,running
Status,538,13801741073,/g3t1_1,,success
Status,539,13806471202,/g3t1_3,,running
Status,540,13806501080,/g3t1_2,,running
Status,541,13806627185,/g3t1_3,,success
Status,542,13806646321,/g3t1_2,,success
Status,543,13819353876,/g4t1,,fail
Status,544,13839456639,/g4t1,,success
Status,545,13859542754,/g4t1,,success
Status,546,13879644894,/g4t1,,success
Status,547,13899742958,/g4t1,,success
Status,548,13901839356,/g3t1_1,,running
Status,549,13901863335,/g3t1_1,,success
Status,550,13906623276,/g3t1_3,,running
Status,551,13906649754,/g3t1_2,,running
Status,552,13906662133,/g3t1_3,,success
Status,553,13906760782,/g3t1_2,,success
Status,554,13919767766,/g4t1,,fail
Status,555,13939884157,/g4t1,,success
Status,556,13960027417,/g4t1,,success
Status,557,13980187836,/g4t1,,success
Status,558,14000238805,/g4t1,,success
Status,559,14001701000,/g3t1_1,,running
Status,560,14001841685,/g3t1_1,,success
Status,561,14006777673,/g3t1_3,,running
Status,562,14006812860,/g3t1_2,,running
Status,563,14006820742,/g3t1_3,,success
Status,564,14006838049,/g3t1_2,,success
Status,565,14020261095,/g4t1,,fail
Status,566,14040391948,/g4t1,,success
Status,567,14060415533,/g4t1,,success
Status,568,14080573516,/g4t1,,success
Status,569,14100667709,/g4t1,,success
Status,570,14101803981,/g3t1_1,,running
Status,571,14101888465,/g3t1_1,,success
Status,572,14106719430,/g3t1_3,,running
Status,573,14106747599,/g3t1_2,,running
Status,574,14106847882,/g3t1_3,,success
Status,575,14106858831,/g3t1_2,,success
Status,576,14120821878,/g4t1,,fail
Status,577,14140890629,/g4t1,,success
Status,578,14160928708,/g4t1,,success
Status,579,14181023360,/g4t1,,success
Status,580,14201154906,/g4t1,,success
Status,581,14201868583,/g3t1_1,,running
Status,582,14201970317,/g3t1_1,,success
Status,583,14206916521,/g3t1_3,,running
Status,584,14206937656,/g3t1_2,,running
Status,585,14206944546,/g3t1_3,,success
Status,586,14206950548,/g3t1_2,,success
Status,587,14221143457,/g4t1,,fail
Status,588,14241370182,/g4t1,,success
Status,589,14261370399,/g4t1,,success
Status,590,14281549407,/g4t1,,success
Status,591,14301788271,/g4t1,,success
Status,592,14302044076,/g3t1_1,,running
Status,593,14302109395,/g3t1_1,,success
Status,594,14306962090,/g3t1_3,,running
Status,595,14307001255,/g3t1_2,,running
Status,596,14307017290,/g3t1_3,,success
Status,597,14307033518,/g3t1_2,,success
Status,598,14321662246,/g4t1,,fail
Status,599,14341744351,/g4t1,,success
Status,600,14361808557,/g4t1,,success
Status,601,14381958684,/g4t1,,success
Status,602,14402175593,/g4t1,,success
Status,603,14402206368,/g3t1_1,,running
Status,604,14402228124,/g3t1_1,,success
Status,605,14407010804,/g3t1_3,,running
Status,606,14407035763,/g3t1_2,,running
Status,607,14407045532,/g3t1_3,,success
Status,608,14407193192,/g3t1_2,,success
Status,609,14422176366,/g4t1,,fail
Status,610,14442296233,/g4t1,,success
Status,611,14462297186,/g4t1,,success
Status,612,14482473081,/g4t1,,success
Status,613,14502167581,/g3t1_1,,running
Status,614,14502417377,/g3t1_1,,success
Status,615,14502435143,/g4t1,,success
Status,616,14507169778,/g3t1_3,,running
Status,617,14507194852,/g3t1_2,,running
Status,618,14507271856,/g3t1_2,,success
Status,619,14507300176,/g3t1_3,,success
Status,620,14522670705,/g4t1,,fail
Status,621,14542704585,/g4t1,,success
Status,622,14562833583,/g4t1,,success
Status,623,14582849045,/g4t1,,success
Status,624,14602331743,/g3t1_1,,running
Status,625,14602353718,/g3t1_1,,success
Status,626,14602744853,/g4t1,,success
Status,627,14607159929,/g3t1_3,,running
Status,628,14607187693,/g3t1_3,,success
Status,629,14607265327,/g3t1_2,,running
Status,630,14607280535,/g3t1_2,,success
Status,631,14623052271,/g4t1,,fail
Status,632,14643149000,/g4t1,,success
Status,633,14663237902,/g4t1,,success
Status,634,14683383152,/g4t1,,success
Status,635,14702308425,/g3t1_1,,running
Status,636,14702453422,/g3t1_1,,success
Status,637,14703243841,/g4t1,,success
Status,638,14707176673,/g3t1_3,,running
Status,639,14707201232,/g3t1_2,,running
Status,640,14707210744,/g3t1_3,,success
Status,641,14707299890,/g3t1_2,,success
Status,642,14723483026,/g4t1,,fail
Status,643,14743611226,/g4t1,,success
Status,644,14763701408,/g4t1,,success
Status,645,14783732870,/g4t1,,success
Status,646,14802542140,/g3t1_1,,running
Status,647,14802571901,/g3t1_1,,success
Status,648,14803734475,/g4t1,,fail
Status,649,14807260755,/g3t1_3,,running
Status,650,14807278564,/g3t1_3,,success
Status,651,14807298241,/g3t1_2,,running
Status,652,14807594801,/g3t1_2,,success
Status,653,14823848492,/g4t1,,fail
Status,654,14843991308,/g4t1,,success
Status,655,14864089524,/g4t1,,success
Status,656,14884204047,/g4t1,,success
Status,657,14902603134,/g3t1_1,,running
Status,658,14902627514,/g3t1_1,,success
Status,659,14904175540,/g4t1,,success
Status,660,14907413520,/g3t1_3,,running
Status,661,14907431397,/g3t1_2,,running
Status,662,14907444813,/g3t1_3,,success
Status,663,14907471041,/g3t1_2,,success
Status,664,14924455853,/g4t1,,fail
Status,665,14944544837,/g4t1,,success
Status,666,14964614974,/g4t1,,success
Status,667,14984756885,/g4t1,,success
Status,668,15002553745,/g3t1_1,,running
Status,669,15002644964,/g3t1_1,,success
Status,670,15004745959,/g4t1,,fail
Status,671,15007469577,/g3t1_3,,running
Status,672,15007489867,/g3t1_2,,running
Status,673,15007506228,/g3t1_3,,success
Status,674,15007616670,/g3t1_2,,success
Status,675,15024883667,/g4t1,,fail
Status,676,15045005151,/g4t1,,success
Status,677,15065067401,/g4t1,,success
Status,678,15085386767,/g4t1,,success
Status,679,15102683337,/g3t1_1,,running
Status,680,15102704547,/g3t1_1,,success
Status,681,15105266497,/g4t1,,success
Status,682,15107552586,/g3t1_3,,running
Status,683,15107682766,/g3t1_2,,running
Status,684,15107712064,/g3t1_2,,success
Status,685,15107730644,/g3t1_3,,success
Status,686,15125480377,/g4t1,,fail
Status,687,15145597291,/g4t1,,success
Status,688,15165559728,/g4t1,,success
Status,689,15185841481,/g4t1,,success
Status,690,15202657852,/g3t1_1,,running
Status,691,15202845366,/g3t1_1,,success
Status,692,15205545066,/g4t1,,fail
Status,693,15207582103,/g3t1_3,,running
Status,694,15207599709,/g3t1_2,,running
Status,695,15207630220,/g3t1_3,,success
Status,696,15207759142,/g3t1_2,,success
Status,697,15225866761,/g4t1,,fail
Status,698,15245996952,/g4t1,,success
Status,699,15266094585,/g4t1,,success
Status,700,15286132705,/g4t1,,success
Status,701,15302766088,/g3t1_1,,running
Status,702,15302790857,/g3t1_1,,success
Status,703,15306176006,/g4t1,,success
Status,704,15307632373,/g3t1_3,,running
Status,705,15307650938,/g3t1_2,,running
Status,706,15307701979,/g3t1_3,,success
Status,707,15307874807,/g3t1_2,,success
Status,708,15326329401,/g4t1,,fail
Status,709,15346456029,/g4t1,,success
Status,710,15366565041,/g4t1,,success
Status,711,15386625087,/g4t1,,success
Status,712,15402960691,/g3t1_1,,running
Status,713,15403117063,/g3t1_1,,success
Status,714,15406639934,/g4t1,,fail
Status,715,15407679840,/g3t1_3,,running
Status,716,15407826823,/g3t1_2,,running
Status,717,15407860133,/g3t1_2,,success
Status,718,15407883387,/g3t1_3,,success
Status,719,15426832540,/g4t1,,fail
Status,720,15446927523,/g4t1,,success
Status,721,15467001895,/g4t1,,success
Status,722,15487076509,/g4t1,,success
Status,723,15503034470,/g3t1_1,,running
Status,724,15503054361,/g3t1_1,,success
Status,725,15507106222,/g4t1,,success
Status,726,15507717409,/g3t1_3,,running
Status,727,15507815127,/g3t1_2,,running
Status,728,15507995231,/g3t1_3,,success
Status,729,15508019890,/g3t1_2,,success
Status,730,15527298273,/g4t1,,fail
Status,731,15547432788,/g4t1,,success
Status,732,15567492087,/g4t1,,success
Status,733,15587542636,/g4t1,,success
Status,734,15602975420,/g3t1_1,,running
Status,735,15603070489,/g3t1_1,,success
Status,736,15607605795,/g4t1,,fail
Status,737,15607966241,/g3t1_3,,running
Status,738,15607987286,/g3t1_2,,running
Status,739,15608025031,/g3t1_2,,success
Status,740,15608140472,/g3t1_3,,success
Status,741,15627758424,/g4t1,,fail
Status,742,15647859901,/g4t1,,success
Status,743,15667946351,/g4t1,,success
Status,744,15688046087,/g4t1,,success
Status,745,15703054856,/g3t1_1,,running
Status,746,15703084127,/g3t1_1,,success
Status,747,15707886634,/g3t1_3,,running
Status,748,15707955714,/g3t1_2,,running
Status,749,15708195062,/g4t1,,success
Status,750,15708208258,/g3t1_2,,success
Status,751,15708229017,/g3t1_3,,success
Status,752,15728287076,/g4t1,,fail
Status,753,15748334154,/g4t1,,success
Status,754,15768563998,/g4t1,,success
Status,755,15788614047,/g4t1,,success
Status,756,15803258017,/g3t1_1,,running
Status,757,15803284721,/g3t1_1,,success
Status,758,15808079062,/g3t1_3,,running
Status,759,15808098473,/g3t1_3,,success
Status,760,15808128936,/g3t1_2,,running
Status,761,15808147689,/g3t1_2,,success
Status,762,15808425261,/g4t1,,fail
Status,763,15828733823,/g4t1,,success
Status,764,15848774143,/g4t1,,success
Status,765,15869062511,/g4t1,,success
Status,766,15888946231,/g4t1,,success
Status,767,15903305253,/g3t1_1,,running
Status,768,15903326414,/g3t1_1,,success
Status,769,15908215594,/g3t1_3,,running
Status,770,15908235795,/g3t1_2,,running
Status,771,15908254795,/g3t1_3,,success
Status,772,15908260785,/g3t1_2,,success
Status,773,15908841401,/g4t1,,fail
Status,774,15929112470,/g4t1,,success
Status,775,15949255017,/g4t1,,success
Status,776,15969414300,/g4t1,,success
Status,777,15989405432,/g4t1,,success
Status,778,16003290646,/g3t1_1,,running
Status,779,16003311389,/g3t1_1,,success
Status,780,16008309320,/g3t1_3,,running
Status,781,16008329225,/g3t1_2,,running
Status,782,16008336056,/g3t1_2,,success
Status,783,16008341616,/g3t1_3,,success
Status,784,16009286036,/g4t1,,fail
Status,785,16029604236,/g4t1,,success
Status,786,16049704304,/g4t1,,success
Status,787,16069707887,/g4t1,,success
Status,788,16089774816,/g4t1,,success
Status,789,16103332839,/g3t1_1,,running
Status,790,16103356313,/g3t1_1,,success
Status,791,16108304608,/g3t1_2,,running
Status,792,16108327447,/g3t1_3,,running
Status,793,16108390087,/g3t1_3,,success
Status,794,16108493187,/g3t1_2,,success
Status,795,16109684467,/g4t1,,fail
Status,796,16129902943,/g4t1,,success
Status,797,16150216853,/g4t1,,success
Status,798,16170198607,/g4t1,,success
Status,799,16190089032,/g4t1,,success
Status,800,16203402668,/g3t1_1,,running
Status,801,16203425269,/g3t1_1,,success
Status,802,16208336380,/g3t1_3,,running
Status,803,16208396036,/g3t1_2,,running
Status,804,16208484873,/g3t1_3,,success
Status,805,16208525956,/g3t1_2,,success
Status,806,16210129254,/g4t1,,fail
Status,807,16230330093,/g4t1,,success
Status,808,16250421294,/g4t1,,success
Status,809,16270604576,/g4t1,,success
Status,810,16290484380,/g4t1,,success
Status,811,16303438405,/g3t1_1,,running
Status,812,16303471733,/g3t1_1,,success
Status,813,16308424340,/g3t1_3,,running
Status,814,16308461665,/g3t1_2,,running
Status,815,16308489616,/g3t1_2,,success
Status,816,16308545896,/g3t1_3,,success
Status,817,16310412648,/g4t1,,fail
Status,818,16330651750,/g4t1,,success
Status,819,16350754157,/g4t1,,success
Status,820,16370883608,/g4t1,,success
Status,821,16390975659,/g4t1,,success
Status,822,16403536636,/g3t1_1,,running
Status,823,16403557489,/g3t1_1,,success
Status,824,16408494109,/g3t1_2,,running
Status,825,16408511568,/g3t1_3,,running
Status,826,16408613997,/g3t1_2,,success
Status,827,16408850619,/g3t1_3,,success
Status,828,16410870231,/g4t1,,fail
Status,829,16431207456,/g4t1,,success
Status,830,16451166934,/g4t1,,success
Status,831,16471410950,/g4t1,,success
Status,832,16491480591,/g4t1,,success
Status,833,16503576272,/g3t1_1,,running
Status,834,16503791212,/g3t1_1,,success
Status,835,16508545064,/g3t1_2,,running
Status,836,16508575266,/g3t1_3,,running
Status,837,16508737846,/g3t1_2,,success
Status,838,16508752325,/g3t1_3,,success
Status,839,16511362432,/g4t1,,fail
Status,840,16531629099,/g4t1,,success
Status,841,16551856922,/g4t1,,success
Status,842,16571819643,/g4t1,,success
Status,843,16591833886,/g4t1,,success
Status,844,16603848170,/g3t1_1,,running
Status,845,16603873886,/g3t1_1,,success
Status,846,16608776921,/g3t1_2,,running
Status,847,16608808719,/g3t1_3,,running
Status,848,16608820814,/g3t1_3,,success
Status,849,16608835413,/g3t1_2,,success
Status,850,16611840477,/g4t1,,fail
Status,851,16632045578,/g4t1,,success
Status,852,16652059451,/g4t1,,success
Status,853,16672237669,/g4t1,,success
Status,854,16692334136,/g4t1,,success
Status,855,16703715681,/g3t1_1,,running
Status,856,16703846467,/g3t1_1,,success
Status,857,16708809593,/g3t1_3,,running
Status,858,16708835634,/g3t1_2,,running
Status,859,16708846047,/g3t1_2,,success
Status,860,16708851956,/g3t1_3,,success
Status,861,16712183265,/g4t1,,fail
Status,862,16732400287,/g4t1,,success
Status,863,16752656838,/g4t1,,success
Status,864,16772679859,/g4t1,,success
Status,865,16792630186,/g4t1,,success
Status,866,16803869950,/g3t1_1,,running
Status,867,16803890952,/g3t1_1,,success
Status,868,16808827200,/g3t1_2,,running
Status,869,16808860378,/g3t1_3,,running
Status,870,16808945644,/g3t1_2,,success
Status,871,16809047565,/g3t1_3,,success
Status,872,16812580095,/g4t1,,fail
Status,873,16832857497,/g4t1,,success
Status,874,16852928068,/g4t1,,success
Status,875,16873021171,/g4t1,,success
Status,876,16893137585,/g4t1,,success
Status,877,16903937503,/g3t1_1,,running
Status,878,16904061862,/g3t1_1,,success
Status,879,16908886850,/g3t1_2,,running
Status,880,16909081717,/g3t1_3,,running
Status,881,16909109999,/g3t1_3,,success
Status,882,16909142427,/g3t1_2,,success
Status,883,16913048138,/g4t1,,fail
Status,884,16933337140,/g4t1,,success
Status,885,16953470601,/g4t1,,success
Status,886,16973552048,/g4t1,,success
Status,887,16993583704,/g4t1,,success
Status,888,17004135954,/g3t1_1,,running
Status,889,17004157209,/g3t1_1,,success
Status,890,17008936830,/g3t1_2,,running
Status,891,17009004126,/g3t1_3,,running
Status,892,17009033460,/g3t1_3,,success
Status,893,17009069984,/g3t1_2,,success
Status,894,17013497607,/g4t1,,fail
Status,895,17033658715,/g4t1,,success
Status,896,17053864986,/g4t1,,success
Status,897,17073834529,/g4t1,,success
Status,898,17093913220,/g4t1,,success
Status,899,17104105554,/g3t1_1,,running
Status,900,17104199401,/g3t1_1,,success
Status,901,17109110804,/g3t1_2,,running
Status,902,17109142160,/g3t1_3,,running
Status,903,17109150576,/g3t1_2,,success
Status,904,17109156288,/g3t1_3,,success
Status,905,17113978157,/g4t1,,fail
Status,906,17134124797,/g4t1,,success
Status,907,17154218233,/g4t1,,success
Status,908,17174354237,/g4t1,,success
Status,909,17194424984,/g4t1,,success
Status,910,17204159031,/g3t1_1,,running
Status,911,17204276446,/g3t1_1,,success
Status,912,17209027700,/g3t1_2,,running
Status,913,17209058027,/g3t1_3,,running
Status,914,17209275653,/g3t1_2,,success
Status,915,17209297100,/g3t1_3,,success
Status,916,17214465767,/g4t1,,fail
Status,917,17234662934,/g4t1,,success
Status,918,17254734769,/g4t1,,success
Status,919,17274821984,/g4t1,,success
Status,920,17294905286,/g4t1,,success
Status,921,17304219665,/g3t1_1,,running
Status,922,17304355325,/g3t1_1,,success
Status,923,17309261949,/g3t1_2,,running
Status,924,17309326201,/g3t1_3,,running
Status,925,17309424170,/g3t1_3,,success
Status,926,17309438334,/g3t1_2,,success
Status,927,17314928884,/g4t1,,fail
Status,928,17335258120,/g4t1,,success
Status,929,17355261138,/g4t1,,success
Status,930,17375336734,/g4t1,,success
Status,931,17395459268,/g4t1,,success
Status,932,17404416308,/g3t1_1,,running
Status,933,17404550324,/g3t1_1,,success
Status,934,17409188896,/g3t1_2,,running
Status,935,17409329765,/g3t1_3,,running
Status,936,17409356068,/g3t1_2,,success
Status,937,17409363324,/g3t1_3,,success
Status,938,17415444800,/g4t1,,fail
Status,939,17435757530,/g4t1,,success
Status,940,17455784153,/g4t1,,success
Status,941,17475874506,/g4t1,,success
Status,942,17496039219,/g4t1,,success
Status,943,17504483581,/g3t1_1,,running
Status,944,17504595658,/g3t1_1,,success
Status,945,17509363631,/g3t1_2,,running
Status,946,17509387842,/g3t1_3,,running
Status,947,17509399656,/g3t1_2,,success
Status,948,17509477198,/g3t1_3,,success
Status,949,17515941047,/g4t1,,fail
Status,950,17536245888,/g4t1,,success
Status,951,17556252836,/g4t1,,success
Status,952,17576326859,/g4t1,,success
Status,953,17596429118,/g4t1,,success
Status,954,17604545769,/g3t1_1,,running
Status,955,17604612279,/g3t1_1,,success
Status,956,17609502343,/g3t1_2,,running
Status,957,17609529625,/g3t1_3,,running
Status,958,17609538098,/g3t1_2,,success
Status,959,17609549182,/g3t1_3,,success
Status,960,17616411444,/g4t1,,fail
Status,961,17636523303,/g4t1,,success
Status,962,17656628485,/g4t1,,success
Status,963,17676778436,/g4t1,,success
Status,964,17696801666,/g4t1,,success
Status,965,17704630082,/g3t1_1,,running
Status,966,17704839178,/g3t1_1,,success
Status,967,17709332783,/g3t1_2,,running
Status,968,17709436467,/g3t1_3,,running
Status,969,17709524756,/g3t1_2,,success
Status,970,17709751347,/g3t1_3,,success
Status,971,17717122721,/g4t1,,fail
Status,972,17737169427,/g4t1,,success
Status,973,17757220973,/g4t1,,success
Status,974,17777378185,/g4t1,,success
Status,975,17797547002,/g4t1,,success
Status,976,17804762984,/g3t1_1,,running
Status,977,17804784136,/g3t1_1,,success
Status,978,17809541610,/g3t1_2,,running
Status,979,17809565719,/g3t1_2,,success
Status,980,17809635403,/g3t1_3,,running
Status,981,17809647138,/g3t1_3,,success
Status,982,17817375189,/g4t1,,fail
Status,983,17837551418,/g4t1,,success
Status,984,17857688015,/g4t1,,success
Status,985,17877748296,/g4t1,,success
Status,986,17897835823,/g4t1,,success
Status,987,17904906393,/g3t1_1,,running
Status,988,17904926639,/g3t1_1,,success
Status,989,17909457327,/g3t1_2,,running
Status,990,17909709736,/g3t1_2,,success
Status,991,17909723925,/g3t1_3,,running
Status,992,17909741463,/g3t1_3,,success
Status,993,17917876892,/g4t1,,fail
Status,994,17938026161,/g4t1,,success
Status,995,17958097079,/g4t1,,success
Status,996,17978170558,/g4t1,,success
Status,997,17998258875,/g4t1,,success
Status,998,18004945555,/g3t1_1,,running
Status,999,18005077926,/g3t1_1,,success
Status,1000,18009472142,/g3t1_2,,running
Status,1001,18009609652,/g3t1_2,,success
Status,1002,18009662977,/g3t1_3,,running
Status,1003,18009868098,/g3t1_3,,success
Status,1004,18018199815,/g4t1,,fail
Status,1005,18038365313,/g4t1,,success
Status,1006,18058485116,/g4t1,,success
Status,1007,18078523283,/g4t1,,success
Status,1008,18098686119,/g4t1,,success
Status,1009,18104947010,/g3t1_1,,running
Status,1010,18105036499,/g3t1_1,,success
Status,1011,18109740678,/g3t1_2,,running
Status,1012,18109803892,/g3t1_2,,success
Status,1013,18109858847,/g3t1_3,,running
Status,1014,18109882716,/g3t1_3,,success
Status,1015,18118860189,/g4t1,,fail
Status,1016,18138911035,/g4t1,,success
Status,1017,18158967220,/g4t1,,success
Status,1018,18179092675,/g4t1,,success
Status,1019,18199198995,/g4t1,,success
Status,1020,18205039581,/g3t1_1,,running
Status,1021,18205165446,/g3t1_1,,success
Status,1022,18209724053,/g3t1_2,,running
Status,1023,18209743801,/g3t1_3,,running
Status,1024,18209769358,/g3t1_2,,success
Status,1025,18209998280,/g3t1_3,,success
Status,1026,18219262966,/g4t1,,fail
Status,1027,18239361154,/g4t1,,success
Status,1028,18259527074,/g4t1,,success
Status,1029,18279651396,/g4t1,,success
Status,1030,18299743779,/g4t1,,success
Status,1031,18305306076,/g3t1_1,,running
Status,1032,18305326685,/g3t1_1,,success
Status,1033,18309842797,/g3t1_2,,running
Status,1034,18309993443,/g3t1_2,,success
Status,1035,18310021719,/g3t1_3,,running
Status,1036,18310044285,/g3t1_3,,success
Status,1037,18319584528,/g4t1,,fail
Status,1038,18339862043,/g4t1,,success
Status,1039,18359988122,/g4t1,,success
Status,1040,18380069527,/g4t1,,success
Status,1041,18400246653,/g4t1,,success
Status,1042,18405288000,/g3t1_1,,running
Status,1043,18405348072,/g3t1_1,,success
Status,1044,18409900786,/g3t1_2,,running
Status,1045,18409928238,/g3t1_3,,running
Status,1046,18410094258,/g3t1_2,,success
Status,1047,18410254505,/g3t1_3,,success
Status,1048,18420064861,/g4t1,,fail
Status,1049,18440299124,/g4t1,,success
Status,1050,18460427178,/g4t1,,success
Status,1051,18480511004,/g4t1,,success
Status,1052,18500617795,/g4t1,,success
Status,1053,18505441340,/g3t1_1,,running
Status,1054,18505464575,/g3t1_1,,success
Status,1055,18510072052,/g3t1_2,,running
Status,1056,18510178711,/g3t1_3,,running
Status,1057,18510286327,/g3t1_2,,success
Status,1058,18510298208,/g3t1_3,,success
Status,1059,18520655124,/g4t1,,fail
Status,1060,18540719048,/g4t1,,success
Status,1061,18560842125,/g4t1,,success
Status,1062,18580844108,/g4t1,,success
Status,1063,18600921293,/g4t1,,success
Status,1064,18605505944,/g3t1_1,,running
Status,1065,18605526658,/g3t1_1,,success
Status,1066,18610196658,/g3t1_2,,running
Status,1067,18610221656,/g3t1_3,,running
Status,1068,18610247610,/g3t1_2,,success
Status,1069,18610278914,/g3t1_3,,success
Status,1070,18621387584,/g4t1,,fail
Status,1071,18641233008,/g4t1,,success
Status,1072,18661212471,/g4t1,,success
Status,1073,18681443102,/g4t1,,success
Status,1074,18701576507,/g4t1,,success
Status,1075,18705485226,/g3t1_1,,running
Status,1076,18705732715,/g3t1_1,,success
Status,1077,18710175249,/g3t1_2,,running
Status,1078,18710380427,/g3t1_3,,running
Status,1079,18710422453,/g3t1_2,,success
Status,1080,18710435307,/g3t1_3,,success
Status,1081,18721704020,/g4t1,,fail
Status,1082,18741670061,/g4t1,,success
Status,1084,18761682216,/g4t1,,success
Status,1085,18781799191,/g4t1,,success
Status,1086,18801990978,/g4t1,,success
Status,1087,18805659479,/g3t1_1,,running
Status,1088,18805693748,/g3t1_1,,fail
Status,1089,18810290821,/g3t1_2,,running
Status,1090,18810443545,/g3t1_3,,running
Status,1091,18810467627,/g3t1_2,,success
Status,1092,18810481318,/g3t1_3,,success
Status,1093,18822094043,/g4t1,,success
Status,1094,18842220405,/g4t1,,success
Status,1095,18862268434,/g4t1,,success
Status,1096,18882294775,/g4t1,,success
Status,1097,18902439627,/g4t1,,success
Status,1098,18905586451,/g3t1_1,,running
Status,1099,18905773419,/g3t1_1,,fail
Status,1100,18910533410,/g3t1_2,,running
Status,1101,18910550373,/g3t1_3,,running
Status,1102,18910561443,/g3t1_3,,success
Status,1103,18910589072,/g3t1_2,,success
Status,1104,18922597952,/g4t1,,success
Status,1105,18942604054,/g4t1,,success
Status,1107,18962679306,/g4t1,,success
Status,1108,18982727791,/g4t1,,success
Status,1109,19002902054,/g4t1,,success
Status,1110,19005779224,/g3t1_1,,running
Status,1111,19005878617,/g3t1_1,,fail
Status,1112,19010428924,/g3t1_2,,running
Status,1113,19010567238,/g3t1_3,,running
Status,1114,19010634667,/g3t1_2,,success
Status,1115,19010701885,/g3t1_3,,success
Status,1116,19022952417,/g4t1,,success
Status,1117,19043005556,/g4t1,,success
Status,1118,19063115178,/g4t1,,success
Status,1119,19083185542,/g4t1,,success
Status,1120,19103468656,/g4t1,,success
Status,1121,19105870464,/g3t1_1,,running
Status,1122,19105892700,/g3t1_1,,fail
Status,1123,19110555670,/g3t1_2,,running
Status,1124,19110662553,/g3t1_3,,running
Status,1125,19110682197,/g3t1_2,,success
Status,1126,19110700075,/g3t1_3,,success
Status,1127,19123527195,/g4t1,,success
Status,1128,19143667286,/g4t1,,success
Status,1130,19163672751,/g4t1,,success
Status,1131,19183737042,/g4t1,,success
Status,1132,19203811859,/g4t1,,success
Status,1133,19205797029,/g3t1_1,,running
Status,1134,19206028294,/g3t1_1,,fail
Status,1135,19210632037,/g3t1_2,,running
Status,1136,19210656901,/g3t1_3,,running
Status,1137,19210695593,/g3t1_2,,success
Status,1138,19210836173,/g3t1_3,,success
Status,1139,19223968551,/g4t1,,success
Status,1140,19244088337,/g4t1,,success
Status,1141,19264157475,/g4t1,,success
Status,1142,19284236081,/g4t1,,success
Status,1143,19304310257,/g4t1,,success
Status,1144,19305877419,/g3t1_1,,running
Status,1145,19305986290,/g3t1_1,,fail
Status,1146,19310723777,/g3t1_2,,running
Status,1147,19310782435,/g3t1_3,,running
Status,1148,19310797273,/g3t1_2,,success
Status,1149,19310868733,/g3t1_3,,success
Status,1150,19324381425,/g4t1,,success
Status,1151,19344419290,/g4t1,,success
Status,1153,19364575314,/g4t1,,success
Status,1154,19384669003,/g4t1,,success
Status,1155,19404718167,/g4t1,,success
Status,1156,19405984517,/g3t1_1,,running
Status,1157,19406003721,/g3t1_1,,fail
Status,1158,19410786871,/g3t1_2,,running
Status,1159,19410815081,/g3t1_3,,running
Status,1160,19410826957,/g3t1_2,,success
Status,1161,19411070790,/g3t1_3,,success
Status,1162,19424924508,/g4t1,,success
Status,1163,19444878827,/g4t1,,success
Status,1164,19465034182,/g4t1,,success
Status,1165,19485054584,/g4t1,,success
Status,1166,19505381967,/g4t1,,success
Status,1167,19505969004,/g3t1_1,,running
Status,1168,19506152335,/g3t1_1,,fail
Status,1169,19510637643,/g3t1_2,,running
Status,1170,19510915494,/g3t1_3,,running
Status,1171,19510934659,/g3t1_2,,success
Status,1172,19511023079,/g3t1_3,,success
Status,1173,19525353739,/g4t1,,success
Status,1174,19545422785,/g4t1,,success
Status,1176,19565574822,/g4t1,,success
Status,1177,19585723178,/g4t1,,success
Status,1178,19605693097,/g4t1,,success
Status,1179,19606123418,/g3t1_1,,running
Status,1180,19606272408,/g3t1_1,,fail
Status,1181,19610978711,/g3t1_2,,running
Status,1182,19611006500,/g3t1_3,,running
Status,1183,19611032558,/g3t1_2,,success
Status,1184,19611100107,/g3t1_3,,success
Status,1185,19625736070,/g4t1,,success
Status,1186,19645832631,/g4t1,,success
Status,1187,19665928757,/g4t1,,success
Status,1188,19686088274,/g4t1,,success
Status,1189,19706055992,/g4t1,,success
Status,1190,19706156976,/g3t1_1,,running
Status,1191,19706173894,/g3t1_1,,fail
Status,1192,19711013075,/g3t1_2,,running
Status,1193,19711038801,/g3t1_3,,running
Status,1194,19711118625,/g3t1_2,,success
Status,1195,19711132365,/g3t1_3,,success
Status,1196,19726173259,/g4t1,,success
Status,1197,19746197929,/g4t1,,success
Status,1199,19766397190,/g4t1,,success
Status,1200,19786557609,/g4t1,,success
Status,1201,19806396113,/g3t1_1,,running
Status,1202,19806415988,/g3t1_1,,fail
Status,1203,19806423994,/g4t1,,success
Status,1204,19811035943,/g3t1_2,,running
Status,1205,19811055707,/g3t1_3,,running
Status,1206,19811074898,/g3t1_2,,success
Status,1207,19811299257,/g3t1_3,,success
Status,1208,19826634775,/g4t1,,success
Status,1209,19846634521,/g4t1,,success
Status,1210,19866906013,/g4t1,,success
Status,1211,19886946620,/g4t1,,success
Status,1212,19906473950,/g3t1_1,,running
Status,1213,19906501438,/g3t1_1,,fail
Status,1214,19906791864,/g4t1,,success
Status,1215,19911087403,/g3t1_2,,running
Status,1216,19911146804,/g3t1_3,,running
Status,1217,19911182966,/g3t1_2,,success
Status,1218,19911445091,/g3t1_3,,success
Status,1219,19927056339,/g4t1,,success
Status,1220,19947074483,/g4t1,,success
Status,1222,19967220855,/g4t1,,success
Status,1223,19987326521,/g4t1,,success
Status,1224,20006693607,/g3t1_1,,running
Status,1225,20006714966,/g3t1_1,,fail
Status,1226,20007252245,/g4t1,,success
Status,1227,20011259972,/g3t1_2,,running
Status,1228,20011286491,/g3t1_3,,running
Status,1229,20011318450,/g3t1_2,,success
Status,1230,20011399517,/g3t1_3,,success
Status,1231,20027492384,/g4t1,,success
Status,1232,20047657167,/g4t1,,success
Status,1233,20067655973,/g4t1,,success
Status,1234,20087790412,/g4t1,,success
Status,1235,20106602460,/g3t1_1,,running
Status,1236,20106712083,/g3t1_1,,fail
Status,1237,20107775563,/g4t1,,success
Status,1238,20111522574,/g3t1_2,,running
Status,1239,20111544095,/g3t1_3,,running
Status,1240,20111554928,/g3t1_2,,success
Status,1241,20111663721,/g3t1_3,,success
Status,1242,20127960703,/g4t1,,success
Status,1243,20148056539,/g4t1,,success
Status,1245,20168138354,/g4t1,,success
Status,1246,20188254883,/g4t1,,success
Status,1247,20206770690,/g3t1_1,,running
Status,1248,20206794947,/g3t1_1,,fail
Status,1249,20208267577,/g4t1,,success
Status,1250,20211397743,/g3t1_2,,running
Status,1251,20211467725,/g3t1_3,,running
Status,1252,20211556817,/g3t1_2,,success
Status,1253,20211688751,/g3t1_3,,success
Status,1254,20228483336,/g4t1,,success
Status,1255,20248559198,/g4t1,,success
Status,1256,20268664601,/g4t1,,success
Status,1257,20288763309,/g4t1,,success
Status,1258,20306809979,/g3t1_1,,running
Status,1259,20306833642,/g3t1_1,,fail
Status,1260,20308763140,/g4t1,,success
Status,1261,20311416555,/g3t1_2,,running
Status,1262,20311547432,/g3t1_3,,running
Status,1263,20311560747,/g3t1_2,,success
Status,1264,20311770566,/g3t1_3,,success
Status,1265,20328876374,/g4t1,,success
Status,1266,20348997323,/g4t1,,success
Status,1268,20369203541,/g4t1,,success
Status,1269,20389265225,/g4t1,,success
Status,1270,20407040914,/g3t1_1,,running
Status,1271,20407064266,/g3t1_1,,fail
Status,1272,20409241305,/g4t1,,success
Status,1273,20411538117,/g3t1_2,,running
Status,1274,20411665494,/g3t1_3,,running
Status,1275,20411680483,/g3t1_2,,success
Status,1276,20411710979,/g3t1_3,,success
Status,1277,20429544754,/g4t1,,success
Status,1278,20449532961,/g4t1,,success
Status,1279,20469622369,/g4t1,,success
Status,1280,20489748072,/g4t1,,success
Status,1281,20507064938,/g3t1_1,,running
Status,1282,20507087309,/g3t1_1,,fail
Status,1283,20509605983,/g4t1,,success
Status,1284,20511696932,/g3t1_2,,running
Status,1285,20511717851,/g3t1_3,,running
Status,1286,20511728923,/g3t1_2,,success
Status,1287,20511928619,/g3t1_3,,success
Status,1288,20529788432,/g4t1,,success
Status,1289,20549960804,/g4t1,,success
Status,1291,20569973593,/g4t1,,success
Status,1292,20590094200,/g4t1,,success
Status,1293,20607096145,/g3t1_1,,running
Status,1294,20607125530,/g3t1_1,,fail
Status,1295,20610119258,/g4t1,,success
Status,1296,20611882437,/g3t1_2,,running
Status,1297,20611906993,/g3t1_3,,running
Status,1298,20611919821,/g3t1_2,,success
Status,1299,20611941298,/g3t1_3,,success
Status,1300,20630296662,/g4t1,,success
Status,1301,20650454590,/g4t1,,success
Status,1302,20670520666,/g4t1,,success
Status,1303,20690630350,/g4t1,,success
Status,1304,20707190939,/g3t1_1,,running
Status,1305,20707219293,/g3t1_1,,fail
Status,1306,20710519418,/g4t1,,success
Status,1307,20711871843,/g3t1_2,,running
Status,1308,20711890623,/g3t1_3,,running
Status,1309,20711923269,/g3t1_2,,success
Status,1310,20711986512,/g3t1_3,,success
Status,1311,20730725887,/g4t1,,success
Status,1312,20750992063,/g4t1,,success
Status,1314,20770971065,/g4t1,,success
Status,1315,20791008692,/g4t1,,success
Status,1316,20807301927,/g3t1_1,,running
Status,1317,20807331584,/g3t1_1,,fail
Status,1318,20810940670,/g4t1,,success
Status,1319,20811927339,/g3t1_2,,running
Status,1320,20811943605,/g3t1_3,,running
Status,1321,20811961272,/g3t1_2,,success
Status,1322,20812108644,/g3t1_3,,success
Status,1323,20831228491,/g4t1,,success
Status,1324,20851355067,/g4t1,,success
Status,1325,20871397838,/g4t1,,success
Status,1326,20891466674,/g4t1,,success
Status,1327,20907329546,/g3t1_1,,running
Status,1328,20907457948,/g3t1_1,,fail
Status,1329,20911400533,/g4t1,,success
Status,1330,20912037163,/g3t1_2,,running
Status,1331,20912051714,/g3t1_3,,running
Status,1332,20912060314,/g3t1_2,,success
Status,1333,20912082328,/g3t1_3,,success
Status,1334,20931591667,/g4t1,,success
Status,1335,20951741886,/g4t1,,success
Status,1337,20971862620,/g4t1,,success
Status,1338,20991962096,/g4t1,,success
Status,1339,21007566804,/g3t1_1,,running
Status,1340,21007587239,/g3t1_1,,fail
Status,1341,21011967369,/g4t1,,success
Status,1342,21011992947,/g3t1_2,,running
Status,1343,21012091120,/g3t1_3,,running
Status,1344,21012142607,/g3t1_2,,success
Status,1345,21012256992,/g3t1_3,,success
Status,1346,21032051867,/g4t1,,success
Status,1347,21052226292,/g4t1,,success
Status,1348,21072287206,/g4t1,,success
Status,1349,21092411969,/g4t1,,success
Status,1350,21107566849,/g3t1_1,,running
Status,1351,21107589549,/g3t1_1,,fail
Status,1352,21112171584,/g3t1_2,,running
Status,1353,21112196560,/g3t1_3,,running
Status,1354,21112307996,/g3t1_3,,success
Status,1355,21112326869,/g4t1,,success
Status,1356,21112334247,/g3t1_2,,success
Status,1357,21132495556,/g4t1,,success
Status,1359,21207602900,/g3t1_1,,running
Status,1360,21207727595,/g3t1_1,,fail
Status,1361,21212180578,/g3t1_2,,running
Status,1362,21212201138,/g3t1_3,,running
Status,1363,21212296043,/g3t1_2,,success
Status,1364,21212313125,/g3t1_3,,success
Status,1365,21307628044,/g3t1_1,,running
Status,1366,21307843966,/g3t1_1,,fail
Status,1367,21312315732,/g3t1_2,,running
Status,1368,21312340736,/g3t1_3,,running
Status,1369,21312353230,/g3t1_2,,success
Status,1370,21312429321,/g3t1_3,,success
Status,1372,21407771925,/g3t1_1,,running
Status,1373,21407795670,/g3t1_1,,fail
Status,1374,21412323282,/g3t1_2,,running
Status,1375,21412345009,/g3t1_3,,running
Status,1376,21412459732,/g3t1_2,,success
Status,1377,21412477247,/g3t1_3,,success
Status,1378,21507766076,/g3t1_1,,running
Status,1379,21507814151,/g3t1_1,,fail
Status,1380,21512668281,/g3t1_2,,running
Status,1381,21512697776,/g3t1_3,,running
Status,1382,21512711550,/g3t1_2,,success
Status,1383,21512722454,/g3t1_3,,success
Status,1385,21607868235,/g3t1_1,,running
Status,1386,21607888525,/g3t1_1,,fail
Status,1387,21612491712,/g3t1_2,,running
Status,1388,21612523931,/g3t1_3,,running
Status,1389,21612557391,/g3t1_2,,success
Status,1390,21612711729,/g3t1_3,,success
Status,1391,21707871448,/g3t1_1,,running
Status,1392,21707921813,/g3t1_1,,fail
Status,1393,21712658715,/g3t1_2,,running
Status,1394,21712685289,/g3t1_3,,running
Status,1395,21712770002,/g3t1_2,,success
Status,1396,21712785651,/g3t1_3,,success
Status,1398,21808011820,/g3t1_1,,running
Status,1399,21808093213,/g3t1_1,,fail
Status,1400,21812750391,/g3t1_2,,running
Status,1401,21812777716,/g3t1_3,,running
Status,1402,21812869341,/g3t1_2,,success
Status,1403,21812887308,/g3t1_3,,success
Status,1404,21908084578,/g3t1_1,,running
Status,1405,21908105551,/g3t1_1,,fail
Status,1406,21912809311,/g3t1_3,,running
Status,1407,21912837071,/g3t1_2,,running
Status,1408,21912912639,/g3t1_3,,success
Status,1409,21912931047,/g3t1_2,,success
Status,1411,22008145391,/g3t1_1,,running
Status,1412,22008169924,/g3t1_1,,fail
Status,1413,22012902330,/g3t1_3,,running
Status,1414,22012923811,/g3t1_2,,running
Status,1415,22013036843,/g3t1_3,,success
Status,1416,22013053464,/g3t1_2,,success
Status,1417,22108142985,/g3t1_1,,running
Status,1418,22108169927,/g3t1_1,,fail
Status,1419,22113013988,/g3t1_3,,running
Status,1420,22113072659,/g3t1_2,,running
Status,1421,22113091616,/g3t1_2,,success
Status,1422,22113101067,/g3t1_3,,success
Status,1424,22208338067,/g3t1_1,,running
Status,1425,22208359101,/g3t1_1,,fail
Status,1426,22213128177,/g3t1_2,,running
Status,1427,22213154432,/g3t1_3,,running
Status,1428,22213184204,/g3t1_3,,success
Status,1429,22213259368,/g3t1_2,,success
Status,1430,22308272492,/g3t1_1,,running
Status,1431,22308393069,/g3t1_1,,fail
Status,1432,22313190662,/g3t1_2,,running
Status,1433,22313220756,/g3t1_3,,running
Status,1434,22313337521,/g3t1_3,,success
Status,1435,22313424036,/g3t1_2,,success
Status,1437,22408454107,/g3t1_1,,running
Status,1438,22408477261,/g3t1_1,,fail
Status,1439,22413495598,/g3t1_2,,running
Status,1440,22413517240,/g3t1_3,,running
Status,1441,22413537736,/g3t1_3,,success
Status,1442,22413545403,/g3t1_2,,success
Status,1443,22508506320,/g3t1_1,,running
Status,1444,22508529354,/g3t1_1,,fail
Status,1445,22513426050,/g3t1_3,,running
Status,1446,22513454526,/g3t1_2,,running
Status,1447,22513524865,/g3t1_2,,success
Status,1448,22513646504,/g3t1_3,,success
Status,1450,22608511667,/g3t1_1,,running
Status,1451,22608545399,/g3t1_1,,fail
Status,1452,22613469355,/g3t1_2,,running
Status,1453,22613525040,/g3t1_3,,running
Status,1454,22613631625,/g3t1_2,,success
Status,1455,22613649001,/g3t1_3,,success
Status,1456,22708590117,/g3t1_1,,running
Status,1457,22708722958,/g3t1_1,,fail
Status,1458,22713644234,/g3t1_2,,running
Status,1459,22713689330,/g3t1_3,,running
Status,1460,22713701794,/g3t1_2,,success
Status,1461,22713715662,/g3t1_3,,success
Status,1463,22808678597,/g3t1_1,,running
Status,1464,22808700418,/g3t1_1,,fail
Status,1465,22813633831,/g3t1_3,,running
Status,1466,22813651843,/g3t1_2,,running
Status,1467,22813659003,/g3t1_3,,success
Status,1468,22813766107,/g3t1_2,,success
Status,1469,22908762983,/g3t1_1,,running
Status,1470,22908784510,/g3t1_1,,fail
Status,1471,22913741599,/g3t1_3,,running
Status,1472,22913766138,/g3t1_2,,running
Status,1473,22913777438,/g3t1_2,,success
Status,1474,22913802235,/g3t1_3,,success
Status,1476,23008821868,/g3t1_1,,running
Status,1477,23008843671,/g3t1_1,,fail
Status,1478,23013765269,/g3t1_3,,running
Status,1479,23013792735,/g3t1_2,,running
Status,1480,23013971380,/g3t1_2,,success
Status,1481,23014019038,/g3t1_3,,success
Status,1482,23108951616,/g3t1_1,,running
Status,1483,23108998883,/g3t1_1,,fail
Status,1484,23113834585,/g3t1_3,,running
Status,1485,23113859052,/g3t1_2,,running
Status,1486,23113938861,/g3t1_3,,success
Status,1487,23113953919,/g3t1_2,,success
Status,1489,23208923818,/g3t1_1,,running
Status,1490,23208949623,/g3t1_1,,fail
Status,1491,23213933488,/g3t1_3,,running
Status,1492,23213952461,/g3t1_2,,running
Status,1493,23213998784,/g3t1_3,,success
Status,1494,23214107450,/g3t1_2,,success
Status,1495,23308913092,/g3t1_1,,running
Status,1496,23308935036,/g3t1_1,,fail
Status,1497,23314020008,/g3t1_3,,running
Status,1498,23314067496,/g3t1_2,,running
Status,1499,23314078779,/g3t1_3,,success
Status,1500,23314178953,/g3t1_2,,success
Status,1502,23409056362,/g3t1_1,,running
Status,1503,23409077841,/g3t1_1,,fail
Status,1504,23414084820,/g3t1_3,,running
Status,1505,23414110894,/g3t1_2,,running
Status,1506,23414271475,/g3t1_3,,success
Status,1507,23414291672,/g3t1_2,,success
Status,1508,23509123278,/g3t1_1,,running
Status,1509,23509148963,/g3t1_1,,fail
Status,1510,23514167989,/g3t1_3,,running
Status,1511,23514194376,/g3t1_2,,running
Status,1512,23514208292,/g3t1_2,,success
Status,1513,23514223877,/g3t1_3,,success
Status,1515,23609182980,/g3t1_1,,running
Status,1516,23609319541,/g3t1_1,,fail
Status,1517,23614109178,/g3t1_3,,running
Status,1518,23614261395,/g3t1_2,,running
Status,1519,23614375361,/g3t1_3,,success
Status,1520,23614399821,/g3t1_2,,success
Status,1521,23709269233,/g3t1_1,,running
Status,1522,23709289990,/g3t1_1,,fail
Status,1523,23714302050,/g3t1_3,,running
Status,1524,23714325932,/g3t1_2,,running
Status,1525,23714441919,/g3t1_3,,success
Status,1526,23714462304,/g3t1_2,,success
Status,1530,23809409169,/g3t1_1,,running
Status,1531,23809430271,/g3t1_1,,fail
Status,1532,23814358349,/g3t1_3,,running
Status,1533,23814384386,/g3t1_2,,running
Status,1534,23814402056,/g3t1_2,,fail
Status,1535,23814424995,/g3t1_3,,fail
Status,1536,23909440599,/g3t1_1,,running
Status,1537,23909461388,/g3t1_1,,fail
Status,1538,23914354945,/g3t1_3,,running
Status,1539,23914397334,/g3t1_2,,running
Status,1540,23914419490,/g3t1_3,,fail
Status,1541,23914431566,/g3t1_2,,fail
Status,1545,24009512116,/g3t1_1,,running
Status,1546,24009593884,/g3t1_1,,fail
Status,1547,24014593801,/g3t1_3,,running
Status,1548,24014642376,/g3t1_2,,running
Status,1549,24014654385,/g3t1_3,,fail
Status,1550,24014663025,/g3t1_2,,fail
Status,1551,24109523513,/g3t1_1,,running
Status,1552,24109548635,/g3t1_1,,fail
Status,1553,24114529561,/g3t1_3,,running
Status,1554,24114550167,/g3t1_3,,fail
Status,1555,24114627965,/g3t1_2,,running
Status,1556,24114644271,/g3t1_2,,fail
Status,1560,24209590480,/g3t1_1,,running
Status,1561,24209615861,/g3t1_1,,fail
Status,1562,24214567702,/g3t1_3,,running
Status,1563,24214655338,/g3t1_3,,fail
Status,1564,24214818460,/g3t1_2,,running
Status,1565,24214837712,/g3t1_2,,fail
Status,1566,24309656758,/g3t1_1,,running
Status,1567,24309680433,/g3t1_1,,fail
Status,1568,24314625697,/g3t1_3,,running
Status,1569,24314705679,/g3t1_2,,running
Status,1570,24314846069,/g3t1_2,,fail
Status,1571,24314862628,/g3t1_3,,fail
Status,1575,24409783569,/g3t1_1,,running
Status,1576,24409824820,/g3t1_1,,fail
