
Status,2,20511710994,/g4t1,,init
Status,4,25724057203,/g3t1_1,,init
Status,5,25728927385,/g3t1_1,,init
Status,6,25728941007,/g3t1_1,,running
Status,7,25730407357,/g3t1_1,,success
Status,8,25826226910,/g3t1_2,,init
Status,10,25831158828,/g3t1_2,,init
Status,11,25831169814,/g3t1_2,,running
Status,12,25832186361,/g3t1_2,,success
Status,13,25926741064,/g3t1_4,,init
Status,14,25926755842,/g3t1_3,,init
Status,17,25933916535,/g3t1_3,,init
Status,18,25933928035,/g3t1_3,,running
Status,19,25935576505,/g3t1_3,,success
Status,20,25936412712,/g3t1_4,,init
Status,21,25936427400,/g3t1_4,,running
Status,22,25937823570,/g3t1_4,,success
Status,23,26937349696,/g3t1_4,,running
Status,24,26945018204,/g3t1_4,,success
Status,25,27937391884,/g3t1_4,,running
Status,26,27949693194,/g3t1_4,,success
Status,27,28937555108,/g3t1_4,,running
Status,28,28946121630,/g3t1_4,,success
Status,29,29938180016,/g3t1_4,,running
Status,30,29945671380,/g3t1_4,,success
Status,31,30730347626,/g3t1_1,,running
Status,32,30730951858,/g3t1_1,,success
Status,34,30938223906,/g3t1_4,,running
Status,35,30950242052,/g3t1_4,,success
Status,36,31521941345,/g4t1,,success
Status,37,31938197754,/g3t1_4,,running
Status,38,31945952656,/g3t1_4,,success
Status,39,32938535695,/g3t1_4,,running
Status,40,32947373699,/g3t1_4,,success
Status,41,33938771887,/g3t1_4,,running
Status,42,33984752244,/g3t1_4,,success
Status,43,34938962322,/g3t1_4,,running
Status,44,34948539090,/g3t1_4,,success
Status,45,35730682956,/g3t1_1,,running
Status,46,35731077926,/g3t1_1,,success
Status,47,35832100647,/g3t1_2,,running
Status,48,35832920553,/g3t1_2,,success
Status,49,35934962910,/g3t1_3,,running
Status,50,35935645541,/g3t1_3,,success
Status,51,35938746313,/g3t1_4,,running
Status,53,35946332038,/g3t1_4,,success
Status,54,36522925316,/g4t1,,success
Status,55,36939285578,/g3t1_4,,running
Status,56,36946822642,/g3t1_4,,success
Status,57,37523391916,/g4t1,,success
Status,58,37939385339,/g3t1_4,,running
Status,59,37948167543,/g3t1_4,,success
Status,60,38523535704,/g4t1,,success
Status,61,38939501853,/g3t1_4,,running
Status,62,38948559263,/g3t1_4,,success
Status,63,39523708591,/g4t1,,success
Status,64,39939461946,/g3t1_4,,running
Status,65,39947138614,/g3t1_4,,success
Status,66,40730881524,/g3t1_1,,running
Status,67,40731170057,/g3t1_1,,success
Status,68,40939883436,/g3t1_4,,running
Status,69,40948712746,/g3t1_4,,success
Status,72,41524003540,/g4t1,,success
Status,73,41939956585,/g3t1_4,,running
Status,74,41948831053,/g3t1_4,,success
Status,75,42524133247,/g4t1,,success
Status,76,42940217169,/g3t1_4,,running
Status,77,42947860998,/g3t1_4,,success
Status,78,43524181675,/g4t1,,success
Status,79,43940575450,/g3t1_4,,running
Status,80,44015019566,/g3t1_4,,success
Status,81,44524564342,/g4t1,,success
Status,82,44940492958,/g3t1_4,,running
Status,83,44956003645,/g3t1_4,,success
Status,84,45524627568,/g4t1,,success
Status,85,45731057647,/g3t1_1,,running
Status,86,45731720456,/g3t1_1,,success
Status,87,45832318889,/g3t1_2,,running
Status,88,45833011351,/g3t1_2,,success
Status,89,45935134137,/g3t1_3,,running
Status,90,45935775211,/g3t1_3,,success
Status,91,45940119083,/g3t1_4,,running
Status,92,45947929110,/g3t1_4,,success
Status,94,46525009320,/g4t1,,success
Status,95,46940800119,/g3t1_4,,running
Status,96,46954306266,/g3t1_4,,success
Status,97,47525288226,/g4t1,,success
Status,98,47940714818,/g3t1_4,,running
Status,99,47951939008,/g3t1_4,,success
Status,100,48524606743,/g4t1,,success
Status,101,48941059271,/g3t1_4,,running
Status,102,48948717734,/g3t1_4,,success
Status,103,49525662258,/g4t1,,success
Status,104,49940313615,/g3t1_4,,running
Status,105,49943536523,/g3t1_4,,success
Status,106,50524939770,/g4t1,,success
Status,107,50730996984,/g3t1_1,,running
Status,108,50731737061,/g3t1_1,,success
Status,109,50940353986,/g3t1_4,,running
Status,110,50943076944,/g3t1_4,,success
Status,112,51525188868,/g4t1,,success
Status,113,51940976098,/g3t1_4,,running
Status,114,51948268926,/g3t1_4,,success
Status,115,52526271588,/g4t1,,success
Status,116,52941773218,/g3t1_4,,running
Status,117,52950226122,/g3t1_4,,success
Status,118,53526469693,/g4t1,,success
Status,119,53940906719,/g3t1_4,,running
Status,120,53943745416,/g3t1_4,,success
Status,121,54526242660,/g4t1,,success
Status,122,54941124775,/g3t1_4,,running
Status,123,54945777033,/g3t1_4,,success
Status,124,55526367702,/g4t1,,success
Status,125,55731006109,/g3t1_1,,running
Status,126,55731513399,/g3t1_1,,success
Status,127,55832069144,/g3t1_2,,running
Status,128,55833131054,/g3t1_2,,success
Status,129,55934669921,/g3t1_3,,running
Status,130,55934816386,/g3t1_3,,success
Status,131,55941222686,/g3t1_4,,running
Status,132,55946538361,/g3t1_4,,success
Status,136,56526784268,/g4t1,,success
Status,137,56942323635,/g3t1_4,,running
Status,138,56950832927,/g3t1_4,,success
Status,139,57526729427,/g4t1,,success
Status,140,57942786695,/g3t1_4,,running
Status,141,57951372544,/g3t1_4,,success
Status,142,58527046362,/g4t1,,success
Status,143,58942669140,/g3t1_4,,running
Status,144,58950428841,/g3t1_4,,success
Status,145,59526383489,/g4t1,,success
Status,146,59942886722,/g3t1_4,,running
Status,147,59950499627,/g3t1_4,,success
Status,148,60527370302,/g4t1,,success
Status,149,60731511562,/g3t1_1,,running
Status,150,60732258018,/g3t1_1,,success
Status,151,60943101794,/g3t1_4,,running
Status,152,60952525229,/g3t1_4,,success
Status,154,61527237423,/g4t1,,success
Status,155,61942369565,/g3t1_4,,running
Status,156,61945328039,/g3t1_4,,success
Status,157,62527453443,/g4t1,,success
Status,158,62943431709,/g3t1_4,,running
Status,159,62951896776,/g3t1_4,,success
Status,160,63527579200,/g4t1,,success
Status,161,63943323472,/g3t1_4,,running
Status,162,63950568724,/g3t1_4,,success
Status,163,64527544484,/g4t1,,success
Status,164,64942812248,/g3t1_4,,running
Status,165,64945064067,/g3t1_4,,success
Status,166,65527130916,/g4t1,,success
Status,167,65731096719,/g3t1_1,,running
Status,168,65731637756,/g3t1_1,,success
Status,169,65832556581,/g3t1_2,,running
Status,170,65832841767,/g3t1_2,,success
Status,171,65935384157,/g3t1_3,,running
Status,172,65935972849,/g3t1_3,,success
Status,173,65943916730,/g3t1_4,,running
Status,174,65951502936,/g3t1_4,,success
Status,176,66527252826,/g4t1,,success
Status,177,66944111359,/g3t1_4,,running
Status,178,66956769566,/g3t1_4,,success
Status,179,67527567054,/g4t1,,success
Status,180,67943863749,/g3t1_4,,running
Status,181,67955878441,/g3t1_4,,success
Status,182,68528162312,/g4t1,,success
Status,183,68943885165,/g3t1_4,,running
Status,184,68952070358,/g3t1_4,,success
Status,185,69528313925,/g4t1,,success
Status,186,69943402514,/g3t1_4,,running
Status,187,69946987870,/g3t1_4,,success
Status,189,70181015946,/g3t1_4,,status
Status,190,70527687147,/g4t1,,success
Status,191,70730853736,/g3t1_1,,running
Status,192,70731011436,/g3t1_1,,success
Status,195,71527920069,/g4t1,,success
Status,197,72476003138,/g3t1_3,,status
Status,198,72527934495,/g4t1,,success
Status,199,73527912458,/g4t1,,success
Status,200,74528059722,/g4t1,,success
Status,202,75373491035,/g3t1_2,,status
Status,203,75528574940,/g4t1,,success
Status,204,75731554648,/g3t1_1,,running
Status,205,75732036335,/g3t1_1,,success
Status,206,76528308978,/g4t1,,success
Status,208,77528892473,/g4t1,,success
Status,209,78529206544,/g4t1,,success
