
Status,2,3262672838,/g4t1,,init
Status,4,8492286902,/g3t1_1,,init
Status,5,8528217644,/g3t1_1,,init
Status,6,8528269200,/g3t1_1,,running
Status,7,8530726683,/g3t1_1,,success
Status,8,8578283276,/g3t1_1,,running
Status,9,8578910295,/g3t1_1,,success
Status,10,8628704012,/g3t1_1,,running
Status,11,8628762312,/g3t1_1,,success
Status,12,8679710636,/g3t1_1,,running
Status,13,8679766795,/g3t1_1,,success
Status,14,8728772754,/g3t1_1,,running
Status,15,8729916010,/g3t1_1,,success
Status,16,8778705349,/g3t1_1,,running
Status,17,8779809565,/g3t1_1,,success
Status,18,8789068099,/g4t1,,success
Status,19,8828785330,/g3t1_1,,running
Status,20,8829696164,/g3t1_1,,success
Status,21,8879002200,/g3t1_1,,running
Status,22,8879259286,/g3t1_1,,success
Status,24,8881316195,/g3t1_2,,init
Status,25,8889455264,/g4t1,,success
Status,26,8911287210,/g3t1_2,,init
Status,27,8911338996,/g3t1_2,,running
Status,28,8912724390,/g3t1_2,,success
Status,29,8929435921,/g3t1_1,,running
Status,30,8929487430,/g3t1_1,,success
Status,31,8961519839,/g3t1_2,,running
Status,32,8961924189,/g3t1_2,,success
Status,33,8979283063,/g3t1_1,,running
Status,34,8979529923,/g3t1_1,,success
Status,35,8989217598,/g4t1,,success
Status,36,9012426004,/g3t1_2,,running
Status,37,9013169721,/g3t1_2,,success
Status,38,9029409772,/g3t1_1,,running
Status,39,9029466695,/g3t1_1,,success
Status,40,9061769681,/g3t1_2,,running
Status,41,9061910125,/g3t1_2,,success
Status,42,9079978657,/g3t1_1,,running
Status,43,9080408280,/g3t1_1,,success
Status,44,9089291898,/g4t1,,success
Status,45,9095220482,/g3t1_3,,init
Status,47,9111976368,/g3t1_2,,running
Status,48,9112414466,/g3t1_2,,success
Status,49,9127921477,/g3t1_3,,init
Status,50,9127969560,/g3t1_3,,running
Status,51,9129669498,/g3t1_1,,running
Status,52,9129723343,/g3t1_1,,success
Status,53,9130181207,/g3t1_3,,success
Status,54,9161899708,/g3t1_2,,running
Status,55,9162107113,/g3t1_2,,success
Status,56,9178449068,/g3t1_3,,running
Status,57,9178587852,/g3t1_3,,success
Status,58,9180344266,/g3t1_1,,running
Status,59,9180563549,/g3t1_1,,success
Status,60,9189330968,/g4t1,,fail
Status,61,9212426606,/g3t1_2,,running
Status,62,9212596135,/g3t1_2,,success
Status,63,9228170363,/g3t1_3,,running
Status,64,9228440507,/g3t1_3,,success
Status,65,9229894957,/g3t1_1,,running
Status,66,9230259929,/g3t1_1,,success
Status,67,9262413837,/g3t1_2,,running
Status,68,9262472051,/g3t1_2,,success
Status,69,9278194878,/g3t1_3,,running
Status,70,9278591080,/g3t1_3,,success
Status,71,9280028603,/g3t1_1,,running
Status,72,9280273327,/g3t1_1,,success
Status,73,9289922244,/g4t1,,fail
Status,74,9312707971,/g3t1_2,,running
Status,75,9312947782,/g3t1_2,,success
Status,76,9328245106,/g3t1_3,,running
Status,77,9328484751,/g3t1_3,,success
Status,78,9329972416,/g3t1_1,,running
Status,79,9330189680,/g3t1_1,,success
Status,80,9362569353,/g3t1_2,,running
Status,81,9362640794,/g3t1_2,,success
Status,82,9378268421,/g3t1_3,,running
Status,83,9378536571,/g3t1_3,,success
Status,84,9379962796,/g3t1_1,,running
Status,85,9380232382,/g3t1_1,,success
Status,86,9389645507,/g4t1,,fail
Status,87,9412662577,/g3t1_2,,running
Status,88,9412706338,/g3t1_2,,success
Status,89,9428842954,/g3t1_3,,running
Status,90,9428887376,/g3t1_3,,success
Status,91,9430155362,/g3t1_1,,running
Status,92,9430407493,/g3t1_1,,success
Status,96,9462602823,/g3t1_2,,running
Status,97,9462812540,/g3t1_2,,success
Status,98,9478628269,/g3t1_3,,running
Status,99,9478755604,/g3t1_3,,success
Status,100,9480180009,/g3t1_1,,running
Status,101,9480503366,/g3t1_1,,success
Status,102,9489529169,/g4t1,,fail
Status,103,9512658087,/g3t1_2,,running
Status,104,9512712740,/g3t1_2,,success
Status,105,9528823836,/g3t1_3,,running
Status,106,9528994401,/g3t1_3,,success
Status,107,9530150678,/g3t1_1,,running
Status,108,9530324252,/g3t1_1,,success
Status,109,9562688736,/g3t1_2,,running
Status,110,9562981378,/g3t1_2,,success
Status,111,9578713344,/g3t1_3,,running
Status,112,9578898337,/g3t1_3,,success
Status,113,9580162560,/g3t1_1,,running
Status,114,9580444916,/g3t1_1,,success
Status,115,9589550507,/g4t1,,fail
Status,116,9613020723,/g3t1_2,,running
Status,117,9613058724,/g3t1_2,,success
Status,118,9628790503,/g3t1_3,,running
Status,119,9628849498,/g3t1_3,,success
Status,120,9630243486,/g3t1_1,,running
Status,121,9630699366,/g3t1_1,,success
Status,125,9663189307,/g3t1_2,,running
Status,126,9663245995,/g3t1_2,,success
Status,127,9678978502,/g3t1_3,,running
Status,128,9679033240,/g3t1_3,,success
Status,129,9680531584,/g3t1_1,,running
Status,130,9680732728,/g3t1_1,,success
Status,131,9689776804,/g4t1,,fail
Status,132,9713161840,/g3t1_2,,running
Status,133,9713199442,/g3t1_2,,success
Status,134,9728918140,/g3t1_3,,running
Status,135,9729056718,/g3t1_3,,success
Status,136,9730501390,/g3t1_1,,running
Status,137,9730703501,/g3t1_1,,success
Status,138,9763308170,/g3t1_2,,running
Status,139,9763345153,/g3t1_2,,success
Status,140,9779208995,/g3t1_3,,running
Status,141,9779404771,/g3t1_3,,success
Status,142,9780980826,/g3t1_1,,running
Status,143,9781225554,/g3t1_1,,success
Status,144,9789880581,/g4t1,,fail
Status,145,9813250018,/g3t1_2,,running
Status,146,9813431135,/g3t1_2,,success
Status,147,9829523144,/g3t1_3,,running
Status,148,9829839201,/g3t1_3,,success
Status,149,9830950465,/g3t1_1,,running
Status,150,9831210433,/g3t1_1,,success
Status,154,9863388300,/g3t1_2,,running
Status,155,9863423235,/g3t1_2,,success
Status,156,9879757516,/g3t1_3,,running
Status,157,9880528017,/g3t1_3,,success
Status,158,9881151433,/g3t1_1,,running
Status,159,9881230872,/g3t1_1,,success
Status,160,9889908968,/g4t1,,fail
Status,161,9913427867,/g3t1_2,,running
Status,162,9913659249,/g3t1_2,,success
Status,163,9930030260,/g3t1_3,,running
Status,164,9930075336,/g3t1_3,,success
Status,165,9931351522,/g3t1_1,,running
Status,166,9931411682,/g3t1_1,,success
Status,167,9963702013,/g3t1_2,,running
Status,168,9963752987,/g3t1_2,,success
Status,169,9979968214,/g3t1_3,,running
Status,170,9980276325,/g3t1_3,,success
Status,171,9981690453,/g3t1_1,,running
Status,172,9981738148,/g3t1_1,,success
Status,173,9990097122,/g4t1,,fail
Status,174,10013825023,/g3t1_2,,running
Status,175,10013890277,/g3t1_2,,success
Status,176,10030264248,/g3t1_3,,running
Status,177,10030560253,/g3t1_3,,success
Status,178,10031261525,/g3t1_1,,running
Status,179,10031674589,/g3t1_1,,success
Status,183,10063793498,/g3t1_2,,running
Status,184,10063867828,/g3t1_2,,success
Status,185,10080640139,/g3t1_3,,running
Status,186,10080703231,/g3t1_3,,success
Status,187,10082049691,/g3t1_1,,running
Status,188,10082194543,/g3t1_1,,success
Status,189,10090256294,/g4t1,,fail
Status,190,10114130659,/g3t1_2,,running
Status,191,10114507700,/g3t1_2,,success
Status,192,10130469213,/g3t1_3,,running
Status,193,10130660825,/g3t1_3,,success
Status,194,10131516055,/g3t1_1,,running
Status,195,10131781295,/g3t1_1,,success
Status,196,10164228406,/g3t1_2,,running
Status,197,10164458014,/g3t1_2,,success
Status,198,10180438702,/g3t1_3,,running
Status,199,10180812906,/g3t1_3,,success
Status,200,10182111969,/g3t1_1,,running
Status,201,10182170961,/g3t1_1,,success
Status,202,10190229053,/g4t1,,fail
Status,203,10214239451,/g3t1_2,,running
Status,204,10214442733,/g3t1_2,,success
Status,205,10230746419,/g3t1_3,,running
Status,206,10230806724,/g3t1_3,,success
Status,207,10231790869,/g3t1_1,,running
Status,208,10232586041,/g3t1_1,,success
Status,212,10264535040,/g3t1_2,,running
Status,213,10264605238,/g3t1_2,,success
Status,214,10281024560,/g3t1_3,,running
Status,215,10281857967,/g3t1_3,,success
Status,216,10282189409,/g3t1_1,,running
Status,217,10282461407,/g3t1_1,,success
Status,218,10290425352,/g4t1,,fail
Status,219,10314562416,/g3t1_2,,running
Status,220,10315211248,/g3t1_2,,success
Status,221,10330951622,/g3t1_3,,running
Status,222,10331126520,/g3t1_3,,success
Status,223,10331979249,/g3t1_1,,running
Status,224,10332201052,/g3t1_1,,success
Status,225,10365054119,/g3t1_2,,running
Status,226,10365540798,/g3t1_2,,success
Status,227,10380771016,/g3t1_3,,running
Status,228,10381462609,/g3t1_3,,success
Status,229,10382073279,/g3t1_1,,running
Status,230,10382386001,/g3t1_1,,success
Status,231,10390550284,/g4t1,,fail
Status,232,10415245556,/g3t1_2,,running
Status,233,10415417186,/g3t1_2,,success
Status,234,10430991533,/g3t1_3,,running
Status,235,10431056344,/g3t1_3,,success
Status,236,10432238407,/g3t1_1,,running
Status,237,10432359559,/g3t1_1,,success
Status,241,10465219510,/g3t1_2,,running
Status,242,10465725452,/g3t1_2,,success
Status,243,10480922156,/g3t1_3,,running
Status,244,10481159303,/g3t1_3,,success
Status,245,10482137321,/g3t1_1,,running
Status,246,10482322814,/g3t1_1,,success
Status,247,10490931534,/g4t1,,fail
Status,248,10515642915,/g3t1_2,,running
Status,249,10515686905,/g3t1_2,,success
Status,250,10531397764,/g3t1_3,,running
Status,251,10531926297,/g3t1_3,,success
Status,252,10532536180,/g3t1_1,,running
Status,253,10532748192,/g3t1_1,,success
Status,254,10565496108,/g3t1_2,,running
Status,255,10565754987,/g3t1_2,,success
Status,256,10581083447,/g3t1_3,,running
Status,257,10581171653,/g3t1_3,,success
Status,258,10582141767,/g3t1_1,,running
Status,259,10582370315,/g3t1_1,,success
Status,260,10591128284,/g4t1,,fail
Status,261,10615356881,/g3t1_2,,running
Status,262,10615398889,/g3t1_2,,success
Status,263,10631570602,/g3t1_3,,running
Status,264,10631621383,/g3t1_3,,success
Status,265,10632351059,/g3t1_1,,running
Status,266,10632676813,/g3t1_1,,success
Status,270,10665702971,/g3t1_2,,running
Status,271,10665747471,/g3t1_2,,success
Status,272,10681432455,/g3t1_3,,running
Status,273,10681656480,/g3t1_3,,success
Status,274,10682293094,/g3t1_1,,running
Status,275,10682663118,/g3t1_1,,success
Status,276,10690805257,/g4t1,,fail
Status,277,10715455066,/g3t1_2,,running
Status,278,10715495122,/g3t1_2,,success
Status,279,10731459559,/g3t1_3,,running
Status,280,10731514130,/g3t1_3,,success
Status,281,10732478454,/g3t1_1,,running
Status,282,10732648093,/g3t1_1,,success
Status,283,10765709542,/g3t1_2,,running
Status,284,10765750370,/g3t1_2,,success
Status,285,10781532128,/g3t1_3,,running
Status,286,10781728533,/g3t1_3,,success
Status,287,10782598847,/g3t1_1,,running
Status,288,10782633185,/g3t1_1,,success
Status,289,10790852591,/g4t1,,fail
Status,290,10815589099,/g3t1_2,,running
Status,291,10815627176,/g3t1_2,,success
Status,292,10831625002,/g3t1_3,,running
Status,293,10831717336,/g3t1_3,,success
Status,294,10832556562,/g3t1_1,,running
Status,295,10832755909,/g3t1_1,,success
Status,299,10865752244,/g3t1_2,,running
Status,300,10865799122,/g3t1_2,,success
Status,301,10881845042,/g3t1_3,,running
Status,302,10882026919,/g3t1_3,,success
Status,303,10882674461,/g3t1_1,,running
Status,304,10882959405,/g3t1_1,,success
Status,305,10890882826,/g4t1,,fail
Status,306,10915814783,/g3t1_2,,running
Status,307,10915964900,/g3t1_2,,success
Status,308,10931815731,/g3t1_3,,running
Status,309,10931848143,/g3t1_3,,success
Status,310,10932637380,/g3t1_1,,running
Status,311,10932848765,/g3t1_1,,success
Status,312,10965960245,/g3t1_2,,running
Status,313,10965992797,/g3t1_2,,success
Status,314,10981895345,/g3t1_3,,running
Status,315,10982090435,/g3t1_3,,success
Status,316,10982699840,/g3t1_1,,running
Status,317,10982898511,/g3t1_1,,fail
Status,318,10990930183,/g4t1,,fail
Status,319,11015945468,/g3t1_2,,running
Status,320,11016125564,/g3t1_2,,success
Status,321,11031841603,/g3t1_3,,running
Status,322,11032091716,/g3t1_3,,success
Status,323,11032757384,/g3t1_1,,running
Status,324,11032946352,/g3t1_1,,success
Status,328,11066012851,/g3t1_2,,running
Status,329,11066144107,/g3t1_2,,success
Status,330,11082108719,/g3t1_3,,running
Status,331,11082255413,/g3t1_3,,success
Status,332,11082853569,/g3t1_1,,running
Status,333,11083224549,/g3t1_1,,success
Status,334,11090949742,/g4t1,,fail
Status,335,11116161989,/g3t1_2,,running
Status,336,11116200893,/g3t1_2,,success
Status,337,11131996587,/g3t1_3,,running
Status,338,11132202542,/g3t1_3,,success
Status,339,11133072243,/g3t1_1,,running
Status,340,11133109021,/g3t1_1,,success
Status,341,11166134372,/g3t1_2,,running
Status,342,11166307129,/g3t1_2,,success
Status,343,11182134649,/g3t1_3,,running
Status,344,11182283899,/g3t1_3,,success
Status,345,11183007732,/g3t1_1,,running
Status,346,11183137931,/g3t1_1,,success
Status,347,11191353709,/g4t1,,fail
Status,348,11216302314,/g3t1_2,,running
Status,349,11216362755,/g3t1_2,,success
Status,350,11232196400,/g3t1_3,,running
Status,351,11232489420,/g3t1_3,,success
Status,352,11233398836,/g3t1_1,,running
Status,353,11233450066,/g3t1_1,,success
Status,357,11266528862,/g3t1_2,,running
Status,358,11266562552,/g3t1_2,,success
Status,359,11282248524,/g3t1_3,,running
Status,360,11282453024,/g3t1_3,,success
Status,361,11283178920,/g3t1_1,,running
Status,362,11283414950,/g3t1_1,,success
Status,363,11291696359,/g4t1,,fail
Status,364,11316535107,/g3t1_2,,running
Status,365,11316655932,/g3t1_2,,success
Status,366,11332330726,/g3t1_3,,running
Status,367,11332437643,/g3t1_3,,success
Status,368,11333179095,/g3t1_1,,running
Status,369,11333403705,/g3t1_1,,success
Status,370,11366584787,/g3t1_2,,running
Status,371,11366633364,/g3t1_2,,success
Status,372,11382432913,/g3t1_3,,running
Status,373,11382695855,/g3t1_3,,success
Status,374,11383272691,/g3t1_1,,running
Status,375,11383418313,/g3t1_1,,success
Status,376,11391754462,/g4t1,,fail
Status,377,11416577220,/g3t1_2,,running
Status,378,11416684752,/g3t1_2,,success
Status,379,11432583660,/g3t1_3,,running
Status,380,11432615610,/g3t1_3,,success
Status,381,11433418569,/g3t1_1,,running
Status,382,11433556997,/g3t1_1,,success
Status,386,11466813643,/g3t1_2,,running
Status,387,11466843916,/g3t1_2,,success
Status,388,11482686222,/g3t1_3,,running
Status,389,11482962849,/g3t1_3,,success
Status,390,11483427807,/g3t1_1,,running
Status,391,11483617818,/g3t1_1,,success
Status,392,11491365592,/g4t1,,fail
Status,393,11516830918,/g3t1_2,,running
Status,394,11516970767,/g3t1_2,,success
Status,395,11532868875,/g3t1_3,,running
Status,396,11532900446,/g3t1_3,,success
Status,397,11533513306,/g3t1_1,,running
Status,398,11533791499,/g3t1_1,,success
Status,399,11567007556,/g3t1_2,,running
Status,400,11567050252,/g3t1_2,,success
Status,401,11582878782,/g3t1_3,,running
Status,402,11582909446,/g3t1_3,,success
Status,403,11583634027,/g3t1_1,,running
Status,404,11583802665,/g3t1_1,,success
Status,405,11591469558,/g4t1,,fail
Status,406,11616957548,/g3t1_2,,running
Status,407,11616996992,/g3t1_2,,success
Status,408,11632994830,/g3t1_3,,running
Status,409,11633022594,/g3t1_3,,success
Status,410,11633621439,/g3t1_1,,running
Status,411,11634006456,/g3t1_1,,success
Status,415,11667020615,/g3t1_2,,running
Status,416,11667167614,/g3t1_2,,success
Status,417,11683157567,/g3t1_3,,running
Status,418,11683187428,/g3t1_3,,success
Status,419,11683835599,/g3t1_1,,running
Status,420,11683864700,/g3t1_1,,fail
Status,421,11691521582,/g4t1,,fail
Status,422,11717068306,/g3t1_2,,running
Status,423,11717105878,/g3t1_2,,success
Status,424,11733223365,/g3t1_3,,running
Status,425,11733255179,/g3t1_3,,success
Status,426,11733795163,/g3t1_1,,running
Status,427,11734008110,/g3t1_1,,success
Status,428,11767156809,/g3t1_2,,running
Status,429,11767286284,/g3t1_2,,success
Status,430,11783289034,/g3t1_3,,running
Status,431,11783328466,/g3t1_3,,success
Status,432,11783901321,/g3t1_1,,running
Status,433,11784049822,/g3t1_1,,success
Status,434,11791608087,/g4t1,,fail
Status,435,11817262388,/g3t1_2,,running
Status,436,11817302188,/g3t1_2,,success
Status,437,11833299120,/g3t1_3,,running
Status,438,11833327816,/g3t1_3,,success
Status,439,11833966824,/g3t1_1,,running
Status,440,11834127539,/g3t1_1,,success
Status,444,11867290038,/g3t1_2,,running
Status,445,11867322966,/g3t1_2,,success
Status,446,11883550799,/g3t1_3,,running
Status,447,11883658169,/g3t1_3,,success
Status,448,11884226458,/g3t1_1,,running
Status,449,11884262096,/g3t1_1,,success
Status,450,11892225551,/g4t1,,fail
Status,451,11917333186,/g3t1_2,,running
Status,452,11917481842,/g3t1_2,,success
Status,453,11933535999,/g3t1_3,,running
Status,454,11933568870,/g3t1_3,,success
Status,455,11934248512,/g3t1_1,,running
Status,456,11934272212,/g3t1_1,,success
Status,457,11967496264,/g3t1_2,,running
Status,458,11967560709,/g3t1_2,,success
Status,459,11983567887,/g3t1_3,,running
Status,460,11983685416,/g3t1_3,,success
Status,461,11984165515,/g3t1_1,,running
Status,462,11984325867,/g3t1_1,,success
Status,463,11991976297,/g4t1,,fail
Status,464,12017461455,/g3t1_2,,running
Status,465,12017629471,/g3t1_2,,success
Status,466,12033729824,/g3t1_3,,running
Status,467,12033766450,/g3t1_3,,success
Status,468,12034199409,/g3t1_1,,running
Status,469,12034471863,/g3t1_1,,success
Status,473,12067860097,/g3t1_2,,running
Status,474,12067897182,/g3t1_2,,success
Status,475,12083888515,/g3t1_3,,running
Status,476,12083940733,/g3t1_3,,success
Status,477,12084487924,/g3t1_1,,running
Status,478,12085098728,/g3t1_1,,success
Status,479,12092080017,/g4t1,,fail
Status,480,12117606904,/g3t1_2,,running
Status,481,12117759267,/g3t1_2,,success
Status,482,12134085249,/g3t1_3,,running
Status,483,12134116549,/g3t1_3,,success
Status,484,12134395113,/g3t1_1,,running
Status,485,12134745593,/g3t1_1,,success
Status,486,12167750245,/g3t1_2,,running
Status,487,12167780245,/g3t1_2,,success
Status,488,12184069263,/g3t1_3,,running
Status,489,12184105491,/g3t1_3,,success
Status,490,12184459768,/g3t1_1,,running
Status,491,12184601740,/g3t1_1,,success
Status,492,12192077211,/g4t1,,fail
Status,493,12217834354,/g3t1_2,,running
Status,494,12217866745,/g3t1_2,,success
Status,495,12234213257,/g3t1_3,,running
Status,496,12234248509,/g3t1_3,,success
Status,497,12234505383,/g3t1_1,,running
Status,498,12234768840,/g3t1_1,,success
Status,502,12267887210,/g3t1_2,,running
Status,503,12268068875,/g3t1_2,,success
Status,504,12284336842,/g3t1_3,,running
Status,505,12284365279,/g3t1_3,,success
Status,506,12284691381,/g3t1_1,,running
Status,507,12284871587,/g3t1_1,,success
Status,508,12292073803,/g4t1,,fail
Status,509,12318039477,/g3t1_2,,running
Status,510,12318078520,/g3t1_2,,success
Status,511,12334395680,/g3t1_3,,running
Status,512,12334433756,/g3t1_3,,success
Status,513,12334684598,/g3t1_1,,running
Status,514,12334811886,/g3t1_1,,success
Status,515,12367939040,/g3t1_2,,running
Status,516,12368054922,/g3t1_2,,success
Status,517,12384400224,/g3t1_3,,running
Status,518,12384655749,/g3t1_3,,success
Status,519,12384935252,/g3t1_1,,running
Status,520,12384959266,/g3t1_1,,success
Status,521,12392404930,/g4t1,,fail
Status,522,12418048554,/g3t1_2,,running
Status,523,12418153084,/g3t1_2,,success
Status,524,12435100785,/g3t1_3,,running
Status,525,12435389330,/g3t1_1,,running
Status,526,12435421313,/g3t1_3,,success
Status,527,12435483738,/g3t1_1,,success
Status,531,12468201740,/g3t1_2,,running
Status,532,12468330575,/g3t1_2,,success
Status,533,12484613678,/g3t1_3,,running
Status,534,12484812378,/g3t1_3,,success
Status,535,12485150749,/g3t1_1,,running
Status,536,12485177928,/g3t1_1,,success
Status,537,12492947568,/g4t1,,fail
Status,538,12518298873,/g3t1_2,,running
Status,539,12518354544,/g3t1_2,,success
Status,540,12534736674,/g3t1_3,,running
Status,541,12534796215,/g3t1_3,,success
Status,542,12535223252,/g3t1_1,,running
Status,543,12535248436,/g3t1_1,,fail
Status,544,12568201024,/g3t1_2,,running
Status,545,12568315792,/g3t1_2,,success
Status,546,12584714014,/g3t1_3,,running
Status,547,12584892653,/g3t1_3,,success
Status,548,12585035474,/g3t1_1,,running
Status,549,12585283307,/g3t1_1,,success
Status,550,12592844394,/g4t1,,fail
Status,551,12618373838,/g3t1_2,,running
Status,552,12618529313,/g3t1_2,,success
Status,553,12634870652,/g3t1_3,,running
Status,554,12634903788,/g3t1_3,,success
Status,555,12635317363,/g3t1_1,,running
Status,557,12635683937,/g3t1_1,,success
Status,560,12668436952,/g3t1_2,,running
Status,561,12668469767,/g3t1_2,,success
Status,562,12685020314,/g3t1_3,,running
Status,563,12685055450,/g3t1_3,,success
Status,564,12685469249,/g3t1_1,,running
Status,565,12685497313,/g3t1_1,,success
Status,566,12692820905,/g4t1,,fail
Status,567,12718951932,/g3t1_2,,running
Status,568,12719019967,/g3t1_2,,success
Status,569,12734988925,/g3t1_3,,running
Status,570,12735076127,/g3t1_3,,success
Status,571,12735392685,/g3t1_1,,running
Status,572,12735538067,/g3t1_1,,fail
Status,573,12768724546,/g3t1_2,,running
Status,574,12768913709,/g3t1_2,,success
Status,575,12785079252,/g3t1_3,,running
Status,576,12785202830,/g3t1_3,,success
Status,577,12785462344,/g3t1_1,,running
Status,578,12785634035,/g3t1_1,,success
Status,579,12792610749,/g4t1,,fail
Status,580,12818626838,/g3t1_2,,running
Status,581,12818720800,/g3t1_2,,success
Status,582,12835250011,/g3t1_3,,running
Status,583,12835314427,/g3t1_3,,success
Status,584,12835532200,/g3t1_1,,running
Status,585,12835697644,/g3t1_1,,success
Status,589,12868782215,/g3t1_2,,running
Status,590,12868813975,/g3t1_2,,success
Status,591,12885368279,/g3t1_3,,running
Status,592,12885407771,/g3t1_3,,success
Status,593,12885752666,/g3t1_1,,running
Status,594,12885972091,/g3t1_1,,success
Status,595,12892592994,/g4t1,,fail
Status,596,12918817010,/g3t1_2,,running
Status,597,12918981536,/g3t1_2,,success
Status,598,12935328248,/g3t1_3,,running
Status,599,12935648347,/g3t1_3,,success
Status,600,12935674167,/g3t1_1,,running
Status,601,12935831348,/g3t1_1,,success
Status,602,12968941808,/g3t1_2,,running
Status,603,12969038441,/g3t1_2,,success
Status,604,12985451552,/g3t1_3,,running
Status,605,12985683395,/g3t1_3,,success
Status,606,12985850886,/g3t1_1,,running
Status,607,12986125558,/g3t1_1,,success
Status,608,12993084624,/g4t1,,fail
Status,609,13018949202,/g3t1_2,,running
Status,610,13019102971,/g3t1_2,,success
Status,611,13035908464,/g3t1_3,,running
Status,612,13035939689,/g3t1_3,,success
Status,613,13035954102,/g3t1_1,,running
Status,614,13036006886,/g3t1_1,,success
Status,618,13069194295,/g3t1_2,,running
Status,619,13069222440,/g3t1_2,,success
Status,620,13085807035,/g3t1_3,,running
Status,621,13085933079,/g3t1_3,,success
Status,622,13085958978,/g3t1_1,,running
Status,623,13086150003,/g3t1_1,,success
Status,624,13093116326,/g4t1,,fail
Status,625,13119224430,/g3t1_2,,running
Status,626,13119251707,/g3t1_2,,success
Status,627,13135911171,/g3t1_3,,running
Status,628,13135948036,/g3t1_3,,success
Status,629,13135979713,/g3t1_1,,running
Status,630,13136128351,/g3t1_1,,fail
Status,631,13169167142,/g3t1_2,,running
Status,632,13169264023,/g3t1_2,,success
Status,633,13186120885,/g3t1_3,,running
Status,634,13186156445,/g3t1_1,,running
Status,635,13186181394,/g3t1_3,,success
Status,636,13186328289,/g3t1_1,,success
Status,637,13193270404,/g4t1,,fail
Status,638,13219370660,/g3t1_2,,running
Status,639,13219398495,/g3t1_2,,success
Status,643,13236199234,/g3t1_3,,running
Status,644,13236218689,/g3t1_3,,success
Status,645,13236621729,/g3t1_1,,running
Status,646,13236649480,/g3t1_1,,success
Status,647,13269352232,/g3t1_2,,running
Status,648,13269378625,/g3t1_2,,success
Status,649,13286042636,/g3t1_3,,running
Status,650,13286183271,/g3t1_3,,success
Status,651,13286273698,/g3t1_1,,running
Status,652,13286418772,/g3t1_1,,fail
Status,653,13293208365,/g4t1,,fail
Status,654,13319447035,/g3t1_2,,running
Status,655,13319472454,/g3t1_2,,success
Status,656,13336154240,/g3t1_3,,running
Status,657,13336505204,/g3t1_3,,success
Status,658,13336555828,/g3t1_1,,running
Status,659,13336684156,/g3t1_1,,success
Status,660,13369527025,/g3t1_2,,running
Status,661,13369551640,/g3t1_2,,success
Status,662,13386402609,/g3t1_3,,running
Status,663,13386447728,/g3t1_3,,success
Status,664,13386781591,/g3t1_1,,running
Status,665,13386813007,/g3t1_1,,success
Status,666,13393897402,/g4t1,,fail
Status,667,13419553509,/g3t1_2,,running
Status,668,13419585732,/g3t1_2,,success
Status,672,13437252039,/g3t1_3,,running
Status,673,13437287348,/g3t1_3,,success
Status,674,13437332815,/g3t1_1,,running
Status,675,13437388620,/g3t1_1,,success
Status,676,13469618504,/g3t1_2,,running
Status,677,13469782000,/g3t1_2,,success
Status,678,13487371529,/g3t1_3,,running
Status,679,13487420674,/g3t1_3,,success
Status,680,13487547154,/g3t1_1,,running
Status,681,13487776309,/g3t1_1,,success
Status,682,13493359060,/g4t1,,fail
Status,683,13519735192,/g3t1_2,,running
Status,684,13520241245,/g3t1_2,,success
Status,685,13536920484,/g3t1_3,,running
Status,686,13537383050,/g3t1_3,,success
Status,687,13537410334,/g3t1_1,,running
Status,688,13537464417,/g3t1_1,,success
Status,689,13570042757,/g3t1_2,,running
Status,690,13570073259,/g3t1_2,,success
Status,691,13587082991,/g3t1_3,,running
Status,692,13587261161,/g3t1_3,,success
Status,693,13587323211,/g3t1_1,,running
Status,694,13588423187,/g3t1_1,,success
Status,695,13593510254,/g4t1,,fail
Status,696,13619856334,/g3t1_2,,running
Status,697,13620114020,/g3t1_2,,success
Status,701,13637135477,/g3t1_3,,running
Status,702,13637253442,/g3t1_3,,success
Status,703,13637498970,/g3t1_1,,running
Status,704,13637926326,/g3t1_1,,fail
Status,705,13670043660,/g3t1_2,,running
Status,706,13670080113,/g3t1_2,,success
Status,707,13686951409,/g3t1_3,,running
Status,708,13686997797,/g3t1_3,,success
Status,709,13687495834,/g3t1_1,,running
Status,710,13687893684,/g3t1_1,,success
Status,711,13693484977,/g4t1,,fail
Status,712,13720156787,/g3t1_2,,running
Status,713,13720193116,/g3t1_2,,success
Status,714,13737660301,/g3t1_3,,running
Status,715,13737758624,/g3t1_3,,success
Status,716,13737782858,/g3t1_1,,running
Status,717,13738174634,/g3t1_1,,fail
Status,718,13770130721,/g3t1_2,,running
Status,719,13770160426,/g3t1_2,,success
Status,720,13787151455,/g3t1_3,,running
Status,721,13787190277,/g3t1_3,,success
Status,722,13787685693,/g3t1_1,,running
Status,723,13787779365,/g3t1_1,,success
Status,724,13793916388,/g4t1,,fail
Status,725,13820283176,/g3t1_2,,running
Status,726,13820345488,/g3t1_2,,success
Status,730,13837639574,/g3t1_3,,running
Status,731,13837678587,/g3t1_3,,success
Status,732,13837764643,/g3t1_1,,running
Status,733,13838037134,/g3t1_1,,success
Status,734,13870390151,/g3t1_2,,running
Status,735,13870562338,/g3t1_2,,success
Status,736,13887606636,/g3t1_3,,running
Status,737,13888103320,/g3t1_3,,success
Status,738,13888172834,/g3t1_1,,running
Status,739,13888508029,/g3t1_1,,success
Status,740,13893982083,/g4t1,,fail
Status,741,13920545184,/g3t1_2,,running
Status,742,13920737971,/g3t1_2,,success
Status,743,13937816047,/g3t1_3,,running
Status,744,13938486498,/g3t1_3,,success
Status,745,13938546795,/g3t1_1,,running
Status,746,13938671150,/g3t1_1,,fail
Status,747,13970516843,/g3t1_2,,running
Status,748,13970704619,/g3t1_2,,success
Status,749,13987597621,/g3t1_3,,running
Status,750,13987629957,/g3t1_3,,success
Status,751,13988165598,/g3t1_1,,running
Status,752,13988527835,/g3t1_1,,success
Status,753,13994586298,/g4t1,,fail
Status,754,14020743527,/g3t1_2,,running
Status,755,14020793158,/g3t1_2,,success
Status,759,14037495682,/g3t1_3,,running
Status,760,14037695589,/g3t1_3,,success
Status,761,14038158979,/g3t1_1,,running
Status,762,14038404727,/g3t1_1,,success
Status,763,14071037797,/g3t1_2,,running
Status,764,14071074781,/g3t1_2,,success
Status,765,14087729998,/g3t1_3,,running
Status,766,14087763075,/g3t1_3,,success
Status,767,14088275197,/g3t1_1,,running
Status,768,14088600065,/g3t1_1,,success
Status,769,14093947133,/g4t1,,fail
Status,770,14121540730,/g3t1_2,,running
Status,771,14121630848,/g3t1_2,,success
Status,772,14137806954,/g3t1_3,,running
Status,773,14138731800,/g3t1_3,,success
Status,774,14138763810,/g3t1_1,,running
Status,775,14138886641,/g3t1_1,,success
Status,776,14170983887,/g3t1_2,,running
Status,777,14171112629,/g3t1_2,,success
Status,778,14187880936,/g3t1_3,,running
Status,779,14188067762,/g3t1_3,,success
Status,780,14188530498,/g3t1_1,,running
Status,781,14188604134,/g3t1_1,,success
Status,782,14193964628,/g4t1,,fail
Status,783,14221088345,/g3t1_2,,running
Status,784,14221300128,/g3t1_2,,success
Status,788,14237871626,/g3t1_3,,running
Status,789,14238033784,/g3t1_3,,success
Status,790,14238540046,/g3t1_1,,running
Status,791,14238695325,/g3t1_1,,success
Status,792,14271171717,/g3t1_2,,running
Status,793,14271593537,/g3t1_2,,success
Status,794,14288050946,/g3t1_3,,running
Status,795,14288234842,/g3t1_3,,success
Status,796,14288648188,/g3t1_1,,running
Status,797,14288816779,/g3t1_1,,success
Status,798,14294157966,/g4t1,,fail
Status,799,14321245818,/g3t1_2,,running
Status,800,14321539118,/g3t1_2,,success
Status,801,14338251331,/g3t1_3,,running
Status,802,14338431155,/g3t1_3,,success
Status,803,14338930546,/g3t1_1,,running
Status,804,14339095171,/g3t1_1,,success
Status,805,14371513810,/g3t1_2,,running
Status,806,14371550792,/g3t1_2,,success
Status,807,14388862608,/g3t1_3,,running
Status,808,14388908790,/g3t1_3,,success
Status,809,14388928033,/g3t1_1,,running
Status,810,14389040939,/g3t1_1,,success
Status,811,14394365845,/g4t1,,fail
Status,812,14421693876,/g3t1_2,,running
Status,813,14421726349,/g3t1_2,,success
Status,817,14438509410,/g3t1_3,,running
Status,818,14438825460,/g3t1_3,,success
Status,819,14438858523,/g3t1_1,,running
Status,820,14439295523,/g3t1_1,,success
Status,821,14471587979,/g3t1_2,,running
Status,822,14471866917,/g3t1_2,,success
Status,823,14488596642,/g3t1_3,,running
Status,824,14488645671,/g3t1_3,,success
Status,825,14488993000,/g3t1_1,,running
Status,826,14489031110,/g3t1_1,,fail
Status,827,14494278306,/g4t1,,fail
Status,828,14521864218,/g3t1_2,,running
Status,829,14522268382,/g3t1_2,,success
Status,830,14538587306,/g3t1_3,,running
Status,831,14538626216,/g3t1_3,,success
Status,832,14539095970,/g3t1_1,,running
Status,833,14539135783,/g3t1_1,,success
Status,834,14571979813,/g3t1_2,,running
Status,835,14572164599,/g3t1_2,,success
Status,836,14588909440,/g3t1_3,,running
Status,837,14588960373,/g3t1_3,,success
Status,838,14589394995,/g3t1_1,,running
Status,839,14589442619,/g3t1_1,,fail
Status,840,14595031628,/g4t1,,fail
Status,841,14622513706,/g3t1_2,,running
Status,842,14623279862,/g3t1_2,,success
Status,846,14639165474,/g3t1_3,,running
Status,847,14639205135,/g3t1_3,,success
Status,848,14639251818,/g3t1_1,,running
Status,849,14639402261,/g3t1_1,,fail
Status,850,14672840208,/g3t1_2,,running
Status,851,14673096226,/g3t1_2,,success
Status,852,14688813144,/g3t1_3,,running
Status,853,14688965063,/g3t1_3,,success
Status,854,14689427887,/g3t1_1,,running
Status,855,14689685446,/g3t1_1,,success
Status,856,14695026839,/g4t1,,fail
Status,857,14722382310,/g3t1_2,,running
Status,858,14722423101,/g3t1_2,,success
Status,859,14738978648,/g3t1_3,,running
Status,860,14739043355,/g3t1_3,,success
Status,861,14739250457,/g3t1_1,,running
Status,862,14739626922,/g3t1_1,,success
Status,863,14773342030,/g3t1_2,,running
Status,864,14775290891,/g3t1_2,,success
Status,865,14789139930,/g3t1_3,,running
Status,866,14789195184,/g3t1_3,,success
Status,867,14789411042,/g3t1_1,,running
Status,868,14789787585,/g3t1_1,,success
Status,869,14794468933,/g4t1,,fail
Status,870,14822514139,/g3t1_2,,running
Status,871,14822784507,/g3t1_2,,success
Status,875,14839148814,/g3t1_3,,running
Status,876,14839362706,/g3t1_3,,success
Status,877,14839749423,/g3t1_1,,running
Status,878,14839791474,/g3t1_1,,success
Status,879,14872708479,/g3t1_2,,running
Status,880,14872957250,/g3t1_2,,success
Status,881,14889274276,/g3t1_3,,running
Status,882,14889819278,/g3t1_3,,success
Status,883,14889886844,/g3t1_1,,running
Status,884,14889910719,/g3t1_1,,success
Status,885,14894533254,/g4t1,,fail
Status,886,14922878224,/g3t1_2,,running
Status,887,14922988866,/g3t1_2,,success
Status,888,14939611640,/g3t1_3,,running
Status,889,14939904308,/g3t1_3,,success
Status,890,14939937692,/g3t1_1,,running
Status,891,14940187070,/g3t1_1,,success
Status,892,14972977127,/g3t1_2,,running
Status,893,14973026636,/g3t1_2,,success
Status,894,14989468430,/g3t1_3,,running
Status,895,14989732677,/g3t1_3,,success
Status,896,14989775956,/g3t1_1,,running
Status,897,14990372144,/g3t1_1,,success
Status,898,14994650789,/g4t1,,fail
Status,899,15022943637,/g3t1_2,,running
Status,900,15023103115,/g3t1_2,,success
Status,904,15041061850,/g3t1_3,,running
Status,905,15041128873,/g3t1_3,,success
Status,906,15041189792,/g3t1_1,,running
Status,907,15041205392,/g3t1_1,,success
Status,908,15073163900,/g3t1_2,,running
Status,909,15073690303,/g3t1_2,,success
Status,910,15090087809,/g3t1_3,,running
Status,911,15090879442,/g3t1_3,,success
Status,912,15090938816,/g3t1_1,,running
Status,913,15091057971,/g3t1_1,,success
Status,914,15094963399,/g4t1,,fail
Status,915,15123671957,/g3t1_2,,running
Status,916,15123960146,/g3t1_2,,success
Status,917,15139592481,/g3t1_3,,running
Status,918,15139842810,/g3t1_3,,success
Status,919,15140372977,/g3t1_1,,running
Status,920,15140583746,/g3t1_1,,fail
Status,921,15173718685,/g3t1_2,,running
Status,922,15173945583,/g3t1_2,,success
Status,923,15189774302,/g3t1_3,,running
Status,924,15189994184,/g3t1_3,,success
Status,925,15190768337,/g3t1_1,,running
Status,926,15190819909,/g3t1_1,,success
Status,927,15195172058,/g4t1,,fail
Status,928,15224086295,/g3t1_2,,running
Status,929,15224140008,/g3t1_2,,success
Status,933,15240852107,/g3t1_3,,running
Status,934,15240917910,/g3t1_3,,success
Status,935,15241951511,/g3t1_1,,running
Status,936,15242005478,/g3t1_1,,fail
Status,937,15273683523,/g3t1_2,,running
Status,938,15274263853,/g3t1_2,,success
Status,939,15290137087,/g3t1_3,,running
Status,940,15290781692,/g3t1_3,,success
Status,941,15291165119,/g3t1_1,,running
Status,942,15292107043,/g3t1_1,,success
Status,943,15295414692,/g4t1,,fail
Status,944,15324164496,/g3t1_2,,running
Status,945,15324222529,/g3t1_2,,success
Status,946,15340445847,/g3t1_3,,running
Status,947,15340527892,/g3t1_3,,success
Status,948,15341647394,/g3t1_1,,running
Status,949,15342440024,/g3t1_1,,success
Status,950,15373982247,/g3t1_2,,running
Status,951,15374028858,/g3t1_2,,success
Status,952,15390122874,/g3t1_3,,running
Status,953,15390335001,/g3t1_3,,success
Status,954,15390951456,/g3t1_1,,running
Status,955,15391132297,/g3t1_1,,success
Status,956,15395112284,/g4t1,,fail
Status,957,15426379625,/g3t1_2,,running
Status,958,15426463231,/g3t1_2,,success
Status,962,15440289541,/g3t1_3,,running
Status,963,15440474590,/g3t1_3,,success
Status,964,15441191749,/g3t1_1,,running
Status,965,15441755834,/g3t1_1,,success
Status,966,15474244784,/g3t1_2,,running
Status,967,15474520880,/g3t1_2,,success
Status,968,15490359103,/g3t1_3,,running
Status,969,15491299884,/g3t1_3,,success
Status,970,15491353209,/g3t1_1,,running
Status,971,15491634608,/g3t1_1,,success
Status,972,15495294140,/g4t1,,fail
Status,973,15524114259,/g3t1_2,,running
Status,974,15524377769,/g3t1_2,,success
Status,975,15540926267,/g3t1_3,,running
Status,976,15541974710,/g3t1_1,,running
Status,977,15542234557,/g3t1_1,,success
Status,978,15542284221,/g3t1_3,,success
Status,979,15574408553,/g3t1_2,,running
Status,980,15574510409,/g3t1_2,,success
Status,981,15590531530,/g3t1_3,,running
Status,982,15591400802,/g3t1_3,,success
Status,983,15591457067,/g3t1_1,,running
Status,984,15591702584,/g3t1_1,,success
Status,985,15595323093,/g4t1,,fail
Status,986,15624483672,/g3t1_2,,running
Status,987,15624858334,/g3t1_2,,success
Status,991,15640815402,/g3t1_3,,running
Status,992,15640873058,/g3t1_3,,success
Status,993,15641877374,/g3t1_1,,running
Status,994,15642211039,/g3t1_1,,success
Status,995,15674925037,/g3t1_2,,running
Status,996,15674980476,/g3t1_2,,success
Status,997,15690714600,/g3t1_3,,running
Status,998,15691669922,/g3t1_3,,success
Status,999,15691940837,/g3t1_1,,running
Status,1000,15691991090,/g3t1_1,,success
Status,1001,15695511766,/g4t1,,fail
Status,1002,15724599309,/g3t1_2,,running
Status,1003,15724677511,/g3t1_2,,success
Status,1004,15741043190,/g3t1_3,,running
Status,1005,15741391897,/g3t1_3,,success
Status,1006,15742550475,/g3t1_1,,running
Status,1007,15742597156,/g3t1_1,,success
Status,1008,15774583754,/g3t1_2,,running
Status,1009,15775131219,/g3t1_2,,success
Status,1010,15791611599,/g3t1_3,,running
Status,1011,15793085935,/g3t1_3,,success
Status,1012,15793200052,/g3t1_1,,running
Status,1013,15793232553,/g3t1_1,,fail
Status,1014,15795734033,/g4t1,,fail
Status,1015,15824760393,/g3t1_2,,running
Status,1016,15824818729,/g3t1_2,,success
Status,1020,15841031582,/g3t1_3,,running
Status,1021,15841095912,/g3t1_3,,success
Status,1022,15842379171,/g3t1_1,,running
Status,1023,15842582103,/g3t1_1,,success
Status,1024,15875313923,/g3t1_2,,running
Status,1025,15876179216,/g3t1_2,,success
Status,1026,15891112242,/g3t1_3,,running
Status,1027,15891553323,/g3t1_3,,success
Status,1028,15892151256,/g3t1_1,,running
Status,1029,15892672401,/g3t1_1,,success
Status,1030,15895733217,/g4t1,,fail
Status,1031,15925249880,/g3t1_2,,running
Status,1032,15925306450,/g3t1_2,,success
Status,1033,15941281614,/g3t1_3,,running
Status,1034,15941396750,/g3t1_3,,success
Status,1035,15942264801,/g3t1_1,,running
Status,1036,15942317946,/g3t1_1,,success
Status,1037,15975124786,/g3t1_2,,running
Status,1038,15975178454,/g3t1_2,,success
Status,1039,15992004532,/g3t1_3,,running
Status,1040,15992527684,/g3t1_3,,success
Status,1041,15993084741,/g3t1_1,,running
Status,1042,15994088015,/g3t1_1,,success
Status,1043,15996113128,/g4t1,,fail
Status,1044,16025111520,/g3t1_2,,running
Status,1045,16025405640,/g3t1_2,,success
Status,1049,16041866104,/g3t1_3,,running
Status,1050,16041934855,/g3t1_3,,success
Status,1051,16042446544,/g3t1_1,,running
Status,1052,16043064470,/g3t1_1,,success
Status,1053,16075847403,/g3t1_2,,running
Status,1054,16076360387,/g3t1_2,,success
Status,1055,16091807118,/g3t1_3,,running
Status,1056,16091876844,/g3t1_3,,success
Status,1057,16092746008,/g3t1_1,,running
Status,1058,16092807374,/g3t1_1,,fail
Status,1059,16096487528,/g4t1,,fail
Status,1060,16125902205,/g3t1_2,,running
Status,1061,16126285478,/g3t1_2,,success
Status,1062,16141732243,/g3t1_3,,running
Status,1063,16141904437,/g3t1_3,,success
Status,1064,16142507767,/g3t1_1,,running
Status,1065,16142805281,/g3t1_1,,fail
Status,1066,16175768174,/g3t1_2,,running
Status,1067,16176044458,/g3t1_2,,success
Status,1068,16191745263,/g3t1_3,,running
Status,1069,16192161528,/g3t1_3,,success
Status,1070,16192643375,/g3t1_1,,running
Status,1071,16192768341,/g3t1_1,,fail
Status,1072,16195849304,/g4t1,,fail
Status,1073,16226004075,/g3t1_2,,running
Status,1074,16226073199,/g3t1_2,,success
Status,1078,16242430226,/g3t1_3,,running
Status,1079,16242509756,/g3t1_3,,success
Status,1080,16243046967,/g3t1_1,,running
Status,1081,16243114706,/g3t1_1,,success
Status,1082,16275905861,/g3t1_2,,running
Status,1083,16275959790,/g3t1_2,,success
Status,1084,16292674437,/g3t1_3,,running
Status,1085,16293260720,/g3t1_1,,running
Status,1086,16293316405,/g3t1_3,,success
Status,1087,16293354927,/g3t1_1,,success
Status,1088,16296430403,/g4t1,,fail
Status,1089,16326731024,/g3t1_2,,running
Status,1090,16326880308,/g3t1_2,,success
Status,1091,16342269052,/g3t1_3,,running
Status,1092,16342431495,/g3t1_3,,success
Status,1093,16343069668,/g3t1_1,,running
Status,1094,16343114712,/g3t1_1,,success
Status,1095,16376285277,/g3t1_2,,running
Status,1096,16377751214,/g3t1_2,,success
Status,1097,16392400987,/g3t1_3,,running
Status,1098,16392456268,/g3t1_3,,success
Status,1099,16392934278,/g3t1_1,,running
Status,1100,16393660784,/g3t1_1,,success
Status,1101,16396597729,/g4t1,,fail
Status,1102,16426587493,/g3t1_2,,running
Status,1103,16427305577,/g3t1_2,,success
Status,1107,16442485578,/g3t1_3,,running
Status,1108,16442542457,/g3t1_3,,success
Status,1109,16443390729,/g3t1_1,,running
Status,1110,16443429530,/g3t1_1,,success
Status,1111,16476398617,/g3t1_2,,running
Status,1112,16476554573,/g3t1_2,,success
Status,1113,16492501549,/g3t1_3,,running
Status,1114,16492554722,/g3t1_3,,success
Status,1115,16492942001,/g3t1_1,,running
Status,1116,16493853927,/g3t1_1,,success
Status,1117,16496192387,/g4t1,,fail
Status,1118,16526307677,/g3t1_2,,running
Status,1119,16526492371,/g3t1_2,,success
Status,1120,16542541077,/g3t1_3,,running
Status,1121,16542720475,/g3t1_3,,success
Status,1122,16543303264,/g3t1_1,,running
Status,1123,16543349808,/g3t1_1,,fail
Status,1124,16576544076,/g3t1_2,,running
Status,1125,16576854911,/g3t1_2,,success
Status,1126,16592802263,/g3t1_3,,running
Status,1127,16592873234,/g3t1_3,,success
Status,1128,16593464404,/g3t1_1,,running
Status,1129,16593812061,/g3t1_1,,success
Status,1130,16596151568,/g4t1,,fail
Status,1131,16627264022,/g3t1_2,,running
Status,1132,16627341137,/g3t1_2,,success
Status,1136,16643599520,/g3t1_3,,running
Status,1137,16643725601,/g3t1_3,,success
Status,1138,16643752738,/g3t1_1,,running
Status,1139,16644096845,/g3t1_1,,success
Status,1140,16676894399,/g3t1_2,,running
Status,1141,16677163535,/g3t1_2,,success
Status,1142,16693040922,/g3t1_3,,running
Status,1143,16693110927,/g3t1_3,,success
Status,1144,16693477686,/g3t1_1,,running
Status,1145,16693952451,/g3t1_1,,success
Status,1146,16696046737,/g4t1,,fail
Status,1147,16727128964,/g3t1_2,,running
Status,1148,16727188071,/g3t1_2,,success
Status,1149,16743121166,/g3t1_3,,running
Status,1150,16743187862,/g3t1_3,,success
Status,1151,16743511490,/g3t1_1,,running
Status,1152,16743986997,/g3t1_1,,success
Status,1153,16776844707,/g3t1_2,,running
Status,1154,16777149514,/g3t1_2,,success
Status,1155,16792988878,/g3t1_3,,running
Status,1156,16793176763,/g3t1_3,,success
Status,1157,16793500899,/g3t1_1,,running
Status,1158,16794094504,/g3t1_1,,success
Status,1159,16796426304,/g4t1,,fail
Status,1160,16827526307,/g3t1_2,,running
Status,1161,16827596695,/g3t1_2,,success
Status,1165,16842841540,/g3t1_3,,running
Status,1166,16843178050,/g3t1_3,,success
Status,1167,16843510354,/g3t1_1,,running
Status,1168,16843749571,/g3t1_1,,success
Status,1169,16877133679,/g3t1_2,,running
Status,1170,16877339199,/g3t1_2,,success
Status,1171,16893965954,/g3t1_3,,running
Status,1172,16894024832,/g3t1_3,,success
Status,1173,16894094507,/g3t1_1,,running
Status,1174,16894346726,/g3t1_1,,fail
Status,1175,16896751236,/g4t1,,fail
Status,1176,16927463031,/g3t1_2,,running
Status,1177,16927663136,/g3t1_2,,success
Status,1178,16943220872,/g3t1_3,,running
Status,1179,16943725528,/g3t1_3,,success
Status,1180,16943756923,/g3t1_1,,running
Status,1181,16944246709,/g3t1_1,,success
Status,1182,16977176868,/g3t1_2,,running
Status,1183,16977367755,/g3t1_2,,success
Status,1184,16993856863,/g3t1_3,,running
Status,1185,16994792579,/g3t1_3,,success
Status,1186,16994862379,/g3t1_1,,running
Status,1187,16994909541,/g3t1_1,,success
Status,1188,16996770896,/g4t1,,fail
Status,1189,17027758359,/g3t1_2,,running
Status,1190,17027809845,/g3t1_2,,success
Status,1194,17043410017,/g3t1_3,,running
Status,1195,17043860935,/g3t1_3,,success
Status,1196,17043915447,/g3t1_1,,running
Status,1197,17044056206,/g3t1_1,,fail
Status,1198,17077514807,/g3t1_2,,running
Status,1199,17077776827,/g3t1_2,,success
Status,1200,17093753066,/g3t1_3,,running
Status,1201,17093805012,/g3t1_3,,success
Status,1202,17094291895,/g3t1_1,,running
Status,1203,17094320374,/g3t1_1,,success
Status,1204,17096646993,/g4t1,,fail
Status,1205,17127665192,/g3t1_2,,running
Status,1206,17127859781,/g3t1_2,,success
Status,1207,17143715813,/g3t1_3,,running
Status,1208,17144210014,/g3t1_3,,success
Status,1209,17144240425,/g3t1_1,,running
Status,1210,17144368193,/g3t1_1,,fail
Status,1211,17177620978,/g3t1_2,,running
Status,1212,17177815043,/g3t1_2,,success
Status,1213,17193767125,/g3t1_3,,running
Status,1214,17193898089,/g3t1_3,,success
Status,1215,17194313474,/g3t1_1,,running
Status,1216,17194551426,/g3t1_1,,success
Status,1217,17196540542,/g4t1,,fail
Status,1218,17227733440,/g3t1_2,,running
Status,1219,17227825292,/g3t1_2,,success
Status,1223,17243927642,/g3t1_3,,running
Status,1224,17244290802,/g3t1_3,,success
Status,1225,17244324660,/g3t1_1,,running
Status,1226,17244706861,/g3t1_1,,success
Status,1227,17277814958,/g3t1_2,,running
Status,1228,17278034828,/g3t1_2,,success
Status,1229,17293989109,/g3t1_3,,running
Status,1230,17294164692,/g3t1_3,,success
Status,1231,17294413179,/g3t1_1,,running
Status,1232,17294520128,/g3t1_1,,fail
Status,1233,17296586929,/g4t1,,fail
Status,1234,17328062494,/g3t1_2,,running
Status,1235,17328095360,/g3t1_2,,success
Status,1236,17344098728,/g3t1_3,,running
Status,1237,17344381382,/g3t1_3,,success
Status,1238,17344420561,/g3t1_1,,running
Status,1239,17344596386,/g3t1_1,,success
Status,1240,17378153086,/g3t1_2,,running
Status,1241,17378186190,/g3t1_2,,success
Status,1242,17394146351,/g3t1_3,,running
Status,1243,17394527725,/g3t1_3,,success
Status,1244,17394561690,/g3t1_1,,running
Status,1245,17394722114,/g3t1_1,,fail
Status,1246,17396531700,/g4t1,,fail
Status,1247,17428041369,/g3t1_2,,running
Status,1248,17428077404,/g3t1_2,,success
Status,1252,17444260572,/g3t1_3,,running
Status,1253,17444582494,/g3t1_3,,success
Status,1254,17444616725,/g3t1_1,,running
Status,1255,17444957462,/g3t1_1,,success
Status,1256,17478307809,/g3t1_2,,running
Status,1257,17478495035,/g3t1_2,,success
Status,1258,17495133276,/g3t1_3,,running
Status,1259,17495191872,/g3t1_3,,success
Status,1260,17495244764,/g3t1_1,,running
Status,1261,17495263520,/g3t1_1,,fail
Status,1262,17497382999,/g4t1,,fail
Status,1263,17528441678,/g3t1_2,,running
Status,1264,17528480313,/g3t1_2,,success
Status,1265,17545124792,/g3t1_3,,running
Status,1266,17545197178,/g3t1_3,,success
Status,1267,17545282533,/g3t1_1,,running
Status,1268,17545814767,/g3t1_1,,success
Status,1269,17578430701,/g3t1_2,,running
Status,1270,17578616335,/g3t1_2,,success
Status,1271,17595057757,/g3t1_3,,running
Status,1272,17595251757,/g3t1_1,,running
Status,1273,17595857125,/g3t1_3,,success
Status,1274,17595937267,/g3t1_1,,success
Status,1275,17597236397,/g4t1,,fail
Status,1276,17628502428,/g3t1_2,,running
Status,1277,17628710228,/g3t1_2,,success
Status,1281,17644618629,/g3t1_3,,running
Status,1282,17645224177,/g3t1_3,,success
Status,1283,17645247675,/g3t1_1,,running
Status,1284,17645292029,/g3t1_1,,success
Status,1285,17678728616,/g3t1_2,,running
Status,1286,17678780514,/g3t1_2,,success
Status,1287,17694895788,/g3t1_3,,running
Status,1288,17694938174,/g3t1_3,,success
Status,1289,17695131288,/g3t1_1,,running
Status,1290,17695329593,/g3t1_1,,success
Status,1291,17696963828,/g4t1,,fail
Status,1292,17728782710,/g3t1_2,,running
Status,1293,17728829873,/g3t1_2,,success
Status,1294,17745106599,/g3t1_3,,running
Status,1295,17745144179,/g3t1_3,,success
Status,1296,17745194128,/g3t1_1,,running
Status,1297,17745697397,/g3t1_1,,success
Status,1298,17778958260,/g3t1_2,,running
Status,1299,17779294565,/g3t1_2,,success
Status,1300,17795099491,/g3t1_3,,running
Status,1301,17795139134,/g3t1_3,,success
Status,1302,17795421592,/g3t1_1,,running
Status,1303,17795460596,/g3t1_1,,fail
Status,1304,17796954103,/g4t1,,fail
Status,1305,17829316694,/g3t1_2,,running
Status,1306,17829365321,/g3t1_2,,success
Status,1310,17845105965,/g3t1_3,,running
Status,1311,17845472026,/g3t1_3,,success
Status,1312,17845503899,/g3t1_1,,running
Status,1313,17845696724,/g3t1_1,,success
Status,1314,17879140548,/g3t1_2,,running
Status,1315,17879362548,/g3t1_2,,success
Status,1316,17895240554,/g3t1_3,,running
Status,1317,17895512179,/g3t1_1,,running
Status,1318,17895582858,/g3t1_3,,success
Status,1319,17895819456,/g3t1_1,,success
Status,1320,17897074159,/g4t1,,fail
Status,1321,17929492146,/g3t1_2,,running
Status,1322,17929815843,/g3t1_2,,success
Status,1323,17945369503,/g3t1_3,,running
Status,1324,17945625193,/g3t1_3,,success
Status,1325,17945655193,/g3t1_1,,running
Status,1326,17945718929,/g3t1_1,,fail
Status,1327,17979108688,/g3t1_2,,running
Status,1328,17979270129,/g3t1_2,,success
Status,1329,17995566004,/g3t1_3,,running
Status,1330,17995642193,/g3t1_1,,running
Status,1331,17995664131,/g3t1_3,,success
Status,1332,17995681460,/g3t1_1,,fail
Status,1333,17997182593,/g4t1,,fail
Status,1334,18029282182,/g3t1_2,,running
Status,1335,18029462179,/g3t1_2,,success
Status,1339,18045731318,/g3t1_3,,running
Status,1340,18045767903,/g3t1_3,,success
Status,1341,18045796879,/g3t1_1,,running
Status,1342,18046097515,/g3t1_1,,success
Status,1343,18079329776,/g3t1_2,,running
Status,1344,18079564769,/g3t1_2,,success
Status,1345,18095915849,/g3t1_3,,running
Status,1346,18095974845,/g3t1_1,,running
Status,1347,18096011156,/g3t1_3,,success
Status,1348,18096026113,/g3t1_1,,fail
Status,1349,18097266942,/g4t1,,fail
Status,1350,18129509579,/g3t1_2,,running
Status,1351,18129639919,/g3t1_2,,success
Status,1352,18145982349,/g3t1_3,,running
Status,1353,18146027081,/g3t1_1,,running
Status,1354,18146131360,/g3t1_3,,success
Status,1355,18146225474,/g3t1_1,,success
Status,1356,18179561170,/g3t1_2,,running
Status,1357,18179772471,/g3t1_2,,success
Status,1358,18195916159,/g3t1_3,,running
Status,1359,18195967366,/g3t1_1,,running
Status,1360,18196016986,/g3t1_3,,success
Status,1361,18196179613,/g3t1_1,,success
Status,1362,18197264920,/g4t1,,fail
Status,1363,18229559463,/g3t1_2,,running
Status,1364,18229756990,/g3t1_2,,success
Status,1368,18246126849,/g3t1_3,,running
Status,1369,18246174630,/g3t1_1,,running
Status,1370,18246212204,/g3t1_3,,success
Status,1371,18246227083,/g3t1_1,,fail
Status,1372,18279766254,/g3t1_2,,running
Status,1373,18279934733,/g3t1_2,,success
Status,1374,18295997895,/g3t1_3,,running
Status,1375,18296047000,/g3t1_3,,success
Status,1376,18296244882,/g3t1_1,,running
Status,1377,18296271701,/g3t1_1,,fail
Status,1378,18297243310,/g4t1,,fail
Status,1379,18330370631,/g3t1_2,,running
Status,1380,18330402552,/g3t1_2,,success
Status,1381,18346109643,/g3t1_3,,running
Status,1382,18346249641,/g3t1_1,,running
Status,1383,18346391833,/g3t1_3,,success
Status,1384,18346431725,/g3t1_1,,success
Status,1385,18379876264,/g3t1_2,,running
Status,1386,18380117832,/g3t1_2,,success
Status,1387,18396467524,/g3t1_3,,running
Status,1388,18396514887,/g3t1_1,,running
Status,1389,18396754744,/g3t1_1,,success
Status,1390,18396788478,/g3t1_3,,success
Status,1391,18397491582,/g4t1,,fail
Status,1392,18430617451,/g3t1_2,,running
Status,1393,18430648838,/g3t1_2,,success
Status,1397,18446441028,/g3t1_3,,running
Status,1398,18446470534,/g3t1_1,,running
Status,1399,18446489463,/g3t1_3,,success
Status,1400,18446686510,/g3t1_1,,success
Status,1401,18480075871,/g3t1_2,,running
Status,1402,18480252884,/g3t1_2,,success
Status,1403,18496523392,/g3t1_3,,running
Status,1404,18496569571,/g3t1_1,,running
Status,1405,18496601072,/g3t1_3,,success
Status,1406,18496613047,/g3t1_1,,success
Status,1407,18497375000,/g4t1,,fail
Status,1408,18530297622,/g3t1_2,,running
Status,1409,18530341099,/g3t1_2,,success
Status,1410,18546696169,/g3t1_3,,running
Status,1411,18546738981,/g3t1_1,,running
Status,1412,18546792575,/g3t1_3,,success
Status,1413,18547101160,/g3t1_1,,success
Status,1414,18580282469,/g3t1_2,,running
Status,1415,18580527065,/g3t1_2,,success
Status,1416,18597463524,/g3t1_3,,running
Status,1417,18597526369,/g3t1_1,,running
Status,1418,18597818243,/g3t1_3,,success
Status,1419,18597881746,/g3t1_1,,success
Status,1420,18598938938,/g4t1,,fail
Status,1421,18630972089,/g3t1_2,,running
Status,1422,18631021614,/g3t1_2,,success
Status,1426,18646861819,/g3t1_3,,running
Status,1427,18646894506,/g3t1_1,,running
Status,1428,18646908245,/g3t1_3,,success
Status,1429,18646961422,/g3t1_1,,success
Status,1430,18680513722,/g3t1_2,,running
Status,1431,18680650477,/g3t1_2,,success
Status,1432,18696859338,/g3t1_3,,running
Status,1433,18696898177,/g3t1_1,,running
Status,1434,18697020449,/g3t1_1,,success
Status,1435,18697234840,/g3t1_3,,success
Status,1436,18697650688,/g4t1,,fail
Status,1437,18730589710,/g3t1_2,,running
Status,1438,18730624271,/g3t1_2,,success
Status,1439,18746975329,/g3t1_3,,running
Status,1440,18747015132,/g3t1_1,,running
Status,1441,18747260802,/g3t1_1,,success
Status,1442,18747298020,/g3t1_3,,success
Status,1443,18780982772,/g3t1_2,,running
Status,1444,18781152502,/g3t1_2,,success
Status,1445,18797220034,/g3t1_3,,running
Status,1446,18797257447,/g3t1_1,,running
Status,1447,18797304128,/g3t1_1,,success
Status,1448,18797317820,/g3t1_3,,success
Status,1449,18797760367,/g4t1,,fail
Status,1450,18830784214,/g3t1_2,,running
Status,1451,18830837621,/g3t1_2,,success
Status,1455,18847460767,/g3t1_3,,running
Status,1456,18847514836,/g3t1_1,,running
Status,1457,18847700368,/g3t1_1,,success
Status,1458,18847738391,/g3t1_3,,success
Status,1459,18880871680,/g3t1_2,,running
Status,1460,18881038945,/g3t1_2,,success
Status,1461,18897212162,/g3t1_3,,running
Status,1462,18897286369,/g3t1_1,,running
Status,1463,18897413118,/g3t1_1,,success
Status,1464,18897470479,/g3t1_3,,success
Status,1465,18897791133,/g4t1,,fail
Status,1466,18930906696,/g3t1_2,,running
Status,1467,18931120619,/g3t1_2,,success
Status,1468,18947575834,/g3t1_3,,running
Status,1469,18947634935,/g3t1_1,,running
Status,1470,18947747385,/g3t1_1,,fail
Status,1471,18947763468,/g3t1_3,,success
Status,1472,18981015335,/g3t1_2,,running
Status,1473,18981224342,/g3t1_2,,success
Status,1474,18997370011,/g3t1_3,,running
Status,1475,18997432030,/g3t1_1,,running
Status,1476,18997692665,/g3t1_3,,success
Status,1477,18997869800,/g3t1_1,,success
Status,1478,18998021330,/g4t1,,fail
Status,1479,19031202494,/g3t1_2,,running
Status,1480,19031304445,/g3t1_2,,success
Status,1484,19047972246,/g3t1_1,,running
Status,1485,19048013693,/g3t1_3,,running
Status,1486,19048073641,/g3t1_3,,success
Status,1487,19048112341,/g3t1_1,,success
Status,1488,19081389870,/g3t1_2,,running
Status,1489,19081426848,/g3t1_2,,success
Status,1490,19097540875,/g3t1_3,,running
Status,1491,19097755160,/g3t1_1,,running
Status,1492,19098022482,/g3t1_1,,fail
Status,1493,19098059666,/g3t1_3,,success
Status,1494,19098070109,/g4t1,,fail
Status,1495,19131392120,/g3t1_2,,running
Status,1496,19131436458,/g3t1_2,,success
Status,1497,19147668857,/g3t1_3,,running
Status,1498,19147809523,/g3t1_1,,running
Status,1499,19147916730,/g3t1_3,,success
Status,1500,19147941809,/g3t1_1,,success
Status,1501,19181495428,/g3t1_2,,running
Status,1502,19181531918,/g3t1_2,,success
Status,1503,19197723206,/g3t1_3,,running
Status,1504,19197903170,/g3t1_1,,running
Status,1505,19197941701,/g3t1_3,,success
Status,1506,19197985892,/g3t1_1,,fail
Status,1507,19198122501,/g4t1,,fail
Status,1508,19231606970,/g3t1_2,,running
Status,1509,19231701892,/g3t1_2,,success
Status,1513,19247829504,/g3t1_3,,running
Status,1514,19247860695,/g3t1_1,,running
Status,1515,19248062436,/g3t1_1,,fail
Status,1516,19248091680,/g3t1_3,,success
Status,1517,19281645914,/g3t1_2,,running
Status,1518,19281781365,/g3t1_2,,success
Status,1519,19298181027,/g3t1_3,,running
Status,1520,19298219047,/g3t1_1,,running
Status,1521,19298236965,/g3t1_3,,success
Status,1522,19298255649,/g3t1_1,,success
Status,1523,19298298648,/g4t1,,fail
Status,1524,19332408938,/g3t1_2,,running
Status,1525,19332461264,/g3t1_2,,success
Status,1526,19348405100,/g3t1_3,,running
Status,1527,19348444403,/g3t1_1,,running
Status,1528,19348605612,/g3t1_1,,success
Status,1529,19348709126,/g3t1_3,,success
Status,1530,19381903816,/g3t1_2,,running
Status,1531,19381939373,/g3t1_2,,success
Status,1532,19398500334,/g3t1_3,,running
Status,1533,19398530989,/g3t1_3,,success
Status,1534,19398551411,/g3t1_1,,running
Status,1535,19398652840,/g3t1_1,,success
Status,1536,19398686262,/g4t1,,fail
Status,1537,19432086846,/g3t1_2,,running
Status,1538,19432115370,/g3t1_2,,success
Status,1542,19448335365,/g3t1_1,,running
Status,1543,19448376083,/g3t1_3,,running
Status,1544,19448392920,/g3t1_1,,success
Status,1545,19448408026,/g3t1_3,,success
Status,1546,19482135229,/g3t1_2,,running
Status,1547,19482167405,/g3t1_2,,success
Status,1548,19498404115,/g3t1_3,,running
Status,1549,19498442632,/g3t1_1,,running
Status,1550,19498742309,/g3t1_3,,success
Status,1551,19498775826,/g4t1,,fail
Status,1552,19498792535,/g3t1_1,,success
Status,1553,19532233831,/g3t1_2,,running
Status,1554,19532265165,/g3t1_2,,success
Status,1555,19548561727,/g3t1_3,,running
Status,1556,19548593169,/g3t1_1,,running
Status,1557,19548603763,/g3t1_3,,success
Status,1558,19548613831,/g3t1_1,,fail
Status,1559,19582147000,/g3t1_2,,running
Status,1560,19582302559,/g3t1_2,,success
Status,1561,19598566047,/g3t1_3,,running
Status,1562,19598598843,/g3t1_3,,success
Status,1563,19598707328,/g3t1_1,,running
Status,1564,19598735816,/g3t1_1,,fail
Status,1565,19598744864,/g4t1,,fail
Status,1566,19632950540,/g3t1_2,,running
Status,1567,19633750529,/g3t1_2,,success
Status,1571,19648960139,/g3t1_3,,running
Status,1572,19649008108,/g3t1_1,,running
Status,1573,19649050711,/g3t1_1,,success
Status,1574,19649065213,/g3t1_3,,success
Status,1575,19682342327,/g3t1_2,,running
Status,1576,19682500785,/g3t1_2,,success
Status,1577,19698776425,/g3t1_3,,running
Status,1578,19699377028,/g4t1,,fail
Status,1579,19699412938,/g3t1_1,,running
Status,1580,19699428574,/g3t1_1,,success
Status,1581,19700118974,/g3t1_3,,success
Status,1582,19732428602,/g3t1_2,,running
Status,1583,19732594339,/g3t1_2,,success
Status,1584,19748626683,/g3t1_3,,running
Status,1585,19748857067,/g3t1_3,,success
Status,1586,19748888506,/g3t1_1,,running
Status,1587,19749071616,/g3t1_1,,success
Status,1588,19782532952,/g3t1_2,,running
Status,1589,19782692035,/g3t1_2,,success
Status,1590,19798828343,/g3t1_3,,running
Status,1591,19798890961,/g4t1,,fail
Status,1592,19799055275,/g3t1_3,,success
Status,1593,19799118784,/g3t1_1,,running
Status,1594,19799149000,/g3t1_1,,fail
Status,1595,19832634812,/g3t1_2,,running
Status,1596,19832744245,/g3t1_2,,success
Status,1600,19848783243,/g3t1_3,,running
Status,1601,19848990400,/g3t1_3,,fail
Status,1602,19849105579,/g3t1_1,,running
Status,1603,19849292275,/g3t1_1,,success
Status,1604,19882766365,/g3t1_2,,running
Status,1605,19882799864,/g3t1_2,,success
Status,1606,19899092555,/g3t1_3,,running
Status,1607,19899131187,/g4t1,,fail
Status,1608,19899203158,/g3t1_3,,success
Status,1609,19899224675,/g3t1_1,,running
Status,1610,19899736777,/g3t1_1,,success
Status,1611,19932760872,/g3t1_2,,running
Status,1612,19933055049,/g3t1_2,,success
Status,1613,19949175825,/g3t1_3,,running
Status,1614,19949490208,/g3t1_1,,running
Status,1615,19949535214,/g3t1_3,,success
Status,1616,19949574116,/g3t1_1,,success
Status,1617,19982877089,/g3t1_2,,running
Status,1618,19982954998,/g3t1_2,,success
Status,1619,19999019091,/g3t1_3,,running
Status,1620,19999063341,/g4t1,,fail
Status,1621,19999293012,/g3t1_3,,success
Status,1622,19999332525,/g3t1_1,,running
Status,1623,19999825870,/g3t1_1,,success
Status,1624,20032970822,/g3t1_2,,running
Status,1625,20033009239,/g3t1_2,,success
Status,1629,20049179462,/g3t1_3,,running
Status,1630,20049601463,/g3t1_3,,success
Status,1631,20049641080,/g3t1_1,,running
Status,1632,20049655717,/g3t1_1,,success
Status,1633,20083109459,/g3t1_2,,running
Status,1634,20083149579,/g3t1_2,,success
Status,1635,20099245384,/g3t1_3,,running
Status,1636,20099285580,/g4t1,,fail
Status,1637,20099404193,/g3t1_1,,running
Status,1638,20099434557,/g3t1_3,,success
Status,1639,20099627728,/g3t1_1,,success
Status,1640,20133061116,/g3t1_2,,running
Status,1641,20133237151,/g3t1_2,,success
Status,1642,20149224056,/g3t1_3,,running
Status,1643,20149440767,/g3t1_1,,running
Status,1644,20149621579,/g3t1_3,,success
Status,1645,20149933153,/g3t1_1,,success
Status,1646,20183231613,/g3t1_2,,running
Status,1647,20183269210,/g3t1_2,,success
Status,1648,20199779901,/g4t1,,fail
Status,1649,20199851332,/g3t1_3,,running
Status,1650,20199868520,/g3t1_3,,success
Status,1651,20199911537,/g3t1_1,,running
Status,1652,20199930004,/g3t1_1,,success
Status,1653,20233318343,/g3t1_2,,running
Status,1654,20233355176,/g3t1_2,,success
Status,1658,20249521109,/g3t1_3,,running
Status,1659,20249559356,/g3t1_3,,success
Status,1660,20249694655,/g3t1_1,,running
Status,1661,20250054132,/g3t1_1,,success
Status,1662,20283324521,/g3t1_2,,running
Status,1663,20283471415,/g3t1_2,,success
Status,1664,20299359554,/g4t1,,fail
Status,1665,20299405296,/g3t1_3,,running
Status,1666,20299854010,/g3t1_3,,success
Status,1667,20299903735,/g3t1_1,,running
Status,1668,20299922635,/g3t1_1,,success
Status,1669,20333349570,/g3t1_2,,running
Status,1670,20333709010,/g3t1_2,,success
Status,1671,20349522276,/g3t1_3,,running
Status,1672,20349739442,/g3t1_3,,success
Status,1673,20349775640,/g3t1_1,,running
Status,1674,20350142881,/g3t1_1,,fail
Status,1675,20383442217,/g3t1_2,,running
Status,1676,20383646289,/g3t1_2,,success
Status,1677,20399495336,/g4t1,,fail
Status,1678,20399533018,/g3t1_3,,running
