
Status,1,3427764642,/g4t1,,init
Status,3,8675435029,/g3t1_1,,init
Status,5,8682987994,/g3t1_1,,init
Status,6,8683006395,/g3t1_1,,running
Status,7,8684145286,/g3t1_1,,success
Status,8,8783075865,/g3t1_1,,running
Status,9,8783089128,/g3t1_1,,success
Status,11,8842835473,/g3t1_2,,init
Status,12,8849688262,/g3t1_2,,init
Status,13,8849702017,/g3t1_2,,running
Status,14,8850032642,/g3t1_2,,success
Status,15,8883283016,/g3t1_1,,running
Status,16,8883346870,/g3t1_1,,success
Status,18,8943304393,/g3t1_3,,init
Status,19,8949785911,/g3t1_2,,running
Status,20,8949873006,/g3t1_2,,success
Status,21,8950919832,/g3t1_3,,init
Status,22,8950932649,/g3t1_3,,running
Status,23,8951431686,/g3t1_3,,success
Status,24,8983497404,/g3t1_1,,running
Status,25,8983551328,/g3t1_1,,success
Status,26,8995326095,/g4t1,,success
Status,27,9050669361,/g3t1_2,,running
Status,28,9050726259,/g3t1_2,,success
Status,29,9051863502,/g3t1_3,,running
Status,30,9051910060,/g3t1_3,,success
Status,31,9084140845,/g3t1_1,,running
Status,32,9084482765,/g3t1_1,,success
Status,33,9096344534,/g4t1,,success
Status,34,9116387237,/g4t1,,success
Status,35,9150903372,/g3t1_2,,running
Status,36,9151435210,/g3t1_2,,success
Status,37,9151798930,/g3t1_3,,running
Status,38,9152363821,/g3t1_3,,success
Status,39,9156446823,/g4t1,,success
Status,40,9176869084,/g4t1,,success
Status,41,9184064571,/g3t1_1,,running
Status,42,9184856285,/g3t1_1,,success
Status,43,9197077050,/g4t1,,success
Status,44,9217355582,/g4t1,,success
Status,45,9237700050,/g4t1,,success
Status,46,9251040781,/g3t1_2,,running
Status,47,9251322613,/g3t1_2,,success
Status,48,9251911264,/g3t1_3,,running
Status,49,9252357830,/g3t1_3,,success
Status,50,9257333556,/g4t1,,success
Status,51,9277670384,/g4t1,,success
Status,52,9284145575,/g3t1_1,,running
Status,53,9284714325,/g3t1_1,,success
Status,54,9297817750,/g4t1,,success
Status,55,9318071730,/g4t1,,success
Status,56,9338103871,/g4t1,,success
Status,57,9350941745,/g3t1_2,,running
Status,58,9351458284,/g3t1_2,,success
Status,59,9352127810,/g3t1_3,,running
Status,60,9352473395,/g3t1_3,,success
Status,61,9357954044,/g4t1,,success
Status,62,9378263283,/g4t1,,success
Status,63,9384689317,/g3t1_1,,running
Status,64,9384735869,/g3t1_1,,success
Status,65,9398340850,/g4t1,,fail
Status,66,9418633676,/g4t1,,success
Status,67,9438717834,/g4t1,,success
Status,68,9451080752,/g3t1_2,,running
Status,69,9451430751,/g3t1_2,,success
Status,70,9452113434,/g3t1_3,,running
Status,71,9452466023,/g3t1_3,,success
Status,72,9458597158,/g4t1,,success
Status,73,9478807590,/g4t1,,success
Status,74,9484459620,/g3t1_1,,running
Status,75,9485100172,/g3t1_1,,success
Status,76,9498800445,/g4t1,,fail
Status,77,9518879132,/g4t1,,success
Status,78,9539458632,/g4t1,,success
Status,79,9551354612,/g3t1_2,,running
Status,80,9552094082,/g3t1_2,,success
Status,81,9552287585,/g3t1_3,,running
Status,82,9552995259,/g3t1_3,,success
Status,83,9559394100,/g4t1,,fail
Status,84,9579486136,/g4t1,,success
Status,85,9584715301,/g3t1_1,,running
Status,86,9584805739,/g3t1_1,,success
Status,87,9599498486,/g4t1,,fail
Status,88,9620207168,/g4t1,,success
Status,89,9639930093,/g4t1,,success
Status,90,9651398478,/g3t1_2,,running
Status,91,9652172569,/g3t1_2,,success
Status,92,9652479530,/g3t1_3,,running
Status,93,9652957279,/g3t1_3,,success
Status,94,9660214649,/g4t1,,fail
Status,95,9680512701,/g4t1,,success
Status,96,9684850915,/g3t1_1,,running
Status,97,9685349605,/g3t1_1,,success
Status,98,9700689356,/g4t1,,fail
Status,99,9720769452,/g4t1,,success
Status,100,9740838618,/g4t1,,success
Status,101,9751621779,/g3t1_2,,running
Status,102,9752215937,/g3t1_2,,success
Status,103,9752284971,/g3t1_3,,running
Status,104,9753274179,/g3t1_3,,success
Status,105,9761594493,/g4t1,,fail
Status,106,9781393166,/g4t1,,success
Status,107,9785262594,/g3t1_1,,running
Status,108,9785599411,/g3t1_1,,success
Status,109,9800864462,/g4t1,,fail
Status,110,9821262532,/g4t1,,success
Status,111,9841280740,/g4t1,,success
Status,112,9851679691,/g3t1_2,,running
Status,113,9851730418,/g3t1_2,,success
Status,114,9852297116,/g3t1_3,,running
Status,115,9852606166,/g3t1_3,,success
Status,116,9861611434,/g4t1,,fail
Status,117,9881820347,/g4t1,,success
Status,118,9885456445,/g3t1_1,,running
Status,119,9885520197,/g3t1_1,,success
Status,120,9902174906,/g4t1,,fail
Status,121,9922485784,/g4t1,,success
Status,122,9942493823,/g4t1,,success
Status,123,9952054633,/g3t1_2,,running
Status,124,9953024547,/g3t1_2,,success
Status,125,9953072970,/g3t1_3,,running
Status,126,9953161223,/g3t1_3,,success
Status,127,9962482623,/g4t1,,fail
Status,128,9982673232,/g4t1,,success
Status,129,9985390481,/g3t1_1,,running
Status,130,9985560109,/g3t1_1,,success
Status,131,10002873540,/g4t1,,fail
Status,132,10022824375,/g4t1,,success
Status,133,10043036133,/g4t1,,success
Status,134,10052014033,/g3t1_2,,running
Status,135,10053336385,/g3t1_2,,success
Status,136,10053436704,/g3t1_3,,running
Status,137,10053703354,/g3t1_3,,success
Status,138,10063429014,/g4t1,,fail
Status,139,10083340909,/g4t1,,success
Status,140,10085241735,/g3t1_1,,running
Status,141,10085841986,/g3t1_1,,success
Status,142,10103375341,/g4t1,,fail
Status,143,10123630240,/g4t1,,success
Status,144,10143713944,/g4t1,,success
Status,145,10151954370,/g3t1_2,,running
Status,146,10152498623,/g3t1_2,,success
Status,147,10152991695,/g3t1_3,,running
Status,148,10153335284,/g3t1_3,,success
Status,149,10163958468,/g4t1,,fail
Status,150,10183911376,/g4t1,,success
Status,151,10185277267,/g3t1_1,,running
Status,152,10185628801,/g3t1_1,,success
Status,153,10204082142,/g4t1,,fail
Status,154,10224582223,/g4t1,,success
Status,155,10244460186,/g4t1,,success
Status,156,10252325104,/g3t1_2,,running
Status,157,10253825850,/g3t1_3,,running
Status,158,10253879469,/g3t1_2,,success
Status,159,10253961550,/g3t1_3,,success
Status,160,10264504563,/g4t1,,fail
Status,161,10284842312,/g4t1,,success
Status,162,10285573649,/g3t1_1,,running
Status,163,10286349421,/g3t1_1,,success
Status,164,10304871124,/g4t1,,fail
Status,165,10325039469,/g4t1,,success
Status,166,10345167318,/g4t1,,success
Status,167,10352544859,/g3t1_2,,running
Status,168,10353567779,/g3t1_2,,success
Status,169,10353625640,/g3t1_3,,running
Status,170,10353679068,/g3t1_3,,success
Status,171,10365256809,/g4t1,,fail
Status,172,10384621544,/g4t1,,success
Status,173,10385073612,/g3t1_1,,running
Status,174,10385338377,/g3t1_1,,success
Status,175,10404783900,/g4t1,,fail
Status,176,10424874421,/g4t1,,success
Status,177,10444787840,/g4t1,,success
Status,178,10451954891,/g3t1_2,,running
Status,179,10452049950,/g3t1_2,,success
Status,180,10452490505,/g3t1_3,,running
Status,181,10452689717,/g3t1_3,,success
Status,182,10464767888,/g4t1,,fail
Status,183,10484857044,/g4t1,,success
Status,184,10485022932,/g3t1_1,,running
Status,185,10485185446,/g3t1_1,,success
Status,186,10505122189,/g4t1,,fail
Status,187,10524983915,/g4t1,,success
Status,188,10545080321,/g4t1,,success
Status,189,10552096437,/g3t1_2,,running
Status,190,10552240297,/g3t1_2,,success
Status,191,10552727512,/g3t1_3,,running
Status,192,10552748733,/g3t1_3,,success
Status,193,10565257902,/g4t1,,fail
Status,194,10585229413,/g3t1_1,,running
Status,195,10585260492,/g4t1,,success
Status,196,10585383641,/g3t1_1,,success
Status,197,10606220949,/g4t1,,fail
Status,198,10625762357,/g4t1,,success
Status,199,10645809559,/g4t1,,success
Status,200,10653063631,/g3t1_2,,running
Status,201,10653193419,/g3t1_2,,success
Status,202,10653215242,/g3t1_3,,running
Status,203,10653262624,/g3t1_3,,success
Status,204,10666508230,/g4t1,,fail
Status,205,10685923349,/g3t1_1,,running
Status,206,10686369222,/g4t1,,success
Status,207,10686401519,/g3t1_1,,success
Status,208,10706072467,/g4t1,,fail
Status,209,10726633322,/g4t1,,success
Status,210,10746777055,/g4t1,,success
Status,211,10752339450,/g3t1_2,,running
Status,212,10752359937,/g3t1_2,,success
Status,213,10752705058,/g3t1_3,,running
Status,214,10752851266,/g3t1_3,,success
Status,215,10766493085,/g4t1,,fail
Status,216,10785475036,/g3t1_1,,running
Status,217,10785624437,/g3t1_1,,success
Status,218,10786336308,/g4t1,,fail
Status,219,10806830355,/g4t1,,success
Status,220,10827309126,/g4t1,,success
Status,221,10847687805,/g4t1,,success
Status,222,10852784787,/g3t1_2,,running
Status,223,10853496736,/g3t1_3,,running
Status,224,10853549917,/g3t1_2,,success
Status,225,10854217573,/g3t1_3,,success
Status,226,10867822262,/g4t1,,fail
Status,227,10886222037,/g3t1_1,,running
Status,228,10887047135,/g3t1_1,,success
Status,229,10887782198,/g4t1,,fail
Status,230,10908309363,/g4t1,,success
Status,231,10928558942,/g4t1,,success
Status,232,10948559311,/g4t1,,success
Status,233,10953494204,/g3t1_2,,running
Status,234,10953992516,/g3t1_3,,running
Status,235,10954312675,/g3t1_2,,success
Status,236,10954413239,/g3t1_3,,success
Status,237,10968713252,/g4t1,,fail
Status,238,10986251153,/g3t1_1,,running
Status,239,10986657206,/g3t1_1,,success
Status,240,10988495868,/g4t1,,fail
Status,241,11008794169,/g4t1,,success
Status,242,11029129649,/g4t1,,success
Status,243,11049302636,/g4t1,,success
Status,244,11053351335,/g3t1_2,,running
Status,245,11053859049,/g3t1_3,,running
Status,246,11053917370,/g3t1_2,,success
Status,247,11054270554,/g3t1_3,,success
Status,248,11069226047,/g4t1,,fail
Status,249,11086527803,/g3t1_1,,running
Status,250,11086587690,/g3t1_1,,success
Status,251,11089286885,/g4t1,,fail
Status,252,11109746122,/g4t1,,success
Status,253,11129997931,/g4t1,,success
Status,254,11150148409,/g4t1,,success
Status,255,11153532564,/g3t1_2,,running
Status,256,11153901943,/g3t1_3,,running
Status,257,11153967845,/g3t1_2,,success
Status,258,11154338461,/g3t1_3,,success
Status,259,11170143363,/g4t1,,fail
Status,260,11186516155,/g3t1_1,,running
Status,261,11186917270,/g3t1_1,,success
Status,262,11189969580,/g4t1,,fail
Status,263,11210169651,/g4t1,,success
Status,264,11230366127,/g4t1,,success
Status,265,11250579776,/g4t1,,success
Status,266,11253606174,/g3t1_2,,running
Status,267,11254222150,/g3t1_3,,running
Status,268,11254294560,/g3t1_2,,success
Status,269,11254613101,/g3t1_3,,success
Status,270,11270423218,/g4t1,,fail
Status,271,11286907231,/g3t1_1,,running
Status,272,11287242290,/g3t1_1,,success
Status,273,11290463636,/g4t1,,fail
Status,274,11310698307,/g4t1,,success
Status,275,11330940052,/g4t1,,success
Status,276,11351260070,/g4t1,,success
Status,277,11354221387,/g3t1_2,,running
Status,278,11354610714,/g3t1_3,,running
Status,279,11354727239,/g3t1_2,,success
Status,280,11355096392,/g3t1_3,,success
Status,281,11370950529,/g4t1,,fail
Status,282,11386785893,/g3t1_1,,running
Status,283,11386841142,/g3t1_1,,success
Status,284,11391063959,/g4t1,,fail
Status,285,11411354926,/g4t1,,success
Status,286,11431510226,/g4t1,,success
Status,287,11451468722,/g4t1,,success
Status,288,11453739012,/g3t1_2,,running
Status,289,11454415113,/g3t1_3,,running
Status,290,11454464918,/g3t1_2,,success
Status,291,11455373205,/g3t1_3,,success
Status,292,11471710796,/g4t1,,fail
Status,293,11486847157,/g3t1_1,,running
Status,294,11487190591,/g3t1_1,,success
Status,295,11491637014,/g4t1,,fail
Status,296,11511816145,/g4t1,,success
Status,297,11532099755,/g4t1,,success
Status,298,11552414532,/g4t1,,success
Status,299,11554142747,/g3t1_2,,running
Status,300,11555300707,/g3t1_3,,running
Status,301,11555731714,/g3t1_3,,success
Status,302,11556257879,/g3t1_2,,success
Status,303,11572134251,/g4t1,,fail
Status,304,11587135451,/g3t1_1,,running
Status,305,11587660270,/g3t1_1,,success
Status,306,11592405803,/g4t1,,fail
Status,307,11613205449,/g4t1,,success
Status,308,11633038578,/g4t1,,success
Status,309,11653093627,/g4t1,,success
Status,310,11654288432,/g3t1_2,,running
Status,311,11654355692,/g3t1_3,,running
Status,312,11655079406,/g3t1_2,,success
Status,313,11655139821,/g3t1_3,,success
Status,314,11673169139,/g4t1,,fail
Status,315,11687761931,/g3t1_1,,running
Status,316,11687829304,/g3t1_1,,success
Status,317,11693215810,/g4t1,,fail
Status,318,11713462140,/g4t1,,success
Status,319,11732814732,/g4t1,,success
Status,320,11752853449,/g4t1,,success
Status,321,11753567681,/g3t1_2,,running
Status,322,11753652336,/g3t1_2,,success
Status,323,11753908465,/g3t1_3,,running
Status,324,11754009712,/g3t1_3,,success
Status,325,11773070815,/g4t1,,fail
Status,326,11786776672,/g3t1_1,,running
Status,327,11786797953,/g3t1_1,,success
Status,328,11793643488,/g4t1,,fail
Status,329,11813807622,/g4t1,,success
Status,330,11833984585,/g4t1,,success
Status,331,11854229112,/g4t1,,success
Status,332,11854462658,/g3t1_2,,running
Status,333,11855382723,/g3t1_3,,running
Status,334,11855466847,/g3t1_2,,success
Status,335,11855514251,/g3t1_3,,success
Status,336,11874306491,/g4t1,,fail
Status,337,11887685595,/g3t1_1,,running
Status,338,11887760825,/g3t1_1,,success
Status,339,11894099944,/g4t1,,fail
Status,340,11914483773,/g4t1,,success
Status,341,11934631940,/g4t1,,success
Status,342,11955006036,/g3t1_2,,running
Status,343,11955290273,/g4t1,,success
Status,344,11955342434,/g3t1_3,,running
Status,345,11955371317,/g3t1_2,,success
Status,346,11955618503,/g3t1_3,,success
Status,347,11974887214,/g4t1,,fail
Status,348,11987827409,/g3t1_1,,running
Status,349,11988043099,/g3t1_1,,success
Status,350,11994981515,/g4t1,,fail
Status,351,12015347948,/g4t1,,success
Status,352,12035229554,/g4t1,,success
Status,353,12054529868,/g3t1_2,,running
Status,354,12054933372,/g3t1_3,,running
Status,355,12054989260,/g3t1_2,,success
Status,356,12055048659,/g3t1_3,,success
Status,357,12055169467,/g4t1,,success
Status,358,12075388339,/g4t1,,fail
Status,359,12087532928,/g3t1_1,,running
Status,360,12087969958,/g3t1_1,,success
Status,361,12095398240,/g4t1,,fail
Status,362,12116094800,/g4t1,,success
Status,363,12135567136,/g4t1,,success
Status,364,12154953657,/g3t1_2,,running
Status,365,12155001232,/g3t1_3,,running
Status,366,12155027824,/g3t1_3,,success
Status,367,12155043372,/g3t1_2,,success
Status,368,12155526689,/g4t1,,fail
Status,369,12175753746,/g4t1,,success
Status,370,12187596584,/g3t1_1,,running
Status,371,12187650311,/g3t1_1,,success
Status,372,12195896956,/g4t1,,fail
Status,373,12215951252,/g4t1,,success
Status,374,12236423423,/g4t1,,success
Status,375,12255680847,/g3t1_2,,running
Status,376,12255787728,/g3t1_3,,running
Status,377,12255810828,/g3t1_2,,success
Status,378,12256425285,/g3t1_3,,success
Status,379,12256496194,/g4t1,,fail
Status,380,12277006780,/g4t1,,success
Status,381,12287888854,/g3t1_1,,running
Status,382,12288227385,/g3t1_1,,success
Status,383,12297394340,/g4t1,,fail
Status,384,12317075603,/g4t1,,success
Status,385,12337165347,/g4t1,,success
Status,386,12355524069,/g3t1_2,,running
Status,387,12355615757,/g3t1_3,,running
Status,388,12355904277,/g3t1_2,,success
Status,389,12356046926,/g3t1_3,,success
Status,390,12357134882,/g4t1,,fail
Status,391,12377545559,/g4t1,,success
Status,392,12387979103,/g3t1_1,,running
Status,393,12388320044,/g3t1_1,,success
Status,394,12397808263,/g4t1,,fail
Status,395,12417931838,/g4t1,,success
Status,396,12438393357,/g4t1,,success
Status,397,12455613887,/g3t1_2,,running
Status,398,12455699050,/g3t1_3,,running
Status,399,12456552025,/g3t1_2,,success
Status,400,12456620190,/g3t1_3,,success
Status,401,12457923137,/g4t1,,fail
Status,402,12477915818,/g4t1,,success
Status,403,12487730976,/g3t1_1,,running
Status,404,12487757479,/g3t1_1,,success
Status,405,12498240877,/g4t1,,fail
Status,406,12517860248,/g4t1,,success
Status,407,12537905969,/g4t1,,success
Status,408,12554745763,/g3t1_2,,running
Status,409,12554851123,/g3t1_3,,running
Status,410,12554884560,/g3t1_2,,success
Status,411,12554897596,/g3t1_3,,success
Status,412,12557730835,/g4t1,,fail
Status,413,12578462236,/g4t1,,success
Status,414,12588377522,/g3t1_1,,running
Status,415,12588796498,/g3t1_1,,success
Status,416,12599101893,/g4t1,,success
Status,417,12618930789,/g4t1,,success
Status,418,12639020474,/g4t1,,success
Status,419,12655935287,/g3t1_2,,running
Status,420,12656080526,/g3t1_3,,running
Status,421,12656625845,/g3t1_2,,success
Status,422,12656696069,/g3t1_3,,success
Status,423,12658808144,/g4t1,,fail
Status,424,12679440727,/g4t1,,success
Status,425,12688182907,/g3t1_1,,running
Status,426,12689012766,/g3t1_1,,success
Status,427,12699561258,/g4t1,,fail
Status,428,12719576478,/g4t1,,success
Status,429,12739088876,/g4t1,,success
Status,430,12755339753,/g3t1_2,,running
Status,431,12755408431,/g3t1_3,,running
Status,432,12755498626,/g3t1_2,,success
Status,433,12755719943,/g3t1_3,,success
Status,434,12759225181,/g4t1,,fail
Status,435,12779570222,/g4t1,,success
Status,436,12787987681,/g3t1_1,,running
Status,437,12788028595,/g3t1_1,,success
Status,438,12799194177,/g4t1,,success
Status,439,12819435233,/g4t1,,success
Status,440,12839799113,/g4t1,,success
Status,441,12855778362,/g3t1_2,,running
Status,442,12855801348,/g3t1_3,,running
Status,443,12855810860,/g3t1_2,,success
Status,444,12855921684,/g3t1_3,,success
Status,445,12859830063,/g4t1,,fail
Status,446,12880170334,/g4t1,,success
Status,447,12888081982,/g3t1_1,,running
Status,448,12888266527,/g3t1_1,,success
Status,449,12899937639,/g4t1,,fail
Status,450,12920028117,/g4t1,,success
Status,451,12940071770,/g4t1,,success
Status,452,12955668384,/g3t1_2,,running
Status,453,12955704132,/g3t1_3,,running
Status,454,12955915397,/g3t1_2,,success
Status,455,12955942178,/g3t1_3,,success
Status,456,12960414385,/g4t1,,fail
Status,457,12980858974,/g4t1,,success
Status,458,12988457687,/g3t1_1,,running
Status,459,12989147452,/g3t1_1,,success
Status,460,13000428583,/g4t1,,success
Status,461,13020568725,/g4t1,,success
Status,462,13040982050,/g4t1,,success
Status,463,13056070751,/g3t1_2,,running
Status,464,13056134928,/g3t1_3,,running
Status,465,13056860430,/g3t1_3,,success
Status,466,13056945058,/g3t1_2,,success
Status,467,13061349622,/g4t1,,fail
Status,468,13081456357,/g4t1,,success
Status,469,13088536702,/g3t1_1,,running
Status,470,13089026525,/g3t1_1,,success
Status,471,13101550188,/g4t1,,fail
Status,472,13121661513,/g4t1,,success
Status,473,13142158722,/g4t1,,success
Status,474,13156353605,/g3t1_2,,running
Status,475,13156549602,/g3t1_3,,running
Status,476,13156663923,/g3t1_2,,success
Status,477,13156755709,/g3t1_3,,success
Status,478,13161713205,/g4t1,,fail
Status,479,13182082941,/g4t1,,success
Status,480,13188457169,/g3t1_1,,running
Status,481,13188817233,/g3t1_1,,success
Status,482,13201781861,/g4t1,,success
Status,483,13222038007,/g4t1,,success
Status,484,13242461623,/g4t1,,success
Status,485,13255897589,/g3t1_2,,running
Status,486,13255954654,/g3t1_3,,running
Status,487,13256133986,/g3t1_3,,success
Status,488,13256169484,/g3t1_2,,success
Status,489,13262325500,/g4t1,,fail
Status,490,13282322133,/g4t1,,success
Status,491,13289035537,/g3t1_1,,running
Status,492,13289093004,/g3t1_1,,success
Status,493,13302332434,/g4t1,,fail
Status,494,13322436654,/g4t1,,success
Status,495,13342654667,/g4t1,,success
Status,496,13356133188,/g3t1_2,,running
Status,497,13356177848,/g3t1_3,,running
Status,498,13356342526,/g3t1_3,,success
Status,499,13356396727,/g3t1_2,,success
Status,500,13362843606,/g4t1,,fail
Status,501,13383062020,/g4t1,,success
Status,502,13388829015,/g3t1_1,,running
Status,503,13389301031,/g3t1_1,,success
Status,504,13402852015,/g4t1,,success
Status,505,13422962771,/g4t1,,success
Status,506,13443055671,/g4t1,,success
Status,507,13456227396,/g3t1_2,,running
Status,508,13456306058,/g3t1_3,,running
Status,509,13456329541,/g3t1_2,,success
Status,510,13456413113,/g3t1_3,,success
Status,511,13463706316,/g4t1,,fail
Status,512,13483366762,/g4t1,,success
Status,513,13488860499,/g3t1_1,,running
Status,514,13489093555,/g3t1_1,,success
Status,515,13503395465,/g4t1,,fail
Status,516,13523501335,/g4t1,,success
Status,517,13544023588,/g4t1,,success
Status,518,13556674036,/g3t1_2,,running
Status,519,13556739627,/g3t1_3,,running
Status,520,13556808726,/g3t1_2,,success
Status,521,13556848869,/g3t1_3,,success
Status,522,13564514185,/g4t1,,fail
Status,523,13584336942,/g4t1,,success
Status,524,13588893225,/g3t1_1,,running
Status,525,13589163634,/g3t1_1,,success
Status,526,13604003862,/g4t1,,success
Status,527,13624158241,/g4t1,,success
Status,528,13644741161,/g4t1,,success
Status,529,13656525527,/g3t1_2,,running
Status,530,13656878008,/g3t1_3,,running
Status,531,13656969772,/g3t1_2,,success
Status,532,13656999109,/g3t1_3,,success
Status,533,13664619545,/g4t1,,fail
Status,534,13684745449,/g4t1,,success
Status,535,13689054712,/g3t1_1,,running
Status,536,13689648508,/g3t1_1,,success
Status,537,13705104714,/g4t1,,fail
Status,538,13725180417,/g4t1,,success
Status,539,13745676693,/g4t1,,success
Status,540,13756830187,/g3t1_2,,running
Status,541,13756892552,/g3t1_3,,running
Status,542,13757285898,/g3t1_2,,success
Status,543,13758270721,/g3t1_3,,success
Status,544,13768331577,/g4t1,,fail
Status,545,13785959289,/g4t1,,success
Status,546,13789494382,/g3t1_1,,running
Status,547,13789880499,/g3t1_1,,success
Status,548,13805970110,/g4t1,,success
Status,549,13825830004,/g4t1,,success
Status,550,13846085138,/g4t1,,success
Status,551,13856977862,/g3t1_2,,running
Status,552,13857075947,/g3t1_3,,running
Status,553,13857375862,/g3t1_2,,success
Status,554,13857773311,/g3t1_3,,success
Status,555,13865905218,/g4t1,,fail
Status,556,13886100307,/g4t1,,success
Status,557,13889272967,/g3t1_1,,running
Status,558,13889813661,/g3t1_1,,success
Status,559,13905952334,/g4t1,,fail
Status,560,13925992516,/g4t1,,success
Status,561,13946436105,/g4t1,,success
Status,562,13957031064,/g3t1_2,,running
Status,563,13957492639,/g3t1_3,,running
Status,564,13957736310,/g3t1_2,,success
Status,565,13957793286,/g3t1_3,,success
Status,566,13966368127,/g4t1,,fail
Status,567,13986578507,/g4t1,,success
Status,568,13989519579,/g3t1_1,,running
Status,569,13989911733,/g3t1_1,,success
Status,570,14006716978,/g4t1,,success
Status,571,14026779118,/g4t1,,success
Status,572,14047141041,/g4t1,,success
Status,573,14057418637,/g3t1_2,,running
Status,574,14057496565,/g3t1_3,,running
Status,575,14057760236,/g3t1_2,,success
Status,576,14057818125,/g3t1_3,,success
Status,577,14067380888,/g4t1,,fail
Status,578,14087146550,/g4t1,,success
Status,579,14089597473,/g3t1_1,,running
Status,580,14090336514,/g3t1_1,,success
Status,581,14107335605,/g4t1,,fail
Status,582,14127517124,/g4t1,,success
Status,583,14147654523,/g4t1,,success
Status,584,14157078359,/g3t1_2,,running
Status,585,14157136713,/g3t1_3,,running
Status,586,14157369491,/g3t1_2,,success
Status,587,14157399700,/g3t1_3,,success
Status,588,14167721466,/g4t1,,fail
Status,589,14187750625,/g4t1,,success
Status,590,14189672203,/g3t1_1,,running
Status,591,14190394469,/g3t1_1,,success
Status,592,14208009534,/g4t1,,success
Status,593,14228168937,/g4t1,,success
Status,594,14248390164,/g4t1,,success
Status,595,14257962824,/g3t1_2,,running
Status,596,14258018825,/g3t1_3,,running
Status,597,14258163008,/g3t1_3,,success
Status,598,14258211335,/g3t1_2,,success
Status,599,14268344734,/g4t1,,fail
Status,600,14288643513,/g4t1,,success
Status,601,14290349907,/g3t1_1,,running
Status,602,14290403195,/g3t1_1,,success
Status,603,14308548452,/g4t1,,fail
Status,604,14328543965,/g4t1,,success
Status,605,14348823982,/g4t1,,success
Status,606,14357671157,/g3t1_2,,running
Status,607,14358284246,/g3t1_3,,running
Status,608,14358349957,/g3t1_2,,success
Status,609,14358425709,/g3t1_3,,success
Status,610,14369229827,/g4t1,,fail
Status,611,14388780329,/g4t1,,success
Status,612,14389719168,/g3t1_1,,running
Status,613,14390300059,/g3t1_1,,success
Status,614,14409284904,/g4t1,,success
Status,615,14429750944,/g4t1,,success
Status,616,14449536575,/g4t1,,success
Status,617,14457893948,/g3t1_2,,running
Status,618,14457962779,/g3t1_3,,running
Status,619,14458306799,/g3t1_3,,success
Status,620,14458374285,/g3t1_2,,success
Status,621,14470061591,/g4t1,,fail
Status,622,14489548037,/g4t1,,success
Status,623,14489843486,/g3t1_1,,running
Status,624,14490319561,/g3t1_1,,success
Status,625,14509909950,/g4t1,,fail
Status,626,14530285360,/g4t1,,success
Status,627,14550316379,/g4t1,,success
Status,628,14558154531,/g3t1_3,,running
Status,629,14558585641,/g3t1_3,,success
Status,630,14558930210,/g3t1_2,,running
Status,631,14558994284,/g3t1_2,,success
Status,632,14570437535,/g4t1,,fail
Status,633,14590314018,/g3t1_1,,running
Status,634,14590401145,/g4t1,,success
Status,635,14590810346,/g3t1_1,,success
Status,636,14610643304,/g4t1,,success
Status,637,14630856726,/g4t1,,success
Status,638,14650622080,/g4t1,,success
Status,639,14658030345,/g3t1_2,,running
Status,640,14658099036,/g3t1_3,,running
Status,641,14658439271,/g3t1_3,,success
Status,642,14658494837,/g3t1_2,,success
Status,643,14671024176,/g4t1,,fail
Status,644,14690571558,/g3t1_1,,running
Status,645,14691148813,/g4t1,,success
Status,646,14691222191,/g3t1_1,,success
Status,647,14710959035,/g4t1,,fail
Status,648,14730976237,/g4t1,,success
Status,649,14750996196,/g4t1,,success
Status,650,14757789956,/g3t1_2,,running
Status,651,14757832646,/g3t1_3,,running
Status,652,14757895364,/g3t1_2,,success
Status,653,14758187213,/g3t1_3,,success
Status,654,14771107066,/g4t1,,fail
Status,655,14790248055,/g3t1_1,,running
Status,656,14790296005,/g3t1_1,,success
Status,657,14791044211,/g4t1,,success
Status,658,14811586049,/g4t1,,success
Status,659,14831906364,/g4t1,,success
Status,660,14851722032,/g4t1,,success
Status,661,14858697142,/g3t1_2,,running
Status,662,14858750685,/g3t1_3,,running
Status,663,14858772858,/g3t1_2,,success
Status,664,14858851548,/g3t1_3,,success
Status,665,14872001857,/g4t1,,fail
Status,666,14890670390,/g3t1_1,,running
Status,667,14891482449,/g3t1_1,,success
Status,668,14892071442,/g4t1,,fail
Status,669,14912460904,/g4t1,,success
Status,670,14932631712,/g4t1,,success
Status,671,14952711734,/g4t1,,success
Status,672,14958634779,/g3t1_2,,running
Status,673,14958690738,/g3t1_3,,running
Status,674,14958755902,/g3t1_2,,success
Status,675,14959157225,/g3t1_3,,success
Status,676,14972717885,/g4t1,,fail
Status,677,14990731088,/g3t1_1,,running
Status,678,14990948534,/g3t1_1,,success
Status,679,14992616518,/g4t1,,success
Status,680,15012840720,/g4t1,,success
Status,681,15033241450,/g4t1,,success
Status,682,15053484802,/g4t1,,success
Status,683,15058427696,/g3t1_2,,running
Status,684,15058523639,/g3t1_3,,running
Status,685,15058746190,/g3t1_2,,success
Status,686,15059007016,/g3t1_3,,success
Status,687,15073280143,/g4t1,,fail
Status,688,15091061021,/g3t1_1,,running
Status,689,15091143207,/g3t1_1,,success
Status,690,15093418036,/g4t1,,fail
Status,691,15113686145,/g4t1,,success
Status,692,15133882711,/g4t1,,success
Status,693,15154130263,/g4t1,,success
Status,694,15158660570,/g3t1_2,,running
Status,695,15158795175,/g3t1_3,,running
Status,696,15158835718,/g3t1_3,,success
Status,697,15158899212,/g3t1_2,,success
Status,698,15174051677,/g4t1,,fail
Status,699,15190777548,/g3t1_1,,running
Status,700,15190810184,/g3t1_1,,success
Status,701,15193718662,/g4t1,,success
Status,702,15213849596,/g4t1,,success
Status,703,15234044581,/g4t1,,success
Status,704,15254620433,/g4t1,,success
Status,705,15258630090,/g3t1_2,,running
Status,706,15259010668,/g3t1_3,,running
Status,707,15259122940,/g3t1_2,,success
Status,708,15259161346,/g3t1_3,,success
Status,709,15274607327,/g4t1,,fail
Status,710,15291031486,/g3t1_1,,running
Status,711,15291456490,/g3t1_1,,success
Status,712,15294566423,/g4t1,,fail
Status,713,15315064072,/g4t1,,success
Status,714,15334807348,/g4t1,,success
Status,715,15355243536,/g4t1,,success
Status,716,15358947195,/g3t1_2,,running
Status,717,15359007268,/g3t1_3,,running
Status,718,15359030658,/g3t1_2,,success
Status,719,15359357288,/g3t1_3,,success
Status,720,15375267260,/g4t1,,fail
Status,721,15391151805,/g3t1_1,,running
Status,722,15391410420,/g3t1_1,,success
Status,723,15395147112,/g4t1,,success
Status,724,15415778346,/g4t1,,success
Status,725,15435670069,/g4t1,,success
Status,726,15455889207,/g4t1,,success
Status,727,15458984679,/g3t1_2,,running
Status,728,15459064273,/g3t1_3,,running
Status,729,15459436394,/g3t1_2,,success
Status,730,15459539522,/g3t1_3,,success
Status,731,15475890489,/g4t1,,fail
Status,732,15491199617,/g3t1_1,,running
Status,733,15491670655,/g3t1_1,,success
Status,734,15495924778,/g4t1,,fail
Status,735,15516313379,/g4t1,,success
Status,736,15536324957,/g4t1,,success
Status,737,15556311682,/g4t1,,success
Status,738,15559005417,/g3t1_2,,running
Status,739,15559117316,/g3t1_3,,running
Status,740,15559675388,/g3t1_2,,success
Status,741,15559775129,/g3t1_3,,success
Status,742,15576339313,/g4t1,,fail
Status,743,15591453050,/g3t1_1,,running
Status,744,15592110988,/g3t1_1,,success
Status,745,15596637069,/g4t1,,success
Status,746,15616471560,/g4t1,,success
Status,747,15636630300,/g4t1,,success
Status,748,15657018887,/g4t1,,success
Status,749,15658832785,/g3t1_2,,running
Status,750,15659236396,/g3t1_2,,success
Status,751,15659280392,/g3t1_3,,running
Status,752,15659306472,/g3t1_3,,success
Status,753,15677181969,/g4t1,,fail
Status,754,15691411476,/g3t1_1,,running
Status,755,15691614251,/g3t1_1,,success
Status,756,15697212192,/g4t1,,fail
Status,757,15717429824,/g4t1,,success
Status,758,15737754390,/g4t1,,success
Status,759,15757447095,/g4t1,,success
Status,760,15758862403,/g3t1_2,,running
Status,761,15759485928,/g3t1_2,,success
Status,762,15761370396,/g3t1_3,,running
Status,763,15761730046,/g3t1_3,,success
Status,764,15777823183,/g4t1,,fail
Status,765,15791961898,/g3t1_1,,running
Status,766,15792264253,/g3t1_1,,success
Status,767,15798087131,/g4t1,,success
Status,768,15818342113,/g4t1,,success
Status,769,15838473828,/g4t1,,success
Status,770,15858558660,/g4t1,,success
Status,771,15859347420,/g3t1_2,,running
Status,772,15860168923,/g3t1_2,,success
Status,773,15860219432,/g3t1_3,,running
Status,774,15860249324,/g3t1_3,,success
Status,775,15878647631,/g4t1,,fail
Status,776,15891759471,/g3t1_1,,running
Status,777,15891829135,/g3t1_1,,success
Status,778,15898775395,/g4t1,,fail
Status,779,15919094546,/g4t1,,success
Status,780,15939112326,/g4t1,,success
Status,781,15959178543,/g4t1,,success
Status,782,15959272722,/g3t1_2,,running
Status,783,15959734854,/g3t1_2,,success
Status,784,15960050847,/g3t1_3,,running
Status,785,15960111978,/g3t1_3,,success
Status,786,15979355973,/g4t1,,fail
Status,787,15991939259,/g3t1_1,,running
Status,788,15992213825,/g3t1_1,,success
Status,789,15999477091,/g4t1,,success
Status,790,16019600570,/g4t1,,success
Status,791,16039707269,/g4t1,,success
Status,792,16059823652,/g3t1_2,,running
Status,793,16059939414,/g4t1,,success
Status,794,16059979197,/g3t1_3,,running
Status,795,16060846955,/g3t1_2,,success
Status,796,16060972061,/g3t1_3,,success
Status,797,16079903779,/g4t1,,fail
Status,798,16091912106,/g3t1_1,,running
Status,799,16092303836,/g3t1_1,,success
Status,800,16100161709,/g4t1,,fail
Status,801,16120405885,/g4t1,,success
Status,802,16140538516,/g4t1,,success
Status,803,16160006831,/g3t1_2,,running
Status,804,16160084141,/g3t1_3,,running
Status,805,16160515441,/g3t1_2,,success
Status,806,16160568481,/g4t1,,success
Status,807,16160627653,/g3t1_3,,success
Status,808,16180584735,/g4t1,,fail
Status,809,16192143943,/g3t1_1,,running
Status,810,16192891994,/g3t1_1,,success
Status,811,16200724278,/g4t1,,success
Status,812,16220875830,/g4t1,,success
Status,813,16241090300,/g4t1,,success
Status,814,16260213490,/g3t1_2,,running
Status,815,16260300484,/g3t1_2,,success
Status,816,16260473203,/g3t1_3,,running
Status,817,16260803972,/g3t1_3,,success
Status,818,16260854218,/g4t1,,success
Status,819,16281154564,/g4t1,,fail
Status,820,16292517832,/g3t1_1,,running
Status,821,16293006313,/g3t1_1,,success
Status,822,16301459679,/g4t1,,fail
Status,823,16321561486,/g4t1,,success
Status,824,16341817299,/g4t1,,success
Status,825,16360344867,/g3t1_2,,running
Status,826,16360440182,/g3t1_3,,running
Status,827,16360475294,/g3t1_2,,success
Status,828,16361349680,/g3t1_3,,success
Status,829,16361750649,/g4t1,,fail
Status,830,16382260621,/g4t1,,success
Status,831,16392379355,/g3t1_1,,running
Status,832,16393075032,/g3t1_1,,success
Status,833,16402254773,/g4t1,,success
Status,834,16422577365,/g4t1,,success
Status,835,16442404525,/g4t1,,success
Status,836,16460281623,/g3t1_2,,running
Status,837,16460643851,/g3t1_3,,running
Status,838,16460767037,/g3t1_2,,success
Status,839,16461033473,/g3t1_3,,success
Status,840,16462511066,/g4t1,,fail
Status,841,16482801833,/g4t1,,success
Status,842,16492736442,/g3t1_1,,running
Status,843,16493319315,/g3t1_1,,success
Status,844,16503009146,/g4t1,,fail
Status,845,16523011051,/g4t1,,success
Status,846,16543108666,/g4t1,,success
Status,847,16560471373,/g3t1_2,,running
Status,848,16560604389,/g3t1_2,,success
Status,849,16560645666,/g3t1_3,,running
Status,850,16561485783,/g3t1_3,,success
Status,851,16562708898,/g4t1,,fail
Status,852,16583510568,/g4t1,,success
Status,853,16592524976,/g3t1_1,,running
Status,854,16592564831,/g3t1_1,,success
Status,855,16603008743,/g4t1,,success
Status,856,16623140500,/g4t1,,success
Status,857,16643404441,/g4t1,,success
Status,858,16660423749,/g3t1_2,,running
Status,859,16660636133,/g3t1_3,,running
Status,860,16660855923,/g3t1_2,,success
Status,861,16661690388,/g3t1_3,,success
Status,862,16663356518,/g4t1,,fail
Status,863,16683572071,/g4t1,,success
Status,864,16692756776,/g3t1_1,,running
Status,865,16693143564,/g3t1_1,,success
Status,866,16704423053,/g4t1,,fail
Status,867,16724152749,/g4t1,,success
Status,868,16744295963,/g4t1,,success
Status,869,16761995290,/g3t1_2,,running
Status,870,16762115538,/g3t1_2,,success
Status,871,16762154156,/g3t1_3,,running
Status,872,16762178641,/g3t1_3,,success
Status,873,16764213869,/g4t1,,fail
Status,874,16784207422,/g4t1,,success
Status,875,16792783751,/g3t1_1,,running
Status,876,16793367141,/g3t1_1,,success
Status,877,16804379505,/g4t1,,success
Status,878,16824730502,/g4t1,,success
Status,879,16845189402,/g4t1,,success
Status,880,16860611861,/g3t1_2,,running
Status,881,16861165768,/g3t1_2,,success
Status,882,16861244764,/g3t1_3,,running
Status,883,16861903158,/g3t1_3,,success
Status,884,16864808800,/g4t1,,fail
Status,885,16885171851,/g4t1,,success
Status,886,16893380610,/g3t1_1,,running
Status,887,16893445665,/g3t1_1,,success
Status,888,16905073241,/g4t1,,fail
Status,889,16925460555,/g4t1,,success
Status,890,16945472788,/g4t1,,success
Status,891,16960864332,/g3t1_2,,running
Status,892,16961244784,/g3t1_3,,running
Status,893,16961311155,/g3t1_2,,success
Status,894,16961778707,/g3t1_3,,success
Status,895,16965343896,/g4t1,,fail
Status,896,16985786603,/g4t1,,success
Status,897,16993236534,/g3t1_1,,running
Status,898,16993560638,/g3t1_1,,success
Status,899,17005709747,/g4t1,,success
Status,900,17025983788,/g4t1,,success
Status,901,17045996753,/g4t1,,success
Status,902,17060679615,/g3t1_2,,running
Status,903,17060757930,/g3t1_2,,success
Status,904,17060922870,/g3t1_3,,running
Status,905,17061513676,/g3t1_3,,success
Status,906,17065636499,/g4t1,,fail
Status,907,17085641862,/g4t1,,success
Status,908,17092775268,/g3t1_1,,running
Status,909,17092962955,/g3t1_1,,success
Status,910,17105658191,/g4t1,,fail
Status,911,17126263201,/g4t1,,success
Status,912,17146370222,/g4t1,,success
Status,913,17160816858,/g3t1_2,,running
Status,914,17161422740,/g3t1_2,,success
Status,915,17161504916,/g3t1_3,,running
Status,916,17162071123,/g3t1_3,,success
Status,917,17166287696,/g4t1,,fail
Status,918,17186692405,/g4t1,,success
Status,919,17193882388,/g3t1_1,,running
Status,920,17193958178,/g3t1_1,,success
Status,921,17206802132,/g4t1,,success
Status,922,17226806866,/g4t1,,success
Status,923,17247171003,/g4t1,,success
Status,924,17261087439,/g3t1_2,,running
Status,925,17261554090,/g3t1_3,,running
Status,926,17262277175,/g3t1_2,,success
Status,927,17262731312,/g3t1_3,,success
Status,928,17266939622,/g4t1,,fail
Status,929,17287133270,/g4t1,,success
Status,930,17293703308,/g3t1_1,,running
Status,931,17294601831,/g3t1_1,,success
Status,932,17307001393,/g4t1,,fail
Status,933,17327478968,/g4t1,,success
Status,934,17347783724,/g4t1,,success
Status,935,17361006552,/g3t1_2,,running
Status,936,17361904874,/g3t1_3,,running
Status,937,17362039206,/g3t1_2,,success
Status,938,17362088359,/g3t1_3,,success
Status,939,17367487164,/g4t1,,fail
Status,940,17387997467,/g4t1,,success
Status,941,17393828107,/g3t1_1,,running
Status,942,17393929535,/g3t1_1,,success
Status,943,17408037282,/g4t1,,success
Status,944,17428181453,/g4t1,,success
Status,945,17448607020,/g4t1,,success
Status,946,17461509267,/g3t1_2,,running
Status,947,17462398630,/g3t1_3,,running
Status,948,17462556328,/g3t1_2,,success
Status,949,17462588360,/g3t1_3,,success
Status,950,17468519623,/g4t1,,fail
Status,951,17488693227,/g4t1,,success
Status,952,17493843402,/g3t1_1,,running
Status,953,17494328331,/g3t1_1,,success
Status,954,17508734964,/g4t1,,fail
Status,955,17528989963,/g4t1,,success
Status,956,17549398851,/g4t1,,success
Status,957,17561900043,/g3t1_2,,running
Status,958,17561987042,/g3t1_2,,success
Status,959,17562050260,/g3t1_3,,running
Status,960,17562261842,/g3t1_3,,success
Status,961,17569339812,/g4t1,,fail
Status,962,17589270053,/g4t1,,success
Status,963,17594087570,/g3t1_1,,running
Status,964,17594514733,/g3t1_1,,success
Status,965,17609622762,/g4t1,,success
Status,966,17629747559,/g4t1,,success
Status,967,17649943508,/g4t1,,success
Status,968,17662523940,/g3t1_2,,running
Status,969,17662584102,/g3t1_3,,running
Status,970,17662688541,/g3t1_3,,success
Status,971,17662777753,/g3t1_2,,success
Status,972,17670030361,/g4t1,,fail
Status,973,17690138108,/g4t1,,success
Status,974,17694077205,/g3t1_1,,running
Status,975,17694567841,/g3t1_1,,success
Status,976,17710231733,/g4t1,,fail
Status,977,17730435707,/g4t1,,success
Status,978,17750638546,/g4t1,,success
Status,979,17763395279,/g3t1_2,,running
Status,980,17763501805,/g3t1_2,,success
Status,981,17763537838,/g3t1_3,,running
Status,982,17763557783,/g3t1_3,,success
Status,983,17770549116,/g4t1,,fail
Status,984,17790607074,/g4t1,,success
Status,985,17794417331,/g3t1_1,,running
Status,986,17794499656,/g3t1_1,,success
Status,987,17810850844,/g4t1,,success
Status,988,17830975518,/g4t1,,success
Status,989,17851087607,/g4t1,,success
Status,990,17862089111,/g3t1_2,,running
Status,991,17862463006,/g3t1_3,,running
Status,992,17863047473,/g3t1_3,,success
Status,993,17863221998,/g3t1_2,,success
Status,994,17871162654,/g4t1,,fail
Status,995,17891415630,/g4t1,,success
Status,996,17894233534,/g3t1_1,,running
Status,997,17894563277,/g3t1_1,,success
Status,998,17911506025,/g4t1,,fail
Status,999,17931889347,/g4t1,,success
Status,1000,17951644275,/g4t1,,success
Status,1001,17962345908,/g3t1_2,,running
Status,1002,17962800885,/g3t1_3,,running
Status,1003,17962885594,/g3t1_2,,success
Status,1004,17963456510,/g3t1_3,,success
Status,1005,17971837556,/g4t1,,fail
Status,1006,17991957154,/g4t1,,success
Status,1007,17994378277,/g3t1_1,,running
Status,1008,17994669465,/g3t1_1,,success
Status,1009,18012224620,/g4t1,,success
Status,1010,18032493767,/g4t1,,success
Status,1011,18052718570,/g4t1,,success
Status,1012,18063006242,/g3t1_2,,running
Status,1013,18063107474,/g3t1_3,,running
Status,1014,18064084654,/g3t1_2,,success
Status,1015,18064562113,/g3t1_3,,success
Status,1016,18072672277,/g4t1,,fail
Status,1017,18092790478,/g4t1,,success
Status,1018,18094492890,/g3t1_1,,running
Status,1019,18094815346,/g3t1_1,,success
Status,1020,18113844527,/g4t1,,fail
Status,1021,18133214890,/g4t1,,success
Status,1022,18153427820,/g4t1,,success
Status,1023,18163332290,/g3t1_2,,running
Status,1024,18163433444,/g3t1_2,,success
Status,1025,18163472553,/g3t1_3,,running
Status,1026,18164138127,/g3t1_3,,success
Status,1027,18173560220,/g4t1,,fail
Status,1028,18193498955,/g4t1,,success
Status,1029,18194394334,/g3t1_1,,running
Status,1030,18194852668,/g3t1_1,,success
Status,1031,18213468397,/g4t1,,success
Status,1032,18233957126,/g4t1,,success
Status,1033,18254269437,/g4t1,,success
Status,1034,18262782712,/g3t1_2,,running
Status,1035,18263131768,/g3t1_2,,success
Status,1036,18263198612,/g3t1_3,,running
Status,1037,18263922827,/g3t1_3,,success
Status,1038,18274620652,/g4t1,,fail
Status,1039,18294427144,/g4t1,,success
Status,1040,18294522474,/g3t1_1,,running
Status,1041,18295142306,/g3t1_1,,success
Status,1042,18314613834,/g4t1,,fail
Status,1043,18334295216,/g4t1,,success
Status,1044,18354756884,/g4t1,,success
Status,1045,18362955092,/g3t1_2,,running
Status,1046,18363335021,/g3t1_2,,success
Status,1047,18363854980,/g3t1_3,,running
Status,1048,18363915349,/g3t1_3,,success
Status,1049,18374524165,/g4t1,,fail
Status,1050,18395045153,/g3t1_1,,running
Status,1051,18395103285,/g4t1,,success
Status,1052,18395324246,/g3t1_1,,success
Status,1053,18414996851,/g4t1,,success
Status,1054,18435192025,/g4t1,,success
Status,1055,18455304556,/g4t1,,success
Status,1056,18463273043,/g3t1_2,,running
Status,1057,18463333199,/g3t1_3,,running
Status,1058,18463366186,/g3t1_2,,success
Status,1059,18463769545,/g3t1_3,,success
Status,1060,18475102823,/g4t1,,fail
Status,1061,18495952894,/g3t1_1,,running
Status,1062,18496024691,/g3t1_1,,success
Status,1063,18496081764,/g4t1,,success
Status,1064,18515773814,/g4t1,,fail
Status,1065,18535462432,/g4t1,,success
Status,1066,18555959119,/g4t1,,success
Status,1067,18563359042,/g3t1_2,,running
Status,1068,18563437985,/g3t1_3,,running
Status,1069,18563738995,/g3t1_2,,success
Status,1070,18564450278,/g3t1_3,,success
Status,1071,18576010804,/g4t1,,fail
Status,1072,18595365387,/g3t1_1,,running
Status,1073,18595735693,/g3t1_1,,success
Status,1074,18595789706,/g4t1,,success
Status,1075,18615933979,/g4t1,,success
Status,1076,18635840743,/g4t1,,success
Status,1077,18656101002,/g4t1,,success
Status,1078,18663637855,/g3t1_2,,running
Status,1079,18663699205,/g3t1_3,,running
Status,1080,18663889334,/g3t1_3,,success
Status,1081,18663921880,/g3t1_2,,success
Status,1082,18676369908,/g4t1,,fail
Status,1083,18695223938,/g3t1_1,,running
Status,1084,18695460621,/g3t1_1,,success
Status,1085,18696257457,/g4t1,,fail
Status,1086,18716697544,/g4t1,,success
Status,1087,18736170403,/g4t1,,success
Status,1088,18756147647,/g4t1,,success
Status,1089,18762578877,/g3t1_2,,running
Status,1090,18762603001,/g3t1_2,,success
Status,1091,18762993749,/g3t1_3,,running
Status,1092,18763008043,/g3t1_3,,success
Status,1093,18776380437,/g4t1,,fail
Status,1094,18795610781,/g3t1_1,,running
Status,1095,18795755958,/g3t1_1,,success
Status,1096,18796675858,/g4t1,,success
Status,1097,18816580476,/g4t1,,success
Status,1098,18836784023,/g4t1,,success
Status,1099,18856821438,/g4t1,,success
Status,1100,18863471596,/g3t1_2,,running
Status,1101,18863530553,/g3t1_3,,running
Status,1102,18863589214,/g3t1_2,,success
Status,1103,18863880409,/g3t1_3,,success
Status,1104,18876777554,/g4t1,,fail
Status,1105,18895322497,/g3t1_1,,running
Status,1106,18895368636,/g3t1_1,,success
Status,1107,18897320511,/g4t1,,fail
Status,1108,18917022531,/g4t1,,success
Status,1109,18937800087,/g4t1,,success
Status,1110,18958442611,/g4t1,,success
Status,1111,18963196826,/g3t1_2,,running
Status,1112,18963891863,/g3t1_2,,success
Status,1113,18963970110,/g3t1_3,,running
Status,1114,18964148625,/g3t1_3,,success
Status,1115,18977579249,/g4t1,,fail
Status,1116,18994947742,/g3t1_1,,running
Status,1117,18995068504,/g3t1_1,,success
Status,1118,18997322621,/g4t1,,success
Status,1119,19017554610,/g4t1,,success
Status,1120,19037642022,/g4t1,,success
Status,1121,19057915612,/g4t1,,success
Status,1122,19063591012,/g3t1_2,,running
Status,1123,19063620336,/g3t1_2,,success
Status,1124,19063739536,/g3t1_3,,running
Status,1125,19063780562,/g3t1_3,,success
Status,1126,19078325220,/g4t1,,fail
Status,1127,19095481887,/g3t1_1,,running
Status,1128,19095596577,/g3t1_1,,success
Status,1129,19097853701,/g4t1,,fail
Status,1130,19118081592,/g4t1,,success
Status,1131,19138147817,/g4t1,,success
Status,1132,19158942978,/g4t1,,success
Status,1133,19164270991,/g3t1_2,,running
Status,1134,19164416761,/g3t1_3,,running
Status,1135,19165284247,/g3t1_3,,success
Status,1136,19165360557,/g3t1_2,,success
Status,1137,19178957239,/g4t1,,fail
Status,1138,19195764312,/g3t1_1,,running
Status,1139,19196464473,/g3t1_1,,success
Status,1140,19199108094,/g4t1,,success
Status,1141,19219407470,/g4t1,,success
Status,1142,19238807900,/g4t1,,success
Status,1143,19258931803,/g4t1,,success
Status,1144,19263316654,/g3t1_2,,running
Status,1145,19263700005,/g3t1_2,,success
Status,1146,19263725159,/g3t1_3,,running
Status,1147,19263972032,/g3t1_3,,success
Status,1148,19279313030,/g4t1,,fail
Status,1149,19295699574,/g3t1_1,,running
Status,1150,19295814924,/g3t1_1,,success
Status,1151,19299078324,/g4t1,,fail
Status,1152,19319216547,/g4t1,,success
Status,1153,19339358352,/g4t1,,success
Status,1154,19359679447,/g4t1,,success
Status,1155,19364052454,/g3t1_2,,running
Status,1156,19364122911,/g3t1_3,,running
Status,1157,19364138804,/g3t1_2,,success
Status,1158,19364305406,/g3t1_3,,success
Status,1159,19380126602,/g4t1,,fail
Status,1160,19395980367,/g3t1_1,,running
Status,1161,19396203622,/g3t1_1,,success
Status,1162,19399805229,/g4t1,,success
Status,1163,19420104747,/g4t1,,success
Status,1164,19440050566,/g4t1,,success
Status,1165,19460650740,/g4t1,,success
Status,1166,19464479163,/g3t1_2,,running
Status,1167,19464528916,/g3t1_3,,running
Status,1168,19464546441,/g3t1_2,,success
Status,1169,19464592057,/g3t1_3,,success
Status,1170,19480729810,/g4t1,,fail
Status,1171,19496102783,/g3t1_1,,running
Status,1172,19496396980,/g3t1_1,,success
Status,1173,19500688292,/g4t1,,fail
Status,1174,19520862831,/g4t1,,success
Status,1175,19540853564,/g4t1,,success
Status,1176,19560958167,/g4t1,,success
Status,1177,19563864849,/g3t1_2,,running
Status,1178,19564151891,/g3t1_3,,running
Status,1179,19564371238,/g3t1_3,,success
Status,1180,19564405587,/g3t1_2,,success
Status,1181,19581044958,/g4t1,,fail
Status,1182,19595896826,/g3t1_1,,running
Status,1183,19595937287,/g3t1_1,,success
Status,1184,19600764423,/g4t1,,success
Status,1185,19620960481,/g4t1,,success
Status,1186,19641279703,/g4t1,,success
Status,1187,19661716482,/g4t1,,success
Status,1188,19664309792,/g3t1_2,,running
Status,1189,19664378445,/g3t1_2,,success
Status,1190,19664402852,/g3t1_3,,running
Status,1191,19664562930,/g3t1_3,,success
Status,1192,19681685686,/g4t1,,fail
Status,1193,19696296916,/g3t1_1,,running
Status,1194,19696766725,/g3t1_1,,success
Status,1195,19701785831,/g4t1,,fail
Status,1196,19721951248,/g4t1,,success
Status,1197,19742114846,/g4t1,,success
Status,1198,19762461658,/g4t1,,success
Status,1199,19764569153,/g3t1_2,,running
Status,1200,19764647298,/g3t1_3,,running
Status,1201,19765225409,/g3t1_2,,success
Status,1202,19765284950,/g3t1_3,,success
Status,1203,19782311629,/g4t1,,fail
Status,1204,19796481218,/g3t1_1,,running
Status,1205,19797087431,/g3t1_1,,success
Status,1206,19802412083,/g4t1,,success
Status,1207,19822491915,/g4t1,,success
Status,1208,19843026896,/g4t1,,success
Status,1209,19863222720,/g4t1,,success
Status,1210,19865023289,/g3t1_2,,running
Status,1211,19865063974,/g3t1_3,,running
Status,1212,19865117365,/g3t1_2,,success
Status,1213,19865381519,/g3t1_3,,success
Status,1214,19882932963,/g4t1,,fail
Status,1215,19896670685,/g3t1_1,,running
Status,1216,19896884092,/g3t1_1,,success
Status,1217,19903032497,/g4t1,,fail
Status,1218,19923110000,/g4t1,,success
Status,1219,19943556385,/g4t1,,success
Status,1220,19963869892,/g4t1,,success
Status,1221,19965132428,/g3t1_2,,running
Status,1222,19965210491,/g3t1_3,,running
Status,1223,19965565657,/g3t1_2,,success
Status,1224,19965617097,/g3t1_3,,success
Status,1225,19983818363,/g4t1,,fail
Status,1226,19996976277,/g3t1_1,,running
Status,1227,19997048499,/g3t1_1,,success
Status,1228,20003745086,/g4t1,,success
Status,1229,20024211784,/g4t1,,success
Status,1230,20044216815,/g4t1,,success
Status,1231,20064958543,/g4t1,,success
Status,1232,20065027630,/g3t1_2,,running
Status,1233,20065594878,/g3t1_3,,running
Status,1234,20065728487,/g3t1_2,,success
Status,1235,20065787015,/g3t1_3,,success
Status,1236,20084546913,/g4t1,,fail
Status,1237,20097514469,/g3t1_1,,running
Status,1238,20097596824,/g3t1_1,,success
Status,1239,20104640905,/g4t1,,fail
Status,1240,20124702760,/g4t1,,success
Status,1241,20144706786,/g4t1,,success
Status,1242,20165128948,/g4t1,,success
Status,1243,20165255923,/g3t1_2,,running
Status,1244,20165299421,/g3t1_3,,running
Status,1245,20165367066,/g3t1_2,,success
Status,1246,20165565173,/g3t1_3,,success
Status,1247,20185051729,/g4t1,,fail
Status,1248,20197187703,/g3t1_1,,running
Status,1249,20197640946,/g3t1_1,,success
Status,1250,20204968361,/g4t1,,success
Status,1251,20225172895,/g4t1,,success
Status,1252,20245954278,/g4t1,,success
Status,1253,20265423625,/g3t1_2,,running
Status,1254,20265504898,/g3t1_3,,running
Status,1255,20265788945,/g4t1,,success
Status,1256,20265850733,/g3t1_2,,success
Status,1257,20266146165,/g3t1_3,,success
Status,1258,20285492903,/g4t1,,fail
Status,1259,20297821239,/g3t1_1,,running
Status,1260,20297933019,/g3t1_1,,success
Status,1261,20305696554,/g4t1,,fail
Status,1262,20325857379,/g4t1,,success
Status,1263,20346152653,/g4t1,,success
Status,1264,20365309289,/g3t1_2,,running
Status,1265,20365708976,/g3t1_3,,running
Status,1266,20365838204,/g3t1_2,,success
Status,1267,20365914920,/g4t1,,success
Status,1268,20366045316,/g3t1_3,,success
Status,1269,20386130667,/g4t1,,fail
Status,1270,20397069811,/g3t1_1,,running
Status,1271,20397576885,/g3t1_1,,success
Status,1272,20406286028,/g4t1,,success
Status,1273,20426350245,/g4t1,,success
Status,1274,20446837279,/g4t1,,success
Status,1275,20465657679,/g3t1_2,,running
Status,1276,20465736822,/g3t1_3,,running
Status,1277,20466493697,/g3t1_3,,success
Status,1278,20466621125,/g3t1_2,,success
Status,1279,20466655259,/g4t1,,success
Status,1280,20486736214,/g4t1,,fail
Status,1281,20497446482,/g3t1_1,,running
Status,1282,20497743454,/g3t1_1,,success
Status,1283,20507021450,/g4t1,,fail
Status,1284,20527097919,/g4t1,,success
Status,1285,20547079227,/g4t1,,success
Status,1286,20565160244,/g3t1_2,,running
Status,1287,20565568387,/g3t1_3,,running
Status,1288,20565603330,/g3t1_2,,success
Status,1289,20565642105,/g3t1_3,,success
Status,1290,20566407814,/g4t1,,fail
Status,1291,20586952917,/g4t1,,success
Status,1292,20597151536,/g3t1_1,,running
Status,1293,20597294852,/g3t1_1,,success
Status,1294,20607134958,/g4t1,,success
Status,1295,20627553768,/g4t1,,success
Status,1296,20647821128,/g4t1,,success
Status,1297,20666106463,/g3t1_2,,running
Status,1298,20666518425,/g3t1_3,,running
Status,1299,20666556171,/g3t1_2,,success
Status,1300,20666574654,/g3t1_3,,success
Status,1301,20667359394,/g4t1,,fail
Status,1302,20687973249,/g4t1,,success
Status,1303,20697511356,/g3t1_1,,running
Status,1304,20697949658,/g3t1_1,,success
Status,1305,20707960123,/g4t1,,fail
Status,1306,20728297800,/g4t1,,success
Status,1307,20748431404,/g4t1,,success
Status,1308,20767645067,/g3t1_2,,running
Status,1309,20767890224,/g3t1_2,,success
Status,1310,20767952186,/g3t1_3,,running
Status,1311,20768047635,/g3t1_3,,success
Status,1312,20768296794,/g4t1,,fail
Status,1313,20788287801,/g4t1,,success
Status,1314,20797910286,/g3t1_1,,running
Status,1315,20798234840,/g3t1_1,,success
Status,1316,20808588856,/g4t1,,success
Status,1317,20828658496,/g4t1,,success
Status,1318,20849253296,/g4t1,,success
Status,1319,20865608442,/g3t1_2,,running
Status,1320,20865701718,/g3t1_3,,running
Status,1321,20865943606,/g3t1_2,,success
Status,1322,20866241183,/g3t1_3,,success
Status,1323,20868789163,/g4t1,,fail
Status,1324,20889172023,/g4t1,,success
Status,1325,20897733758,/g3t1_1,,running
Status,1326,20898121369,/g3t1_1,,success
Status,1327,20909215166,/g4t1,,fail
Status,1328,20929582963,/g4t1,,success
Status,1329,20949588128,/g4t1,,success
Status,1330,20966316013,/g3t1_2,,running
Status,1331,20966406503,/g3t1_3,,running
Status,1332,20966475913,/g3t1_2,,success
Status,1333,20966556191,/g3t1_3,,success
Status,1334,20969324850,/g4t1,,fail
Status,1335,20989812281,/g4t1,,success
Status,1336,20997912732,/g3t1_1,,running
Status,1337,20998359908,/g3t1_1,,success
Status,1338,21010121747,/g4t1,,success
Status,1339,21030078486,/g4t1,,success
Status,1340,21050233289,/g4t1,,success
Status,1341,21066192465,/g3t1_2,,running
Status,1342,21066305431,/g3t1_3,,running
Status,1343,21066882451,/g3t1_2,,success
Status,1344,21066942453,/g3t1_3,,success
Status,1345,21070156875,/g4t1,,fail
Status,1346,21090395162,/g4t1,,success
Status,1347,21097899515,/g3t1_1,,running
Status,1348,21098597192,/g3t1_1,,success
Status,1349,21110454293,/g4t1,,fail
Status,1350,21130939744,/g4t1,,success
Status,1351,21150785225,/g4t1,,success
Status,1352,21166132224,/g3t1_2,,running
Status,1353,21166212290,/g3t1_3,,running
Status,1354,21166417595,/g3t1_2,,success
Status,1355,21166540056,/g3t1_3,,success
Status,1356,21170830811,/g4t1,,fail
Status,1357,21190945987,/g4t1,,success
Status,1358,21198042529,/g3t1_1,,running
Status,1359,21198668356,/g3t1_1,,success
Status,1360,21211064183,/g4t1,,success
Status,1361,21231261238,/g4t1,,success
Status,1362,21251284392,/g4t1,,success
Status,1363,21266519867,/g3t1_2,,running
Status,1364,21266608651,/g3t1_3,,running
Status,1365,21266720208,/g3t1_2,,success
Status,1366,21267440788,/g3t1_3,,success
Status,1367,21271403292,/g4t1,,fail
Status,1368,21291478026,/g4t1,,success
Status,1369,21298387608,/g3t1_1,,running
Status,1370,21298447921,/g3t1_1,,success
Status,1371,21311639562,/g4t1,,fail
Status,1372,21331802753,/g4t1,,success
Status,1373,21351980667,/g4t1,,success
Status,1374,21366582568,/g3t1_2,,running
Status,1375,21366662025,/g3t1_3,,running
Status,1376,21367008655,/g3t1_3,,success
Status,1377,21367068217,/g3t1_2,,success
Status,1378,21371846448,/g4t1,,fail
Status,1379,21391856901,/g4t1,,success
Status,1380,21398433261,/g3t1_1,,running
Status,1381,21398849628,/g3t1_1,,success
Status,1382,21412144403,/g4t1,,success
Status,1383,21432423787,/g4t1,,success
Status,1384,21452523452,/g4t1,,success
Status,1385,21466896415,/g3t1_2,,running
Status,1386,21466953841,/g3t1_3,,running
Status,1387,21467046467,/g3t1_2,,success
Status,1388,21467238811,/g3t1_3,,success
Status,1389,21472388072,/g4t1,,fail
Status,1390,21492662843,/g4t1,,success
Status,1391,21498588685,/g3t1_1,,running
Status,1392,21499071260,/g3t1_1,,success
Status,1393,21512834041,/g4t1,,fail
Status,1394,21533124092,/g4t1,,success
Status,1395,21552795689,/g4t1,,success
Status,1396,21567405315,/g3t1_2,,running
Status,1397,21567504626,/g3t1_3,,running
Status,1398,21567527036,/g3t1_2,,success
Status,1399,21567543694,/g3t1_3,,success
Status,1400,21573451473,/g4t1,,fail
Status,1401,21592771513,/g4t1,,success
Status,1402,21598439823,/g3t1_1,,running
Status,1403,21598583306,/g3t1_1,,success
Status,1404,21613352100,/g4t1,,success
Status,1405,21632988332,/g4t1,,success
Status,1406,21654002692,/g4t1,,success
Status,1407,21667093677,/g3t1_2,,running
Status,1408,21667312189,/g3t1_3,,running
Status,1409,21667700596,/g3t1_2,,success
Status,1410,21667770428,/g3t1_3,,success
Status,1411,21673731143,/g4t1,,fail
Status,1412,21694086451,/g4t1,,success
Status,1413,21699038624,/g3t1_1,,running
Status,1414,21699447441,/g3t1_1,,success
Status,1415,21714005464,/g4t1,,fail
Status,1416,21733453711,/g4t1,,success
Status,1417,21753567590,/g4t1,,success
Status,1418,21766484861,/g3t1_2,,running
Status,1419,21766505365,/g3t1_3,,running
Status,1420,21766513602,/g3t1_2,,success
Status,1421,21766896670,/g3t1_3,,success
Status,1422,21773674234,/g4t1,,fail
Status,1423,21793761690,/g4t1,,success
Status,1424,21798273958,/g3t1_1,,running
Status,1425,21798427572,/g3t1_1,,success
Status,1426,21813767772,/g4t1,,success
Status,1427,21834550437,/g4t1,,success
Status,1428,21854668158,/g4t1,,success
Status,1429,21867192677,/g3t1_2,,running
Status,1430,21867430238,/g3t1_3,,running
Status,1431,21867476390,/g3t1_3,,success
Status,1432,21867905571,/g3t1_2,,success
Status,1433,21874632469,/g4t1,,fail
Status,1434,21894976768,/g4t1,,success
Status,1435,21899297816,/g3t1_1,,running
Status,1436,21899461983,/g3t1_1,,success
Status,1437,21914968707,/g4t1,,fail
Status,1438,21934761124,/g4t1,,success
Status,1439,21954557261,/g4t1,,success
Status,1440,21966781641,/g3t1_2,,running
Status,1441,21966815855,/g3t1_3,,running
Status,1442,21966903600,/g3t1_2,,success
Status,1443,21966931742,/g3t1_3,,success
Status,1444,21974840096,/g4t1,,fail
Status,1445,21994939117,/g4t1,,success
Status,1446,21998954360,/g3t1_1,,running
Status,1447,21999014742,/g3t1_1,,success
Status,1448,22015464903,/g4t1,,success
Status,1449,22035733404,/g4t1,,success
Status,1450,22055944425,/g4t1,,success
Status,1451,22067497972,/g3t1_2,,running
Status,1452,22067576248,/g3t1_3,,running
Status,1453,22067604782,/g3t1_3,,success
Status,1454,22067632973,/g3t1_2,,success
Status,1455,22075937356,/g4t1,,fail
Status,1456,22096092210,/g4t1,,success
Status,1457,22099106398,/g3t1_1,,running
Status,1458,22099443093,/g3t1_1,,success
Status,1459,22116168949,/g4t1,,fail
Status,1460,22136275617,/g4t1,,success
Status,1461,22155791787,/g4t1,,success
Status,1462,22166814641,/g3t1_2,,running
Status,1463,22166924379,/g3t1_3,,running
Status,1464,22166999259,/g3t1_3,,success
Status,1465,22167015429,/g3t1_2,,success
Status,1466,22176081359,/g4t1,,fail
Status,1467,22196321119,/g4t1,,success
Status,1468,22198802818,/g3t1_1,,running
Status,1469,22198825045,/g3t1_1,,success
Status,1470,22216773553,/g4t1,,success
Status,1471,22236657457,/g4t1,,success
Status,1472,22256698757,/g4t1,,success
Status,1473,22267276542,/g3t1_2,,running
Status,1474,22267352587,/g3t1_3,,running
Status,1475,22267370358,/g3t1_2,,success
Status,1476,22267619236,/g3t1_3,,success
Status,1477,22276737255,/g4t1,,fail
Status,1478,22297683482,/g4t1,,success
Status,1479,22299085863,/g3t1_1,,running
Status,1480,22299266427,/g3t1_1,,success
Status,1481,22317364437,/g4t1,,fail
Status,1482,22337604858,/g4t1,,success
Status,1483,22357647122,/g4t1,,success
Status,1484,22367714269,/g3t1_2,,running
Status,1485,22367800973,/g3t1_3,,running
Status,1486,22368125383,/g3t1_3,,success
Status,1487,22368184911,/g3t1_2,,success
Status,1488,22377802905,/g4t1,,fail
Status,1489,22397823297,/g4t1,,success
Status,1490,22399377824,/g3t1_1,,running
Status,1491,22399683549,/g3t1_1,,success
Status,1492,22417727860,/g4t1,,success
Status,1493,22437895452,/g4t1,,success
Status,1494,22457965209,/g4t1,,success
Status,1495,22467950854,/g3t1_2,,running
Status,1496,22467991937,/g3t1_3,,running
Status,1497,22468005763,/g3t1_2,,success
Status,1498,22468017259,/g3t1_3,,success
Status,1499,22478057314,/g4t1,,fail
Status,1500,22498409571,/g4t1,,success
Status,1501,22499294859,/g3t1_1,,running
Status,1502,22499773973,/g3t1_1,,success
Status,1503,22518236509,/g4t1,,fail
Status,1504,22538618509,/g4t1,,success
Status,1505,22558739008,/g4t1,,success
Status,1506,22567635615,/g3t1_2,,running
Status,1507,22567678557,/g3t1_3,,running
Status,1508,22567717907,/g3t1_3,,success
Status,1509,22567854335,/g3t1_2,,success
Status,1510,22578544766,/g4t1,,fail
Status,1511,22598398346,/g4t1,,success
Status,1512,22599024978,/g3t1_1,,running
Status,1513,22599138912,/g3t1_1,,success
Status,1514,22619060954,/g4t1,,success
Status,1515,22638944741,/g4t1,,success
Status,1516,22659167900,/g4t1,,success
Status,1517,22667568918,/g3t1_2,,running
Status,1518,22667620860,/g3t1_3,,running
Status,1519,22667761062,/g3t1_2,,success
Status,1520,22667777799,/g3t1_3,,success
Status,1521,22679430409,/g4t1,,fail
Status,1522,22699030793,/g4t1,,success
Status,1523,22699229267,/g3t1_1,,running
Status,1524,22699567777,/g3t1_1,,success
Status,1525,22719293123,/g4t1,,fail
Status,1526,22739357666,/g4t1,,success
Status,1527,22759470837,/g4t1,,success
Status,1528,22767550539,/g3t1_2,,running
Status,1529,22767609970,/g3t1_3,,running
Status,1530,22767930018,/g3t1_2,,success
Status,1531,22767963834,/g3t1_3,,success
Status,1532,22779706102,/g4t1,,fail
Status,1533,22799564916,/g3t1_1,,running
Status,1534,22799600651,/g4t1,,success
Status,1535,22799881345,/g3t1_1,,success
Status,1536,22819892741,/g4t1,,success
Status,1537,22839823595,/g4t1,,success
Status,1538,22860276953,/g4t1,,success
Status,1539,22867748388,/g3t1_2,,running
Status,1540,22867797263,/g3t1_3,,running
Status,1541,22868077029,/g3t1_2,,success
Status,1542,22868097226,/g3t1_3,,success
Status,1543,22880391622,/g4t1,,fail
Status,1544,22899674369,/g3t1_1,,running
Status,1545,22899903500,/g3t1_1,,success
Status,1546,22900052862,/g4t1,,success
Status,1547,22920357266,/g4t1,,fail
