
Status,2,3492620248,/g4t1,,init
Status,3,8404139320,/g3t1_1,,init
Status,5,8421711862,/g3t1_1,,init
Status,6,8421751496,/g3t1_1,,running
Status,7,8422792892,/g3t1_1,,success
Status,8,8471775487,/g3t1_1,,running
Status,9,8472088194,/g3t1_1,,success
Status,10,8521980024,/g3t1_1,,running
Status,11,8522206382,/g3t1_1,,success
Status,12,8572147722,/g3t1_1,,running
Status,13,8572188196,/g3t1_1,,success
Status,14,8609011348,/g3t1_2,,init
Status,16,8622393634,/g3t1_1,,running
Status,17,8622797137,/g3t1_1,,success
Status,18,8635378670,/g3t1_2,,init
Status,19,8635420758,/g3t1_2,,running
Status,20,8636674949,/g3t1_2,,success
Status,21,8672475990,/g3t1_1,,running
Status,22,8672732757,/g3t1_1,,success
Status,23,8685522690,/g3t1_2,,running
Status,24,8685683196,/g3t1_2,,success
Status,25,8722432826,/g3t1_1,,running
Status,26,8722476583,/g3t1_1,,success
Status,27,8735698722,/g3t1_2,,running
Status,28,8735894974,/g3t1_2,,success
Status,29,8772608575,/g3t1_1,,running
Status,30,8772642857,/g3t1_1,,success
Status,31,8785758976,/g3t1_2,,running
Status,32,8785856897,/g3t1_2,,success
Status,33,8816459096,/g4t1,,success
Status,34,8816779539,/g3t1_3,,init
Status,36,8822397643,/g3t1_1,,running
Status,37,8822623987,/g3t1_1,,success
Status,38,8831746856,/g3t1_3,,init
Status,39,8831777647,/g3t1_3,,running
Status,40,8832511391,/g3t1_3,,success
Status,41,8835752733,/g3t1_2,,running
Status,42,8835878048,/g3t1_2,,success
Status,43,8872752333,/g3t1_1,,running
Status,44,8872795067,/g3t1_1,,success
Status,45,8881861031,/g3t1_3,,running
Status,46,8881899925,/g3t1_3,,success
Status,47,8885963441,/g3t1_2,,running
Status,48,8886152548,/g3t1_2,,success
Status,49,8916583986,/g4t1,,success
Status,50,8922867374,/g3t1_1,,running
Status,51,8922902266,/g3t1_1,,success
Status,52,8931845448,/g3t1_3,,running
Status,53,8932000700,/g3t1_3,,success
Status,54,8935957124,/g3t1_2,,running
Status,55,8936082508,/g3t1_2,,success
Status,56,8972965366,/g3t1_1,,running
Status,57,8972996810,/g3t1_1,,success
Status,58,8982135432,/g3t1_3,,running
Status,59,8982171220,/g3t1_3,,success
Status,60,8986085829,/g3t1_2,,running
Status,61,8986234484,/g3t1_2,,success
Status,62,9016692641,/g4t1,,success
Status,63,9023041452,/g3t1_1,,running
Status,64,9023260712,/g3t1_1,,success
Status,65,9032104246,/g3t1_3,,running
Status,66,9032139445,/g3t1_3,,success
Status,67,9036089857,/g3t1_2,,running
Status,68,9036211548,/g3t1_2,,success
Status,69,9073186694,/g3t1_1,,running
Status,70,9073226332,/g3t1_1,,success
Status,71,9082099327,/g3t1_3,,running
Status,72,9082246624,/g3t1_3,,success
Status,73,9086333156,/g3t1_2,,running
Status,74,9086534959,/g3t1_2,,success
Status,75,9116800345,/g4t1,,fail
Status,76,9123573387,/g3t1_1,,running
Status,77,9123617175,/g3t1_1,,success
Status,78,9132231940,/g3t1_3,,running
Status,79,9132357154,/g3t1_3,,success
Status,80,9136348709,/g3t1_2,,running
Status,81,9136540744,/g3t1_2,,success
Status,82,9173568757,/g3t1_1,,running
Status,83,9173612804,/g3t1_1,,success
Status,84,9182381632,/g3t1_3,,running
Status,85,9182542240,/g3t1_3,,success
Status,86,9186325015,/g3t1_2,,running
Status,87,9186500723,/g3t1_2,,success
Status,88,9216883071,/g4t1,,fail
Status,89,9223358867,/g3t1_1,,running
Status,90,9223652533,/g3t1_1,,success
Status,91,9232376489,/g3t1_3,,running
Status,92,9232553085,/g3t1_3,,success
Status,93,9236514175,/g3t1_2,,running
Status,94,9236654672,/g3t1_2,,success
Status,95,9273639412,/g3t1_1,,running
Status,96,9273739008,/g3t1_1,,success
Status,97,9282444587,/g3t1_3,,running
Status,98,9282635017,/g3t1_3,,success
Status,99,9286471492,/g3t1_2,,running
Status,100,9286640691,/g3t1_2,,success
Status,101,9316986140,/g4t1,,fail
Status,102,9323634396,/g3t1_1,,running
Status,103,9323848461,/g3t1_1,,success
Status,104,9332669755,/g3t1_3,,running
Status,105,9332700802,/g3t1_3,,success
Status,106,9336751342,/g3t1_2,,running
Status,107,9336834055,/g3t1_2,,success
Status,108,9373946168,/g3t1_1,,running
Status,109,9373978124,/g3t1_1,,success
Status,110,9382586473,/g3t1_3,,running
Status,111,9382717737,/g3t1_3,,success
Status,112,9386766391,/g3t1_2,,running
Status,113,9386932149,/g3t1_2,,success
Status,114,9417042799,/g4t1,,fail
Status,115,9423895445,/g3t1_1,,running
Status,116,9424045838,/g3t1_1,,success
Status,117,9432696104,/g3t1_3,,running
Status,118,9432848221,/g3t1_3,,success
Status,119,9436892371,/g3t1_2,,running
Status,120,9436945739,/g3t1_2,,success
Status,121,9474042136,/g3t1_1,,running
Status,122,9474259272,/g3t1_1,,success
Status,123,9482835557,/g3t1_3,,running
Status,124,9483037955,/g3t1_3,,success
Status,125,9486992086,/g3t1_2,,running
Status,126,9487042290,/g3t1_2,,success
Status,127,9517236101,/g4t1,,fail
Status,128,9524088267,/g3t1_1,,running
Status,129,9524121471,/g3t1_1,,success
Status,130,9532913663,/g3t1_3,,running
Status,131,9533151316,/g3t1_3,,success
Status,132,9536962209,/g3t1_2,,running
Status,133,9537187149,/g3t1_2,,success
Status,134,9574181940,/g3t1_1,,running
Status,135,9574217763,/g3t1_1,,success
Status,136,9583110948,/g3t1_3,,running
Status,137,9583147074,/g3t1_3,,success
Status,138,9587041908,/g3t1_2,,running
Status,139,9587220144,/g3t1_2,,success
Status,140,9617371015,/g4t1,,fail
Status,141,9624448042,/g3t1_1,,running
Status,142,9624480127,/g3t1_1,,success
Status,143,9633243482,/g3t1_3,,running
Status,144,9633274114,/g3t1_3,,success
Status,145,9637156797,/g3t1_2,,running
Status,146,9637354304,/g3t1_2,,success
Status,147,9674280523,/g3t1_1,,running
Status,148,9674620992,/g3t1_1,,success
Status,149,9683244909,/g3t1_3,,running
Status,150,9683276316,/g3t1_3,,success
Status,151,9687262634,/g3t1_2,,running
Status,152,9687289461,/g3t1_2,,success
Status,153,9717400712,/g4t1,,fail
Status,154,9724497106,/g3t1_1,,running
Status,155,9724527964,/g3t1_1,,success
Status,156,9733441787,/g3t1_3,,running
Status,157,9733478160,/g3t1_3,,success
Status,158,9737401934,/g3t1_2,,running
Status,159,9737665170,/g3t1_2,,success
Status,160,9774695044,/g3t1_1,,running
Status,161,9774872984,/g3t1_1,,success
Status,162,9783430206,/g3t1_3,,running
Status,163,9783518529,/g3t1_3,,success
Status,164,9787392983,/g3t1_2,,running
Status,165,9787648821,/g3t1_2,,success
Status,166,9817442013,/g4t1,,fail
Status,167,9824597499,/g3t1_1,,running
Status,168,9824712646,/g3t1_1,,success
Status,169,9833607053,/g3t1_3,,running
Status,170,9833725088,/g3t1_3,,success
Status,171,9837454477,/g3t1_2,,running
Status,172,9837817565,/g3t1_2,,success
Status,173,9874628491,/g3t1_1,,running
Status,174,9874762600,/g3t1_1,,success
Status,175,9883694075,/g3t1_3,,running
Status,176,9883757054,/g3t1_3,,success
Status,177,9887597096,/g3t1_2,,running
Status,178,9887737195,/g3t1_2,,success
Status,179,9917566741,/g4t1,,fail
Status,180,9924795972,/g3t1_1,,running
Status,181,9924919866,/g3t1_1,,success
Status,182,9933846508,/g3t1_3,,running
Status,183,9933877583,/g3t1_3,,success
Status,184,9937975434,/g3t1_2,,running
Status,185,9938072970,/g3t1_2,,success
Status,186,9974987823,/g3t1_1,,running
Status,187,9975018239,/g3t1_1,,success
Status,188,9983780201,/g3t1_3,,running
Status,189,9984084605,/g3t1_3,,success
Status,190,9987794058,/g3t1_2,,running
Status,191,9987962042,/g3t1_2,,success
Status,192,10017679847,/g4t1,,fail
Status,193,10024979041,/g3t1_1,,running
Status,194,10025011366,/g3t1_1,,success
Status,195,10033810993,/g3t1_3,,running
Status,196,10033939658,/g3t1_3,,success
Status,197,10038027067,/g3t1_2,,running
Status,198,10038056182,/g3t1_2,,success
Status,199,10075063222,/g3t1_1,,running
Status,200,10075203401,/g3t1_1,,success
Status,201,10083986000,/g3t1_3,,running
Status,202,10084014932,/g3t1_3,,success
Status,203,10088165289,/g3t1_2,,running
Status,204,10088385384,/g3t1_2,,success
Status,205,10117695205,/g4t1,,fail
Status,206,10125116469,/g3t1_1,,running
Status,207,10125152842,/g3t1_1,,success
Status,208,10134003785,/g3t1_3,,running
Status,209,10134056587,/g3t1_3,,success
Status,210,10138077998,/g3t1_2,,running
Status,211,10138112519,/g3t1_2,,success
Status,212,10175216635,/g3t1_1,,running
Status,213,10175246581,/g3t1_1,,success
Status,214,10184136309,/g3t1_3,,running
Status,215,10184163919,/g3t1_3,,success
Status,216,10188338515,/g3t1_2,,running
Status,217,10188374318,/g3t1_2,,success
Status,218,10217824652,/g4t1,,fail
Status,219,10225451332,/g3t1_1,,running
Status,220,10225478745,/g3t1_1,,success
Status,221,10234192592,/g3t1_3,,running
Status,222,10234327290,/g3t1_3,,success
Status,223,10238195111,/g3t1_2,,running
Status,224,10238283253,/g3t1_2,,success
Status,225,10275522998,/g3t1_1,,running
Status,226,10275559818,/g3t1_1,,success
Status,227,10284417578,/g3t1_3,,running
Status,228,10284458408,/g3t1_3,,success
Status,229,10288622510,/g3t1_2,,running
Status,230,10288662514,/g3t1_2,,success
Status,231,10317897735,/g4t1,,fail
Status,232,10325536945,/g3t1_1,,running
Status,233,10325675271,/g3t1_1,,success
Status,234,10334398519,/g3t1_3,,running
Status,235,10334539047,/g3t1_3,,success
Status,236,10338508051,/g3t1_2,,running
Status,237,10338558806,/g3t1_2,,success
Status,238,10375667450,/g3t1_1,,running
Status,239,10375704783,/g3t1_1,,success
Status,240,10384447329,/g3t1_3,,running
Status,241,10384600452,/g3t1_3,,success
Status,242,10388368832,/g3t1_2,,running
Status,243,10388484963,/g3t1_2,,success
Status,244,10417905237,/g4t1,,fail
Status,245,10425707486,/g3t1_1,,running
Status,246,10425846812,/g3t1_1,,success
Status,247,10434745286,/g3t1_3,,running
Status,248,10434775117,/g3t1_3,,success
Status,249,10438711548,/g3t1_2,,running
Status,250,10438739938,/g3t1_2,,success
Status,251,10475864897,/g3t1_1,,running
Status,252,10476009553,/g3t1_1,,success
Status,253,10484667851,/g3t1_3,,running
Status,254,10484861374,/g3t1_3,,success
Status,255,10488648399,/g3t1_2,,running
Status,256,10488746662,/g3t1_2,,success
Status,257,10518051651,/g4t1,,fail
Status,258,10525957505,/g3t1_1,,running
Status,259,10525983717,/g3t1_1,,success
Status,260,10534880911,/g3t1_3,,running
Status,261,10534905690,/g3t1_3,,success
Status,262,10539029801,/g3t1_2,,running
Status,263,10539058904,/g3t1_2,,success
Status,264,10575992917,/g3t1_1,,running
Status,265,10576018261,/g3t1_1,,success
Status,266,10584934018,/g3t1_3,,running
Status,267,10585040911,/g3t1_3,,success
Status,268,10588995090,/g3t1_2,,running
Status,269,10589020475,/g3t1_2,,success
Status,270,10618104094,/g4t1,,fail
Status,271,10625981118,/g3t1_1,,running
Status,272,10626038673,/g3t1_1,,success
Status,273,10635037715,/g3t1_3,,running
Status,274,10635075538,/g3t1_3,,success
Status,275,10639119315,/g3t1_2,,running
Status,276,10639251998,/g3t1_2,,success
Status,277,10676136830,/g3t1_1,,running
Status,278,10676162066,/g3t1_1,,success
Status,279,10685152263,/g3t1_3,,running
Status,280,10685302026,/g3t1_3,,success
Status,281,10689216070,/g3t1_2,,running
Status,282,10689354302,/g3t1_2,,success
Status,283,10718214607,/g4t1,,fail
Status,284,10726318383,/g3t1_1,,running
Status,285,10726350637,/g3t1_1,,success
Status,286,10735160513,/g3t1_3,,running
Status,287,10735284882,/g3t1_3,,success
Status,288,10739123398,/g3t1_2,,running
Status,289,10739244900,/g3t1_2,,success
Status,290,10776307583,/g3t1_1,,running
Status,291,10776408220,/g3t1_1,,success
Status,292,10785330199,/g3t1_3,,running
Status,293,10785357090,/g3t1_3,,success
Status,294,10789260442,/g3t1_2,,running
Status,295,10789287974,/g3t1_2,,success
Status,296,10818313690,/g4t1,,fail
Status,297,10826404020,/g3t1_1,,running
Status,298,10826519579,/g3t1_1,,success
Status,299,10835370362,/g3t1_3,,running
Status,300,10835394999,/g3t1_3,,success
Status,301,10839325171,/g3t1_2,,running
Status,302,10839401598,/g3t1_2,,success
Status,303,10876534435,/g3t1_1,,running
Status,304,10876688430,/g3t1_1,,success
Status,305,10885470622,/g3t1_3,,running
Status,306,10885493531,/g3t1_3,,success
Status,307,10889606754,/g3t1_2,,running
Status,308,10889632425,/g3t1_2,,success
Status,309,10918365658,/g4t1,,fail
Status,310,10926642823,/g3t1_1,,running
Status,311,10926806058,/g3t1_1,,success
Status,312,10935601085,/g3t1_3,,running
Status,313,10935636235,/g3t1_3,,success
Status,314,10939688548,/g3t1_2,,running
Status,315,10939962767,/g3t1_2,,success
Status,316,10976711862,/g3t1_1,,running
Status,317,10976833400,/g3t1_1,,success
Status,318,10985625701,/g3t1_3,,running
Status,319,10985649747,/g3t1_3,,success
Status,320,10989506482,/g3t1_2,,running
Status,321,10989734589,/g3t1_2,,success
Status,322,11018442460,/g4t1,,fail
Status,323,11026772292,/g3t1_1,,running
Status,324,11026905933,/g3t1_1,,success
Status,325,11035639712,/g3t1_3,,running
Status,326,11035765910,/g3t1_3,,success
Status,327,11039821942,/g3t1_2,,running
Status,328,11039849762,/g3t1_2,,success
Status,329,11076824052,/g3t1_1,,running
Status,330,11077080339,/g3t1_1,,success
Status,331,11085765503,/g3t1_3,,running
Status,332,11085790923,/g3t1_3,,success
Status,333,11089795095,/g3t1_2,,running
Status,334,11089819483,/g3t1_2,,success
Status,335,11118467726,/g4t1,,fail
Status,336,11126887603,/g3t1_1,,running
Status,337,11126999384,/g3t1_1,,success
Status,338,11135892974,/g3t1_3,,running
Status,339,11136010640,/g3t1_3,,success
Status,340,11139996325,/g3t1_2,,running
Status,341,11140070468,/g3t1_2,,success
Status,342,11176922893,/g3t1_1,,running
Status,343,11177070664,/g3t1_1,,success
Status,344,11185953496,/g3t1_3,,running
Status,345,11185984432,/g3t1_3,,success
Status,346,11190080956,/g3t1_2,,running
Status,347,11190116582,/g3t1_2,,success
Status,348,11218674116,/g4t1,,fail
Status,349,11226965528,/g3t1_1,,running
Status,350,11227090909,/g3t1_1,,success
Status,351,11236025484,/g3t1_3,,running
Status,352,11236048467,/g3t1_3,,success
Status,353,11239989544,/g3t1_2,,running
Status,354,11240008596,/g3t1_2,,success
Status,355,11277063349,/g3t1_1,,running
Status,356,11277188390,/g3t1_1,,success
Status,357,11285982148,/g3t1_3,,running
Status,358,11286046977,/g3t1_3,,success
Status,359,11290060354,/g3t1_2,,running
Status,360,11290171643,/g3t1_2,,success
Status,361,11318716549,/g4t1,,fail
Status,362,11327205990,/g3t1_1,,running
Status,363,11327273217,/g3t1_1,,success
Status,364,11336183887,/g3t1_3,,running
Status,365,11336209039,/g3t1_3,,success
Status,366,11340222421,/g3t1_2,,running
Status,367,11340245387,/g3t1_2,,success
Status,368,11377299275,/g3t1_1,,running
Status,369,11377462665,/g3t1_1,,success
Status,370,11386155393,/g3t1_3,,running
Status,371,11386183546,/g3t1_3,,success
Status,372,11390479583,/g3t1_2,,running
Status,373,11390565577,/g3t1_2,,success
Status,374,11418758820,/g4t1,,fail
Status,375,11427360824,/g3t1_1,,running
Status,376,11427445753,/g3t1_1,,success
Status,377,11436328920,/g3t1_3,,running
Status,378,11436570696,/g3t1_3,,success
Status,379,11440473319,/g3t1_2,,running
Status,380,11440503070,/g3t1_2,,success
Status,381,11477589655,/g3t1_1,,running
Status,382,11477613784,/g3t1_1,,success
Status,383,11486432897,/g3t1_3,,running
Status,384,11486456659,/g3t1_3,,success
Status,385,11490388122,/g3t1_2,,running
Status,386,11490414366,/g3t1_2,,success
Status,387,11518877439,/g4t1,,fail
Status,388,11527767574,/g3t1_1,,running
Status,389,11527879098,/g3t1_1,,success
Status,390,11536490912,/g3t1_3,,running
Status,391,11536606263,/g3t1_3,,success
Status,392,11540461072,/g3t1_2,,running
Status,393,11540527183,/g3t1_2,,success
Status,394,11577762066,/g3t1_1,,running
Status,395,11577790253,/g3t1_1,,success
Status,396,11586613901,/g3t1_3,,running
Status,397,11586646804,/g3t1_3,,success
Status,398,11590549133,/g3t1_2,,running
Status,399,11590576601,/g3t1_2,,success
Status,400,11618988000,/g4t1,,fail
Status,401,11627860269,/g3t1_1,,running
Status,402,11628272206,/g3t1_1,,success
Status,403,11636720003,/g3t1_3,,running
Status,404,11636918888,/g3t1_3,,success
Status,405,11640707367,/g3t1_2,,running
Status,406,11640734535,/g3t1_2,,success
Status,407,11677844814,/g3t1_1,,running
Status,408,11678010928,/g3t1_1,,success
Status,409,11686777687,/g3t1_3,,running
Status,410,11686802487,/g3t1_3,,success
Status,411,11690644556,/g3t1_2,,running
Status,412,11690768905,/g3t1_2,,success
Status,413,11719088624,/g4t1,,fail
Status,414,11727982605,/g3t1_1,,running
Status,415,11728006964,/g3t1_1,,success
Status,416,11736815836,/g3t1_3,,running
Status,417,11736963675,/g3t1_3,,success
Status,418,11740859186,/g3t1_2,,running
Status,419,11740888112,/g3t1_2,,success
Status,420,11778085551,/g3t1_1,,running
Status,421,11778109023,/g3t1_1,,success
Status,422,11787658338,/g3t1_3,,running
Status,423,11787698862,/g3t1_3,,success
Status,424,11790769487,/g3t1_2,,running
Status,425,11790887107,/g3t1_2,,success
Status,426,11819144569,/g4t1,,fail
Status,427,11828204197,/g3t1_1,,running
Status,428,11828227934,/g3t1_1,,success
Status,429,11837477838,/g3t1_3,,running
Status,430,11837613932,/g3t1_3,,success
Status,431,11840949006,/g3t1_2,,running
Status,432,11841044566,/g3t1_2,,success
Status,433,11878332141,/g3t1_1,,running
Status,434,11878355431,/g3t1_1,,success
Status,435,11887166901,/g3t1_3,,running
Status,436,11887190896,/g3t1_3,,success
Status,437,11890859510,/g3t1_2,,running
Status,438,11891068207,/g3t1_2,,success
Status,439,11919210263,/g4t1,,fail
Status,440,11928378155,/g3t1_1,,running
Status,441,11928401484,/g3t1_1,,success
Status,442,11937363854,/g3t1_3,,running
Status,443,11937554667,/g3t1_3,,success
Status,444,11941065760,/g3t1_2,,running
Status,445,11941167262,/g3t1_2,,success
Status,446,11978422646,/g3t1_1,,running
Status,447,11978450556,/g3t1_1,,success
Status,448,11987495123,/g3t1_3,,running
Status,449,11987518186,/g3t1_3,,success
Status,450,11991058942,/g3t1_2,,running
Status,451,11991126388,/g3t1_2,,success
Status,452,12019358709,/g4t1,,fail
Status,453,12028596880,/g3t1_1,,running
Status,454,12028697267,/g3t1_1,,success
Status,455,12037508904,/g3t1_3,,running
Status,456,12037532545,/g3t1_3,,success
Status,457,12041122798,/g3t1_2,,running
Status,458,12041255693,/g3t1_2,,success
Status,459,12078527337,/g3t1_1,,running
Status,460,12078616543,/g3t1_1,,success
Status,461,12087769506,/g3t1_3,,running
Status,462,12087807602,/g3t1_3,,success
Status,463,12091224963,/g3t1_2,,running
Status,464,12091247969,/g3t1_2,,success
Status,465,12119464185,/g4t1,,fail
Status,466,12128711494,/g3t1_1,,running
Status,467,12128769184,/g3t1_1,,success
Status,468,12137724368,/g3t1_3,,running
Status,469,12137851688,/g3t1_3,,success
Status,470,12141160966,/g3t1_2,,running
Status,471,12141267841,/g3t1_2,,success
Status,472,12178923392,/g3t1_1,,running
Status,473,12178997922,/g3t1_1,,success
Status,474,12187726182,/g3t1_3,,running
Status,475,12187837754,/g3t1_3,,success
Status,476,12191296602,/g3t1_2,,running
Status,477,12191490371,/g3t1_2,,success
Status,478,12219468335,/g4t1,,fail
Status,479,12228902275,/g3t1_1,,running
Status,480,12229048287,/g3t1_1,,success
Status,481,12237826533,/g3t1_3,,running
Status,482,12237990829,/g3t1_3,,success
Status,483,12241417988,/g3t1_2,,running
Status,484,12241589954,/g3t1_2,,success
Status,485,12279063873,/g3t1_1,,running
Status,486,12279098135,/g3t1_1,,success
Status,487,12288080499,/g3t1_3,,running
Status,488,12288233875,/g3t1_3,,success
Status,489,12291501612,/g3t1_2,,running
Status,490,12291622635,/g3t1_2,,success
Status,491,12319559065,/g4t1,,fail
Status,492,12329056829,/g3t1_1,,running
Status,493,12329217367,/g3t1_1,,success
Status,494,12338185300,/g3t1_3,,running
Status,495,12338209176,/g3t1_3,,success
Status,496,12341633664,/g3t1_2,,running
Status,497,12341748494,/g3t1_2,,success
Status,498,12379147407,/g3t1_1,,running
Status,499,12379172898,/g3t1_1,,success
Status,500,12388141907,/g3t1_3,,running
Status,501,12388172735,/g3t1_3,,success
Status,502,12391650469,/g3t1_2,,running
Status,503,12391781364,/g3t1_2,,success
Status,504,12419587260,/g4t1,,fail
Status,505,12429290944,/g3t1_1,,running
Status,506,12429316975,/g3t1_1,,success
Status,507,12438385209,/g3t1_3,,running
Status,508,12438429567,/g3t1_3,,success
Status,509,12441718149,/g3t1_2,,running
Status,510,12441795272,/g3t1_2,,success
Status,511,12479447301,/g3t1_1,,running
Status,512,12479582864,/g3t1_1,,success
Status,513,12488299099,/g3t1_3,,running
Status,514,12488415882,/g3t1_3,,success
Status,515,12491788517,/g3t1_2,,running
Status,516,12491955872,/g3t1_2,,success
Status,517,12519735581,/g4t1,,fail
Status,518,12529382943,/g3t1_1,,running
Status,519,12529570088,/g3t1_1,,success
Status,520,12538523707,/g3t1_3,,running
Status,521,12538634231,/g3t1_3,,success
Status,522,12541934978,/g3t1_2,,running
Status,523,12541961786,/g3t1_2,,success
Status,524,12579546340,/g3t1_1,,running
Status,525,12579768569,/g3t1_1,,success
Status,526,12588522513,/g3t1_3,,running
Status,527,12588685190,/g3t1_3,,success
Status,528,12591961194,/g3t1_2,,running
Status,529,12591981168,/g3t1_2,,success
Status,530,12619944254,/g4t1,,fail
Status,531,12629690559,/g3t1_1,,running
Status,532,12629805162,/g3t1_1,,success
Status,533,12638532141,/g3t1_3,,running
Status,534,12638681383,/g3t1_3,,success
Status,535,12642081341,/g3t1_2,,running
Status,536,12642190954,/g3t1_2,,success
Status,537,12679673842,/g3t1_1,,running
Status,538,12679869032,/g3t1_1,,success
Status,539,12688606188,/g3t1_3,,running
Status,540,12688761140,/g3t1_3,,success
Status,541,12692143095,/g3t1_2,,running
Status,542,12692337251,/g3t1_2,,success
Status,543,12719956585,/g4t1,,fail
Status,544,12729896741,/g3t1_1,,running
Status,545,12729928637,/g3t1_1,,success
Status,546,12738711610,/g3t1_3,,running
Status,547,12738740523,/g3t1_3,,success
Status,548,12742245112,/g3t1_2,,running
Status,549,12742273971,/g3t1_2,,success
Status,550,12779965434,/g3t1_1,,running
Status,551,12779994500,/g3t1_1,,success
Status,552,12788945467,/g3t1_3,,running
Status,553,12789144400,/g3t1_3,,success
Status,554,12792302691,/g3t1_2,,running
Status,555,12792388072,/g3t1_2,,success
Status,556,12820063950,/g4t1,,fail
Status,557,12830035822,/g3t1_1,,running
Status,558,12830134956,/g3t1_1,,success
Status,559,12838983732,/g3t1_3,,running
Status,560,12839033460,/g3t1_3,,success
Status,561,12842246873,/g3t1_2,,running
Status,562,12842482525,/g3t1_2,,success
Status,563,12880044301,/g3t1_1,,running
Status,564,12880241364,/g3t1_1,,success
Status,565,12888947663,/g3t1_3,,running
Status,566,12889276881,/g3t1_3,,success
Status,567,12892329042,/g3t1_2,,running
Status,568,12892470811,/g3t1_2,,success
Status,569,12920101815,/g4t1,,fail
Status,570,12930322816,/g3t1_1,,running
Status,571,12930346880,/g3t1_1,,success
Status,572,12939210966,/g3t1_3,,running
Status,573,12939240585,/g3t1_3,,success
Status,574,12942488551,/g3t1_2,,running
Status,575,12942726512,/g3t1_2,,success
Status,576,12980350800,/g3t1_1,,running
Status,577,12980456906,/g3t1_1,,success
Status,578,12989120632,/g3t1_3,,running
Status,579,12989246756,/g3t1_3,,success
Status,580,12992648558,/g3t1_2,,running
Status,581,12992670156,/g3t1_2,,success
Status,582,13020122538,/g4t1,,fail
Status,583,13030396507,/g3t1_1,,running
Status,584,13030540056,/g3t1_1,,success
Status,585,13039420840,/g3t1_3,,running
Status,586,13039446564,/g3t1_3,,success
Status,587,13042637959,/g3t1_2,,running
Status,588,13042756099,/g3t1_2,,success
Status,589,13080422940,/g3t1_1,,running
Status,590,13080588607,/g3t1_1,,success
Status,591,13089451528,/g3t1_3,,running
Status,592,13089476192,/g3t1_3,,success
Status,593,13092775103,/g3t1_2,,running
Status,594,13092847950,/g3t1_2,,success
Status,595,13120256427,/g4t1,,fail
Status,596,13130583684,/g3t1_1,,running
Status,597,13130606930,/g3t1_1,,success
Status,598,13139520490,/g3t1_3,,running
Status,599,13139662796,/g3t1_3,,success
Status,600,13142778550,/g3t1_2,,running
Status,601,13142860932,/g3t1_2,,success
Status,602,13180685763,/g3t1_1,,running
Status,603,13180709440,/g3t1_1,,success
Status,604,13189686440,/g3t1_3,,running
Status,605,13189709121,/g3t1_3,,success
Status,606,13192894605,/g3t1_2,,running
Status,607,13192920605,/g3t1_2,,success
Status,608,13220299034,/g4t1,,fail
Status,609,13230713981,/g3t1_1,,running
Status,610,13230871158,/g3t1_1,,success
Status,611,13239732564,/g3t1_3,,running
Status,612,13239753753,/g3t1_3,,success
Status,613,13242978670,/g3t1_2,,running
Status,614,13243088158,/g3t1_2,,success
Status,615,13280801976,/g3t1_1,,running
Status,616,13280903226,/g3t1_1,,success
Status,617,13289766088,/g3t1_3,,running
Status,618,13289794012,/g3t1_3,,success
Status,619,13293019169,/g3t1_2,,running
Status,620,13293131294,/g3t1_2,,success
Status,621,13320433349,/g4t1,,fail
Status,622,13330940391,/g3t1_1,,running
Status,623,13331055646,/g3t1_1,,success
Status,624,13339806759,/g3t1_3,,running
Status,625,13339876835,/g3t1_3,,success
Status,626,13343069045,/g3t1_2,,running
Status,627,13343176283,/g3t1_2,,success
Status,628,13381062043,/g3t1_1,,running
Status,629,13381161162,/g3t1_1,,success
Status,630,13389898480,/g3t1_3,,running
Status,631,13390051208,/g3t1_3,,success
Status,632,13393115597,/g3t1_2,,running
Status,633,13393267407,/g3t1_2,,success
Status,634,13420572290,/g4t1,,fail
Status,635,13431129963,/g3t1_1,,running
Status,636,13431167323,/g3t1_1,,success
Status,637,13440066937,/g3t1_3,,running
Status,638,13440091382,/g3t1_3,,success
Status,639,13443232764,/g3t1_2,,running
Status,640,13443251799,/g3t1_2,,success
Status,641,13481100983,/g3t1_1,,running
Status,642,13481230494,/g3t1_1,,success
Status,643,13489988562,/g3t1_3,,running
Status,644,13490095260,/g3t1_3,,success
Status,645,13493322760,/g3t1_2,,running
Status,646,13493409506,/g3t1_2,,success
Status,647,13520542446,/g4t1,,fail
Status,648,13531186145,/g3t1_1,,running
Status,649,13531278291,/g3t1_1,,success
Status,650,13540126223,/g3t1_3,,running
Status,651,13540236119,/g3t1_3,,success
Status,652,13543374252,/g3t1_2,,running
Status,653,13543549397,/g3t1_2,,success
Status,654,13581302048,/g3t1_1,,running
Status,655,13581332998,/g3t1_1,,success
Status,656,13590352268,/g3t1_3,,running
Status,657,13590381194,/g3t1_3,,success
Status,658,13593522424,/g3t1_2,,running
Status,659,13593622098,/g3t1_2,,success
Status,660,13620599080,/g4t1,,fail
Status,661,13631404182,/g3t1_1,,running
Status,662,13631427543,/g3t1_1,,success
Status,663,13640373984,/g3t1_3,,running
Status,664,13640625684,/g3t1_3,,success
Status,665,13643550602,/g3t1_2,,running
Status,666,13643719131,/g3t1_2,,success
Status,667,13681392427,/g3t1_1,,running
Status,668,13681535126,/g3t1_1,,success
Status,669,13690483237,/g3t1_3,,running
Status,670,13690504756,/g3t1_3,,success
Status,671,13693747806,/g3t1_2,,running
Status,672,13693834265,/g3t1_2,,success
Status,673,13720893849,/g4t1,,fail
Status,674,13731455848,/g3t1_1,,running
Status,675,13731560856,/g3t1_1,,success
Status,676,13740473007,/g3t1_3,,running
Status,677,13740502474,/g3t1_3,,success
Status,678,13743813271,/g3t1_2,,running
Status,679,13743838776,/g3t1_2,,success
Status,680,13781554897,/g3t1_1,,running
Status,681,13781682914,/g3t1_1,,success
Status,682,13790595458,/g3t1_3,,running
Status,683,13790625756,/g3t1_3,,success
Status,684,13793830080,/g3t1_2,,running
Status,685,13793977355,/g3t1_2,,success
Status,686,13820971796,/g4t1,,fail
Status,687,13831606385,/g3t1_1,,running
Status,688,13831689630,/g3t1_1,,success
Status,689,13840710543,/g3t1_3,,running
Status,690,13840884551,/g3t1_3,,success
Status,691,13843873326,/g3t1_2,,running
Status,692,13844027049,/g3t1_2,,success
Status,693,13881638892,/g3t1_1,,running
Status,694,13881666611,/g3t1_1,,success
Status,695,13890752067,/g3t1_3,,running
Status,696,13890780823,/g3t1_3,,success
Status,697,13894129205,/g3t1_2,,running
Status,698,13894158552,/g3t1_2,,success
Status,699,13921075145,/g4t1,,fail
Status,700,13931775882,/g3t1_1,,running
Status,701,13931807735,/g3t1_1,,success
Status,702,13940827027,/g3t1_3,,running
Status,703,13940897612,/g3t1_3,,success
Status,704,13944135109,/g3t1_2,,running
Status,705,13944260069,/g3t1_2,,success
Status,706,13981981545,/g3t1_1,,running
Status,707,13982005747,/g3t1_1,,success
Status,708,13990946625,/g3t1_3,,running
Status,709,13991012418,/g3t1_3,,success
Status,710,13994163122,/g3t1_2,,running
Status,711,13994278054,/g3t1_2,,success
Status,712,14021057575,/g4t1,,fail
Status,713,14031891994,/g3t1_1,,running
Status,714,14031976469,/g3t1_1,,success
Status,715,14041102357,/g3t1_3,,running
Status,716,14041135515,/g3t1_3,,success
Status,717,14044254739,/g3t1_2,,running
Status,718,14044402735,/g3t1_2,,success
Status,719,14081976665,/g3t1_1,,running
Status,720,14082079602,/g3t1_1,,success
Status,721,14091223072,/g3t1_3,,running
Status,722,14091254632,/g3t1_3,,success
Status,723,14094314030,/g3t1_2,,running
Status,724,14094497404,/g3t1_2,,success
Status,725,14121203159,/g4t1,,fail
Status,726,14132053175,/g3t1_1,,running
Status,727,14132076955,/g3t1_1,,success
Status,728,14141202742,/g3t1_3,,running
Status,729,14141356431,/g3t1_3,,success
Status,730,14144512449,/g3t1_2,,running
Status,731,14144640630,/g3t1_2,,success
Status,732,14182106163,/g3t1_1,,running
Status,733,14182128728,/g3t1_1,,success
Status,734,14191275196,/g3t1_3,,running
Status,735,14191393217,/g3t1_3,,success
Status,736,14194482746,/g3t1_2,,running
Status,737,14194691894,/g3t1_2,,success
Status,738,14221393557,/g4t1,,fail
Status,739,14232237756,/g3t1_1,,running
Status,740,14232262925,/g3t1_1,,success
Status,741,14241401572,/g3t1_3,,running
Status,742,14241536601,/g3t1_3,,success
Status,743,14244612171,/g3t1_2,,running
Status,744,14244636109,/g3t1_2,,success
Status,745,14282300762,/g3t1_1,,running
Status,746,14282324460,/g3t1_1,,success
Status,747,14291658254,/g3t1_3,,running
Status,748,14291682219,/g3t1_3,,success
Status,749,14294601837,/g3t1_2,,running
Status,750,14294696965,/g3t1_2,,success
Status,751,14321525472,/g4t1,,fail
Status,752,14332245908,/g3t1_1,,running
Status,753,14332415065,/g3t1_1,,success
Status,754,14341699539,/g3t1_3,,running
Status,755,14341722838,/g3t1_3,,success
Status,756,14344664916,/g3t1_2,,running
Status,757,14344820817,/g3t1_2,,success
Status,758,14382318829,/g3t1_1,,running
Status,759,14382463555,/g3t1_1,,success
Status,760,14391883497,/g3t1_3,,running
Status,761,14391976169,/g3t1_3,,success
Status,762,14394835139,/g3t1_2,,running
Status,763,14394988572,/g3t1_2,,success
Status,764,14421667671,/g4t1,,fail
Status,765,14432404454,/g3t1_1,,running
Status,766,14432534093,/g3t1_1,,success
Status,767,14441929396,/g3t1_3,,running
Status,768,14441957842,/g3t1_3,,success
Status,769,14444909939,/g3t1_2,,running
Status,770,14445039763,/g3t1_2,,success
Status,771,14482404678,/g3t1_1,,running
Status,772,14482508340,/g3t1_1,,success
Status,773,14491933504,/g3t1_3,,running
Status,774,14491960675,/g3t1_3,,success
Status,775,14495089061,/g3t1_2,,running
Status,776,14495217777,/g3t1_2,,success
Status,777,14521660932,/g4t1,,fail
Status,778,14532676248,/g3t1_1,,running
Status,779,14532700657,/g3t1_1,,success
Status,780,14542026147,/g3t1_3,,running
Status,781,14542117925,/g3t1_3,,success
Status,782,14545080747,/g3t1_2,,running
Status,783,14545187453,/g3t1_2,,success
Status,784,14582564337,/g3t1_1,,running
Status,785,14582726165,/g3t1_1,,success
Status,786,14592082816,/g3t1_3,,running
Status,787,14592130266,/g3t1_3,,success
Status,788,14595199856,/g3t1_2,,running
Status,789,14595267538,/g3t1_2,,success
Status,790,14621714901,/g4t1,,fail
Status,791,14632686679,/g3t1_1,,running
Status,792,14632731479,/g3t1_1,,success
Status,793,14642278528,/g3t1_3,,running
Status,794,14642303026,/g3t1_3,,success
Status,795,14645278138,/g3t1_2,,running
Status,796,14645393979,/g3t1_2,,success
Status,797,14682830002,/g3t1_1,,running
Status,798,14682853462,/g3t1_1,,success
Status,799,14692205852,/g3t1_3,,running
Status,800,14692373138,/g3t1_3,,success
Status,801,14695374267,/g3t1_2,,running
Status,802,14695530166,/g3t1_2,,success
Status,803,14721885321,/g4t1,,fail
Status,804,14732960713,/g3t1_1,,running
Status,805,14732985033,/g3t1_1,,success
Status,806,14742341933,/g3t1_3,,running
Status,807,14742381595,/g3t1_3,,success
Status,808,14745506018,/g3t1_2,,running
Status,809,14745602748,/g3t1_2,,success
Status,810,14783069146,/g3t1_1,,running
Status,811,14783092131,/g3t1_1,,success
Status,812,14792425740,/g3t1_3,,running
Status,813,14792555813,/g3t1_3,,success
Status,814,14795613553,/g3t1_2,,running
Status,815,14795631697,/g3t1_2,,success
Status,816,14821990145,/g4t1,,fail
Status,817,14833102234,/g3t1_1,,running
Status,818,14833125704,/g3t1_1,,success
Status,819,14842523376,/g3t1_3,,running
Status,820,14842713435,/g3t1_3,,success
Status,821,14845575923,/g3t1_2,,running
Status,822,14845662767,/g3t1_2,,success
Status,823,14883217233,/g3t1_1,,running
Status,824,14883239153,/g3t1_1,,success
Status,825,14892626011,/g3t1_3,,running
Status,826,14892747244,/g3t1_3,,success
Status,827,14895664887,/g3t1_2,,running
Status,828,14895801147,/g3t1_2,,success
Status,829,14922005342,/g4t1,,fail
Status,830,14933275812,/g3t1_1,,running
Status,831,14933425483,/g3t1_1,,success
Status,832,14942783584,/g3t1_3,,running
Status,833,14942897658,/g3t1_3,,success
Status,834,14945754454,/g3t1_2,,running
Status,835,14945887927,/g3t1_2,,success
Status,836,14983295608,/g3t1_1,,running
Status,837,14983457850,/g3t1_1,,success
Status,838,14992789280,/g3t1_3,,running
Status,839,14992931113,/g3t1_3,,success
Status,840,14995840219,/g3t1_2,,running
Status,841,14995976837,/g3t1_2,,success
Status,842,15022090597,/g4t1,,fail
Status,843,15033416448,/g3t1_1,,running
Status,844,15033441199,/g3t1_1,,success
Status,845,15042906818,/g3t1_3,,running
Status,846,15043003858,/g3t1_3,,success
Status,847,15045954627,/g3t1_2,,running
Status,848,15045974338,/g3t1_2,,success
Status,849,15083575654,/g3t1_1,,running
Status,850,15083599358,/g3t1_1,,success
Status,851,15093085018,/g3t1_3,,running
Status,852,15093107680,/g3t1_3,,success
Status,853,15096038617,/g3t1_2,,running
Status,854,15096057665,/g3t1_2,,success
Status,855,15122217246,/g4t1,,fail
Status,856,15133497631,/g3t1_1,,running
Status,857,15133572411,/g3t1_1,,success
Status,858,15143091859,/g3t1_3,,running
Status,859,15143237511,/g3t1_3,,success
Status,860,15145987362,/g3t1_2,,running
Status,861,15146199601,/g3t1_2,,success
Status,862,15183724086,/g3t1_1,,running
Status,863,15183775602,/g3t1_1,,success
Status,864,15193238107,/g3t1_3,,running
Status,865,15193268956,/g3t1_3,,success
Status,866,15196294156,/g3t1_2,,running
Status,867,15196315853,/g3t1_2,,success
Status,868,15222398521,/g4t1,,fail
Status,869,15233820819,/g3t1_1,,running
Status,870,15233855506,/g3t1_1,,success
Status,871,15243369462,/g3t1_3,,running
Status,872,15243392622,/g3t1_3,,success
Status,873,15246344675,/g3t1_2,,running
Status,874,15246368848,/g3t1_2,,success
Status,875,15283883869,/g3t1_1,,running
Status,876,15283908060,/g3t1_1,,success
Status,877,15293304612,/g3t1_3,,running
Status,878,15293468552,/g3t1_3,,success
Status,879,15296340067,/g3t1_2,,running
Status,880,15296502061,/g3t1_2,,success
Status,881,15322481299,/g4t1,,fail
Status,882,15333944103,/g3t1_1,,running
Status,883,15333967400,/g3t1_1,,success
Status,884,15343472946,/g3t1_3,,running
Status,885,15343566351,/g3t1_3,,success
Status,886,15346480360,/g3t1_2,,running
Status,887,15346575180,/g3t1_2,,success
Status,888,15384028215,/g3t1_1,,running
Status,889,15384056125,/g3t1_1,,success
Status,890,15393530366,/g3t1_3,,running
Status,891,15393557225,/g3t1_3,,success
Status,892,15396706735,/g3t1_2,,running
Status,893,15396729894,/g3t1_2,,success
Status,894,15422540387,/g4t1,,fail
Status,895,15434147284,/g3t1_1,,running
Status,896,15434171747,/g3t1_1,,success
Status,897,15443772228,/g3t1_3,,running
Status,898,15443796423,/g3t1_3,,success
Status,899,15446774334,/g3t1_2,,running
Status,900,15446797995,/g3t1_2,,success
Status,901,15484191222,/g3t1_1,,running
Status,902,15484264476,/g3t1_1,,success
Status,903,15493771019,/g3t1_3,,running
Status,904,15493794782,/g3t1_3,,success
Status,905,15496804848,/g3t1_2,,running
Status,906,15496828036,/g3t1_2,,success
Status,907,15522621941,/g4t1,,fail
Status,908,15534233728,/g3t1_1,,running
Status,909,15534385228,/g3t1_1,,success
Status,910,15543865981,/g3t1_3,,running
Status,911,15543890379,/g3t1_3,,success
Status,912,15546875981,/g3t1_2,,running
Status,913,15546895493,/g3t1_2,,success
Status,914,15584355736,/g3t1_1,,running
Status,915,15584460044,/g3t1_1,,success
Status,916,15593982022,/g3t1_3,,running
Status,917,15594007278,/g3t1_3,,success
Status,918,15596853245,/g3t1_2,,running
Status,919,15596984202,/g3t1_2,,success
Status,920,15622745655,/g4t1,,fail
Status,921,15634515246,/g3t1_1,,running
Status,922,15634721106,/g3t1_1,,success
Status,923,15644006964,/g3t1_3,,running
Status,924,15644030495,/g3t1_3,,success
Status,925,15646913326,/g3t1_2,,running
Status,926,15647030968,/g3t1_2,,success
Status,927,15684584531,/g3t1_1,,running
Status,928,15684615016,/g3t1_1,,success
Status,929,15694059571,/g3t1_3,,running
Status,930,15694220557,/g3t1_3,,success
Status,931,15696972513,/g3t1_2,,running
Status,932,15697163053,/g3t1_2,,success
Status,933,15722644662,/g4t1,,fail
Status,934,15734616111,/g3t1_1,,running
Status,935,15734639551,/g3t1_1,,success
Status,936,15744135708,/g3t1_3,,running
Status,937,15744314884,/g3t1_3,,success
Status,938,15747261916,/g3t1_2,,running
Status,939,15747296468,/g3t1_2,,success
Status,940,15784755453,/g3t1_1,,running
Status,941,15784779141,/g3t1_1,,success
Status,942,15794312626,/g3t1_3,,running
Status,943,15794406952,/g3t1_3,,success
Status,944,15797280794,/g3t1_2,,running
Status,945,15797402174,/g3t1_2,,success
Status,946,15822807251,/g4t1,,fail
Status,947,15834793290,/g3t1_1,,running
Status,948,15834817481,/g3t1_1,,success
Status,949,15844399712,/g3t1_3,,running
Status,950,15844432059,/g3t1_3,,success
Status,951,15847305941,/g3t1_2,,running
Status,952,15847454371,/g3t1_2,,success
Status,953,15884912152,/g3t1_1,,running
Status,954,15884939928,/g3t1_1,,success
Status,955,15894479033,/g3t1_3,,running
Status,956,15894508938,/g3t1_3,,success
Status,957,15897431446,/g3t1_2,,running
Status,958,15897454100,/g3t1_2,,success
Status,959,15923009570,/g4t1,,fail
Status,960,15935056150,/g3t1_1,,running
Status,961,15935087738,/g3t1_1,,success
Status,962,15944582097,/g3t1_3,,running
Status,963,15944610888,/g3t1_3,,success
Status,964,15947540208,/g3t1_2,,running
Status,965,15947637609,/g3t1_2,,success
Status,966,15984960908,/g3t1_1,,running
Status,967,15984983700,/g3t1_1,,success
Status,968,15994742207,/g3t1_3,,running
Status,969,15994766732,/g3t1_3,,success
Status,970,15997658674,/g3t1_2,,running
Status,971,15997680193,/g3t1_2,,success
Status,972,16023011541,/g4t1,,fail
Status,973,16035190124,/g3t1_1,,running
Status,974,16035217077,/g3t1_1,,success
Status,975,16044727676,/g3t1_3,,running
Status,976,16044877578,/g3t1_3,,success
Status,977,16047612492,/g3t1_2,,running
Status,978,16047798037,/g3t1_2,,success
Status,979,16085177025,/g3t1_1,,running
Status,980,16085308079,/g3t1_1,,success
Status,981,16094801618,/g3t1_3,,running
Status,982,16094900275,/g3t1_3,,success
Status,983,16097712380,/g3t1_2,,running
Status,984,16098033407,/g3t1_2,,success
Status,985,16123248191,/g4t1,,fail
Status,986,16135278923,/g3t1_1,,running
Status,987,16135303936,/g3t1_1,,success
Status,988,16144978666,/g3t1_3,,running
Status,989,16145002840,/g3t1_3,,success
Status,990,16147766612,/g3t1_2,,running
Status,991,16147945730,/g3t1_2,,success
Status,992,16185499134,/g3t1_1,,running
Status,993,16185527594,/g3t1_1,,success
Status,994,16195134774,/g3t1_3,,running
Status,995,16195157656,/g3t1_3,,success
Status,996,16197983221,/g3t1_2,,running
Status,997,16198095369,/g3t1_2,,success
Status,998,16223263730,/g4t1,,fail
Status,999,16235407552,/g3t1_1,,running
Status,1000,16235436679,/g3t1_1,,success
Status,1001,16245186182,/g3t1_3,,running
Status,1002,16245210231,/g3t1_3,,success
Status,1003,16248130478,/g3t1_2,,running
Status,1004,16248159715,/g3t1_2,,success
Status,1005,16285553936,/g3t1_1,,running
Status,1006,16285622379,/g3t1_1,,success
Status,1007,16295264098,/g3t1_3,,running
Status,1008,16295288109,/g3t1_3,,success
Status,1009,16298056931,/g3t1_2,,running
Status,1010,16298157650,/g3t1_2,,success
Status,1011,16323324093,/g4t1,,fail
Status,1012,16335558099,/g3t1_1,,running
Status,1013,16335610604,/g3t1_1,,success
Status,1014,16345287892,/g3t1_3,,running
Status,1015,16345428642,/g3t1_3,,success
Status,1016,16348191939,/g3t1_2,,running
Status,1017,16348243729,/g3t1_2,,success
Status,1018,16385854166,/g3t1_1,,running
Status,1019,16385881260,/g3t1_1,,success
Status,1020,16395383791,/g3t1_3,,running
Status,1021,16395492194,/g3t1_3,,success
Status,1022,16398235980,/g3t1_2,,running
Status,1023,16398364948,/g3t1_2,,success
Status,1024,16423385793,/g4t1,,fail
Status,1025,16436020909,/g3t1_1,,running
Status,1026,16436046743,/g3t1_1,,success
Status,1027,16445550763,/g3t1_3,,running
Status,1028,16445574633,/g3t1_3,,success
Status,1029,16448357140,/g3t1_2,,running
Status,1030,16448698706,/g3t1_2,,success
Status,1031,16485966594,/g3t1_1,,running
Status,1032,16486049841,/g3t1_1,,success
Status,1033,16495666777,/g3t1_3,,running
Status,1034,16495804597,/g3t1_3,,success
Status,1035,16498436163,/g3t1_2,,running
Status,1036,16498487721,/g3t1_2,,success
Status,1037,16523434618,/g4t1,,fail
Status,1038,16535993462,/g3t1_1,,running
Status,1039,16536099463,/g3t1_1,,success
Status,1040,16545753907,/g3t1_3,,running
Status,1041,16545903557,/g3t1_3,,success
Status,1042,16548563089,/g3t1_2,,running
Status,1043,16548593800,/g3t1_2,,success
Status,1044,16586232435,/g3t1_1,,running
Status,1045,16586272337,/g3t1_1,,success
Status,1046,16595829424,/g3t1_3,,running
Status,1047,16595859237,/g3t1_3,,success
Status,1048,16598532581,/g3t1_2,,running
Status,1049,16598732924,/g3t1_2,,success
Status,1050,16623643544,/g4t1,,fail
Status,1051,16636322741,/g3t1_1,,running
Status,1052,16636463691,/g3t1_1,,success
Status,1053,16645855157,/g3t1_3,,running
Status,1054,16646074745,/g3t1_3,,success
Status,1055,16648656404,/g3t1_2,,running
Status,1056,16648775908,/g3t1_2,,success
Status,1057,16686479296,/g3t1_1,,running
Status,1058,16686636273,/g3t1_1,,success
Status,1059,16695985026,/g3t1_3,,running
Status,1060,16696118327,/g3t1_3,,success
Status,1061,16698836957,/g3t1_2,,running
Status,1062,16698934559,/g3t1_2,,success
Status,1063,16723765758,/g4t1,,fail
Status,1064,16736324681,/g3t1_1,,running
Status,1065,16736430232,/g3t1_1,,success
Status,1066,16746143719,/g3t1_3,,running
Status,1067,16746190285,/g3t1_3,,success
Status,1068,16748947210,/g3t1_2,,running
Status,1069,16749035502,/g3t1_2,,success
Status,1070,16786557371,/g3t1_1,,running
Status,1071,16786808274,/g3t1_1,,success
Status,1072,16796131543,/g3t1_3,,running
Status,1073,16796231553,/g3t1_3,,success
Status,1074,16798919178,/g3t1_2,,running
Status,1075,16798996873,/g3t1_2,,success
Status,1076,16823844293,/g4t1,,fail
Status,1077,16836634004,/g3t1_1,,running
Status,1078,16836657771,/g3t1_1,,success
Status,1079,16846199042,/g3t1_3,,running
Status,1080,16846285742,/g3t1_3,,success
Status,1081,16848992951,/g3t1_2,,running
Status,1082,16849041324,/g3t1_2,,success
Status,1083,16886803105,/g3t1_1,,running
Status,1084,16886930051,/g3t1_1,,success
Status,1085,16896255428,/g3t1_3,,running
Status,1086,16896485756,/g3t1_3,,success
Status,1087,16899208724,/g3t1_2,,running
Status,1088,16899233398,/g3t1_2,,success
Status,1089,16923925181,/g4t1,,fail
Status,1090,16936846863,/g3t1_1,,running
Status,1091,16936876533,/g3t1_1,,success
Status,1092,16946455838,/g3t1_3,,running
Status,1093,16946507848,/g3t1_3,,success
Status,1094,16949295608,/g3t1_2,,running
Status,1095,16949318238,/g3t1_2,,success
Status,1096,16987061206,/g3t1_1,,running
Status,1097,16987090764,/g3t1_1,,success
Status,1098,16996467439,/g3t1_3,,running
Status,1099,16996574118,/g3t1_3,,success
Status,1100,16999354462,/g3t1_2,,running
Status,1101,16999391494,/g3t1_2,,success
Status,1102,17024023955,/g4t1,,fail
Status,1103,17037190652,/g3t1_1,,running
Status,1104,17037216141,/g3t1_1,,success
Status,1105,17046476249,/g3t1_3,,running
Status,1106,17046810091,/g3t1_3,,success
Status,1107,17049295646,/g3t1_2,,running
Status,1108,17049477285,/g3t1_2,,success
Status,1109,17087112887,/g3t1_1,,running
Status,1110,17087273206,/g3t1_1,,success
Status,1111,17096674922,/g3t1_3,,running
Status,1112,17096801076,/g3t1_3,,success
Status,1113,17099440886,/g3t1_2,,running
Status,1114,17099631160,/g3t1_2,,success
Status,1115,17123930212,/g4t1,,fail
Status,1116,17137373116,/g3t1_1,,running
Status,1117,17137408545,/g3t1_1,,success
Status,1118,17146827001,/g3t1_3,,running
Status,1119,17146851950,/g3t1_3,,success
Status,1120,17149498528,/g3t1_2,,running
Status,1121,17149745859,/g3t1_2,,success
Status,1122,17187349332,/g3t1_1,,running
Status,1123,17187421342,/g3t1_1,,success
Status,1124,17196771209,/g3t1_3,,running
Status,1125,17196898785,/g3t1_3,,success
Status,1126,17199730632,/g3t1_2,,running
Status,1127,17199823597,/g3t1_2,,success
Status,1128,17224111316,/g4t1,,fail
Status,1129,17237565060,/g3t1_1,,running
Status,1130,17237660366,/g3t1_1,,success
Status,1131,17246856159,/g3t1_3,,running
Status,1132,17247191097,/g3t1_3,,success
Status,1133,17249676301,/g3t1_2,,running
Status,1134,17249802220,/g3t1_2,,success
Status,1135,17287618653,/g3t1_1,,running
Status,1136,17287740695,/g3t1_1,,success
Status,1137,17297001003,/g3t1_3,,running
Status,1138,17297138102,/g3t1_3,,success
Status,1139,17299768207,/g3t1_2,,running
Status,1140,17299791748,/g3t1_2,,success
Status,1141,17324159949,/g4t1,,fail
Status,1142,17337694580,/g3t1_1,,running
Status,1143,17337836880,/g3t1_1,,success
Status,1144,17347100787,/g3t1_3,,running
Status,1145,17347262066,/g3t1_3,,success
Status,1146,17349887709,/g3t1_2,,running
Status,1147,17349909464,/g3t1_2,,success
Status,1148,17387964029,/g3t1_1,,running
Status,1149,17387987424,/g3t1_1,,success
Status,1150,17397296198,/g3t1_3,,running
Status,1151,17397320032,/g3t1_3,,success
Status,1152,17399772926,/g3t1_2,,running
Status,1153,17400012613,/g3t1_2,,success
Status,1154,17424225847,/g4t1,,fail
Status,1155,17437982093,/g3t1_1,,running
Status,1156,17438006730,/g3t1_1,,success
Status,1157,17447277502,/g3t1_3,,running
Status,1158,17447315342,/g3t1_3,,success
Status,1159,17450015732,/g3t1_2,,running
Status,1160,17450124476,/g3t1_2,,success
Status,1161,17487952054,/g3t1_1,,running
Status,1162,17488073513,/g3t1_1,,success
Status,1163,17497426074,/g3t1_3,,running
Status,1164,17497538792,/g3t1_3,,success
Status,1165,17500038221,/g3t1_2,,running
Status,1166,17500189190,/g3t1_2,,success
Status,1167,17524212914,/g4t1,,fail
Status,1168,17538212094,/g3t1_1,,running
Status,1169,17538249072,/g3t1_1,,success
Status,1170,17547498230,/g3t1_3,,running
Status,1171,17547524040,/g3t1_3,,success
Status,1172,17550019267,/g3t1_2,,running
Status,1173,17550316268,/g3t1_2,,success
Status,1174,17588223191,/g3t1_1,,running
Status,1175,17588343255,/g3t1_1,,success
Status,1176,17597622283,/g3t1_3,,running
Status,1177,17597700277,/g3t1_3,,success
Status,1178,17600158056,/g3t1_2,,running
Status,1179,17600307935,/g3t1_2,,success
Status,1180,17624399617,/g4t1,,fail
Status,1181,17638233686,/g3t1_1,,running
Status,1182,17638436752,/g3t1_1,,success
Status,1183,17647641987,/g3t1_3,,running
Status,1184,17647745133,/g3t1_3,,success
Status,1185,17650215690,/g3t1_2,,running
Status,1186,17650237927,/g3t1_2,,success
Status,1187,17688341241,/g3t1_1,,running
Status,1188,17688497852,/g3t1_1,,success
Status,1189,17697799864,/g3t1_3,,running
Status,1190,17697844128,/g3t1_3,,success
Status,1191,17700316152,/g3t1_2,,running
Status,1192,17700423363,/g3t1_2,,success
Status,1193,17724480155,/g4t1,,fail
Status,1194,17738444417,/g3t1_1,,running
Status,1195,17738467228,/g3t1_1,,success
Status,1196,17747832120,/g3t1_3,,running
Status,1197,17747854907,/g3t1_3,,success
Status,1198,17750483736,/g3t1_2,,running
Status,1199,17750506702,/g3t1_2,,success
Status,1200,17788525482,/g3t1_1,,running
Status,1201,17788657125,/g3t1_1,,success
Status,1202,17797906077,/g3t1_3,,running
Status,1203,17797933971,/g3t1_3,,success
Status,1204,17800463254,/g3t1_2,,running
Status,1205,17800604341,/g3t1_2,,success
Status,1206,17824533098,/g4t1,,fail
Status,1207,17838561114,/g3t1_1,,running
Status,1208,17838595976,/g3t1_1,,success
Status,1209,17848041500,/g3t1_3,,running
Status,1210,17848072124,/g3t1_3,,success
Status,1211,17850551012,/g3t1_2,,running
Status,1212,17850671997,/g3t1_2,,success
Status,1213,17888695385,/g3t1_1,,running
Status,1214,17888812095,/g3t1_1,,success
Status,1215,17898060117,/g3t1_3,,running
Status,1216,17898083262,/g3t1_3,,success
Status,1217,17900742220,/g3t1_2,,running
Status,1218,17900842015,/g3t1_2,,success
Status,1219,17924716478,/g4t1,,fail
Status,1220,17938771678,/g3t1_1,,running
Status,1221,17938795045,/g3t1_1,,success
Status,1222,17948154142,/g3t1_3,,running
Status,1223,17948245247,/g3t1_3,,success
Status,1224,17950729907,/g3t1_2,,running
Status,1225,17950946962,/g3t1_2,,success
Status,1226,17988877942,/g3t1_1,,running
Status,1227,17989008484,/g3t1_1,,success
Status,1228,17998249744,/g3t1_3,,running
Status,1229,17998402509,/g3t1_3,,success
Status,1230,18000799424,/g3t1_2,,running
Status,1231,18000951486,/g3t1_2,,success
Status,1232,18024731244,/g4t1,,fail
Status,1233,18038900556,/g3t1_1,,running
Status,1234,18039011096,/g3t1_1,,success
Status,1235,18048425832,/g3t1_3,,running
Status,1236,18048449486,/g3t1_3,,success
Status,1237,18050946700,/g3t1_2,,running
Status,1238,18050969764,/g3t1_2,,success
Status,1239,18089117869,/g3t1_1,,running
Status,1240,18089210361,/g3t1_1,,success
Status,1241,18098500985,/g3t1_3,,running
Status,1242,18098532293,/g3t1_3,,success
Status,1243,18101060514,/g3t1_2,,running
Status,1244,18101092986,/g3t1_2,,success
Status,1245,18124794844,/g4t1,,fail
Status,1246,18139191612,/g3t1_1,,running
Status,1247,18139222183,/g3t1_1,,success
Status,1248,18148556895,/g3t1_3,,running
Status,1249,18148587394,/g3t1_3,,success
Status,1250,18151063635,/g3t1_2,,running
Status,1251,18151104498,/g3t1_2,,success
Status,1252,18189227696,/g3t1_1,,running
Status,1253,18189353283,/g3t1_1,,success
Status,1254,18198644558,/g3t1_3,,running
Status,1255,18198669042,/g3t1_3,,success
Status,1256,18201104343,/g3t1_2,,running
Status,1257,18201258751,/g3t1_2,,success
Status,1258,18224852247,/g4t1,,fail
Status,1259,18239235739,/g3t1_1,,running
Status,1260,18239377447,/g3t1_1,,success
Status,1261,18248688073,/g3t1_3,,running
Status,1262,18248710707,/g3t1_3,,success
Status,1263,18251238959,/g3t1_2,,running
Status,1264,18251361779,/g3t1_2,,success
Status,1265,18289323044,/g3t1_1,,running
Status,1266,18289391704,/g3t1_1,,success
Status,1267,18298746216,/g3t1_3,,running
Status,1268,18298769907,/g3t1_3,,success
Status,1269,18301498259,/g3t1_2,,running
Status,1270,18301530064,/g3t1_2,,success
Status,1271,18325025472,/g4t1,,fail
Status,1272,18339504249,/g3t1_1,,running
Status,1273,18339574903,/g3t1_1,,success
Status,1274,18348932156,/g3t1_3,,running
Status,1275,18348956857,/g3t1_3,,success
Status,1276,18351511670,/g3t1_2,,running
Status,1277,18351633434,/g3t1_2,,success
Status,1278,18389618460,/g3t1_1,,running
Status,1279,18389648311,/g3t1_1,,success
Status,1280,18398909679,/g3t1_3,,running
Status,1281,18398940299,/g3t1_3,,success
Status,1282,18401475605,/g3t1_2,,running
Status,1283,18401575666,/g3t1_2,,success
Status,1284,18424979401,/g4t1,,fail
Status,1285,18439707495,/g3t1_1,,running
Status,1286,18439824256,/g3t1_1,,success
Status,1287,18449027053,/g3t1_3,,running
Status,1288,18449057134,/g3t1_3,,success
Status,1289,18451833924,/g3t1_2,,running
Status,1290,18451870575,/g3t1_2,,success
Status,1291,18489730067,/g3t1_1,,running
Status,1292,18489937542,/g3t1_1,,success
Status,1293,18499036006,/g3t1_3,,running
Status,1294,18499087814,/g3t1_3,,success
Status,1295,18501768349,/g3t1_2,,running
Status,1296,18501788651,/g3t1_2,,success
Status,1297,18525135370,/g4t1,,fail
Status,1298,18539808664,/g3t1_1,,running
Status,1299,18539832801,/g3t1_1,,success
Status,1300,18549276083,/g3t1_3,,running
Status,1301,18549299568,/g3t1_3,,success
Status,1302,18551737822,/g3t1_2,,running
Status,1303,18551808987,/g3t1_2,,success
Status,1304,18590121844,/g3t1_1,,running
Status,1305,18590148788,/g3t1_1,,success
Status,1306,18599284047,/g3t1_3,,running
Status,1307,18599471203,/g3t1_3,,success
Status,1308,18601810106,/g3t1_2,,running
Status,1309,18601876589,/g3t1_2,,success
Status,1310,18625161386,/g4t1,,fail
Status,1311,18640135090,/g3t1_1,,running
Status,1312,18640168117,/g3t1_1,,success
Status,1313,18649501893,/g3t1_3,,running
Status,1314,18649597213,/g3t1_3,,success
Status,1315,18651838035,/g3t1_2,,running
Status,1316,18651997174,/g3t1_2,,success
Status,1317,18690074046,/g3t1_1,,running
Status,1318,18690233148,/g3t1_1,,success
Status,1319,18699512128,/g3t1_3,,running
Status,1320,18699644088,/g3t1_3,,success
Status,1321,18701983906,/g3t1_2,,running
Status,1322,18702054279,/g3t1_2,,success
Status,1323,18725213336,/g4t1,,fail
Status,1324,18740250826,/g3t1_1,,running
Status,1325,18740570506,/g3t1_1,,success
Status,1326,18749590074,/g3t1_3,,running
Status,1327,18749757403,/g3t1_3,,success
Status,1328,18752054826,/g3t1_2,,running
Status,1329,18752177632,/g3t1_2,,success
Status,1330,18790288013,/g3t1_1,,running
Status,1331,18790433032,/g3t1_1,,success
Status,1332,18799709174,/g3t1_3,,running
Status,1333,18799796016,/g3t1_3,,success
Status,1334,18802063760,/g3t1_2,,running
Status,1335,18802197500,/g3t1_2,,success
Status,1336,18825344562,/g4t1,,fail
Status,1337,18840428182,/g3t1_1,,running
Status,1338,18840461637,/g3t1_1,,success
Status,1339,18849813706,/g3t1_3,,running
Status,1340,18849843281,/g3t1_3,,success
Status,1341,18852205321,/g3t1_2,,running
Status,1342,18852257175,/g3t1_2,,success
Status,1343,18890506821,/g3t1_1,,running
Status,1344,18890614630,/g3t1_1,,success
Status,1345,18899846768,/g3t1_3,,running
Status,1346,18899938226,/g3t1_3,,success
Status,1347,18902421682,/g3t1_2,,running
Status,1348,18902548903,/g3t1_2,,success
Status,1349,18925439970,/g4t1,,fail
Status,1350,18940539256,/g3t1_1,,running
Status,1351,18940679087,/g3t1_1,,success
Status,1352,18949959146,/g3t1_3,,running
Status,1353,18950115233,/g3t1_3,,success
Status,1354,18952512317,/g3t1_2,,running
Status,1355,18952645469,/g3t1_2,,success
Status,1356,18990641709,/g3t1_1,,running
Status,1357,18990799440,/g3t1_1,,success
Status,1358,18999961788,/g3t1_3,,running
Status,1359,19000050793,/g3t1_3,,success
Status,1360,19002401162,/g3t1_2,,running
Status,1361,19002463179,/g3t1_2,,success
Status,1362,19025545881,/g4t1,,fail
Status,1363,19040793726,/g3t1_1,,running
Status,1364,19040986637,/g3t1_1,,success
Status,1365,19050036152,/g3t1_3,,running
Status,1366,19050266939,/g3t1_3,,success
Status,1367,19052752979,/g3t1_2,,running
Status,1368,19052778333,/g3t1_2,,success
Status,1369,19090870192,/g3t1_1,,running
Status,1370,19091063398,/g3t1_1,,success
Status,1371,19100160042,/g3t1_3,,running
Status,1372,19100258463,/g3t1_3,,success
Status,1373,19102509457,/g3t1_2,,running
Status,1374,19102673083,/g3t1_2,,success
Status,1375,19125602112,/g4t1,,fail
Status,1376,19141115328,/g3t1_1,,running
Status,1377,19141138828,/g3t1_1,,success
Status,1378,19150260417,/g3t1_3,,running
Status,1379,19150340850,/g3t1_3,,success
Status,1380,19152867077,/g3t1_2,,running
Status,1381,19153102763,/g3t1_2,,success
Status,1382,19191131973,/g3t1_1,,running
Status,1383,19191162804,/g3t1_1,,success
Status,1384,19200405562,/g3t1_3,,running
Status,1385,19200445729,/g3t1_3,,success
Status,1386,19203042886,/g3t1_2,,running
Status,1387,19203070593,/g3t1_2,,success
Status,1388,19225778675,/g4t1,,fail
Status,1389,19241184389,/g3t1_1,,running
Status,1390,19241208625,/g3t1_1,,success
Status,1391,19250455173,/g3t1_3,,running
Status,1392,19250478480,/g3t1_3,,success
Status,1393,19252844040,/g3t1_2,,running
Status,1394,19253035983,/g3t1_2,,success
Status,1395,19291255531,/g3t1_1,,running
Status,1396,19291279330,/g3t1_1,,success
Status,1397,19300566244,/g3t1_3,,running
Status,1398,19300588975,/g3t1_3,,success
Status,1399,19302917706,/g3t1_2,,running
Status,1400,19303088628,/g3t1_2,,success
Status,1401,19325823748,/g4t1,,fail
Status,1402,19341395128,/g3t1_1,,running
Status,1403,19341439096,/g3t1_1,,success
Status,1404,19350567864,/g3t1_3,,running
Status,1405,19350660087,/g3t1_3,,success
Status,1406,19353035753,/g3t1_2,,running
Status,1407,19353126261,/g3t1_2,,success
Status,1408,19391508009,/g3t1_1,,running
Status,1409,19391538779,/g3t1_1,,success
Status,1410,19400694702,/g3t1_3,,running
Status,1411,19400865540,/g3t1_3,,success
Status,1412,19403376525,/g3t1_2,,running
Status,1413,19403404549,/g3t1_2,,success
Status,1414,19425928369,/g4t1,,fail
Status,1415,19441548373,/g3t1_1,,running
Status,1416,19441676051,/g3t1_1,,success
Status,1417,19450940489,/g3t1_3,,running
Status,1418,19451028666,/g3t1_3,,success
Status,1419,19453356687,/g3t1_2,,running
Status,1420,19453384464,/g3t1_2,,success
Status,1421,19491762760,/g3t1_1,,running
Status,1422,19491859818,/g3t1_1,,success
Status,1423,19500983483,/g3t1_3,,running
Status,1424,19501007032,/g3t1_3,,success
Status,1425,19503367026,/g3t1_2,,running
Status,1426,19503393329,/g3t1_2,,success
Status,1427,19526114369,/g4t1,,fail
Status,1428,19541684392,/g3t1_1,,running
Status,1429,19541798454,/g3t1_1,,success
Status,1430,19551078842,/g3t1_3,,running
Status,1431,19551218572,/g3t1_3,,success
Status,1432,19553593513,/g3t1_2,,running
Status,1433,19553619975,/g3t1_2,,success
Status,1434,19591857504,/g3t1_1,,running
Status,1435,19591881334,/g3t1_1,,success
Status,1436,19601126910,/g3t1_3,,running
Status,1437,19601261313,/g3t1_3,,success
Status,1438,19603502903,/g3t1_2,,running
Status,1439,19603672059,/g3t1_2,,success
Status,1440,19626167425,/g4t1,,fail
Status,1441,19641935454,/g3t1_1,,running
Status,1442,19642027492,/g3t1_1,,success
Status,1443,19651294927,/g3t1_3,,running
Status,1444,19651320388,/g3t1_3,,success
Status,1445,19653871776,/g3t1_2,,running
Status,1446,19653900591,/g3t1_2,,success
Status,1447,19692053454,/g3t1_1,,running
Status,1448,19692174850,/g3t1_1,,success
Status,1449,19701539153,/g3t1_3,,running
Status,1450,19701565172,/g3t1_3,,success
Status,1451,19703769007,/g3t1_2,,running
Status,1452,19703875341,/g3t1_2,,success
Status,1453,19726203886,/g4t1,,fail
Status,1454,19742112184,/g3t1_1,,running
Status,1455,19742143052,/g3t1_1,,success
Status,1456,19751426892,/g3t1_3,,running
Status,1457,19751490809,/g3t1_3,,success
Status,1458,19753916495,/g3t1_2,,running
Status,1459,19753937169,/g3t1_2,,success
Status,1460,19792205866,/g3t1_1,,running
Status,1461,19792229401,/g3t1_1,,success
Status,1462,19801579798,/g3t1_3,,running
Status,1463,19801602704,/g3t1_3,,success
Status,1464,19803925929,/g3t1_2,,running
Status,1465,19803951868,/g3t1_2,,success
Status,1466,19826324096,/g4t1,,fail
Status,1467,19842384316,/g3t1_1,,running
Status,1468,19842408174,/g3t1_1,,success
Status,1469,19851677608,/g3t1_3,,running
Status,1470,19851780484,/g3t1_3,,success
Status,1471,19853995889,/g3t1_2,,running
Status,1472,19854019325,/g3t1_2,,success
Status,1473,19892434614,/g3t1_1,,running
Status,1474,19892567872,/g3t1_1,,success
Status,1475,19901949543,/g3t1_3,,running
Status,1476,19901976429,/g3t1_3,,success
Status,1477,19904119014,/g3t1_2,,running
Status,1478,19904142354,/g3t1_2,,success
Status,1479,19926403508,/g4t1,,fail
Status,1480,19942447223,/g3t1_1,,running
Status,1481,19942580757,/g3t1_1,,success
Status,1482,19952043594,/g3t1_3,,running
Status,1483,19952075517,/g3t1_3,,success
Status,1484,19954283644,/g3t1_2,,running
Status,1485,19954318572,/g3t1_2,,success
Status,1486,19992633861,/g3t1_1,,running
Status,1487,19992658131,/g3t1_1,,success
Status,1488,20001951833,/g3t1_3,,running
Status,1489,20002108235,/g3t1_3,,success
Status,1490,20004145687,/g3t1_2,,running
Status,1491,20004297571,/g3t1_2,,success
Status,1492,20026481658,/g4t1,,fail
Status,1493,20042688750,/g3t1_1,,running
Status,1494,20042716830,/g3t1_1,,success
Status,1495,20052227570,/g3t1_3,,running
Status,1496,20052258744,/g3t1_3,,success
Status,1497,20054306818,/g3t1_2,,running
Status,1498,20054334720,/g3t1_2,,success
Status,1499,20092812840,/g3t1_1,,running
Status,1500,20093058577,/g3t1_1,,success
Status,1501,20102137845,/g3t1_3,,running
Status,1502,20102163114,/g3t1_3,,success
Status,1503,20104339122,/g3t1_2,,running
Status,1504,20104457347,/g3t1_2,,success
Status,1505,20126522326,/g4t1,,fail
Status,1506,20142898037,/g3t1_1,,running
Status,1507,20142994821,/g3t1_1,,success
Status,1508,20152353151,/g3t1_3,,running
Status,1509,20152381934,/g3t1_3,,success
Status,1510,20154424719,/g3t1_2,,running
Status,1511,20154557981,/g3t1_2,,success
Status,1512,20193003392,/g3t1_1,,running
