
Status,2,3474186644,/g4t1,,init
Status,4,8586367800,/g3t1_1,,init
Status,5,8592604277,/g3t1_1,,init
Status,6,8592626232,/g3t1_1,,running
Status,7,8593069996,/g3t1_1,,success
Status,8,8642791637,/g3t1_1,,running
Status,9,8642969772,/g3t1_1,,success
Status,10,8688257131,/g3t1_2,,init
Status,12,8692830374,/g3t1_1,,running
Status,13,8692912464,/g3t1_1,,success
Status,14,8695811287,/g3t1_2,,init
Status,15,8695833351,/g3t1_2,,running
Status,16,8696244852,/g3t1_2,,success
Status,17,8742922007,/g3t1_1,,running
Status,18,8743028198,/g3t1_1,,success
Status,19,8745923569,/g3t1_2,,running
Status,20,8745985999,/g3t1_2,,success
Status,22,8788905346,/g3t1_3,,init
Status,23,8793017302,/g3t1_1,,running
Status,24,8793170409,/g3t1_1,,success
Status,25,8795614216,/g3t1_3,,init
Status,26,8795627883,/g3t1_3,,running
Status,27,8795916972,/g3t1_3,,success
Status,28,8795935053,/g3t1_2,,running
Status,29,8796030241,/g3t1_2,,success
Status,30,8843666828,/g3t1_1,,running
Status,31,8843708948,/g3t1_1,,success
Status,32,8845866955,/g3t1_3,,running
Status,33,8846069449,/g3t1_3,,success
Status,34,8846399410,/g3t1_2,,running
Status,35,8846431811,/g3t1_2,,success
Status,36,8894319991,/g3t1_1,,running
Status,37,8894951413,/g3t1_1,,success
Status,38,8896460080,/g3t1_3,,running
Status,39,8897150522,/g3t1_2,,running
Status,40,8897286086,/g3t1_3,,success
Status,41,8897322287,/g3t1_2,,success
Status,42,8944265298,/g3t1_1,,running
Status,43,8944723044,/g3t1_1,,success
Status,44,8946547181,/g3t1_3,,running
Status,45,8947323767,/g3t1_2,,running
Status,46,8947427026,/g3t1_3,,success
Status,47,8948256863,/g3t1_2,,success
Status,48,8992937206,/g4t1,,success
Status,49,8994185510,/g3t1_1,,running
Status,50,8995318748,/g3t1_1,,success
Status,51,8996461007,/g3t1_3,,running
Status,52,8996975232,/g3t1_3,,success
Status,53,8997183351,/g3t1_2,,running
Status,54,8997727221,/g3t1_2,,success
Status,55,9044448255,/g3t1_1,,running
Status,56,9044835991,/g3t1_1,,success
Status,57,9046441371,/g3t1_3,,running
Status,58,9048203677,/g3t1_3,,success
Status,59,9048273493,/g3t1_2,,running
Status,60,9049024422,/g3t1_2,,success
Status,61,9092879536,/g4t1,,success
Status,62,9094462193,/g3t1_1,,running
Status,63,9095033350,/g3t1_1,,success
Status,64,9096672524,/g3t1_3,,running
Status,65,9097928036,/g3t1_3,,success
Status,66,9098005910,/g3t1_2,,running
Status,67,9098270882,/g3t1_2,,success
Status,68,9144925453,/g3t1_1,,running
Status,69,9145444436,/g3t1_1,,success
Status,70,9146765493,/g3t1_3,,running
Status,71,9147298343,/g3t1_3,,success
Status,72,9147788546,/g3t1_2,,running
Status,73,9148919163,/g3t1_2,,success
Status,74,9193295043,/g4t1,,success
Status,75,9194673145,/g3t1_1,,running
Status,76,9195066380,/g3t1_1,,success
Status,77,9196903454,/g3t1_3,,running
Status,78,9197254721,/g3t1_3,,success
Status,79,9198824801,/g3t1_2,,running
Status,80,9198900469,/g3t1_2,,success
Status,81,9245070746,/g3t1_1,,running
Status,82,9245537550,/g3t1_1,,success
Status,83,9247139961,/g3t1_3,,running
Status,84,9247831967,/g3t1_3,,success
Status,85,9248319112,/g3t1_2,,running
Status,86,9248684557,/g3t1_2,,success
Status,87,9293688591,/g4t1,,fail
Status,88,9295235477,/g3t1_1,,running
Status,89,9295560344,/g3t1_1,,success
Status,90,9297083790,/g3t1_3,,running
Status,91,9297823784,/g3t1_3,,success
Status,92,9299356188,/g3t1_2,,running
Status,93,9299446390,/g3t1_2,,success
Status,94,9345555956,/g3t1_1,,running
Status,95,9346010795,/g3t1_1,,success
Status,96,9347241005,/g3t1_3,,running
Status,97,9348202917,/g3t1_3,,success
Status,98,9348278692,/g3t1_2,,running
Status,99,9348724822,/g3t1_2,,success
Status,100,9393741441,/g4t1,,fail
Status,101,9395227155,/g3t1_1,,running
Status,102,9395866855,/g3t1_1,,success
Status,103,9397477873,/g3t1_3,,running
Status,104,9398109922,/g3t1_3,,success
Status,105,9398398756,/g3t1_2,,running
Status,106,9398901092,/g3t1_2,,success
Status,107,9445869238,/g3t1_1,,running
Status,108,9446391750,/g3t1_1,,success
Status,109,9447563542,/g3t1_3,,running
Status,110,9448566717,/g3t1_3,,success
Status,111,9448652212,/g3t1_2,,running
Status,112,9449094946,/g3t1_2,,success
Status,113,9494052594,/g4t1,,fail
Status,114,9495700952,/g3t1_1,,running
Status,115,9496019443,/g3t1_1,,success
Status,116,9497590087,/g3t1_3,,running
Status,117,9498321322,/g3t1_3,,success
Status,118,9498697720,/g3t1_2,,running
Status,119,9499016417,/g3t1_2,,success
Status,120,9546200560,/g3t1_1,,running
Status,121,9546583133,/g3t1_1,,success
Status,122,9548291084,/g3t1_3,,running
Status,123,9548401079,/g3t1_3,,success
Status,124,9549789607,/g3t1_2,,running
Status,125,9549901414,/g3t1_2,,success
Status,126,9593623912,/g4t1,,fail
Status,127,9595791968,/g3t1_1,,running
Status,128,9596185135,/g3t1_1,,success
Status,129,9597532119,/g3t1_3,,running
Status,130,9597964169,/g3t1_3,,success
Status,131,9598557221,/g3t1_2,,running
Status,132,9598971617,/g3t1_2,,success
Status,133,9646401464,/g3t1_1,,running
Status,134,9646855270,/g3t1_1,,success
Status,135,9647789024,/g3t1_3,,running
Status,136,9648577420,/g3t1_3,,success
Status,137,9648884747,/g3t1_2,,running
Status,138,9649378182,/g3t1_2,,success
Status,139,9694468708,/g4t1,,fail
Status,140,9696214260,/g3t1_1,,running
Status,141,9696701917,/g3t1_1,,success
Status,142,9698020590,/g3t1_3,,running
Status,143,9698502209,/g3t1_3,,success
Status,144,9698898433,/g3t1_2,,running
Status,145,9699516673,/g3t1_2,,success
Status,146,9746722797,/g3t1_1,,running
Status,147,9747127055,/g3t1_1,,success
Status,148,9748141821,/g3t1_3,,running
Status,149,9749312944,/g3t1_3,,success
Status,150,9749381007,/g3t1_2,,running
Status,151,9749531276,/g3t1_2,,success
Status,152,9794674187,/g4t1,,fail
Status,153,9796737689,/g3t1_1,,running
Status,154,9796800576,/g3t1_1,,success
Status,155,9798381997,/g3t1_3,,running
Status,156,9798717886,/g3t1_3,,success
Status,157,9799270969,/g3t1_2,,running
Status,158,9799582018,/g3t1_2,,success
Status,159,9846788988,/g3t1_1,,running
Status,160,9847265150,/g3t1_1,,success
Status,161,9848536783,/g3t1_3,,running
Status,162,9849305720,/g3t1_3,,success
Status,163,9849630432,/g3t1_2,,running
Status,164,9849741288,/g3t1_2,,success
Status,165,9894766154,/g4t1,,fail
Status,166,9896756653,/g3t1_1,,running
Status,167,9897120893,/g3t1_1,,success
Status,168,9898552190,/g3t1_3,,running
Status,169,9898876798,/g3t1_3,,success
Status,170,9899559181,/g3t1_2,,running
Status,171,9899777841,/g3t1_2,,success
Status,172,9946917263,/g3t1_1,,running
Status,173,9947521709,/g3t1_1,,success
Status,174,9948564356,/g3t1_3,,running
Status,175,9949785235,/g3t1_3,,success
Status,176,9949949815,/g3t1_2,,running
Status,177,9950035278,/g3t1_2,,success
Status,178,9994877061,/g4t1,,fail
Status,179,9997063593,/g3t1_1,,running
Status,180,9997772126,/g3t1_1,,success
Status,181,9998629632,/g3t1_3,,running
Status,182,9999691320,/g3t1_3,,success
Status,183,9999767214,/g3t1_2,,running
Status,184,10000181949,/g3t1_2,,success
Status,185,10047200659,/g3t1_1,,running
Status,186,10047667488,/g3t1_1,,success
Status,187,10048761832,/g3t1_3,,running
Status,188,10049659672,/g3t1_3,,success
Status,189,10049762438,/g3t1_2,,running
Status,190,10050283540,/g3t1_2,,success
Status,191,10095032848,/g4t1,,fail
Status,192,10097315557,/g3t1_1,,running
Status,193,10097772755,/g3t1_1,,success
Status,194,10098809079,/g3t1_3,,running
Status,195,10099503020,/g3t1_3,,success
Status,196,10099593718,/g3t1_2,,running
Status,197,10100328834,/g3t1_2,,success
Status,198,10147497494,/g3t1_1,,running
Status,199,10147921976,/g3t1_1,,success
Status,200,10148939597,/g3t1_3,,running
Status,201,10149589162,/g3t1_3,,success
Status,202,10149878206,/g3t1_2,,running
Status,203,10150260348,/g3t1_2,,success
Status,204,10194990515,/g4t1,,fail
Status,205,10197536324,/g3t1_1,,running
Status,206,10198147849,/g3t1_1,,success
Status,207,10199455572,/g3t1_3,,running
Status,208,10199544948,/g3t1_3,,success
Status,209,10199996775,/g3t1_2,,running
Status,210,10200308667,/g3t1_2,,success
Status,211,10247887180,/g3t1_1,,running
Status,212,10248798394,/g3t1_1,,success
Status,213,10249301408,/g3t1_3,,running
Status,214,10250636484,/g3t1_3,,success
Status,215,10250788644,/g3t1_2,,running
Status,216,10250923721,/g3t1_2,,success
Status,217,10295256439,/g4t1,,fail
Status,218,10297770816,/g3t1_1,,running
Status,219,10298381720,/g3t1_1,,success
Status,220,10299257250,/g3t1_3,,running
Status,221,10299804966,/g3t1_3,,success
Status,222,10300099349,/g3t1_2,,running
Status,223,10300402386,/g3t1_2,,success
Status,224,10348155978,/g3t1_1,,running
Status,225,10348723338,/g3t1_1,,success
Status,226,10349768723,/g3t1_3,,running
Status,227,10350015041,/g3t1_3,,success
Status,228,10350471467,/g3t1_2,,running
Status,229,10350918787,/g3t1_2,,success
Status,230,10395345245,/g4t1,,fail
Status,231,10398055131,/g3t1_1,,running
Status,232,10398650578,/g3t1_1,,success
Status,233,10399493654,/g3t1_3,,running
Status,234,10400128253,/g3t1_3,,success
Status,235,10400297817,/g3t1_2,,running
Status,236,10400662851,/g3t1_2,,success
Status,237,10448406184,/g3t1_1,,running
Status,238,10448755380,/g3t1_1,,success
Status,239,10450325930,/g3t1_3,,running
Status,240,10450397908,/g3t1_3,,success
Status,241,10450487764,/g3t1_2,,running
Status,242,10450980398,/g3t1_2,,success
Status,243,10495596656,/g4t1,,fail
Status,244,10498242196,/g3t1_1,,running
Status,245,10498523858,/g3t1_1,,success
Status,246,10499579584,/g3t1_3,,running
Status,247,10500246041,/g3t1_3,,success
Status,248,10500595350,/g3t1_2,,running
Status,249,10501011704,/g3t1_2,,success
Status,250,10548351896,/g3t1_1,,running
Status,251,10548758913,/g3t1_1,,success
Status,252,10549911135,/g3t1_3,,running
Status,253,10550588614,/g3t1_3,,success
Status,254,10550685410,/g3t1_2,,running
Status,255,10551318089,/g3t1_2,,success
Status,256,10595808032,/g4t1,,fail
Status,257,10598465027,/g3t1_1,,running
Status,258,10598870222,/g3t1_1,,success
Status,259,10599835295,/g3t1_3,,running
Status,260,10600317609,/g3t1_3,,success
Status,261,10600667170,/g3t1_2,,running
Status,262,10601323869,/g3t1_2,,success
Status,263,10648621786,/g3t1_1,,running
Status,264,10648925284,/g3t1_1,,success
Status,265,10650018311,/g3t1_3,,running
Status,266,10650725554,/g3t1_3,,success
Status,267,10650922918,/g3t1_2,,running
Status,268,10651491692,/g3t1_2,,success
Status,269,10695766369,/g4t1,,fail
Status,270,10698556480,/g3t1_1,,running
Status,271,10698951507,/g3t1_1,,success
Status,272,10700038552,/g3t1_3,,running
Status,273,10700353417,/g3t1_3,,success
Status,274,10701000351,/g3t1_2,,running
Status,275,10701477349,/g3t1_2,,success
Status,276,10749089429,/g3t1_1,,running
Status,277,10749185129,/g3t1_1,,success
Status,278,10750644840,/g3t1_3,,running
Status,279,10751121063,/g3t1_3,,success
Status,280,10751312507,/g3t1_2,,running
Status,281,10751501911,/g3t1_2,,success
Status,282,10796042619,/g4t1,,fail
Status,283,10798916289,/g3t1_1,,running
Status,284,10799364244,/g3t1_1,,success
Status,285,10800418372,/g3t1_3,,running
Status,286,10801098978,/g3t1_3,,success
Status,287,10801169766,/g3t1_2,,running
Status,288,10801804955,/g3t1_2,,success
Status,289,10849261435,/g3t1_1,,running
Status,290,10849892815,/g3t1_1,,success
Status,291,10850536646,/g3t1_3,,running
Status,292,10851330171,/g3t1_3,,success
Status,293,10851761687,/g3t1_2,,running
Status,294,10852069359,/g3t1_2,,success
Status,295,10896192383,/g4t1,,fail
Status,296,10899332870,/g3t1_1,,running
Status,297,10899395868,/g3t1_1,,success
Status,298,10900433614,/g3t1_3,,running
Status,299,10900963183,/g3t1_3,,success
Status,300,10901498790,/g3t1_2,,running
Status,301,10902457408,/g3t1_2,,success
Status,302,10949611023,/g3t1_1,,running
Status,303,10949939871,/g3t1_1,,success
Status,304,10950803431,/g3t1_3,,running
Status,305,10951585446,/g3t1_3,,success
Status,306,10951979633,/g3t1_2,,running
Status,307,10952055737,/g3t1_2,,success
Status,308,10996413029,/g4t1,,fail
Status,309,10999456316,/g3t1_1,,running
Status,310,10999871986,/g3t1_1,,success
Status,311,11000650887,/g3t1_3,,running
Status,312,11001054207,/g3t1_3,,success
Status,313,11001657361,/g3t1_2,,running
Status,314,11002227427,/g3t1_2,,success
Status,315,11049904791,/g3t1_1,,running
Status,316,11049986658,/g3t1_1,,success
Status,317,11050871011,/g3t1_3,,running
Status,318,11051647841,/g3t1_3,,success
Status,319,11051742167,/g3t1_2,,running
Status,320,11052492182,/g3t1_2,,success
Status,321,11096744586,/g4t1,,fail
Status,322,11099681836,/g3t1_1,,running
Status,323,11100269459,/g3t1_1,,success
Status,324,11100999849,/g3t1_3,,running
Status,325,11101492176,/g3t1_3,,success
Status,326,11101909940,/g3t1_2,,running
Status,327,11102536328,/g3t1_2,,success
Status,328,11150327944,/g3t1_1,,running
Status,329,11150411335,/g3t1_1,,success
Status,330,11151688104,/g3t1_3,,running
Status,331,11151750547,/g3t1_3,,success
Status,332,11152218950,/g3t1_2,,running
Status,333,11152551015,/g3t1_2,,success
Status,334,11196942961,/g4t1,,fail
Status,335,11199948435,/g3t1_1,,running
Status,336,11200602631,/g3t1_1,,success
Status,337,11200993819,/g3t1_3,,running
Status,338,11201793581,/g3t1_3,,success
Status,339,11202224201,/g3t1_2,,running
Status,340,11202635454,/g3t1_2,,success
Status,341,11250417763,/g3t1_1,,running
Status,342,11251146051,/g3t1_1,,success
Status,343,11251639868,/g3t1_3,,running
Status,344,11252759481,/g3t1_3,,success
Status,345,11252852186,/g3t1_2,,running
Status,346,11252880370,/g3t1_2,,success
Status,347,11297225827,/g4t1,,fail
Status,348,11300250111,/g3t1_1,,running
Status,349,11300672227,/g3t1_1,,success
Status,350,11301279044,/g3t1_3,,running
Status,351,11302287093,/g3t1_2,,running
Status,352,11302352408,/g3t1_3,,success
Status,353,11302664601,/g3t1_2,,success
Status,354,11350552226,/g3t1_1,,running
Status,355,11350817876,/g3t1_1,,success
Status,356,11352377343,/g3t1_3,,running
Status,357,11352500546,/g3t1_3,,success
Status,358,11352540103,/g3t1_2,,running
Status,359,11352809018,/g3t1_2,,success
Status,360,11397363039,/g4t1,,fail
Status,361,11400605725,/g3t1_1,,running
Status,362,11400850997,/g3t1_1,,success
Status,363,11401744684,/g3t1_3,,running
Status,364,11402218042,/g3t1_3,,success
Status,365,11402719330,/g3t1_2,,running
Status,366,11403240665,/g3t1_2,,success
Status,367,11451089972,/g3t1_1,,running
Status,368,11451186040,/g3t1_1,,success
Status,369,11452083792,/g3t1_3,,running
Status,370,11452158639,/g3t1_3,,success
Status,371,11453134632,/g3t1_2,,running
Status,372,11453218253,/g3t1_2,,success
Status,373,11497626325,/g4t1,,fail
Status,374,11500712577,/g3t1_1,,running
Status,375,11501030422,/g3t1_1,,success
Status,376,11502041558,/g3t1_3,,running
Status,377,11502596689,/g3t1_3,,success
Status,378,11502706137,/g3t1_2,,running
Status,379,11503272196,/g3t1_2,,success
Status,380,11551202106,/g3t1_1,,running
Status,381,11551293679,/g3t1_1,,success
Status,382,11552021937,/g3t1_3,,running
Status,383,11553247567,/g3t1_3,,success
Status,384,11553340007,/g3t1_2,,running
Status,385,11553522567,/g3t1_2,,success
Status,386,11597791338,/g4t1,,fail
Status,387,11601004763,/g3t1_1,,running
Status,388,11601521402,/g3t1_1,,success
Status,389,11601899950,/g3t1_3,,running
Status,390,11602339914,/g3t1_3,,success
Status,391,11603378157,/g3t1_2,,running
Status,392,11603457857,/g3t1_2,,success
Status,393,11651332421,/g3t1_1,,running
Status,394,11651421107,/g3t1_1,,success
Status,395,11652059982,/g3t1_3,,running
Status,396,11652353020,/g3t1_3,,success
Status,397,11653868638,/g3t1_2,,running
Status,398,11653973684,/g3t1_2,,success
Status,399,11696889443,/g4t1,,fail
Status,400,11700670819,/g3t1_1,,running
Status,401,11700762060,/g3t1_1,,success
Status,402,11701522399,/g3t1_3,,running
Status,403,11701628938,/g3t1_3,,success
Status,404,11702715245,/g3t1_2,,running
Status,405,11702737877,/g3t1_2,,success
Status,406,11751329653,/g3t1_1,,running
Status,407,11751358848,/g3t1_1,,success
Status,408,11751598702,/g3t1_3,,running
Status,409,11751869800,/g3t1_3,,success
Status,410,11752754173,/g3t1_2,,running
Status,411,11752799577,/g3t1_2,,success
Status,412,11797766178,/g4t1,,fail
Status,413,11801559712,/g3t1_1,,running
Status,414,11802443336,/g3t1_1,,success
Status,415,11802511508,/g3t1_3,,running
Status,416,11802950752,/g3t1_3,,success
Status,417,11803293047,/g3t1_2,,running
Status,418,11803847129,/g3t1_2,,success
Status,419,11851723311,/g3t1_1,,running
Status,420,11852174018,/g3t1_1,,success
Status,421,11852567635,/g3t1_3,,running
Status,422,11853536919,/g3t1_3,,success
Status,423,11854645373,/g3t1_2,,running
Status,424,11854726027,/g3t1_2,,success
Status,425,11898052248,/g4t1,,fail
Status,426,11901800540,/g3t1_1,,running
Status,427,11902408859,/g3t1_1,,success
Status,428,11902510717,/g3t1_3,,running
Status,429,11903519540,/g3t1_3,,success
Status,430,11903597008,/g3t1_2,,running
Status,431,11903951989,/g3t1_2,,success
Status,432,11952214397,/g3t1_1,,running
Status,433,11952444141,/g3t1_1,,success
Status,434,11952501168,/g3t1_3,,running
Status,435,11953361725,/g3t1_3,,success
Status,436,11954010973,/g3t1_2,,running
Status,437,11954072073,/g3t1_2,,success
Status,438,11998138929,/g4t1,,fail
Status,439,12003001888,/g3t1_1,,running
Status,440,12003152263,/g3t1_3,,running
Status,441,12003427896,/g3t1_3,,success
Status,442,12003516475,/g3t1_1,,success
Status,443,12004026997,/g3t1_2,,running
Status,444,12004938234,/g3t1_2,,success
Status,445,12052362154,/g3t1_1,,running
Status,446,12053051735,/g3t1_1,,success
Status,447,12053125012,/g3t1_3,,running
Status,448,12053550317,/g3t1_3,,success
Status,449,12054041778,/g3t1_2,,running
Status,450,12054760020,/g3t1_2,,success
Status,451,12098183141,/g4t1,,fail
Status,452,12103104088,/g3t1_1,,running
Status,453,12103213640,/g3t1_3,,running
Status,454,12103416957,/g3t1_1,,success
Status,455,12103777937,/g3t1_3,,success
Status,456,12103824797,/g3t1_2,,running
Status,457,12104468839,/g3t1_2,,success
Status,458,12153050702,/g3t1_1,,running
Status,459,12153186609,/g3t1_3,,running
Status,460,12153732582,/g3t1_1,,success
Status,461,12153827140,/g3t1_3,,success
Status,462,12154194085,/g3t1_2,,running
Status,463,12154801933,/g3t1_2,,success
Status,464,12198397603,/g4t1,,fail
Status,465,12203367321,/g3t1_1,,running
Status,466,12203462124,/g3t1_3,,running
Status,467,12203531531,/g3t1_1,,success
Status,468,12203936275,/g3t1_3,,success
Status,469,12204000735,/g3t1_2,,running
Status,470,12204630988,/g3t1_2,,success
Status,471,12253464650,/g3t1_1,,running
Status,472,12253575723,/g3t1_3,,running
Status,473,12253712891,/g3t1_1,,success
Status,474,12253884567,/g3t1_3,,success
Status,475,12254670319,/g3t1_2,,running
Status,476,12254732794,/g3t1_2,,success
Status,477,12298596565,/g4t1,,fail
Status,478,12303895249,/g3t1_1,,running
Status,479,12304051847,/g3t1_3,,running
Status,480,12304421493,/g3t1_3,,success
Status,481,12304487519,/g3t1_2,,running
Status,482,12304967341,/g3t1_1,,success
Status,483,12305292832,/g3t1_2,,success
Status,484,12353649136,/g3t1_1,,running
Status,485,12353763372,/g3t1_3,,running
Status,486,12354586057,/g3t1_3,,success
Status,487,12354669065,/g3t1_1,,success
Status,488,12354704814,/g3t1_2,,running
Status,489,12355133085,/g3t1_2,,success
Status,490,12398687548,/g4t1,,fail
Status,491,12403951930,/g3t1_1,,running
Status,492,12404054484,/g3t1_3,,running
Status,493,12404613193,/g3t1_1,,success
Status,494,12404713365,/g3t1_3,,success
Status,495,12404756511,/g3t1_2,,running
Status,496,12405119837,/g3t1_2,,success
Status,497,12454203976,/g3t1_1,,running
Status,498,12454277965,/g3t1_3,,running
Status,499,12454423535,/g3t1_1,,success
Status,500,12454461034,/g3t1_3,,success
Status,501,12454966081,/g3t1_2,,running
Status,502,12455438494,/g3t1_2,,success
Status,503,12498711733,/g4t1,,fail
Status,504,12503826414,/g3t1_1,,running
Status,505,12503938576,/g3t1_3,,running
Status,506,12504261566,/g3t1_1,,success
Status,507,12504353051,/g3t1_3,,success
Status,508,12504861706,/g3t1_2,,running
Status,509,12505207379,/g3t1_2,,success
Status,510,12554195007,/g3t1_1,,running
Status,511,12554911321,/g3t1_3,,running
Status,512,12554994260,/g3t1_1,,success
Status,513,12555110573,/g3t1_3,,success
Status,514,12555144217,/g3t1_2,,running
Status,515,12555601032,/g3t1_2,,success
Status,516,12598919585,/g4t1,,fail
Status,517,12604188788,/g3t1_1,,running
Status,518,12604271037,/g3t1_3,,running
Status,519,12604368594,/g3t1_1,,success
Status,520,12604766313,/g3t1_3,,success
Status,521,12605347097,/g3t1_2,,running
Status,522,12605894232,/g3t1_2,,success
Status,523,12654468627,/g3t1_1,,running
Status,524,12654557844,/g3t1_3,,running
Status,525,12655148245,/g3t1_1,,success
Status,526,12655208728,/g3t1_2,,running
Status,527,12655577325,/g3t1_3,,success
Status,528,12655930302,/g3t1_2,,success
Status,529,12699001942,/g4t1,,fail
Status,530,12704192295,/g3t1_1,,running
Status,531,12704284282,/g3t1_3,,running
Status,532,12704583238,/g3t1_3,,success
Status,533,12704620813,/g3t1_1,,success
Status,534,12704987282,/g3t1_2,,running
Status,535,12705705648,/g3t1_2,,success
Status,536,12754699410,/g3t1_1,,running
Status,537,12754872748,/g3t1_3,,running
Status,538,12754916717,/g3t1_1,,success
Status,539,12755548773,/g3t1_3,,success
Status,540,12755617600,/g3t1_2,,running
Status,541,12756053219,/g3t1_2,,success
Status,542,12799207392,/g4t1,,fail
Status,543,12804269749,/g3t1_1,,running
Status,544,12804443491,/g3t1_3,,running
Status,545,12805615118,/g3t1_1,,success
Status,546,12805728705,/g3t1_3,,success
Status,547,12805771503,/g3t1_2,,running
Status,548,12805838566,/g3t1_2,,success
Status,549,12854761265,/g3t1_1,,running
Status,550,12854822668,/g3t1_3,,running
Status,551,12854848537,/g3t1_1,,success
Status,552,12854875532,/g3t1_3,,success
Status,553,12855712406,/g3t1_2,,running
Status,554,12856240508,/g3t1_2,,success
Status,555,12899208903,/g4t1,,fail
Status,556,12904630018,/g3t1_1,,running
Status,557,12904828223,/g3t1_3,,running
Status,558,12905619683,/g3t1_3,,success
Status,559,12905738261,/g3t1_1,,success
Status,560,12905851717,/g3t1_2,,running
Status,561,12906308833,/g3t1_2,,success
Status,562,12955078093,/g3t1_1,,running
Status,563,12955169887,/g3t1_3,,running
Status,564,12955351642,/g3t1_1,,success
Status,565,12955973308,/g3t1_3,,success
Status,566,12956280277,/g3t1_2,,running
Status,567,12956327541,/g3t1_2,,success
Status,568,12999356600,/g4t1,,fail
Status,569,13004665307,/g3t1_1,,running
Status,570,13004766221,/g3t1_3,,running
Status,571,13005495808,/g3t1_1,,success
Status,572,13005578809,/g3t1_3,,success
Status,573,13006021631,/g3t1_2,,running
Status,574,13006838314,/g3t1_2,,success
Status,575,13055050307,/g3t1_1,,running
Status,576,13055139326,/g3t1_3,,running
Status,577,13055288263,/g3t1_1,,success
Status,578,13055964121,/g3t1_3,,success
Status,579,13056121631,/g3t1_2,,running
Status,580,13056686464,/g3t1_2,,success
Status,581,13099493548,/g4t1,,fail
Status,582,13105239653,/g3t1_1,,running
Status,583,13105300116,/g3t1_3,,running
Status,584,13105914394,/g3t1_1,,success
Status,585,13105977601,/g3t1_3,,success
Status,586,13106056316,/g3t1_2,,running
Status,587,13106648676,/g3t1_2,,success
Status,588,13155789745,/g3t1_1,,running
Status,589,13156415954,/g3t1_3,,running
Status,590,13156486983,/g3t1_1,,success
Status,591,13156609369,/g3t1_2,,running
Status,592,13156647765,/g3t1_3,,success
Status,593,13157104511,/g3t1_2,,success
Status,594,13199586781,/g4t1,,fail
Status,595,13205303190,/g3t1_1,,running
Status,596,13205459155,/g3t1_3,,running
Status,597,13206003657,/g3t1_1,,success
Status,598,13206424781,/g3t1_3,,success
Status,599,13206514802,/g3t1_2,,running
Status,600,13206959564,/g3t1_2,,success
Status,601,13255583396,/g3t1_1,,running
Status,602,13255723614,/g3t1_3,,running
Status,603,13256618231,/g3t1_1,,success
Status,604,13256680156,/g3t1_2,,running
Status,605,13256978401,/g3t1_3,,success
Status,606,13257254658,/g3t1_2,,success
Status,607,13299634285,/g4t1,,fail
Status,608,13305657868,/g3t1_1,,running
Status,609,13305758507,/g3t1_3,,running
Status,610,13306958851,/g3t1_1,,success
Status,611,13307047136,/g3t1_2,,running
Status,612,13307089213,/g3t1_3,,success
Status,613,13307354735,/g3t1_2,,success
Status,614,13356239649,/g3t1_1,,running
Status,615,13356358787,/g3t1_3,,running
Status,616,13356949354,/g3t1_1,,success
Status,617,13357578660,/g3t1_2,,running
Status,618,13357637030,/g3t1_3,,success
Status,619,13357730090,/g3t1_2,,success
Status,620,13399905044,/g4t1,,fail
Status,621,13406183483,/g3t1_1,,running
Status,622,13406280068,/g3t1_3,,running
Status,623,13406943431,/g3t1_1,,success
Status,624,13407014822,/g3t1_3,,success
Status,625,13407469701,/g3t1_2,,running
Status,626,13407555637,/g3t1_2,,success
Status,627,13456275680,/g3t1_1,,running
Status,628,13456423292,/g3t1_3,,running
Status,629,13456471247,/g3t1_1,,success
Status,630,13456769475,/g3t1_3,,success
Status,631,13456846381,/g3t1_2,,running
Status,632,13457510543,/g3t1_2,,success
Status,633,13499922246,/g4t1,,fail
Status,634,13506223250,/g3t1_1,,running
Status,635,13506313078,/g3t1_3,,running
Status,636,13506553791,/g3t1_1,,success
Status,637,13507219766,/g3t1_3,,success
Status,638,13507305339,/g3t1_2,,running
Status,639,13507763745,/g3t1_2,,success
Status,640,13556609943,/g3t1_1,,running
Status,641,13556736870,/g3t1_3,,running
Status,642,13557772584,/g3t1_1,,success
Status,643,13557841750,/g3t1_2,,running
Status,644,13557917127,/g3t1_3,,success
Status,645,13557941694,/g3t1_2,,success
Status,646,13600064603,/g4t1,,fail
Status,647,13606347907,/g3t1_1,,running
Status,648,13606419256,/g3t1_3,,running
Status,649,13607175044,/g3t1_1,,success
Status,650,13607244862,/g3t1_3,,success
Status,651,13607435842,/g3t1_2,,running
Status,652,13607718310,/g3t1_2,,success
Status,653,13656837750,/g3t1_1,,running
Status,654,13656929531,/g3t1_3,,running
Status,655,13657067329,/g3t1_1,,success
Status,656,13657571252,/g3t1_2,,running
Status,657,13658206601,/g3t1_3,,success
Status,658,13658417583,/g3t1_2,,success
Status,659,13700198901,/g4t1,,fail
Status,660,13707238190,/g3t1_1,,running
Status,661,13707326755,/g3t1_3,,running
Status,662,13707434781,/g3t1_1,,success
Status,663,13707474918,/g3t1_3,,success
Status,664,13707509817,/g3t1_2,,running
Status,665,13708046100,/g3t1_2,,success
Status,666,13757042310,/g3t1_1,,running
Status,667,13757179816,/g3t1_3,,running
Status,668,13757223746,/g3t1_1,,success
Status,669,13757361672,/g3t1_3,,success
Status,670,13757795303,/g3t1_2,,running
Status,671,13758522006,/g3t1_2,,success
Status,672,13800340351,/g4t1,,fail
Status,673,13806705524,/g3t1_1,,running
Status,674,13806774368,/g3t1_3,,running
Status,675,13807299527,/g3t1_1,,success
Status,676,13807400831,/g3t1_3,,success
Status,677,13807793650,/g3t1_2,,running
Status,678,13808334894,/g3t1_2,,success
Status,679,13857438155,/g3t1_1,,running
Status,680,13857572099,/g3t1_3,,running
Status,681,13858121652,/g3t1_1,,success
Status,682,13858544795,/g3t1_2,,running
Status,683,13858588761,/g3t1_2,,success
Status,684,13858648112,/g3t1_3,,success
Status,685,13900571486,/g4t1,,fail
Status,686,13907246525,/g3t1_1,,running
Status,687,13907337079,/g3t1_3,,running
Status,688,13907372951,/g3t1_1,,success
Status,689,13907796691,/g3t1_2,,running
Status,690,13907859444,/g3t1_3,,success
Status,691,13908353944,/g3t1_2,,success
Status,692,13957185199,/g3t1_1,,running
Status,693,13957274542,/g3t1_3,,running
Status,694,13957915452,/g3t1_1,,success
Status,695,13958078355,/g3t1_3,,success
Status,696,13958710126,/g3t1_2,,running
Status,697,13958984251,/g3t1_2,,success
Status,698,14000446246,/g4t1,,fail
Status,699,14007392356,/g3t1_1,,running
Status,700,14007593871,/g3t1_3,,running
Status,701,14008177308,/g3t1_1,,success
Status,702,14008616165,/g3t1_3,,success
Status,703,14008694292,/g3t1_2,,running
Status,704,14008986702,/g3t1_2,,success
Status,705,14057577767,/g3t1_1,,running
Status,706,14057728760,/g3t1_3,,running
Status,707,14057903213,/g3t1_1,,success
Status,708,14058385336,/g3t1_3,,success
Status,709,14058533328,/g3t1_2,,running
Status,710,14058975820,/g3t1_2,,success
Status,711,14100510034,/g4t1,,fail
Status,712,14107717988,/g3t1_1,,running
Status,713,14107828496,/g3t1_3,,running
Status,714,14107975788,/g3t1_1,,success
Status,715,14108321109,/g3t1_3,,success
Status,716,14108412633,/g3t1_2,,running
Status,717,14109286317,/g3t1_2,,success
Status,718,14158424861,/g3t1_1,,running
Status,719,14158667533,/g3t1_3,,running
Status,720,14158843989,/g3t1_3,,success
Status,721,14158899603,/g3t1_1,,success
Status,722,14159207280,/g3t1_2,,running
Status,723,14159276907,/g3t1_2,,success
Status,724,14200613202,/g4t1,,fail
Status,725,14208309456,/g3t1_1,,running
Status,726,14208697144,/g3t1_3,,running
Status,727,14208770297,/g3t1_3,,success
Status,728,14208816493,/g3t1_1,,success
Status,729,14209364192,/g3t1_2,,running
Status,730,14209501409,/g3t1_2,,success
Status,731,14258300858,/g3t1_1,,running
Status,732,14258411885,/g3t1_3,,running
Status,733,14259422951,/g3t1_1,,success
Status,734,14259493312,/g3t1_3,,success
Status,735,14259671044,/g3t1_2,,running
Status,736,14259701200,/g3t1_2,,success
Status,737,14301064990,/g4t1,,fail
Status,738,14308332983,/g3t1_1,,running
Status,739,14308423283,/g3t1_3,,running
Status,740,14308556957,/g3t1_1,,success
Status,741,14308882733,/g3t1_3,,success
Status,742,14308933306,/g3t1_2,,running
Status,743,14310129192,/g3t1_2,,success
Status,744,14358441942,/g3t1_1,,running
Status,745,14358545505,/g3t1_3,,running
Status,746,14359468822,/g3t1_3,,success
Status,747,14359545661,/g3t1_2,,running
Status,748,14359622571,/g3t1_1,,success
Status,749,14359652165,/g3t1_2,,success
Status,750,14400896306,/g4t1,,fail
Status,751,14408292543,/g3t1_1,,running
Status,752,14408412588,/g3t1_3,,running
Status,753,14408456860,/g3t1_1,,success
Status,754,14409086723,/g3t1_3,,success
Status,755,14409143822,/g3t1_2,,running
Status,756,14409566117,/g3t1_2,,success
Status,757,14458358499,/g3t1_1,,running
Status,758,14458493419,/g3t1_3,,running
Status,759,14458865056,/g3t1_1,,success
Status,760,14459453537,/g3t1_3,,success
Status,761,14459637899,/g3t1_2,,running
Status,762,14459893939,/g3t1_2,,success
Status,763,14501002443,/g4t1,,fail
Status,764,14508364089,/g3t1_1,,running
Status,765,14509070167,/g3t1_3,,running
Status,766,14509159561,/g3t1_1,,success
Status,767,14509924971,/g3t1_2,,running
Status,768,14510030437,/g3t1_3,,success
Status,769,14510075512,/g3t1_2,,success
Status,770,14559038368,/g3t1_1,,running
Status,771,14559132250,/g3t1_1,,success
Status,772,14559177354,/g3t1_3,,running
Status,773,14559874359,/g3t1_2,,running
Status,774,14559944856,/g3t1_3,,success
Status,775,14560413340,/g3t1_2,,success
Status,776,14601154595,/g4t1,,fail
Status,777,14609507661,/g3t1_1,,running
Status,778,14609607443,/g3t1_3,,running
Status,779,14609739161,/g3t1_1,,success
Status,780,14609940728,/g3t1_2,,running
Status,781,14610051996,/g3t1_3,,success
Status,782,14610451363,/g3t1_2,,success
Status,783,14659220163,/g3t1_1,,running
Status,784,14659345847,/g3t1_3,,running
Status,785,14659384234,/g3t1_1,,success
Status,786,14660122110,/g3t1_3,,success
Status,787,14660182731,/g3t1_2,,running
Status,788,14660264688,/g3t1_2,,success
Status,789,14701185404,/g4t1,,fail
Status,790,14708939631,/g3t1_1,,running
Status,791,14709933542,/g3t1_1,,success
Status,792,14709999667,/g3t1_3,,running
Status,793,14710076323,/g3t1_2,,running
Status,794,14710432040,/g3t1_3,,success
Status,795,14710684582,/g3t1_2,,success
Status,796,14759529334,/g3t1_1,,running
Status,797,14759613935,/g3t1_3,,running
Status,798,14760356588,/g3t1_1,,success
Status,799,14760640011,/g3t1_3,,success
Status,800,14760748633,/g3t1_2,,running
Status,801,14761011792,/g3t1_2,,success
Status,802,14801260112,/g4t1,,fail
Status,803,14809660257,/g3t1_1,,running
Status,804,14809757968,/g3t1_3,,running
Status,805,14810401695,/g3t1_1,,success
Status,806,14810478195,/g3t1_2,,running
Status,807,14810582056,/g3t1_3,,success
Status,808,14811184335,/g3t1_2,,success
Status,809,14860428971,/g3t1_1,,running
Status,810,14860649518,/g3t1_1,,success
Status,811,14860724079,/g3t1_3,,running
Status,812,14860908902,/g3t1_3,,success
Status,813,14860970659,/g3t1_2,,running
Status,814,14861063330,/g3t1_2,,success
Status,815,14901349994,/g4t1,,fail
Status,816,14909951282,/g3t1_1,,running
Status,817,14910164761,/g3t1_3,,running
Status,818,14910603688,/g3t1_1,,success
Status,819,14911021591,/g3t1_2,,running
Status,820,14911080792,/g3t1_2,,success
Status,821,14911177163,/g3t1_3,,success
Status,822,14960228283,/g3t1_1,,running
Status,823,14960305197,/g3t1_3,,running
Status,824,14960519411,/g3t1_3,,success
Status,825,14960564279,/g3t1_1,,success
Status,826,14960836743,/g3t1_2,,running
Status,827,14961208355,/g3t1_2,,success
Status,828,15001640237,/g4t1,,fail
Status,829,15010428932,/g3t1_3,,running
Status,830,15010666597,/g3t1_1,,running
Status,831,15011586432,/g3t1_1,,success
Status,832,15011675919,/g3t1_2,,running
Status,833,15011757020,/g3t1_3,,success
Status,834,15011786819,/g3t1_2,,success
Status,835,15060542626,/g3t1_3,,running
Status,836,15060622846,/g3t1_1,,running
Status,837,15060794421,/g3t1_1,,success
Status,838,15060850718,/g3t1_3,,success
Status,839,15061361621,/g3t1_2,,running
Status,840,15061816286,/g3t1_2,,success
Status,841,15101827415,/g4t1,,fail
Status,842,15110371849,/g3t1_1,,running
Status,843,15110470809,/g3t1_3,,running
Status,844,15111239479,/g3t1_1,,success
Status,845,15111302495,/g3t1_3,,success
Status,846,15111473617,/g3t1_2,,running
Status,847,15111567592,/g3t1_2,,success
Status,848,15160535149,/g3t1_1,,running
Status,849,15160624135,/g3t1_3,,running
Status,850,15161073524,/g3t1_3,,success
Status,851,15162019546,/g3t1_2,,running
Status,852,15162087873,/g3t1_1,,success
Status,853,15162148631,/g3t1_2,,success
Status,854,15201656762,/g4t1,,fail
Status,855,15210975850,/g3t1_1,,running
Status,856,15211060706,/g3t1_3,,running
Status,857,15211120101,/g3t1_1,,success
Status,858,15211267218,/g3t1_2,,running
Status,859,15211314236,/g3t1_3,,success
Status,860,15211887057,/g3t1_2,,success
Status,861,15261947931,/g3t1_3,,running
Status,862,15262133629,/g3t1_1,,running
Status,863,15262193208,/g3t1_3,,success
Status,864,15262277424,/g3t1_1,,success
Status,865,15262313394,/g3t1_2,,running
Status,866,15262373098,/g3t1_2,,success
Status,867,15301823600,/g4t1,,fail
Status,868,15310980943,/g3t1_3,,running
Status,869,15311464493,/g3t1_1,,running
Status,870,15311882426,/g3t1_1,,success
Status,871,15311942506,/g3t1_2,,running
Status,872,15312653858,/g3t1_3,,success
Status,873,15312864588,/g3t1_2,,success
Status,874,15361805140,/g3t1_3,,running
Status,875,15361950586,/g3t1_1,,running
Status,876,15361996497,/g3t1_1,,success
Status,877,15362072572,/g3t1_2,,running
Status,878,15362538845,/g3t1_3,,success
Status,879,15362614970,/g3t1_2,,success
Status,880,15401803654,/g4t1,,fail
Status,881,15411461099,/g3t1_1,,running
Status,882,15411538634,/g3t1_3,,running
Status,883,15412129164,/g3t1_3,,success
Status,884,15412200811,/g3t1_2,,running
Status,885,15412279646,/g3t1_1,,success
Status,886,15412878712,/g3t1_2,,success
Status,887,15461240600,/g3t1_1,,running
Status,888,15461341631,/g3t1_3,,running
Status,889,15462048736,/g3t1_1,,success
Status,890,15462344045,/g3t1_2,,running
Status,891,15462447295,/g3t1_3,,success
Status,892,15462833087,/g3t1_2,,success
Status,893,15501974460,/g4t1,,fail
Status,894,15511704361,/g3t1_1,,running
Status,895,15511787161,/g3t1_3,,running
Status,896,15512311604,/g3t1_2,,running
Status,897,15512372051,/g3t1_1,,success
Status,898,15512853393,/g3t1_3,,success
Status,899,15512931940,/g3t1_2,,success
Status,900,15561913726,/g3t1_3,,running
Status,901,15562029648,/g3t1_1,,running
Status,902,15562418669,/g3t1_2,,running
Status,903,15562558725,/g3t1_1,,success
Status,904,15562976308,/g3t1_2,,success
Status,905,15563655673,/g3t1_3,,success
Status,906,15602319457,/g4t1,,fail
Status,907,15612552934,/g3t1_1,,running
Status,908,15612629057,/g3t1_3,,running
Status,909,15612755252,/g3t1_1,,success
Status,910,15612795787,/g3t1_2,,running
Status,911,15612828727,/g3t1_3,,success
Status,912,15613451820,/g3t1_2,,success
Status,913,15662844214,/g3t1_1,,running
Status,914,15662958125,/g3t1_3,,running
Status,915,15663080598,/g3t1_1,,success
Status,916,15663105108,/g3t1_3,,success
Status,917,15663130802,/g3t1_2,,running
Status,918,15663599288,/g3t1_2,,success
Status,919,15702354717,/g4t1,,fail
Status,920,15712458567,/g3t1_1,,running
Status,921,15712763795,/g3t1_3,,running
Status,922,15712956030,/g3t1_1,,success
Status,923,15713022211,/g3t1_3,,success
Status,924,15713065305,/g3t1_2,,running
Status,925,15713590481,/g3t1_2,,success
Status,926,15763118523,/g3t1_1,,running
Status,927,15763315489,/g3t1_3,,running
Status,928,15763380540,/g3t1_3,,success
Status,929,15763495192,/g3t1_2,,running
Status,930,15763533142,/g3t1_1,,success
Status,931,15763839478,/g3t1_2,,success
Status,932,15802660140,/g4t1,,fail
Status,933,15813365585,/g3t1_3,,running
Status,934,15813506383,/g3t1_1,,running
Status,935,15813549741,/g3t1_3,,success
Status,936,15813588742,/g3t1_1,,success
Status,937,15813693084,/g3t1_2,,running
Status,938,15813727012,/g3t1_2,,success
Status,939,15862618119,/g3t1_1,,running
Status,940,15863148335,/g3t1_3,,running
Status,941,15863229570,/g3t1_2,,running
Status,942,15863369075,/g3t1_1,,success
Status,943,15863402683,/g3t1_3,,success
Status,944,15863427098,/g3t1_2,,success
Status,945,15902666027,/g4t1,,fail
Status,946,15913455871,/g3t1_3,,running
Status,947,15913557768,/g3t1_1,,running
Status,948,15913629293,/g3t1_1,,success
Status,949,15913813904,/g3t1_2,,running
Status,950,15913850024,/g3t1_2,,success
Status,951,15913875558,/g3t1_3,,success
Status,952,15962217604,/g3t1_1,,running
Status,953,15962250305,/g3t1_3,,running
Status,954,15962369663,/g3t1_1,,success
Status,955,15962394554,/g3t1_3,,success
Status,956,15962658891,/g3t1_2,,running
Status,957,15962810109,/g3t1_2,,success
Status,958,16002094754,/g4t1,,fail
Status,959,16012672890,/g3t1_3,,running
Status,960,16012738619,/g3t1_1,,running
Status,961,16012768084,/g3t1_3,,success
Status,962,16012880480,/g3t1_1,,success
Status,963,16013839079,/g3t1_2,,running
Status,964,16013886798,/g3t1_2,,success
Status,965,16063983293,/g3t1_3,,running
Status,966,16064120758,/g3t1_1,,running
Status,967,16064165543,/g3t1_2,,running
Status,968,16064341554,/g3t1_3,,success
Status,969,16064392380,/g3t1_1,,success
Status,970,16064424591,/g3t1_2,,success
Status,971,16102831240,/g4t1,,fail
Status,972,16114116029,/g3t1_3,,running
Status,973,16114207458,/g3t1_1,,running
Status,974,16114252502,/g3t1_1,,success
Status,975,16114957608,/g3t1_2,,running
Status,976,16115178370,/g3t1_2,,success
Status,977,16115227792,/g3t1_3,,success
Status,978,16163929150,/g3t1_3,,running
Status,979,16164117916,/g3t1_1,,running
Status,980,16164239556,/g3t1_1,,success
Status,981,16164278128,/g3t1_2,,running
Status,982,16164772597,/g3t1_3,,success
Status,983,16164905946,/g3t1_2,,success
Status,984,16202721912,/g4t1,,fail
Status,985,16213613413,/g3t1_3,,running
Status,986,16214270029,/g3t1_1,,running
Status,987,16214339688,/g3t1_1,,success
Status,988,16214461545,/g3t1_2,,running
Status,989,16214500859,/g3t1_3,,success
Status,990,16214761608,/g3t1_2,,success
Status,991,16263525481,/g3t1_3,,running
Status,992,16263635982,/g3t1_1,,running
Status,993,16264366652,/g3t1_1,,success
Status,994,16264515039,/g3t1_2,,running
Status,995,16264573454,/g3t1_3,,success
Status,996,16265231705,/g3t1_2,,success
Status,997,16302910873,/g4t1,,fail
Status,998,16314472984,/g3t1_3,,running
Status,999,16314551175,/g3t1_1,,running
Status,1000,16314637682,/g3t1_1,,success
Status,1001,16314673865,/g3t1_2,,running
Status,1002,16314707389,/g3t1_3,,success
Status,1003,16315319509,/g3t1_2,,success
Status,1004,16363906259,/g3t1_3,,running
Status,1005,16364119200,/g3t1_1,,running
Status,1006,16364281681,/g3t1_1,,success
Status,1007,16364379504,/g3t1_3,,success
Status,1008,16364407139,/g3t1_2,,running
Status,1009,16365002087,/g3t1_2,,success
Status,1010,16403024037,/g4t1,,fail
Status,1011,16414218648,/g3t1_3,,running
Status,1012,16414314467,/g3t1_1,,running
Status,1013,16415013747,/g3t1_1,,success
Status,1014,16415081746,/g3t1_2,,running
Status,1015,16415327220,/g3t1_2,,success
Status,1016,16415389198,/g3t1_3,,success
Status,1017,16464387953,/g3t1_3,,running
Status,1018,16464527007,/g3t1_1,,running
Status,1019,16464686101,/g3t1_3,,success
Status,1020,16464732923,/g3t1_1,,success
Status,1021,16465084729,/g3t1_2,,running
Status,1022,16465444883,/g3t1_2,,success
Status,1023,16503164207,/g4t1,,fail
Status,1024,16514548466,/g3t1_1,,running
Status,1025,16514749041,/g3t1_3,,running
Status,1026,16515703241,/g3t1_3,,success
Status,1027,16515751895,/g3t1_1,,success
Status,1028,16515783332,/g3t1_2,,running
Status,1029,16515947286,/g3t1_2,,success
Status,1030,16564756606,/g3t1_1,,running
Status,1031,16564858258,/g3t1_3,,running
Status,1032,16565672039,/g3t1_1,,success
Status,1033,16565812901,/g3t1_3,,success
Status,1034,16565960434,/g3t1_2,,running
Status,1035,16566596240,/g3t1_2,,success
Status,1036,16603460575,/g4t1,,fail
Status,1037,16615157332,/g3t1_1,,running
Status,1038,16615235489,/g3t1_3,,running
Status,1039,16615354835,/g3t1_1,,success
Status,1040,16615566773,/g3t1_3,,success
Status,1041,16615619820,/g3t1_2,,running
Status,1042,16615867298,/g3t1_2,,success
Status,1043,16665074593,/g3t1_1,,running
Status,1044,16665236330,/g3t1_3,,running
Status,1045,16665288660,/g3t1_1,,success
Status,1046,16665442534,/g3t1_3,,success
Status,1047,16665623553,/g3t1_2,,running
Status,1048,16665970781,/g3t1_2,,success
Status,1049,16703649725,/g4t1,,fail
Status,1050,16714938670,/g3t1_1,,running
Status,1051,16715435282,/g3t1_3,,running
Status,1052,16716249002,/g3t1_3,,success
Status,1053,16716368896,/g3t1_2,,running
Status,1054,16716473695,/g3t1_2,,success
Status,1055,16716516129,/g3t1_1,,success
Status,1056,16765293911,/g3t1_3,,running
Status,1057,16765384701,/g3t1_1,,running
Status,1058,16766329424,/g3t1_1,,success
Status,1059,16766434422,/g3t1_2,,running
Status,1060,16766478895,/g3t1_3,,success
Status,1061,16766524774,/g3t1_2,,success
Status,1062,16803840219,/g4t1,,fail
Status,1063,16815472133,/g3t1_3,,running
Status,1064,16815684454,/g3t1_1,,running
Status,1065,16815740174,/g3t1_1,,success
Status,1066,16815775620,/g3t1_3,,success
Status,1067,16815883333,/g3t1_2,,running
Status,1068,16816531639,/g3t1_2,,success
Status,1069,16865991409,/g3t1_3,,running
Status,1070,16866095759,/g3t1_1,,running
Status,1071,16866581780,/g3t1_3,,success
Status,1072,16866608799,/g3t1_1,,success
Status,1073,16866635623,/g3t1_2,,running
Status,1074,16866658482,/g3t1_2,,success
Status,1075,16903949297,/g4t1,,fail
Status,1076,16915369771,/g3t1_1,,running
Status,1077,16915497637,/g3t1_3,,running
Status,1078,16916027730,/g3t1_1,,success
Status,1079,16916162436,/g3t1_3,,success
Status,1080,16916210569,/g3t1_2,,running
Status,1081,16916897901,/g3t1_2,,success
Status,1082,16965880920,/g3t1_3,,running
Status,1083,16965976777,/g3t1_1,,running
Status,1084,16966371395,/g3t1_2,,running
Status,1085,16966463040,/g3t1_3,,success
Status,1086,16966570368,/g3t1_1,,success
Status,1087,16967082229,/g3t1_2,,success
Status,1088,17004052955,/g4t1,,fail
Status,1089,17015874093,/g3t1_3,,running
Status,1090,17015965457,/g3t1_1,,running
Status,1091,17016529279,/g3t1_3,,success
Status,1092,17016651866,/g3t1_1,,success
Status,1093,17016699322,/g3t1_2,,running
Status,1094,17017241571,/g3t1_2,,success
Status,1095,17066110685,/g3t1_1,,running
Status,1096,17066357524,/g3t1_3,,running
Status,1097,17066875887,/g3t1_3,,success
Status,1098,17066984787,/g3t1_1,,success
Status,1099,17067107685,/g3t1_2,,running
Status,1100,17067354913,/g3t1_2,,success
Status,1101,17104156815,/g4t1,,fail
Status,1102,17116709071,/g3t1_3,,running
Status,1103,17116870839,/g3t1_1,,running
Status,1104,17116918508,/g3t1_1,,success
Status,1105,17116953860,/g3t1_3,,success
Status,1106,17117000264,/g3t1_2,,running
Status,1107,17117083185,/g3t1_2,,success
Status,1108,17167467664,/g3t1_1,,running
Status,1109,17167554118,/g3t1_3,,running
Status,1110,17167582255,/g3t1_2,,running
Status,1111,17167609730,/g3t1_1,,success
Status,1112,17167637187,/g3t1_3,,success
Status,1113,17167842383,/g3t1_2,,success
Status,1114,17204400357,/g4t1,,fail
Status,1115,17216512192,/g3t1_3,,running
Status,1116,17216706809,/g3t1_1,,running
Status,1117,17217211147,/g3t1_2,,running
Status,1118,17217300854,/g3t1_3,,success
Status,1119,17217545590,/g3t1_1,,success
Status,1120,17217603548,/g3t1_2,,success
Status,1121,17267306630,/g3t1_3,,running
Status,1122,17267417980,/g3t1_1,,running
Status,1123,17267894419,/g3t1_2,,running
Status,1124,17267969401,/g3t1_1,,success
Status,1125,17268154175,/g3t1_3,,success
Status,1126,17268266774,/g3t1_2,,success
Status,1127,17303874674,/g4t1,,fail
Status,1128,17316642274,/g3t1_3,,running
Status,1129,17316709061,/g3t1_1,,running
Status,1130,17316722681,/g3t1_1,,success
Status,1131,17316732839,/g3t1_2,,running
Status,1132,17316763870,/g3t1_3,,success
Status,1133,17316878902,/g3t1_2,,success
Status,1134,17367328234,/g3t1_3,,running
Status,1135,17367466648,/g3t1_1,,running
Status,1136,17367638289,/g3t1_2,,running
Status,1137,17367942114,/g3t1_2,,success
Status,1138,17368056144,/g3t1_3,,success
Status,1139,17368141034,/g3t1_1,,success
Status,1140,17404506886,/g4t1,,fail
Status,1141,17417734182,/g3t1_1,,running
Status,1142,17417831565,/g3t1_3,,running
Status,1143,17417876628,/g3t1_3,,success
Status,1144,17417913084,/g3t1_1,,success
Status,1145,17417974177,/g3t1_2,,running
Status,1146,17417999570,/g3t1_2,,success
Status,1147,17467873604,/g3t1_1,,running
Status,1148,17467958009,/g3t1_3,,running
Status,1149,17468003625,/g3t1_3,,success
Status,1150,17468036726,/g3t1_2,,running
Status,1151,17468070649,/g3t1_1,,success
Status,1152,17468365597,/g3t1_2,,success
Status,1153,17504643885,/g4t1,,fail
Status,1154,17517791562,/g3t1_1,,running
Status,1155,17517913998,/g3t1_3,,running
Status,1156,17518330549,/g3t1_2,,running
Status,1157,17518392559,/g3t1_3,,success
Status,1158,17518478597,/g3t1_1,,success
Status,1159,17518513545,/g3t1_2,,success
Status,1160,17567590427,/g3t1_3,,running
Status,1161,17567735743,/g3t1_1,,running
Status,1162,17568045365,/g3t1_2,,running
Status,1163,17568103078,/g3t1_3,,success
Status,1164,17568801471,/g3t1_1,,success
Status,1165,17568878072,/g3t1_2,,success
Status,1166,17604781026,/g4t1,,fail
Status,1167,17617881562,/g3t1_3,,running
Status,1168,17618052124,/g3t1_1,,running
Status,1169,17618511310,/g3t1_2,,running
Status,1170,17618580000,/g3t1_1,,success
Status,1171,17618939882,/g3t1_2,,success
Status,1172,17619002681,/g3t1_3,,success
Status,1173,17668045039,/g3t1_3,,running
Status,1174,17668150534,/g3t1_1,,running
Status,1175,17668791434,/g3t1_2,,running
Status,1176,17668862305,/g3t1_3,,success
Status,1177,17669222997,/g3t1_1,,success
Status,1178,17669293547,/g3t1_2,,success
Status,1179,17704808129,/g4t1,,fail
Status,1180,17718315495,/g3t1_3,,running
Status,1181,17718598690,/g3t1_1,,running
Status,1182,17718840768,/g3t1_1,,success
Status,1183,17719119785,/g3t1_3,,success
Status,1184,17719207165,/g3t1_2,,running
Status,1185,17719285953,/g3t1_2,,success
Status,1186,17768548733,/g3t1_3,,running
Status,1187,17768642306,/g3t1_1,,running
Status,1188,17768766306,/g3t1_2,,running
Status,1189,17769147797,/g3t1_3,,success
Status,1190,17769282091,/g3t1_1,,success
Status,1191,17769349275,/g3t1_2,,success
Status,1192,17804999368,/g4t1,,fail
Status,1193,17818483738,/g3t1_3,,running
Status,1194,17818586906,/g3t1_1,,running
Status,1195,17818627920,/g3t1_2,,running
Status,1196,17819155240,/g3t1_3,,success
Status,1197,17819195975,/g3t1_2,,success
Status,1198,17819242775,/g3t1_1,,success
Status,1199,17868504784,/g3t1_3,,running
Status,1200,17868656978,/g3t1_1,,running
Status,1201,17868790547,/g3t1_3,,success
Status,1202,17869271865,/g3t1_2,,running
Status,1203,17869554952,/g3t1_2,,success
Status,1204,17869676228,/g3t1_1,,success
Status,1205,17905062849,/g4t1,,fail
Status,1206,17919006479,/g3t1_3,,running
Status,1207,17919152508,/g3t1_1,,running
Status,1208,17919397149,/g3t1_2,,running
Status,1209,17919869005,/g3t1_1,,success
Status,1210,17919955769,/g3t1_3,,success
Status,1211,17920055151,/g3t1_2,,success
Status,1212,17968606605,/g3t1_3,,running
Status,1213,17968754558,/g3t1_1,,running
Status,1214,17968865289,/g3t1_3,,success
Status,1215,17969625710,/g3t1_2,,running
Status,1216,17969730887,/g3t1_1,,success
Status,1217,17970672964,/g3t1_2,,success
Status,1218,18005194037,/g4t1,,fail
Status,1219,18019393393,/g3t1_3,,running
Status,1220,18019460599,/g3t1_1,,running
Status,1221,18019549942,/g3t1_3,,success
Status,1222,18019585322,/g3t1_1,,success
Status,1223,18019617317,/g3t1_2,,running
Status,1224,18020305932,/g3t1_2,,success
Status,1225,18069179151,/g3t1_3,,running
Status,1226,18069265035,/g3t1_1,,running
Status,1227,18070140330,/g3t1_1,,success
Status,1228,18070273501,/g3t1_2,,running
Status,1229,18070365240,/g3t1_3,,success
Status,1230,18070708204,/g3t1_2,,success
Status,1231,18105267329,/g4t1,,fail
Status,1232,18119542494,/g3t1_3,,running
Status,1233,18119697126,/g3t1_1,,running
Status,1234,18119740679,/g3t1_1,,success
Status,1235,18119776217,/g3t1_2,,running
Status,1236,18120381442,/g3t1_3,,success
Status,1237,18120460576,/g3t1_2,,success
Status,1238,18169570534,/g3t1_3,,running
Status,1239,18170061844,/g3t1_1,,running
Status,1240,18170122567,/g3t1_3,,success
Status,1241,18170214738,/g3t1_1,,success
Status,1242,18170327269,/g3t1_2,,running
Status,1243,18170405528,/g3t1_2,,success
Status,1244,18205454359,/g4t1,,fail
Status,1245,18219318203,/g3t1_3,,running
Status,1246,18219555515,/g3t1_1,,running
Status,1247,18220066713,/g3t1_3,,success
Status,1248,18220153076,/g3t1_2,,running
Status,1249,18220198101,/g3t1_1,,success
Status,1250,18220419145,/g3t1_2,,success
Status,1251,18270099611,/g3t1_1,,running
Status,1252,18270169588,/g3t1_3,,running
Status,1253,18270918019,/g3t1_2,,running
Status,1254,18270964516,/g3t1_3,,success
Status,1255,18271080596,/g3t1_1,,success
Status,1256,18271118333,/g3t1_2,,success
Status,1257,18305653399,/g4t1,,fail
Status,1258,18320145801,/g3t1_3,,running
Status,1259,18320229864,/g3t1_1,,running
Status,1260,18320325535,/g3t1_3,,success
Status,1261,18320351212,/g3t1_2,,running
Status,1262,18320995371,/g3t1_1,,success
Status,1263,18321065441,/g3t1_2,,success
Status,1264,18370282956,/g3t1_3,,running
Status,1265,18370372378,/g3t1_1,,running
Status,1266,18371136969,/g3t1_2,,running
Status,1267,18371379472,/g3t1_1,,success
Status,1268,18371459038,/g3t1_3,,success
Status,1269,18371561374,/g3t1_2,,success
Status,1270,18406073626,/g4t1,,fail
Status,1271,18420435737,/g3t1_3,,running
Status,1272,18421033635,/g3t1_1,,running
Status,1273,18421103860,/g3t1_1,,success
Status,1274,18421188547,/g3t1_3,,success
Status,1275,18421225866,/g3t1_2,,running
Status,1276,18421574781,/g3t1_2,,success
Status,1277,18470846459,/g3t1_1,,running
Status,1278,18470960495,/g3t1_3,,running
Status,1279,18471082007,/g3t1_1,,success
Status,1280,18471172800,/g3t1_2,,running
Status,1281,18471478158,/g3t1_3,,success
Status,1282,18471542381,/g3t1_2,,success
Status,1283,18506111602,/g4t1,,fail
Status,1284,18520861124,/g3t1_1,,running
Status,1285,18521020703,/g3t1_3,,running
Status,1286,18521070111,/g3t1_3,,success
Status,1287,18521109462,/g3t1_2,,running
Status,1288,18521143927,/g3t1_1,,success
Status,1289,18521678986,/g3t1_2,,success
Status,1290,18571227680,/g3t1_3,,running
Status,1291,18571311561,/g3t1_1,,running
Status,1292,18571396984,/g3t1_2,,running
Status,1293,18571421066,/g3t1_1,,success
Status,1294,18571443159,/g3t1_3,,success
Status,1295,18571789594,/g3t1_2,,success
Status,1296,18606302933,/g4t1,,fail
Status,1297,18621134751,/g3t1_3,,running
Status,1298,18621203074,/g3t1_1,,running
Status,1299,18621326502,/g3t1_2,,running
Status,1300,18621355637,/g3t1_1,,success
Status,1301,18621878929,/g3t1_3,,success
Status,1302,18622261923,/g3t1_2,,success
Status,1303,18671282822,/g3t1_1,,running
Status,1304,18671394023,/g3t1_3,,running
Status,1305,18671527029,/g3t1_3,,success
Status,1306,18671561243,/g3t1_1,,success
Status,1307,18671903464,/g3t1_2,,running
Status,1308,18671995534,/g3t1_2,,success
Status,1309,18706329760,/g4t1,,fail
Status,1310,18721247523,/g3t1_3,,running
Status,1311,18721342351,/g3t1_1,,running
Status,1312,18721877385,/g3t1_2,,running
Status,1313,18721966952,/g3t1_3,,success
Status,1314,18722126937,/g3t1_2,,success
Status,1315,18722664983,/g3t1_1,,success
Status,1316,18771698932,/g3t1_3,,running
Status,1317,18771819395,/g3t1_2,,running
Status,1318,18771864073,/g3t1_3,,success
Status,1319,18771951176,/g3t1_1,,running
Status,1320,18771991824,/g3t1_1,,success
Status,1321,18772276512,/g3t1_2,,success
Status,1322,18806552457,/g4t1,,fail
Status,1323,18821570054,/g3t1_1,,running
Status,1324,18821733466,/g3t1_3,,running
Status,1325,18821778605,/g3t1_2,,running
Status,1326,18822361504,/g3t1_2,,success
Status,1327,18822425158,/g3t1_3,,success
Status,1328,18822451524,/g3t1_1,,success
Status,1329,18871510753,/g3t1_3,,running
Status,1330,18871597248,/g3t1_1,,running
Status,1331,18871682874,/g3t1_2,,running
Status,1332,18872413286,/g3t1_1,,success
Status,1333,18872532074,/g3t1_3,,success
Status,1334,18872939450,/g3t1_2,,success
Status,1335,18906877100,/g4t1,,fail
Status,1336,18921610128,/g3t1_3,,running
Status,1337,18922321794,/g3t1_1,,running
Status,1338,18922399269,/g3t1_2,,running
Status,1339,18923038126,/g3t1_3,,success
Status,1340,18923100778,/g3t1_2,,success
Status,1341,18923197375,/g3t1_1,,success
Status,1342,18971009769,/g3t1_3,,running
Status,1343,18971094146,/g3t1_1,,running
Status,1344,18971125408,/g3t1_3,,success
Status,1345,18971210220,/g3t1_1,,success
Status,1346,18971418267,/g3t1_2,,running
Status,1347,18971546250,/g3t1_2,,success
Status,1348,19006120531,/g4t1,,fail
Status,1349,19021241499,/g3t1_3,,running
Status,1350,19021271213,/g3t1_1,,running
Status,1351,19021558097,/g3t1_1,,success
Status,1352,19021579021,/g3t1_2,,running
Status,1353,19021614263,/g3t1_3,,success
Status,1354,19021744897,/g3t1_2,,success
Status,1355,19071849301,/g3t1_1,,running
Status,1356,19071969327,/g3t1_3,,running
Status,1357,19072004608,/g3t1_1,,success
Status,1358,19072028957,/g3t1_2,,running
Status,1359,19072045133,/g3t1_3,,success
Status,1360,19072617086,/g3t1_2,,success
Status,1361,19106758532,/g4t1,,fail
Status,1362,19122167514,/g3t1_3,,running
Status,1363,19122257236,/g3t1_1,,running
Status,1364,19122851394,/g3t1_1,,success
Status,1365,19122947925,/g3t1_2,,running
Status,1366,19122982021,/g3t1_3,,success
Status,1367,19123236829,/g3t1_2,,success
Status,1368,19172554225,/g3t1_3,,running
Status,1369,19172624204,/g3t1_1,,running
Status,1370,19172739662,/g3t1_1,,success
Status,1371,19172767445,/g3t1_2,,running
Status,1372,19172795903,/g3t1_3,,success
Status,1373,19173067844,/g3t1_2,,success
Status,1374,19206808547,/g4t1,,fail
Status,1375,19222732962,/g3t1_3,,running
Status,1376,19222878514,/g3t1_1,,running
Status,1377,19222917632,/g3t1_2,,running
Status,1378,19223288179,/g3t1_3,,success
Status,1379,19223349692,/g3t1_2,,success
Status,1380,19223476137,/g3t1_1,,success
Status,1381,19272827209,/g3t1_1,,running
Status,1382,19272944390,/g3t1_3,,running
Status,1383,19273058268,/g3t1_2,,running
Status,1384,19273356561,/g3t1_1,,success
Status,1385,19273487816,/g3t1_2,,success
Status,1386,19273855297,/g3t1_3,,success
Status,1387,19307143683,/g4t1,,fail
Status,1388,19322981420,/g3t1_1,,running
Status,1389,19323074553,/g3t1_3,,running
Status,1390,19323262352,/g3t1_3,,success
Status,1391,19323310545,/g3t1_1,,success
Status,1392,19324207545,/g3t1_2,,running
Status,1393,19324310333,/g3t1_2,,success
Status,1394,19373252079,/g3t1_3,,running
Status,1395,19373494908,/g3t1_1,,running
Status,1396,19373537925,/g3t1_3,,success
Status,1397,19373900886,/g3t1_1,,success
Status,1398,19373982994,/g3t1_2,,running
Status,1399,19374022307,/g3t1_2,,success
Status,1400,19407369842,/g4t1,,fail
Status,1401,19423331349,/g3t1_1,,running
Status,1402,19423417015,/g3t1_3,,running
Status,1403,19423567035,/g3t1_2,,running
Status,1404,19423610380,/g3t1_1,,success
Status,1405,19424000322,/g3t1_3,,success
Status,1406,19425042975,/g3t1_2,,success
Status,1407,19473681583,/g3t1_1,,running
Status,1408,19473749082,/g3t1_3,,running
Status,1409,19473892380,/g3t1_2,,running
Status,1410,19474367119,/g3t1_3,,success
Status,1411,19474441514,/g3t1_2,,success
Status,1412,19474534374,/g3t1_1,,success
Status,1413,19507470811,/g4t1,,fail
Status,1414,19523576070,/g3t1_3,,running
Status,1415,19523676527,/g3t1_1,,running
Status,1416,19524031812,/g3t1_2,,running
Status,1417,19524089216,/g3t1_3,,success
Status,1418,19524126733,/g3t1_1,,success
Status,1419,19524677531,/g3t1_2,,success
Status,1420,19573771071,/g3t1_3,,running
Status,1421,19574185832,/g3t1_1,,running
Status,1422,19574248402,/g3t1_3,,success
Status,1423,19574296452,/g3t1_2,,running
Status,1424,19574400195,/g3t1_2,,success
Status,1425,19574427067,/g3t1_1,,success
Status,1426,19607547143,/g4t1,,fail
Status,1427,19624286465,/g3t1_1,,running
Status,1428,19624435888,/g3t1_3,,running
Status,1429,19624611782,/g3t1_2,,running
Status,1430,19624711519,/g3t1_3,,success
Status,1431,19624948468,/g3t1_1,,success
Status,1432,19625099575,/g3t1_2,,success
Status,1433,19673964465,/g3t1_1,,running
Status,1434,19674049762,/g3t1_3,,running
Status,1435,19674831919,/g3t1_2,,running
Status,1436,19674930650,/g3t1_1,,success
Status,1437,19675059546,/g3t1_3,,success
Status,1438,19675470476,/g3t1_2,,success
Status,1439,19707968396,/g4t1,,fail
Status,1440,19724398031,/g3t1_3,,running
Status,1441,19724496013,/g3t1_1,,running
Status,1442,19724924861,/g3t1_3,,success
Status,1443,19724977308,/g3t1_2,,running
Status,1444,19725033444,/g3t1_1,,success
Status,1445,19725376604,/g3t1_2,,success
Status,1446,19774930826,/g3t1_3,,running
Status,1447,19775129835,/g3t1_1,,running
Status,1448,19775166268,/g3t1_3,,success
Status,1449,19775218089,/g3t1_2,,running
Status,1450,19775298045,/g3t1_1,,success
Status,1451,19775336801,/g3t1_2,,success
Status,1452,19807813005,/g4t1,,fail
Status,1453,19824179963,/g3t1_3,,running
Status,1454,19824283481,/g3t1_1,,running
Status,1455,19825023384,/g3t1_2,,running
Status,1456,19825385777,/g3t1_3,,success
Status,1457,19825698455,/g3t1_1,,success
Status,1458,19825757611,/g3t1_2,,success
Status,1459,19874582787,/g3t1_3,,running
Status,1460,19875277117,/g3t1_1,,running
Status,1461,19875400617,/g3t1_2,,running
Status,1462,19875632040,/g3t1_3,,success
Status,1463,19876045291,/g3t1_1,,success
Status,1464,19876186910,/g3t1_2,,success
Status,1465,19907814036,/g4t1,,fail
Status,1466,19924843632,/g3t1_3,,running
Status,1467,19924940777,/g3t1_1,,running
Status,1468,19925564464,/g3t1_2,,running
Status,1469,19925718071,/g3t1_1,,success
Status,1470,19925759529,/g3t1_3,,success
Status,1471,19926226979,/g3t1_2,,success
Status,1472,19975467191,/g3t1_3,,running
Status,1473,19975528109,/g3t1_1,,running
Status,1474,19975613480,/g3t1_2,,running
Status,1475,19975637546,/g3t1_3,,success
Status,1476,19975661015,/g3t1_1,,success
Status,1477,19975923538,/g3t1_2,,success
Status,1478,20008048206,/g4t1,,fail
Status,1479,20026011922,/g3t1_3,,running
Status,1480,20026077934,/g3t1_1,,running
Status,1481,20026103275,/g3t1_3,,success
Status,1482,20026126593,/g3t1_1,,success
Status,1483,20026158515,/g3t1_2,,running
Status,1484,20026251147,/g3t1_2,,success
Status,1485,20075608498,/g3t1_1,,running
Status,1486,20075743324,/g3t1_3,,running
Status,1487,20076241542,/g3t1_3,,success
Status,1488,20076410733,/g3t1_2,,running
Status,1489,20076446189,/g3t1_1,,success
Status,1490,20076473552,/g3t1_2,,success
Status,1491,20108096653,/g4t1,,fail
Status,1492,20125306559,/g3t1_1,,running
Status,1493,20125456768,/g3t1_3,,running
Status,1494,20125502354,/g3t1_1,,success
Status,1495,20125929229,/g3t1_2,,running
Status,1496,20126009997,/g3t1_3,,success
Status,1497,20126193868,/g3t1_2,,success
Status,1498,20175833500,/g3t1_3,,running
Status,1499,20175915500,/g3t1_1,,running
Status,1500,20176044497,/g3t1_2,,running
Status,1501,20176085849,/g3t1_3,,success
Status,1502,20176503992,/g3t1_1,,success
Status,1503,20176575094,/g3t1_2,,success
Status,1504,20208308957,/g4t1,,fail
Status,1505,20226077448,/g3t1_1,,running
Status,1506,20226356860,/g3t1_3,,running
Status,1507,20226484274,/g3t1_2,,running
Status,1508,20226966641,/g3t1_3,,success
Status,1509,20227048721,/g3t1_1,,success
Status,1510,20227133197,/g3t1_2,,success
Status,1511,20275794877,/g3t1_1,,running
Status,1512,20276262696,/g3t1_3,,running
