
Status,2,2200000000,/g4t1,,init
Status,4,2600000000,/g3t1_2,,init
Status,5,2620000000,/g3t1_2,,success
Status,6,2640000000,/g3t1_2,,success
Status,7,2660000000,/g3t1_2,,success
Status,8,2680000000,/g3t1_2,,success
Status,9,2700000000,/g3t1_2,,success
Status,10,2720000000,/g3t1_2,,success
Status,11,2740000000,/g3t1_2,,success
Status,12,2760000000,/g3t1_2,,success
Status,13,2780000000,/g3t1_2,,success
Status,14,2800000000,/g3t1_2,,success
Status,15,2820000000,/g3t1_2,,success
Status,16,2840000000,/g3t1_2,,success
Status,17,2860000000,/g3t1_2,,success
Status,18,2880000000,/g3t1_2,,success
Status,19,2900000000,/g3t1_2,,success
Status,20,2920000000,/g3t1_2,,success
Status,21,2940000000,/g3t1_2,,success
Status,22,2960000000,/g3t1_2,,success
Status,23,2980000000,/g3t1_2,,success
Status,24,3000000000,/g3t1_2,,success
Status,24,3000000000,/g4t1,,success
Status,25,3020000000,/g3t1_2,,success
Status,26,3040000000,/g3t1_2,,success
Status,27,3060000000,/g3t1_2,,success
Status,28,3080000000,/g3t1_2,,success
Status,29,3100000000,/g3t1_2,,success
Status,30,3120000000,/g3t1_2,,success
Status,31,3140000000,/g3t1_2,,success
Status,32,3160000000,/g3t1_2,,success
Status,33,3180000000,/g3t1_2,,success
Status,34,3200000000,/g3t1_2,,success
Status,35,3220000000,/g3t1_2,,success
Status,36,3240000000,/g3t1_2,,success
Status,37,3260000000,/g3t1_2,,success
Status,38,3280000000,/g3t1_2,,success
Status,39,3300000000,/g3t1_2,,success
Status,40,3320000000,/g3t1_2,,success
Status,41,3340000000,/g3t1_2,,success
Status,42,3360000000,/g3t1_2,,fail
Status,43,3380000000,/g3t1_2,,success
Status,44,3400000000,/g3t1_2,,success
Status,45,3420000000,/g3t1_2,,success
Status,46,3440000000,/g3t1_2,,success
Status,47,3460000000,/g3t1_2,,success
Status,48,3480000000,/g3t1_2,,success
Status,49,3500000000,/g3t1_2,,success
Status,50,3520000000,/g3t1_2,,success
Status,51,3540000000,/g3t1_2,,fail
Status,52,3560000000,/g3t1_2,,success
Status,53,3580000000,/g3t1_2,,success
Status,54,3600000000,/g3t1_2,,success
Status,55,3620000000,/g3t1_2,,success
Status,56,3640000000,/g3t1_2,,success
Status,57,3660000000,/g3t1_2,,success
Status,58,3680000000,/g3t1_2,,success
Status,59,3700000000,/g3t1_2,,success
Status,60,3720000000,/g3t1_2,,success
Status,61,3740000000,/g3t1_2,,success
Status,62,3760000000,/g3t1_2,,success
Status,63,3780000000,/g3t1_2,,success
Status,64,3800000000,/g3t1_2,,success
Status,65,3820000000,/g3t1_2,,success
Status,66,3840000000,/g3t1_2,,success
Status,67,3860000000,/g3t1_2,,success
Status,68,3880000000,/g3t1_2,,success
Status,69,3900000000,/g3t1_2,,success
Status,70,3920000000,/g3t1_2,,success
Status,71,3940000000,/g3t1_2,,success
Status,72,3960000000,/g3t1_2,,success
Status,73,3980000000,/g3t1_2,,success
Status,74,4000000000,/g3t1_2,,success
Status,74,4000000000,/g4t1,,success
Status,75,4020000000,/g3t1_2,,success
Status,76,4040000000,/g3t1_2,,success
Status,77,4060000000,/g3t1_2,,success
Status,78,4080000000,/g3t1_2,,success
Status,79,4100000000,/g3t1_2,,success
Status,80,4120000000,/g3t1_2,,success
Status,81,4140000000,/g3t1_2,,success
Status,82,4160000000,/g3t1_2,,success
Status,83,4180000000,/g3t1_2,,success
Status,84,4200000000,/g3t1_2,,success
Status,85,4220000000,/g3t1_2,,success
Status,86,4240000000,/g3t1_2,,success
Status,87,4260000000,/g3t1_2,,success
Status,88,4280000000,/g3t1_2,,success
Status,89,4300000000,/g3t1_2,,fail
Status,90,4320000000,/g3t1_2,,success
Status,91,4340000000,/g3t1_2,,success
Status,92,4360000000,/g3t1_2,,success
Status,93,4380000000,/g3t1_2,,success
Status,94,4400000000,/g3t1_2,,success
Status,95,4420000000,/g3t1_2,,success
Status,96,4440000000,/g3t1_2,,success
Status,97,4460000000,/g3t1_2,,success
Status,98,4480000000,/g3t1_2,,success
Status,99,4500000000,/g3t1_2,,success
Status,100,4520000000,/g3t1_2,,success
Status,101,4540000000,/g3t1_2,,success
Status,102,4560000000,/g3t1_2,,success
Status,103,4580000000,/g3t1_2,,success
Status,104,4600000000,/g3t1_2,,success
Status,105,4620000000,/g3t1_2,,success
Status,106,4640000000,/g3t1_2,,success
Status,107,4660000000,/g3t1_2,,success
Status,108,4680000000,/g3t1_2,,success
Status,109,4700000000,/g3t1_2,,success
Status,110,4720000000,/g3t1_2,,success
Status,111,4740000000,/g3t1_2,,success
Status,112,4760000000,/g3t1_2,,success
Status,113,4780000000,/g3t1_2,,success
Status,114,4800000000,/g3t1_2,,success
Status,115,4820000000,/g3t1_2,,success
Status,116,4840000000,/g3t1_2,,success
Status,117,4860000000,/g3t1_2,,success
Status,118,4880000000,/g3t1_2,,success
Status,119,4900000000,/g3t1_2,,success
Status,120,4920000000,/g3t1_2,,success
Status,121,4940000000,/g3t1_2,,success
Status,122,4960000000,/g3t1_2,,success
Status,123,4980000000,/g3t1_2,,success
Status,124,5000000000,/g3t1_2,,success
Status,124,5000000000,/g4t1,,success
Status,125,5020000000,/g3t1_2,,success
Status,126,5040000000,/g3t1_2,,success
Status,127,5060000000,/g3t1_2,,success
Status,128,5080000000,/g3t1_2,,success
Status,129,5100000000,/g3t1_2,,success
Status,130,5120000000,/g3t1_2,,success
Status,131,5140000000,/g3t1_2,,success
Status,132,5160000000,/g3t1_2,,success
Status,133,5180000000,/g3t1_2,,success
Status,134,5200000000,/g3t1_2,,success
Status,135,5220000000,/g3t1_2,,success
Status,136,5240000000,/g3t1_2,,success
Status,137,5260000000,/g3t1_2,,success
Status,138,5280000000,/g3t1_2,,success
Status,139,5300000000,/g3t1_2,,success
Status,140,5320000000,/g3t1_2,,success
Status,141,5340000000,/g3t1_2,,success
Status,142,5360000000,/g3t1_2,,success
Status,143,5380000000,/g3t1_2,,success
Status,144,5400000000,/g3t1_2,,success
Status,145,5420000000,/g3t1_2,,success
Status,146,5440000000,/g3t1_2,,success
Status,147,5460000000,/g3t1_2,,success
Status,148,5480000000,/g3t1_2,,success
Status,149,5500000000,/g3t1_2,,success
Status,150,5520000000,/g3t1_2,,success
Status,151,5540000000,/g3t1_2,,success
Status,152,5560000000,/g3t1_2,,success
Status,153,5580000000,/g3t1_2,,success
Status,154,5600000000,/g3t1_2,,success
Status,155,5620000000,/g3t1_2,,success
Status,156,5640000000,/g3t1_2,,success
Status,157,5660000000,/g3t1_2,,fail
Status,158,5680000000,/g3t1_2,,success
Status,159,5700000000,/g3t1_2,,success
Status,160,5720000000,/g3t1_2,,success
Status,161,5740000000,/g3t1_2,,success
Status,162,5760000000,/g3t1_2,,success
Status,163,5780000000,/g3t1_2,,success
Status,164,5800000000,/g3t1_2,,success
Status,165,5820000000,/g3t1_2,,success
Status,166,5840000000,/g3t1_2,,success
Status,167,5860000000,/g3t1_2,,success
Status,168,5880000000,/g3t1_2,,success
Status,169,5900000000,/g3t1_2,,success
Status,170,5920000000,/g3t1_2,,success
Status,171,5940000000,/g3t1_2,,success
Status,172,5960000000,/g3t1_2,,success
Status,173,5980000000,/g3t1_2,,success
Status,174,6000000000,/g3t1_2,,success
Status,174,6000000000,/g4t1,,success
Status,175,6020000000,/g3t1_2,,success
Status,176,6040000000,/g3t1_2,,success
Status,177,6060000000,/g3t1_2,,success
Status,178,6080000000,/g3t1_2,,success
Status,179,6100000000,/g3t1_2,,success
Status,180,6120000000,/g3t1_2,,success
Status,181,6140000000,/g3t1_2,,success
Status,182,6160000000,/g3t1_2,,success
Status,183,6180000000,/g3t1_2,,success
Status,184,6200000000,/g3t1_2,,success
Status,185,6220000000,/g3t1_2,,success
Status,186,6240000000,/g3t1_2,,success
Status,187,6260000000,/g3t1_2,,success
Status,188,6280000000,/g3t1_2,,success
Status,189,6300000000,/g3t1_2,,success
Status,190,6320000000,/g3t1_2,,success
Status,191,6340000000,/g3t1_2,,success
Status,192,6360000000,/g3t1_2,,fail
Status,193,6380000000,/g3t1_2,,success
Status,194,6400000000,/g3t1_2,,success
Status,195,6420000000,/g3t1_2,,success
Status,196,6440000000,/g3t1_2,,success
Status,197,6460000000,/g3t1_2,,success
Status,198,6480000000,/g3t1_2,,success
Status,199,6500000000,/g3t1_2,,success
Status,200,6520000000,/g3t1_2,,success
Status,201,6540000000,/g3t1_2,,success
Status,202,6560000000,/g3t1_2,,success
Status,203,6580000000,/g3t1_2,,success
Status,204,6600000000,/g3t1_2,,success
Status,205,6620000000,/g3t1_2,,success
Status,206,6640000000,/g3t1_2,,success
Status,207,6660000000,/g3t1_2,,success
Status,208,6680000000,/g3t1_2,,success
Status,209,6700000000,/g3t1_2,,success
Status,210,6720000000,/g3t1_2,,success
Status,211,6740000000,/g3t1_2,,success
Status,212,6760000000,/g3t1_2,,success
Status,213,6780000000,/g3t1_2,,success
Status,214,6800000000,/g3t1_2,,success
Status,215,6820000000,/g3t1_2,,success
Status,216,6840000000,/g3t1_2,,success
Status,217,6860000000,/g3t1_2,,success
Status,218,6880000000,/g3t1_2,,success
Status,219,6900000000,/g3t1_2,,success
Status,220,6920000000,/g3t1_2,,success
Status,221,6940000000,/g3t1_2,,success
Status,222,6960000000,/g3t1_2,,success
Status,223,6980000000,/g3t1_2,,success
Status,224,7000000000,/g3t1_2,,success
Status,224,7000000000,/g4t1,,success
Status,225,7020000000,/g3t1_2,,success
Status,226,7040000000,/g3t1_2,,success
Status,227,7060000000,/g3t1_2,,success
Status,228,7080000000,/g3t1_2,,success
Status,229,7100000000,/g3t1_2,,success
Status,230,7120000000,/g3t1_2,,success
Status,231,7140000000,/g3t1_2,,success
Status,232,7160000000,/g3t1_2,,success
Status,233,7180000000,/g3t1_2,,success
Status,234,7200000000,/g3t1_2,,success
Status,235,7220000000,/g3t1_2,,success
Status,236,7240000000,/g3t1_2,,success
Status,237,7260000000,/g3t1_2,,success
Status,238,7280000000,/g3t1_2,,success
Status,239,7300000000,/g3t1_2,,success
Status,240,7320000000,/g3t1_2,,success
Status,241,7340000000,/g3t1_2,,success
Status,242,7360000000,/g3t1_2,,success
Status,243,7380000000,/g3t1_2,,success
Status,244,7400000000,/g3t1_2,,success
Status,245,7420000000,/g3t1_2,,success
Status,246,7440000000,/g3t1_2,,success
Status,247,7460000000,/g3t1_2,,success
Status,248,7480000000,/g3t1_2,,success
Status,249,7500000000,/g3t1_2,,success
Status,250,7520000000,/g3t1_2,,success
Status,251,7540000000,/g3t1_2,,success
Status,252,7560000000,/g3t1_2,,success
Status,253,7580000000,/g3t1_2,,success
Status,254,7600000000,/g3t1_2,,success
Status,255,7620000000,/g3t1_2,,fail
Status,256,7640000000,/g3t1_2,,success
Status,257,7660000000,/g3t1_2,,success
Status,258,7680000000,/g3t1_2,,fail
Status,259,7700000000,/g3t1_2,,success
Status,260,7720000000,/g3t1_2,,success
Status,261,7740000000,/g3t1_2,,success
Status,262,7760000000,/g3t1_2,,success
Status,263,7780000000,/g3t1_2,,success
Status,264,7800000000,/g3t1_2,,success
Status,265,7820000000,/g3t1_2,,success
Status,266,7840000000,/g3t1_2,,success
Status,267,7860000000,/g3t1_2,,success
Status,268,7880000000,/g3t1_2,,success
Status,269,7900000000,/g3t1_2,,success
Status,270,7920000000,/g3t1_2,,success
Status,271,7940000000,/g3t1_2,,success
Status,272,7960000000,/g3t1_2,,success
Status,273,7980000000,/g3t1_2,,success
Status,274,8000000000,/g3t1_2,,success
Status,274,8000000000,/g4t1,,success
Status,275,8020000000,/g3t1_2,,success
Status,276,8040000000,/g3t1_2,,success
Status,277,8060000000,/g3t1_2,,success
Status,278,8080000000,/g3t1_2,,success
Status,279,8100000000,/g3t1_2,,success
Status,280,8120000000,/g3t1_2,,success
Status,281,8140000000,/g3t1_2,,success
Status,282,8160000000,/g3t1_2,,success
Status,283,8180000000,/g3t1_2,,success
Status,284,8200000000,/g3t1_2,,success
Status,285,8220000000,/g3t1_2,,success
Status,286,8240000000,/g3t1_2,,success
Status,287,8260000000,/g3t1_2,,success
Status,288,8280000000,/g3t1_2,,success
Status,289,8300000000,/g3t1_2,,success
Status,290,8320000000,/g3t1_2,,success
Status,291,8340000000,/g3t1_2,,success
Status,292,8360000000,/g3t1_2,,success
Status,293,8380000000,/g3t1_2,,success
Status,294,8400000000,/g3t1_2,,success
Status,295,8420000000,/g3t1_2,,success
Status,296,8440000000,/g3t1_2,,success
Status,297,8460000000,/g3t1_2,,success
Status,298,8480000000,/g3t1_2,,success
Status,299,8500000000,/g3t1_2,,success
Status,300,8520000000,/g3t1_2,,success
Status,301,8540000000,/g3t1_2,,success
Status,302,8560000000,/g3t1_2,,success
Status,303,8580000000,/g3t1_2,,success
Status,304,8600000000,/g3t1_2,,success
Status,305,8620000000,/g3t1_2,,success
Status,306,8640000000,/g3t1_2,,success
Status,307,8660000000,/g3t1_2,,success
Status,308,8680000000,/g3t1_2,,success
Status,309,8700000000,/g3t1_2,,success
Status,310,8720000000,/g3t1_2,,success
Status,311,8740000000,/g3t1_2,,success
Status,312,8760000000,/g3t1_2,,success
Status,313,8780000000,/g3t1_2,,success
Status,314,8800000000,/g3t1_2,,success
Status,315,8820000000,/g3t1_2,,success
Status,316,8840000000,/g3t1_2,,success
Status,317,8860000000,/g3t1_2,,success
Status,318,8880000000,/g3t1_2,,success
Status,319,8900000000,/g3t1_2,,success
Status,320,8920000000,/g3t1_2,,success
Status,321,8940000000,/g3t1_2,,success
Status,322,8960000000,/g3t1_2,,success
Status,323,8980000000,/g3t1_2,,success
Status,324,9000000000,/g3t1_2,,success
Status,324,9000000000,/g4t1,,success
Status,325,9020000000,/g3t1_2,,success
Status,326,9040000000,/g3t1_2,,success
Status,327,9060000000,/g3t1_2,,success
Status,328,9080000000,/g3t1_2,,success
Status,329,9100000000,/g3t1_2,,success
Status,330,9120000000,/g3t1_2,,success
Status,331,9140000000,/g3t1_2,,success
Status,332,9160000000,/g3t1_2,,success
Status,333,9180000000,/g3t1_2,,success
Status,334,9200000000,/g3t1_2,,success
Status,335,9220000000,/g3t1_2,,success
Status,336,9240000000,/g3t1_2,,success
Status,337,9260000000,/g3t1_2,,success
Status,338,9280000000,/g3t1_2,,success
Status,339,9300000000,/g3t1_2,,success
Status,340,9320000000,/g3t1_2,,success
Status,341,9340000000,/g3t1_2,,success
Status,342,9360000000,/g3t1_2,,success
Status,343,9380000000,/g3t1_2,,success
Status,344,9400000000,/g3t1_2,,success
Status,345,9420000000,/g3t1_2,,success
Status,346,9440000000,/g3t1_2,,success
Status,347,9460000000,/g3t1_2,,success
Status,348,9480000000,/g3t1_2,,success
Status,349,9500000000,/g3t1_2,,success
Status,350,9520000000,/g3t1_2,,success
Status,351,9540000000,/g3t1_2,,success
Status,352,9560000000,/g3t1_2,,success
Status,353,9580000000,/g3t1_2,,success
Status,354,9600000000,/g3t1_2,,success
Status,355,9620000000,/g3t1_2,,success
Status,356,9640000000,/g3t1_2,,success
Status,357,9660000000,/g3t1_2,,success
Status,358,9680000000,/g3t1_2,,success
Status,359,9700000000,/g3t1_2,,success
Status,360,9720000000,/g3t1_2,,success
Status,361,9740000000,/g3t1_2,,success
Status,362,9760000000,/g3t1_2,,success
Status,363,9780000000,/g3t1_2,,success
Status,364,9800000000,/g3t1_2,,success
Status,365,9820000000,/g3t1_2,,success
Status,366,9840000000,/g3t1_2,,success
Status,367,9860000000,/g3t1_2,,success
Status,368,9880000000,/g3t1_2,,success
Status,369,9900000000,/g3t1_2,,success
Status,370,9920000000,/g3t1_2,,success
Status,371,9940000000,/g3t1_2,,success
Status,372,9960000000,/g3t1_2,,success
Status,373,9980000000,/g3t1_2,,fail
Status,374,10000000000,/g3t1_2,,success
Status,374,10000000000,/g4t1,,success
Status,375,10020000000,/g3t1_2,,success
Status,376,10040000000,/g3t1_2,,success
Status,377,10060000000,/g3t1_2,,success
Status,378,10080000000,/g3t1_2,,success
Status,379,10100000000,/g3t1_2,,success
Status,380,10120000000,/g3t1_2,,success
Status,381,10140000000,/g3t1_2,,success
Status,382,10160000000,/g3t1_2,,success
Status,383,10180000000,/g3t1_2,,success
Status,384,10200000000,/g3t1_2,,success
Status,385,10220000000,/g3t1_2,,success
Status,386,10240000000,/g3t1_2,,success
Status,387,10260000000,/g3t1_2,,success
Status,388,10280000000,/g3t1_2,,success
Status,389,10300000000,/g3t1_2,,success
Status,390,10320000000,/g3t1_2,,success
Status,391,10340000000,/g3t1_2,,success
Status,392,10360000000,/g3t1_2,,success
Status,393,10380000000,/g3t1_2,,success
Status,394,10400000000,/g3t1_2,,success
Status,395,10420000000,/g3t1_2,,success
Status,396,10440000000,/g3t1_2,,success
Status,397,10460000000,/g3t1_2,,success
Status,398,10480000000,/g3t1_2,,success
Status,399,10500000000,/g3t1_2,,success
Status,400,10520000000,/g3t1_2,,success
Status,401,10540000000,/g3t1_2,,success
Status,402,10560000000,/g3t1_2,,success
Status,403,10580000000,/g3t1_2,,success
Status,404,10600000000,/g3t1_2,,success
Status,405,10620000000,/g3t1_2,,success
Status,406,10640000000,/g3t1_2,,success
Status,407,10660000000,/g3t1_2,,success
Status,408,10680000000,/g3t1_2,,success
Status,409,10700000000,/g3t1_2,,success
Status,410,10720000000,/g3t1_2,,success
Status,411,10740000000,/g3t1_2,,success
Status,412,10760000000,/g3t1_2,,success
Status,413,10780000000,/g3t1_2,,success
Status,414,10800000000,/g3t1_2,,success
Status,415,10820000000,/g3t1_2,,success
Status,416,10840000000,/g3t1_2,,success
Status,417,10860000000,/g3t1_2,,success
Status,418,10880000000,/g3t1_2,,success
Status,419,10900000000,/g3t1_2,,success
Status,420,10920000000,/g3t1_2,,success
Status,421,10940000000,/g3t1_2,,success
Status,422,10960000000,/g3t1_2,,success
Status,423,10980000000,/g3t1_2,,success
Status,424,11000000000,/g3t1_2,,success
Status,424,11000000000,/g4t1,,success
Status,425,11020000000,/g3t1_2,,success
Status,426,11040000000,/g3t1_2,,success
Status,427,11060000000,/g3t1_2,,success
Status,428,11080000000,/g3t1_2,,success
Status,429,11100000000,/g3t1_2,,success
Status,430,11120000000,/g3t1_2,,success
Status,431,11140000000,/g3t1_2,,success
Status,432,11160000000,/g3t1_2,,success
Status,433,11180000000,/g3t1_2,,success
Status,434,11200000000,/g3t1_2,,success
Status,435,11220000000,/g3t1_2,,success
Status,436,11240000000,/g3t1_2,,success
Status,437,11260000000,/g3t1_2,,success
Status,438,11280000000,/g3t1_2,,success
Status,439,11300000000,/g3t1_2,,success
Status,440,11320000000,/g3t1_2,,success
Status,441,11340000000,/g3t1_2,,success
Status,442,11360000000,/g3t1_2,,success
Status,443,11380000000,/g3t1_2,,success
Status,444,11400000000,/g3t1_2,,success
Status,445,11420000000,/g3t1_2,,success
Status,446,11440000000,/g3t1_2,,success
Status,447,11460000000,/g3t1_2,,success
Status,448,11480000000,/g3t1_2,,success
Status,449,11500000000,/g3t1_2,,success
Status,450,11520000000,/g3t1_2,,success
Status,451,11540000000,/g3t1_2,,success
Status,452,11560000000,/g3t1_2,,success
Status,453,11580000000,/g3t1_2,,success
Status,454,11600000000,/g3t1_2,,success
Status,455,11620000000,/g3t1_2,,success
Status,456,11640000000,/g3t1_2,,success
Status,457,11660000000,/g3t1_2,,success
Status,458,11680000000,/g3t1_2,,success
Status,459,11700000000,/g3t1_2,,success
Status,460,11720000000,/g3t1_2,,success
Status,461,11740000000,/g3t1_2,,success
Status,462,11760000000,/g3t1_2,,success
Status,463,11780000000,/g3t1_2,,success
Status,464,11800000000,/g3t1_2,,success
Status,465,11820000000,/g3t1_2,,success
Status,466,11840000000,/g3t1_2,,success
Status,467,11860000000,/g3t1_2,,success
Status,468,11880000000,/g3t1_2,,success
Status,469,11900000000,/g3t1_2,,success
Status,470,11920000000,/g3t1_2,,success
Status,471,11940000000,/g3t1_2,,success
Status,472,11960000000,/g3t1_2,,success
Status,473,11980000000,/g3t1_2,,success
Status,474,12000000000,/g3t1_2,,success
Status,474,12000000000,/g4t1,,success
Status,475,12020000000,/g3t1_2,,success
Status,476,12040000000,/g3t1_2,,success
Status,477,12060000000,/g3t1_2,,success
Status,478,12080000000,/g3t1_2,,success
Status,479,12100000000,/g3t1_2,,success
Status,480,12120000000,/g3t1_2,,success
Status,481,12140000000,/g3t1_2,,success
Status,482,12160000000,/g3t1_2,,success
Status,483,12180000000,/g3t1_2,,success
Status,484,12200000000,/g3t1_2,,success
Status,485,12220000000,/g3t1_2,,success
Status,486,12240000000,/g3t1_2,,success
Status,487,12260000000,/g3t1_2,,success
Status,488,12280000000,/g3t1_2,,success
Status,489,12300000000,/g3t1_2,,success
Status,490,12320000000,/g3t1_2,,success
Status,491,12340000000,/g3t1_2,,success
Status,492,12360000000,/g3t1_2,,success
Status,493,12380000000,/g3t1_2,,success
Status,494,12400000000,/g3t1_2,,success
Status,495,12420000000,/g3t1_2,,success
Status,496,12440000000,/g3t1_2,,success
Status,497,12460000000,/g3t1_2,,success
Status,498,12480000000,/g3t1_2,,success
Status,499,12500000000,/g3t1_2,,success
Status,500,12520000000,/g3t1_2,,success
Status,501,12540000000,/g3t1_2,,success
Status,502,12560000000,/g3t1_2,,success
Status,503,12580000000,/g3t1_2,,success
Status,504,12600000000,/g3t1_2,,success
Status,505,12620000000,/g3t1_2,,success
Status,506,12640000000,/g3t1_2,,success
Status,507,12660000000,/g3t1_2,,success
Status,508,12680000000,/g3t1_2,,success
Status,509,12700000000,/g3t1_2,,success
Status,510,12720000000,/g3t1_2,,success
Status,511,12740000000,/g3t1_2,,success
Status,512,12760000000,/g3t1_2,,success
Status,513,12780000000,/g3t1_2,,success
Status,514,12800000000,/g3t1_2,,success
Status,515,12820000000,/g3t1_2,,success
Status,516,12840000000,/g3t1_2,,success
Status,517,12860000000,/g3t1_2,,success
Status,518,12880000000,/g3t1_2,,success
Status,519,12900000000,/g3t1_2,,success
Status,520,12920000000,/g3t1_2,,success
Status,521,12940000000,/g3t1_2,,success
Status,522,12960000000,/g3t1_2,,success
Status,523,12980000000,/g3t1_2,,success
Status,524,13000000000,/g3t1_2,,success
Status,524,13000000000,/g4t1,,success
Status,525,13020000000,/g3t1_2,,success
Status,526,13040000000,/g3t1_2,,success
Status,527,13060000000,/g3t1_2,,success
Status,528,13080000000,/g3t1_2,,success
Status,529,13100000000,/g3t1_2,,success
Status,530,13120000000,/g3t1_2,,success
Status,531,13140000000,/g3t1_2,,success
Status,532,13160000000,/g3t1_2,,success
Status,533,13180000000,/g3t1_2,,success
Status,534,13200000000,/g3t1_2,,success
Status,535,13220000000,/g3t1_2,,success
Status,536,13240000000,/g3t1_2,,success
Status,537,13260000000,/g3t1_2,,success
Status,538,13280000000,/g3t1_2,,success
Status,539,13300000000,/g3t1_2,,success
Status,540,13320000000,/g3t1_2,,success
Status,541,13340000000,/g3t1_2,,success
Status,542,13360000000,/g3t1_2,,success
Status,543,13380000000,/g3t1_2,,success
Status,544,13400000000,/g3t1_2,,success
Status,545,13420000000,/g3t1_2,,success
Status,546,13440000000,/g3t1_2,,success
Status,547,13460000000,/g3t1_2,,success
Status,548,13480000000,/g3t1_2,,success
Status,549,13500000000,/g3t1_2,,success
Status,550,13520000000,/g3t1_2,,success
Status,551,13540000000,/g3t1_2,,success
Status,552,13560000000,/g3t1_2,,success
Status,553,13580000000,/g3t1_2,,success
Status,554,13600000000,/g3t1_2,,success
Status,555,13620000000,/g3t1_2,,success
Status,556,13640000000,/g3t1_2,,success
Status,557,13660000000,/g3t1_2,,success
Status,558,13680000000,/g3t1_2,,success
Status,559,13700000000,/g3t1_2,,success
Status,560,13720000000,/g3t1_2,,success
Status,561,13740000000,/g3t1_2,,success
Status,562,13760000000,/g3t1_2,,success
Status,563,13780000000,/g3t1_2,,success
Status,564,13800000000,/g3t1_2,,success
Status,565,13820000000,/g3t1_2,,success
Status,566,13840000000,/g3t1_2,,success
Status,567,13860000000,/g3t1_2,,success
Status,568,13880000000,/g3t1_2,,success
Status,569,13900000000,/g3t1_2,,success
Status,570,13920000000,/g3t1_2,,success
Status,571,13940000000,/g3t1_2,,success
Status,572,13960000000,/g3t1_2,,success
Status,573,13980000000,/g3t1_2,,success
Status,574,14000000000,/g3t1_2,,success
Status,574,14000000000,/g4t1,,success
Status,575,14020000000,/g3t1_2,,success
Status,576,14040000000,/g3t1_2,,success
Status,577,14060000000,/g3t1_2,,success
Status,578,14080000000,/g3t1_2,,success
Status,579,14100000000,/g3t1_2,,success
Status,580,14120000000,/g3t1_2,,success
Status,581,14140000000,/g3t1_2,,success
Status,582,14160000000,/g3t1_2,,success
Status,583,14180000000,/g3t1_2,,success
Status,584,14200000000,/g3t1_2,,success
Status,585,14220000000,/g3t1_2,,success
Status,586,14240000000,/g3t1_2,,success
Status,587,14260000000,/g3t1_2,,success
Status,588,14280000000,/g3t1_2,,success
Status,589,14300000000,/g3t1_2,,success
Status,590,14320000000,/g3t1_2,,success
Status,591,14340000000,/g3t1_2,,success
Status,592,14360000000,/g3t1_2,,success
Status,593,14380000000,/g3t1_2,,success
Status,594,14400000000,/g3t1_2,,success
Status,595,14420000000,/g3t1_2,,success
Status,596,14440000000,/g3t1_2,,success
Status,597,14460000000,/g3t1_2,,success
Status,598,14480000000,/g3t1_2,,success
Status,599,14500000000,/g3t1_2,,success
Status,600,14520000000,/g3t1_2,,success
Status,601,14540000000,/g3t1_2,,success
Status,602,14560000000,/g3t1_2,,success
Status,603,14580000000,/g3t1_2,,success
Status,604,14600000000,/g3t1_2,,success
Status,605,14620000000,/g3t1_2,,success
Status,606,14640000000,/g3t1_2,,success
Status,607,14660000000,/g3t1_2,,success
Status,608,14680000000,/g3t1_2,,success
Status,609,14700000000,/g3t1_2,,fail
Status,610,14720000000,/g3t1_2,,success
Status,611,14740000000,/g3t1_2,,success
Status,612,14760000000,/g3t1_2,,success
Status,613,14780000000,/g3t1_2,,success
Status,614,14800000000,/g3t1_2,,success
Status,615,14820000000,/g3t1_2,,success
Status,616,14840000000,/g3t1_2,,success
Status,617,14860000000,/g3t1_2,,success
Status,618,14880000000,/g3t1_2,,success
Status,619,14900000000,/g3t1_2,,success
Status,620,14920000000,/g3t1_2,,success
Status,621,14940000000,/g3t1_2,,success
Status,622,14960000000,/g3t1_2,,success
Status,623,14980000000,/g3t1_2,,success
Status,624,15000000000,/g3t1_2,,success
Status,624,15000000000,/g4t1,,success
Status,625,15020000000,/g3t1_2,,success
Status,626,15040000000,/g3t1_2,,success
Status,627,15060000000,/g3t1_2,,success
Status,628,15080000000,/g3t1_2,,success
Status,629,15100000000,/g3t1_2,,success
Status,630,15120000000,/g3t1_2,,success
Status,631,15140000000,/g3t1_2,,success
Status,632,15160000000,/g3t1_2,,success
Status,633,15180000000,/g3t1_2,,success
Status,634,15200000000,/g3t1_2,,success
Status,635,15220000000,/g3t1_2,,success
Status,636,15240000000,/g3t1_2,,success
Status,637,15260000000,/g3t1_2,,success
Status,638,15280000000,/g3t1_2,,success
Status,639,15300000000,/g3t1_2,,success
Status,640,15320000000,/g3t1_2,,success
Status,641,15340000000,/g3t1_2,,success
Status,642,15360000000,/g3t1_2,,success
Status,643,15380000000,/g3t1_2,,success
Status,644,15400000000,/g3t1_2,,success
Status,645,15420000000,/g3t1_2,,success
Status,646,15440000000,/g3t1_2,,success
Status,647,15460000000,/g3t1_2,,success
Status,648,15480000000,/g3t1_2,,success
Status,649,15500000000,/g3t1_2,,success
Status,650,15520000000,/g3t1_2,,success
Status,651,15540000000,/g3t1_2,,success
Status,652,15560000000,/g3t1_2,,success
Status,653,15580000000,/g3t1_2,,success
Status,654,15600000000,/g3t1_2,,success
Status,655,15620000000,/g3t1_2,,success
Status,656,15640000000,/g3t1_2,,success
Status,657,15660000000,/g3t1_2,,success
Status,658,15680000000,/g3t1_2,,success
Status,659,15700000000,/g3t1_2,,success
Status,660,15720000000,/g3t1_2,,success
Status,661,15740000000,/g3t1_2,,success
Status,662,15760000000,/g3t1_2,,success
Status,663,15780000000,/g3t1_2,,success
Status,664,15800000000,/g3t1_2,,success
Status,665,15820000000,/g3t1_2,,success
Status,666,15840000000,/g3t1_2,,success
Status,667,15860000000,/g3t1_2,,success
Status,668,15880000000,/g3t1_2,,success
Status,669,15900000000,/g3t1_2,,success
Status,670,15920000000,/g3t1_2,,success
Status,671,15940000000,/g3t1_2,,success
Status,672,15960000000,/g3t1_2,,success
Status,673,15980000000,/g3t1_2,,success
Status,674,16000000000,/g3t1_2,,success
Status,674,16000000000,/g4t1,,success
Status,675,16020000000,/g3t1_2,,success
Status,676,16040000000,/g3t1_2,,success
Status,677,16060000000,/g3t1_2,,success
Status,678,16080000000,/g3t1_2,,success
Status,679,16100000000,/g3t1_2,,success
Status,680,16120000000,/g3t1_2,,success
Status,681,16140000000,/g3t1_2,,success
Status,682,16160000000,/g3t1_2,,success
Status,683,16180000000,/g3t1_2,,success
Status,684,16200000000,/g3t1_2,,success
Status,685,16220000000,/g3t1_2,,success
Status,686,16240000000,/g3t1_2,,fail
Status,687,16260000000,/g3t1_2,,success
Status,688,16280000000,/g3t1_2,,success
Status,689,16300000000,/g3t1_2,,success
Status,690,16320000000,/g3t1_2,,success
Status,691,16340000000,/g3t1_2,,success
Status,692,16360000000,/g3t1_2,,success
Status,693,16380000000,/g3t1_2,,success
Status,694,16400000000,/g3t1_2,,success
Status,695,16420000000,/g3t1_2,,success
Status,696,16440000000,/g3t1_2,,success
Status,697,16460000000,/g3t1_2,,success
Status,698,16480000000,/g3t1_2,,success
Status,699,16500000000,/g3t1_2,,success
Status,700,16520000000,/g3t1_2,,success
Status,701,16540000000,/g3t1_2,,success
Status,702,16560000000,/g3t1_2,,success
Status,703,16580000000,/g3t1_2,,success
Status,704,16600000000,/g3t1_2,,success
Status,705,16620000000,/g3t1_2,,success
Status,706,16640000000,/g3t1_2,,success
Status,707,16660000000,/g3t1_2,,success
Status,708,16680000000,/g3t1_2,,success
Status,709,16700000000,/g3t1_2,,success
Status,710,16720000000,/g3t1_2,,success
Status,711,16740000000,/g3t1_2,,success
Status,712,16760000000,/g3t1_2,,success
Status,713,16780000000,/g3t1_2,,success
Status,714,16800000000,/g3t1_2,,success
Status,715,16820000000,/g3t1_2,,success
Status,716,16840000000,/g3t1_2,,success
Status,717,16860000000,/g3t1_2,,success
Status,718,16880000000,/g3t1_2,,success
Status,719,16900000000,/g3t1_2,,success
Status,720,16920000000,/g3t1_2,,success
Status,721,16940000000,/g3t1_2,,success
Status,722,16960000000,/g3t1_2,,success
Status,723,16980000000,/g3t1_2,,success
Status,724,17000000000,/g3t1_2,,success
Status,724,17000000000,/g4t1,,success
Status,725,17020000000,/g3t1_2,,success
Status,726,17040000000,/g3t1_2,,success
Status,727,17060000000,/g3t1_2,,success
Status,728,17080000000,/g3t1_2,,success
Status,729,17100000000,/g3t1_2,,success
Status,730,17120000000,/g3t1_2,,success
Status,731,17140000000,/g3t1_2,,success
Status,732,17160000000,/g3t1_2,,success
Status,733,17180000000,/g3t1_2,,success
Status,734,17200000000,/g3t1_2,,success
Status,735,17220000000,/g3t1_2,,success
Status,736,17240000000,/g3t1_2,,success
Status,737,17260000000,/g3t1_2,,success
Status,738,17280000000,/g3t1_2,,success
Status,739,17300000000,/g3t1_2,,success
Status,740,17320000000,/g3t1_2,,success
Status,741,17340000000,/g3t1_2,,success
Status,742,17360000000,/g3t1_2,,success
Status,743,17380000000,/g3t1_2,,success
Status,744,17400000000,/g3t1_2,,success
Status,745,17420000000,/g3t1_2,,success
Status,746,17440000000,/g3t1_2,,success
Status,747,17460000000,/g3t1_2,,success
Status,748,17480000000,/g3t1_2,,fail
Status,749,17500000000,/g3t1_2,,success
Status,750,17520000000,/g3t1_2,,success
Status,751,17540000000,/g3t1_2,,success
Status,752,17560000000,/g3t1_2,,success
Status,753,17580000000,/g3t1_2,,success
Status,754,17600000000,/g3t1_2,,success
Status,755,17620000000,/g3t1_2,,success
Status,756,17640000000,/g3t1_2,,success
Status,757,17660000000,/g3t1_2,,success
Status,758,17680000000,/g3t1_2,,success
Status,759,17700000000,/g3t1_2,,success
Status,760,17720000000,/g3t1_2,,success
Status,761,17740000000,/g3t1_2,,success
Status,762,17760000000,/g3t1_2,,fail
Status,763,17780000000,/g3t1_2,,success
Status,764,17800000000,/g3t1_2,,success
Status,765,17820000000,/g3t1_2,,success
Status,766,17840000000,/g3t1_2,,success
Status,767,17860000000,/g3t1_2,,success
Status,768,17880000000,/g3t1_2,,success
Status,769,17900000000,/g3t1_2,,success
Status,770,17920000000,/g3t1_2,,success
Status,771,17940000000,/g3t1_2,,success
Status,772,17960000000,/g3t1_2,,success
Status,773,17980000000,/g3t1_2,,success
Status,774,18000000000,/g3t1_2,,success
Status,774,18000000000,/g4t1,,success
Status,775,18020000000,/g3t1_2,,success
Status,776,18040000000,/g3t1_2,,success
Status,777,18060000000,/g3t1_2,,success
Status,778,18080000000,/g3t1_2,,success
Status,779,18100000000,/g3t1_2,,success
Status,780,18120000000,/g3t1_2,,success
Status,781,18140000000,/g3t1_2,,success
Status,782,18160000000,/g3t1_2,,success
Status,783,18180000000,/g3t1_2,,success
Status,784,18200000000,/g3t1_2,,success
Status,785,18220000000,/g3t1_2,,success
Status,786,18240000000,/g3t1_2,,success
Status,787,18260000000,/g3t1_2,,success
Status,788,18280000000,/g3t1_2,,success
Status,789,18300000000,/g3t1_2,,success
Status,790,18320000000,/g3t1_2,,success
Status,791,18340000000,/g3t1_2,,success
Status,792,18360000000,/g3t1_2,,success
Status,793,18380000000,/g3t1_2,,success
Status,794,18400000000,/g3t1_2,,success
Status,795,18420000000,/g3t1_2,,success
Status,796,18440000000,/g3t1_2,,success
Status,797,18460000000,/g3t1_2,,success
Status,798,18480000000,/g3t1_2,,success
Status,799,18500000000,/g3t1_2,,success
Status,800,18520000000,/g3t1_2,,success
Status,801,18540000000,/g3t1_2,,success
Status,802,18560000000,/g3t1_2,,success
Status,803,18580000000,/g3t1_2,,success
Status,804,18600000000,/g3t1_2,,success
Status,805,18620000000,/g3t1_2,,success
Status,806,18640000000,/g3t1_2,,success
Status,807,18660000000,/g3t1_2,,success
Status,808,18680000000,/g3t1_2,,success
Status,809,18700000000,/g3t1_2,,success
Status,810,18720000000,/g3t1_2,,success
Status,811,18740000000,/g3t1_2,,success
Status,812,18760000000,/g3t1_2,,success
Status,813,18780000000,/g3t1_2,,success
Status,814,18800000000,/g3t1_2,,success
Status,815,18820000000,/g3t1_2,,fail
Status,816,18840000000,/g3t1_2,,success
Status,817,18860000000,/g3t1_2,,success
Status,818,18880000000,/g3t1_2,,success
Status,819,18900000000,/g3t1_2,,success
Status,820,18920000000,/g3t1_2,,success
Status,821,18940000000,/g3t1_2,,success
Status,822,18960000000,/g3t1_2,,success
Status,823,18980000000,/g3t1_2,,success
Status,824,19000000000,/g3t1_2,,success
Status,824,19000000000,/g4t1,,success
Status,825,19020000000,/g3t1_2,,success
Status,826,19040000000,/g3t1_2,,success
Status,827,19060000000,/g3t1_2,,success
Status,828,19080000000,/g3t1_2,,success
Status,829,19100000000,/g3t1_2,,success
Status,830,19120000000,/g3t1_2,,success
Status,831,19140000000,/g3t1_2,,success
Status,832,19160000000,/g3t1_2,,success
Status,833,19180000000,/g3t1_2,,success
Status,834,19200000000,/g3t1_2,,success
Status,835,19220000000,/g3t1_2,,success
Status,836,19240000000,/g3t1_2,,success
Status,837,19260000000,/g3t1_2,,success
Status,838,19280000000,/g3t1_2,,success
Status,839,19300000000,/g3t1_2,,success
Status,840,19320000000,/g3t1_2,,success
Status,841,19340000000,/g3t1_2,,success
Status,842,19360000000,/g3t1_2,,success
Status,843,19380000000,/g3t1_2,,success
Status,844,19400000000,/g3t1_2,,success
Status,845,19420000000,/g3t1_2,,success
Status,846,19440000000,/g3t1_2,,success
Status,847,19460000000,/g3t1_2,,success
Status,848,19480000000,/g3t1_2,,success
Status,849,19500000000,/g3t1_2,,success
Status,850,19520000000,/g3t1_2,,success
Status,851,19540000000,/g3t1_2,,success
Status,852,19560000000,/g3t1_2,,success
Status,853,19580000000,/g3t1_2,,success
Status,854,19600000000,/g3t1_2,,success
Status,855,19620000000,/g3t1_2,,success
Status,856,19640000000,/g3t1_2,,success
Status,857,19660000000,/g3t1_2,,success
Status,858,19680000000,/g3t1_2,,success
Status,859,19700000000,/g3t1_2,,success
Status,860,19720000000,/g3t1_2,,success
Status,861,19740000000,/g3t1_2,,success
Status,862,19760000000,/g3t1_2,,success
Status,863,19780000000,/g3t1_2,,success
Status,864,19800000000,/g3t1_2,,success
Status,865,19820000000,/g3t1_2,,success
Status,866,19840000000,/g3t1_2,,success
Status,867,19860000000,/g3t1_2,,success
Status,868,19880000000,/g3t1_2,,success
Status,869,19900000000,/g3t1_2,,success
Status,870,19920000000,/g3t1_2,,success
Status,871,19940000000,/g3t1_2,,success
Status,872,19960000000,/g3t1_2,,success
Status,873,19980000000,/g3t1_2,,success
Status,874,20000000000,/g3t1_2,,success
Status,874,20000000000,/g4t1,,success
Status,875,20020000000,/g3t1_2,,success
Status,876,20040000000,/g3t1_2,,success
Status,877,20060000000,/g3t1_2,,success
Status,878,20080000000,/g3t1_2,,success
Status,879,20100000000,/g3t1_2,,success
Status,880,20120000000,/g3t1_2,,success
Status,881,20140000000,/g3t1_2,,success
Status,882,20160000000,/g3t1_2,,success
Status,883,20180000000,/g3t1_2,,success
Status,884,20200000000,/g3t1_2,,success
Status,885,20220000000,/g3t1_2,,success
Status,886,20240000000,/g3t1_2,,success
Status,887,20260000000,/g3t1_2,,success
Status,888,20280000000,/g3t1_2,,success
Status,889,20300000000,/g3t1_2,,success
Status,890,20320000000,/g3t1_2,,success
Status,891,20340000000,/g3t1_2,,success
Status,892,20360000000,/g3t1_2,,success
Status,893,20380000000,/g3t1_2,,success
Status,894,20400000000,/g3t1_2,,success
Status,895,20420000000,/g3t1_2,,fail
Status,896,20440000000,/g3t1_2,,success
Status,897,20460000000,/g3t1_2,,success
Status,898,20480000000,/g3t1_2,,success
Status,899,20500000000,/g3t1_2,,success
Status,900,20520000000,/g3t1_2,,success
Status,901,20540000000,/g3t1_2,,success
Status,902,20560000000,/g3t1_2,,success
Status,903,20580000000,/g3t1_2,,success
Status,904,20600000000,/g3t1_2,,success
Status,905,20620000000,/g3t1_2,,success
Status,906,20640000000,/g3t1_2,,success
Status,907,20660000000,/g3t1_2,,success
Status,908,20680000000,/g3t1_2,,success
Status,909,20700000000,/g3t1_2,,success
Status,910,20720000000,/g3t1_2,,success
Status,911,20740000000,/g3t1_2,,success
Status,912,20760000000,/g3t1_2,,success
Status,913,20780000000,/g3t1_2,,success
Status,914,20800000000,/g3t1_2,,success
Status,915,20820000000,/g3t1_2,,success
Status,916,20840000000,/g3t1_2,,success
Status,917,20860000000,/g3t1_2,,success
Status,918,20880000000,/g3t1_2,,success
Status,919,20900000000,/g3t1_2,,success
Status,920,20920000000,/g3t1_2,,success
Status,921,20940000000,/g3t1_2,,success
Status,922,20960000000,/g3t1_2,,success
Status,923,20980000000,/g3t1_2,,success
Status,924,21000000000,/g3t1_2,,success
Status,924,21000000000,/g4t1,,success
Status,925,21020000000,/g3t1_2,,success
Status,926,21040000000,/g3t1_2,,success
Status,927,21060000000,/g3t1_2,,success
Status,928,21080000000,/g3t1_2,,success
Status,929,21100000000,/g3t1_2,,success
Status,930,21120000000,/g3t1_2,,success
Status,931,21140000000,/g3t1_2,,success
Status,932,21160000000,/g3t1_2,,success
Status,933,21180000000,/g3t1_2,,success
Status,934,21200000000,/g3t1_2,,success
Status,935,21220000000,/g3t1_2,,success
Status,936,21240000000,/g3t1_2,,success
Status,937,21260000000,/g3t1_2,,success
Status,938,21280000000,/g3t1_2,,success
Status,939,21300000000,/g3t1_2,,success
Status,940,21320000000,/g3t1_2,,success
Status,941,21340000000,/g3t1_2,,success
Status,942,21360000000,/g3t1_2,,success
Status,943,21380000000,/g3t1_2,,success
Status,944,21400000000,/g3t1_2,,success
Status,945,21420000000,/g3t1_2,,success
Status,946,21440000000,/g3t1_2,,success
Status,947,21460000000,/g3t1_2,,success
Status,948,21480000000,/g3t1_2,,success
Status,949,21500000000,/g3t1_2,,success
Status,950,21520000000,/g3t1_2,,success
Status,951,21540000000,/g3t1_2,,success
Status,952,21560000000,/g3t1_2,,success
Status,953,21580000000,/g3t1_2,,success
Status,954,21600000000,/g3t1_2,,success
Status,955,21620000000,/g3t1_2,,success
Status,956,21640000000,/g3t1_2,,success
Status,957,21660000000,/g3t1_2,,success
Status,958,21680000000,/g3t1_2,,success
Status,959,21700000000,/g3t1_2,,success
Status,960,21720000000,/g3t1_2,,success
Status,961,21740000000,/g3t1_2,,success
Status,962,21760000000,/g3t1_2,,success
Status,963,21780000000,/g3t1_2,,success
Status,964,21800000000,/g3t1_2,,success
Status,965,21820000000,/g3t1_2,,success
Status,966,21840000000,/g3t1_2,,success
Status,967,21860000000,/g3t1_2,,success
Status,968,21880000000,/g3t1_2,,success
Status,969,21900000000,/g3t1_2,,success
Status,970,21920000000,/g3t1_2,,success
Status,971,21940000000,/g3t1_2,,success
Status,972,21960000000,/g3t1_2,,success
Status,973,21980000000,/g3t1_2,,success
Status,974,22000000000,/g3t1_2,,success
Status,974,22000000000,/g4t1,,success
Status,975,22020000000,/g3t1_2,,success
Status,976,22040000000,/g3t1_2,,success
Status,977,22060000000,/g3t1_2,,success
Status,978,22080000000,/g3t1_2,,fail
Status,979,22100000000,/g3t1_2,,success
Status,980,22120000000,/g3t1_2,,success
Status,981,22140000000,/g3t1_2,,success
Status,982,22160000000,/g3t1_2,,success
Status,983,22180000000,/g3t1_2,,success
Status,984,22200000000,/g3t1_2,,success
Status,985,22220000000,/g3t1_2,,success
Status,986,22240000000,/g3t1_2,,success
Status,987,22260000000,/g3t1_2,,success
Status,988,22280000000,/g3t1_2,,success
Status,989,22300000000,/g3t1_2,,success
Status,990,22320000000,/g3t1_2,,success
Status,991,22340000000,/g3t1_2,,success
Status,992,22360000000,/g3t1_2,,success
Status,993,22380000000,/g3t1_2,,success
Status,994,22400000000,/g3t1_2,,success
Status,995,22420000000,/g3t1_2,,success
Status,996,22440000000,/g3t1_2,,success
Status,997,22460000000,/g3t1_2,,success
Status,998,22480000000,/g3t1_2,,success
Status,999,22500000000,/g3t1_2,,success
Status,1000,22520000000,/g3t1_2,,success
Status,1001,22540000000,/g3t1_2,,success
Status,1002,22560000000,/g3t1_2,,success
Status,1003,22580000000,/g3t1_2,,success
Status,1004,22600000000,/g3t1_2,,success
Status,1005,22620000000,/g3t1_2,,success
Status,1006,22640000000,/g3t1_2,,success
Status,1007,22660000000,/g3t1_2,,success
Status,1008,22680000000,/g3t1_2,,success
Status,1009,22700000000,/g3t1_2,,success
Status,1010,22720000000,/g3t1_2,,success
Status,1011,22740000000,/g3t1_2,,success
Status,1012,22760000000,/g3t1_2,,success
Status,1013,22780000000,/g3t1_2,,success
Status,1014,22800000000,/g3t1_2,,success
Status,1015,22820000000,/g3t1_2,,success
Status,1016,22840000000,/g3t1_2,,success
Status,1017,22860000000,/g3t1_2,,success
Status,1018,22880000000,/g3t1_2,,success
Status,1019,22900000000,/g3t1_2,,success
Status,1020,22920000000,/g3t1_2,,success
Status,1021,22940000000,/g3t1_2,,success
Status,1022,22960000000,/g3t1_2,,success
Status,1023,22980000000,/g3t1_2,,success
Status,1024,23000000000,/g3t1_2,,success
Status,1024,23000000000,/g4t1,,success
Status,1025,23020000000,/g3t1_2,,success
Status,1026,23040000000,/g3t1_2,,success
Status,1027,23060000000,/g3t1_2,,success
Status,1028,23080000000,/g3t1_2,,success
Status,1029,23100000000,/g3t1_2,,success
Status,1030,23120000000,/g3t1_2,,success
Status,1031,23140000000,/g3t1_2,,success
Status,1032,23160000000,/g3t1_2,,success
Status,1033,23180000000,/g3t1_2,,success
Status,1034,23200000000,/g3t1_2,,success
Status,1035,23220000000,/g3t1_2,,success
Status,1036,23240000000,/g3t1_2,,success
Status,1037,23260000000,/g3t1_2,,success
Status,1038,23280000000,/g3t1_2,,success
Status,1039,23300000000,/g3t1_2,,success
Status,1040,23320000000,/g3t1_2,,success
Status,1041,23340000000,/g3t1_2,,success
Status,1042,23360000000,/g3t1_2,,success
Status,1043,23380000000,/g3t1_2,,success
Status,1044,23400000000,/g3t1_2,,success
Status,1045,23420000000,/g3t1_2,,success
Status,1046,23440000000,/g3t1_2,,success
Status,1047,23460000000,/g3t1_2,,success
Status,1048,23480000000,/g3t1_2,,success
Status,1049,23500000000,/g3t1_2,,success
Status,1050,23520000000,/g3t1_2,,success
Status,1051,23540000000,/g3t1_2,,success
Status,1052,23560000000,/g3t1_2,,success
Status,1053,23580000000,/g3t1_2,,success
Status,1054,23600000000,/g3t1_2,,success
Status,1055,23620000000,/g3t1_2,,success
Status,1056,23640000000,/g3t1_2,,success
Status,1057,23660000000,/g3t1_2,,success
Status,1058,23680000000,/g3t1_2,,fail
Status,1059,23700000000,/g3t1_2,,success
Status,1060,23720000000,/g3t1_2,,success
Status,1061,23740000000,/g3t1_2,,success
Status,1062,23760000000,/g3t1_2,,success
Status,1063,23780000000,/g3t1_2,,success
Status,1064,23800000000,/g3t1_2,,success
Status,1065,23820000000,/g3t1_2,,success
Status,1066,23840000000,/g3t1_2,,success
Status,1067,23860000000,/g3t1_2,,success
Status,1068,23880000000,/g3t1_2,,success
Status,1069,23900000000,/g3t1_2,,success
Status,1070,23920000000,/g3t1_2,,success
Status,1071,23940000000,/g3t1_2,,success
Status,1072,23960000000,/g3t1_2,,success
Status,1073,23980000000,/g3t1_2,,success
Status,1074,24000000000,/g3t1_2,,success
Status,1074,24000000000,/g4t1,,success
Status,1075,24020000000,/g3t1_2,,success
Status,1076,24040000000,/g3t1_2,,success
Status,1077,24060000000,/g3t1_2,,success
Status,1078,24080000000,/g3t1_2,,success
Status,1079,24100000000,/g3t1_2,,success
Status,1080,24120000000,/g3t1_2,,success
Status,1081,24140000000,/g3t1_2,,success
Status,1082,24160000000,/g3t1_2,,success
Status,1083,24180000000,/g3t1_2,,success
Status,1084,24200000000,/g3t1_2,,success
Status,1085,24220000000,/g3t1_2,,success
Status,1086,24240000000,/g3t1_2,,success
Status,1087,24260000000,/g3t1_2,,success
Status,1088,24280000000,/g3t1_2,,success
Status,1089,24300000000,/g3t1_2,,success
Status,1090,24320000000,/g3t1_2,,success
Status,1091,24340000000,/g3t1_2,,success
Status,1092,24360000000,/g3t1_2,,success
Status,1093,24380000000,/g3t1_2,,success
Status,1094,24400000000,/g3t1_2,,success
Status,1095,24420000000,/g3t1_2,,success
Status,1096,24440000000,/g3t1_2,,success
Status,1097,24460000000,/g3t1_2,,success
Status,1098,24480000000,/g3t1_2,,success
Status,1099,24500000000,/g3t1_2,,success
Status,1100,24520000000,/g3t1_2,,success
Status,1101,24540000000,/g3t1_2,,success
Status,1102,24560000000,/g3t1_2,,success
Status,1103,24580000000,/g3t1_2,,success
Status,1104,24600000000,/g3t1_2,,success
Status,1105,24620000000,/g3t1_2,,success
Status,1106,24640000000,/g3t1_2,,success
Status,1107,24660000000,/g3t1_2,,success
Status,1108,24680000000,/g3t1_2,,success
Status,1109,24700000000,/g3t1_2,,success
Status,1110,24720000000,/g3t1_2,,success
Status,1111,24740000000,/g3t1_2,,success
Status,1112,24760000000,/g3t1_2,,success
Status,1113,24780000000,/g3t1_2,,success
Status,1114,24800000000,/g3t1_2,,success
Status,1115,24820000000,/g3t1_2,,success
Status,1116,24840000000,/g3t1_2,,success
Status,1117,24860000000,/g3t1_2,,success
Status,1118,24880000000,/g3t1_2,,success
Status,1119,24900000000,/g3t1_2,,success
Status,1120,24920000000,/g3t1_2,,success
Status,1121,24940000000,/g3t1_2,,success
Status,1122,24960000000,/g3t1_2,,success
Status,1123,24980000000,/g3t1_2,,success
Status,1124,25000000000,/g3t1_2,,success
Status,1124,25000000000,/g4t1,,success
Status,1125,25020000000,/g3t1_2,,success
Status,1126,25040000000,/g3t1_2,,success
Status,1127,25060000000,/g3t1_2,,success
Status,1128,25080000000,/g3t1_2,,success
Status,1129,25100000000,/g3t1_2,,success
Status,1130,25120000000,/g3t1_2,,success
Status,1131,25140000000,/g3t1_2,,success
Status,1132,25160000000,/g3t1_2,,success
Status,1133,25180000000,/g3t1_2,,success
Status,1134,25200000000,/g3t1_2,,success
Status,1135,25220000000,/g3t1_2,,success
Status,1136,25240000000,/g3t1_2,,success
Status,1137,25260000000,/g3t1_2,,success
Status,1138,25280000000,/g3t1_2,,success
Status,1139,25300000000,/g3t1_2,,success
Status,1140,25320000000,/g3t1_2,,success
Status,1141,25340000000,/g3t1_2,,success
Status,1142,25360000000,/g3t1_2,,success
Status,1143,25380000000,/g3t1_2,,success
Status,1144,25400000000,/g3t1_2,,success
Status,1145,25420000000,/g3t1_2,,success
Status,1146,25440000000,/g3t1_2,,success
Status,1147,25460000000,/g3t1_2,,success
Status,1148,25480000000,/g3t1_2,,success
Status,1149,25500000000,/g3t1_2,,success
Status,1150,25520000000,/g3t1_2,,success
Status,1151,25540000000,/g3t1_2,,success
Status,1152,25560000000,/g3t1_2,,success
Status,1153,25580000000,/g3t1_2,,success
Status,1154,25600000000,/g3t1_2,,success
Status,1155,25620000000,/g3t1_2,,success
Status,1156,25640000000,/g3t1_2,,success
Status,1157,25660000000,/g3t1_2,,success
Status,1158,25680000000,/g3t1_2,,success
Status,1159,25700000000,/g3t1_2,,success
Status,1160,25720000000,/g3t1_2,,success
Status,1161,25740000000,/g3t1_2,,success
Status,1162,25760000000,/g3t1_2,,success
Status,1163,25780000000,/g3t1_2,,success
Status,1164,25800000000,/g3t1_2,,success
Status,1165,25820000000,/g3t1_2,,success
Status,1166,25840000000,/g3t1_2,,success
Status,1167,25860000000,/g3t1_2,,success
Status,1168,25880000000,/g3t1_2,,success
Status,1169,25900000000,/g3t1_2,,success
Status,1170,25920000000,/g3t1_2,,success
Status,1171,25940000000,/g3t1_2,,success
Status,1172,25960000000,/g3t1_2,,success
Status,1173,25980000000,/g3t1_2,,success
Status,1174,26000000000,/g3t1_2,,success
Status,1174,26000000000,/g4t1,,success
Status,1175,26020000000,/g3t1_2,,success
Status,1176,26040000000,/g3t1_2,,success
Status,1177,26060000000,/g3t1_2,,success
Status,1178,26080000000,/g3t1_2,,success
Status,1179,26100000000,/g3t1_2,,success
Status,1180,26120000000,/g3t1_2,,fail
Status,1181,26140000000,/g3t1_2,,success
Status,1182,26160000000,/g3t1_2,,success
Status,1183,26180000000,/g3t1_2,,success
Status,1184,26200000000,/g3t1_2,,success
Status,1185,26220000000,/g3t1_2,,success
Status,1186,26240000000,/g3t1_2,,success
Status,1187,26260000000,/g3t1_2,,success
Status,1188,26280000000,/g3t1_2,,success
Status,1189,26300000000,/g3t1_2,,success
Status,1190,26320000000,/g3t1_2,,success
Status,1191,26340000000,/g3t1_2,,fail
Status,1192,26360000000,/g3t1_2,,success
Status,1193,26380000000,/g3t1_2,,success
Status,1194,26400000000,/g3t1_2,,success
Status,1195,26420000000,/g3t1_2,,success
Status,1196,26440000000,/g3t1_2,,success
Status,1197,26460000000,/g3t1_2,,success
Status,1198,26480000000,/g3t1_2,,success
Status,1199,26500000000,/g3t1_2,,success
Status,1200,26520000000,/g3t1_2,,success
Status,1201,26540000000,/g3t1_2,,success
Status,1202,26560000000,/g3t1_2,,success
Status,1203,26580000000,/g3t1_2,,success
Status,1204,26600000000,/g3t1_2,,success
Status,1205,26620000000,/g3t1_2,,success
Status,1206,26640000000,/g3t1_2,,success
Status,1207,26660000000,/g3t1_2,,success
Status,1208,26680000000,/g3t1_2,,success
Status,1209,26700000000,/g3t1_2,,success
Status,1210,26720000000,/g3t1_2,,success
Status,1211,26740000000,/g3t1_2,,success
Status,1212,26760000000,/g3t1_2,,success
Status,1213,26780000000,/g3t1_2,,success
Status,1214,26800000000,/g3t1_2,,success
Status,1215,26820000000,/g3t1_2,,success
Status,1216,26840000000,/g3t1_2,,success
Status,1217,26860000000,/g3t1_2,,success
Status,1218,26880000000,/g3t1_2,,success
Status,1219,26900000000,/g3t1_2,,success
Status,1220,26920000000,/g3t1_2,,success
Status,1221,26940000000,/g3t1_2,,success
Status,1222,26960000000,/g3t1_2,,success
Status,1223,26980000000,/g3t1_2,,success
Status,1224,27000000000,/g3t1_2,,success
Status,1224,27000000000,/g4t1,,success
Status,1225,27020000000,/g3t1_2,,success
Status,1226,27040000000,/g3t1_2,,success
Status,1227,27060000000,/g3t1_2,,success
Status,1228,27080000000,/g3t1_2,,success
Status,1229,27100000000,/g3t1_2,,success
Status,1230,27120000000,/g3t1_2,,success
Status,1231,27140000000,/g3t1_2,,success
Status,1232,27160000000,/g3t1_2,,success
Status,1233,27180000000,/g3t1_2,,success
Status,1234,27200000000,/g3t1_2,,success
Status,1235,27220000000,/g3t1_2,,success
Status,1236,27240000000,/g3t1_2,,success
Status,1237,27260000000,/g3t1_2,,success
Status,1238,27280000000,/g3t1_2,,success
Status,1239,27300000000,/g3t1_2,,success
Status,1240,27320000000,/g3t1_2,,success
Status,1241,27340000000,/g3t1_2,,success
Status,1242,27360000000,/g3t1_2,,success
Status,1243,27380000000,/g3t1_2,,success
Status,1244,27400000000,/g3t1_2,,fail
Status,1245,27420000000,/g3t1_2,,success
Status,1246,27440000000,/g3t1_2,,success
Status,1247,27460000000,/g3t1_2,,success
Status,1248,27480000000,/g3t1_2,,success
Status,1249,27500000000,/g3t1_2,,success
Status,1250,27520000000,/g3t1_2,,success
Status,1251,27540000000,/g3t1_2,,success
Status,1252,27560000000,/g3t1_2,,success
Status,1253,27580000000,/g3t1_2,,success
Status,1254,27600000000,/g3t1_2,,success
Status,1255,27620000000,/g3t1_2,,success
Status,1256,27640000000,/g3t1_2,,success
Status,1257,27660000000,/g3t1_2,,success
Status,1258,27680000000,/g3t1_2,,success
Status,1259,27700000000,/g3t1_2,,success
Status,1260,27720000000,/g3t1_2,,success
Status,1261,27740000000,/g3t1_2,,success
Status,1262,27760000000,/g3t1_2,,success
Status,1263,27780000000,/g3t1_2,,success
Status,1264,27800000000,/g3t1_2,,success
Status,1265,27820000000,/g3t1_2,,success
Status,1266,27840000000,/g3t1_2,,success
Status,1267,27860000000,/g3t1_2,,success
Status,1268,27880000000,/g3t1_2,,success
Status,1269,27900000000,/g3t1_2,,success
Status,1270,27920000000,/g3t1_2,,success
Status,1271,27940000000,/g3t1_2,,success
Status,1272,27960000000,/g3t1_2,,success
Status,1273,27980000000,/g3t1_2,,success
Status,1274,28000000000,/g3t1_2,,success
Status,1274,28000000000,/g4t1,,success
Status,1275,28020000000,/g3t1_2,,success
Status,1276,28040000000,/g3t1_2,,success
Status,1277,28060000000,/g3t1_2,,success
Status,1278,28080000000,/g3t1_2,,success
Status,1279,28100000000,/g3t1_2,,success
Status,1280,28120000000,/g3t1_2,,success
Status,1281,28140000000,/g3t1_2,,success
Status,1282,28160000000,/g3t1_2,,success
Status,1283,28180000000,/g3t1_2,,success
Status,1284,28200000000,/g3t1_2,,success
Status,1285,28220000000,/g3t1_2,,success
Status,1286,28240000000,/g3t1_2,,success
Status,1287,28260000000,/g3t1_2,,success
Status,1288,28280000000,/g3t1_2,,success
Status,1289,28300000000,/g3t1_2,,success
Status,1290,28320000000,/g3t1_2,,success
Status,1291,28340000000,/g3t1_2,,success
Status,1292,28360000000,/g3t1_2,,success
Status,1293,28380000000,/g3t1_2,,success
Status,1294,28400000000,/g3t1_2,,success
Status,1295,28420000000,/g3t1_2,,success
Status,1296,28440000000,/g3t1_2,,success
Status,1297,28460000000,/g3t1_2,,success
Status,1298,28480000000,/g3t1_2,,success
Status,1299,28500000000,/g3t1_2,,success
Status,1300,28520000000,/g3t1_2,,success
Status,1301,28540000000,/g3t1_2,,success
Status,1302,28560000000,/g3t1_2,,success
Status,1303,28580000000,/g3t1_2,,success
Status,1304,28600000000,/g3t1_2,,success
Status,1305,28620000000,/g3t1_2,,success
Status,1306,28640000000,/g3t1_2,,success
Status,1307,28660000000,/g3t1_2,,success
Status,1308,28680000000,/g3t1_2,,success
Status,1309,28700000000,/g3t1_2,,success
Status,1310,28720000000,/g3t1_2,,success
Status,1311,28740000000,/g3t1_2,,success
Status,1312,28760000000,/g3t1_2,,success
Status,1313,28780000000,/g3t1_2,,success
Status,1314,28800000000,/g3t1_2,,success
Status,1315,28820000000,/g3t1_2,,success
Status,1316,28840000000,/g3t1_2,,success
Status,1317,28860000000,/g3t1_2,,success
Status,1318,28880000000,/g3t1_2,,success
Status,1319,28900000000,/g3t1_2,,success
Status,1320,28920000000,/g3t1_2,,success
Status,1321,28940000000,/g3t1_2,,success
Status,1322,28960000000,/g3t1_2,,success
Status,1323,28980000000,/g3t1_2,,success
Status,1324,29000000000,/g3t1_2,,success
Status,1324,29000000000,/g4t1,,success
Status,1325,29020000000,/g3t1_2,,success
Status,1326,29040000000,/g3t1_2,,success
Status,1327,29060000000,/g3t1_2,,success
Status,1328,29080000000,/g3t1_2,,success
Status,1329,29100000000,/g3t1_2,,success
Status,1330,29120000000,/g3t1_2,,success
Status,1331,29140000000,/g3t1_2,,success
Status,1332,29160000000,/g3t1_2,,success
Status,1333,29180000000,/g3t1_2,,success
Status,1334,29200000000,/g3t1_2,,success
Status,1335,29220000000,/g3t1_2,,success
Status,1336,29240000000,/g3t1_2,,success
Status,1337,29260000000,/g3t1_2,,fail
Status,1338,29280000000,/g3t1_2,,success
Status,1339,29300000000,/g3t1_2,,success
Status,1340,29320000000,/g3t1_2,,success
Status,1341,29340000000,/g3t1_2,,success
Status,1342,29360000000,/g3t1_2,,fail
Status,1343,29380000000,/g3t1_2,,success
Status,1344,29400000000,/g3t1_2,,success
Status,1345,29420000000,/g3t1_2,,success
Status,1346,29440000000,/g3t1_2,,success
Status,1347,29460000000,/g3t1_2,,success
Status,1348,29480000000,/g3t1_2,,success
Status,1349,29500000000,/g3t1_2,,success
Status,1350,29520000000,/g3t1_2,,success
Status,1351,29540000000,/g3t1_2,,success
Status,1352,29560000000,/g3t1_2,,success
Status,1353,29580000000,/g3t1_2,,success
Status,1354,29600000000,/g3t1_2,,success
Status,1355,29620000000,/g3t1_2,,success
Status,1356,29640000000,/g3t1_2,,success
Status,1357,29660000000,/g3t1_2,,success
Status,1358,29680000000,/g3t1_2,,success
Status,1359,29700000000,/g3t1_2,,success
Status,1360,29720000000,/g3t1_2,,success
Status,1361,29740000000,/g3t1_2,,success
Status,1362,29760000000,/g3t1_2,,success
Status,1363,29780000000,/g3t1_2,,success
Status,1364,29800000000,/g3t1_2,,success
Status,1365,29820000000,/g3t1_2,,success
Status,1366,29840000000,/g3t1_2,,success
Status,1367,29860000000,/g3t1_2,,success
Status,1368,29880000000,/g3t1_2,,success
Status,1369,29900000000,/g3t1_2,,success
Status,1370,29920000000,/g3t1_2,,success
Status,1371,29940000000,/g3t1_2,,success
Status,1372,29960000000,/g3t1_2,,success
Status,1373,29980000000,/g3t1_2,,success
Status,1374,30000000000,/g3t1_2,,success
Status,1374,30000000000,/g4t1,,success
Status,1375,30020000000,/g3t1_2,,success
Status,1376,30040000000,/g3t1_2,,fail
Status,1377,30060000000,/g3t1_2,,success
Status,1378,30080000000,/g3t1_2,,fail
Status,1379,30100000000,/g3t1_2,,success
Status,1380,30120000000,/g3t1_2,,fail
Status,1381,30140000000,/g3t1_2,,fail
Status,1382,30160000000,/g3t1_2,,fail
Status,1383,30180000000,/g3t1_2,,fail
Status,1384,30200000000,/g3t1_2,,fail
Status,1385,30220000000,/g3t1_2,,success
Status,1386,30240000000,/g3t1_2,,success
Status,1387,30260000000,/g3t1_2,,success
Status,1388,30280000000,/g3t1_2,,success
Status,1389,30300000000,/g3t1_2,,success
Status,1390,30320000000,/g3t1_2,,success
Status,1391,30340000000,/g3t1_2,,success
Status,1392,30360000000,/g3t1_2,,success
Status,1393,30380000000,/g3t1_2,,fail
Status,1394,30400000000,/g3t1_2,,success
Status,1395,30420000000,/g3t1_2,,fail
Status,1396,30440000000,/g3t1_2,,success
Status,1397,30460000000,/g3t1_2,,fail
Status,1398,30480000000,/g3t1_2,,success
Status,1399,30500000000,/g3t1_2,,success
Status,1400,30520000000,/g3t1_2,,fail
Status,1401,30540000000,/g3t1_2,,success
Status,1402,30560000000,/g3t1_2,,success
Status,1403,30580000000,/g3t1_2,,fail
Status,1404,30600000000,/g3t1_2,,fail
Status,1405,30620000000,/g3t1_2,,fail
Status,1406,30640000000,/g3t1_2,,success
Status,1407,30660000000,/g3t1_2,,success
Status,1408,30680000000,/g3t1_2,,fail
Status,1409,30700000000,/g3t1_2,,success
Status,1410,30720000000,/g3t1_2,,fail
Status,1411,30740000000,/g3t1_2,,fail
Status,1412,30760000000,/g3t1_2,,fail
Status,1413,30780000000,/g3t1_2,,success
Status,1414,30800000000,/g3t1_2,,fail
Status,1415,30820000000,/g3t1_2,,success
Status,1416,30840000000,/g3t1_2,,fail
Status,1417,30860000000,/g3t1_2,,success
Status,1418,30880000000,/g3t1_2,,success
Status,1419,30900000000,/g3t1_2,,success
Status,1420,30920000000,/g3t1_2,,success
Status,1421,30940000000,/g3t1_2,,fail
Status,1422,30960000000,/g3t1_2,,success
Status,1423,30980000000,/g3t1_2,,fail
Status,1424,31000000000,/g3t1_2,,success
Status,1424,31000000000,/g4t1,,success
Status,1425,31020000000,/g3t1_2,,success
Status,1426,31040000000,/g3t1_2,,fail
Status,1427,31060000000,/g3t1_2,,success
Status,1428,31080000000,/g3t1_2,,fail
Status,1429,31100000000,/g3t1_2,,success
Status,1430,31120000000,/g3t1_2,,success
Status,1431,31140000000,/g3t1_2,,success
Status,1432,31160000000,/g3t1_2,,success
Status,1433,31180000000,/g3t1_2,,fail
Status,1434,31200000000,/g3t1_2,,success
Status,1435,31220000000,/g3t1_2,,fail
Status,1436,31240000000,/g3t1_2,,success
Status,1437,31260000000,/g3t1_2,,success
Status,1438,31280000000,/g3t1_2,,fail
Status,1439,31300000000,/g3t1_2,,fail
Status,1440,31320000000,/g3t1_2,,fail
Status,1441,31340000000,/g3t1_2,,success
Status,1442,31360000000,/g3t1_2,,fail
Status,1443,31380000000,/g3t1_2,,fail
Status,1444,31400000000,/g3t1_2,,success
Status,1445,31420000000,/g3t1_2,,success
Status,1446,31440000000,/g3t1_2,,fail
Status,1447,31460000000,/g3t1_2,,fail
Status,1448,31480000000,/g3t1_2,,fail
Status,1449,31500000000,/g3t1_2,,success
Status,1450,31520000000,/g3t1_2,,success
Status,1451,31540000000,/g3t1_2,,success
Status,1452,31560000000,/g3t1_2,,fail
Status,1453,31580000000,/g3t1_2,,success
Status,1454,31600000000,/g3t1_2,,fail
Status,1455,31620000000,/g3t1_2,,success
Status,1456,31640000000,/g3t1_2,,success
Status,1457,31660000000,/g3t1_2,,fail
Status,1458,31680000000,/g3t1_2,,success
Status,1459,31700000000,/g3t1_2,,success
Status,1460,31720000000,/g3t1_2,,fail
Status,1461,31740000000,/g3t1_2,,success
Status,1462,31760000000,/g3t1_2,,fail
Status,1463,31780000000,/g3t1_2,,success
Status,1464,31800000000,/g3t1_2,,success
Status,1465,31820000000,/g3t1_2,,fail
Status,1466,31840000000,/g3t1_2,,success
Status,1467,31860000000,/g3t1_2,,success
Status,1468,31880000000,/g3t1_2,,fail
Status,1469,31900000000,/g3t1_2,,success
Status,1470,31920000000,/g3t1_2,,success
Status,1471,31940000000,/g3t1_2,,fail
Status,1472,31960000000,/g3t1_2,,success
Status,1473,31980000000,/g3t1_2,,success
Status,1474,32000000000,/g3t1_2,,success
Status,1474,32000000000,/g4t1,,success
Status,1475,32020000000,/g3t1_2,,fail
Status,1476,32040000000,/g3t1_2,,success
Status,1477,32060000000,/g3t1_2,,fail
Status,1478,32080000000,/g3t1_2,,fail
