
Status,2,3289110712,/g4t1,,init
Status,3,8505661924,/g3t1_1,,init
Status,5,8514404186,/g3t1_1,,init
Status,6,8514431179,/g3t1_1,,running
Status,7,8514780293,/g3t1_1,,success
Status,8,8564501683,/g3t1_1,,running
Status,9,8564608443,/g3t1_1,,success
Status,12,8606707140,/g3t1_3,,init
Status,13,8606715283,/g3t1_2,,init
Status,14,8614562999,/g3t1_1,,running
Status,15,8614648416,/g3t1_1,,success
Status,16,8619810466,/g3t1_3,,init
Status,17,8619827378,/g3t1_3,,running
Status,18,8619904379,/g3t1_2,,init
Status,19,8619929506,/g3t1_2,,running
Status,20,8620488342,/g3t1_3,,success
Status,21,8620588998,/g3t1_2,,success
Status,22,8665062887,/g3t1_1,,running
Status,23,8665202469,/g3t1_1,,success
Status,24,8670286170,/g3t1_3,,running
Status,25,8670351077,/g3t1_2,,running
Status,26,8670448189,/g3t1_3,,success
Status,27,8670570379,/g3t1_2,,success
Status,31,8715607541,/g3t1_1,,running
Status,32,8716019625,/g3t1_1,,fail
Status,33,8720711604,/g3t1_3,,running
Status,34,8720797774,/g3t1_2,,running
Status,35,8721320055,/g3t1_3,,success
Status,36,8721876539,/g3t1_2,,success
Status,37,8765758233,/g3t1_1,,running
Status,38,8766039479,/g3t1_1,,fail
Status,39,8771725840,/g3t1_3,,running
Status,40,8771810301,/g3t1_2,,running
Status,41,8772010098,/g3t1_3,,success
Status,42,8772115956,/g3t1_2,,success
Status,43,8816040507,/g3t1_1,,running
Status,44,8816178840,/g3t1_1,,fail
Status,45,8821262048,/g3t1_3,,running
Status,46,8821405470,/g3t1_2,,running
Status,47,8822034314,/g3t1_3,,success
Status,48,8822099989,/g3t1_2,,success
Status,49,8866138782,/g3t1_1,,running
Status,50,8866540528,/g3t1_1,,fail
Status,51,8871326196,/g3t1_2,,running
Status,52,8871417854,/g3t1_3,,running
Status,53,8871558618,/g3t1_3,,success
Status,54,8871596818,/g3t1_2,,success
Status,58,8909735252,/g4t1,,success
Status,59,8916383369,/g3t1_1,,running
Status,60,8916450401,/g3t1_1,,fail
Status,61,8921514272,/g3t1_2,,running
Status,62,8921605184,/g3t1_3,,running
Status,63,8922131822,/g3t1_3,,fail
Status,64,8922226673,/g3t1_2,,fail
Status,65,8966085765,/g3t1_1,,running
Status,66,8966138376,/g3t1_1,,fail
Status,67,8971061724,/g3t1_2,,running
Status,68,8971119644,/g3t1_3,,running
Status,69,8971283894,/g3t1_3,,fail
Status,70,8971317514,/g3t1_2,,fail
Status,71,9010202946,/g4t1,,success
Status,72,9016255152,/g3t1_1,,running
Status,73,9016298982,/g3t1_1,,fail
Status,74,9021515191,/g3t1_2,,running
Status,75,9021557799,/g3t1_2,,fail
Status,76,9021575664,/g3t1_3,,running
Status,77,9021591706,/g3t1_3,,fail
Status,78,9066844699,/g3t1_1,,running
Status,79,9067224396,/g3t1_1,,fail
Status,80,9072121199,/g3t1_2,,running
Status,81,9072208380,/g3t1_3,,running
Status,82,9072309802,/g3t1_2,,fail
Status,83,9072335844,/g3t1_3,,fail
Status,87,9109949360,/g4t1,,success
Status,88,9116735780,/g3t1_1,,running
Status,89,9117259902,/g3t1_1,,fail
Status,90,9121905791,/g3t1_2,,running
Status,91,9122032893,/g3t1_3,,running
Status,92,9122076064,/g3t1_2,,fail
Status,93,9122440767,/g3t1_3,,success
Status,94,9167163626,/g3t1_1,,running
Status,95,9167235181,/g3t1_1,,fail
Status,96,9172172347,/g3t1_2,,running
Status,97,9172290893,/g3t1_3,,running
Status,98,9172333756,/g3t1_2,,fail
Status,99,9172391859,/g3t1_3,,fail
Status,100,9210080670,/g4t1,,success
Status,101,9217088885,/g3t1_1,,running
Status,102,9217461244,/g3t1_1,,fail
Status,103,9222073602,/g3t1_2,,running
Status,104,9222277329,/g3t1_2,,fail
Status,105,9222382627,/g3t1_3,,running
Status,106,9222801519,/g3t1_3,,fail
Status,107,9267026337,/g3t1_1,,running
Status,108,9267152946,/g3t1_1,,fail
Status,109,9271801094,/g3t1_2,,running
Status,110,9271873429,/g3t1_3,,running
Status,111,9272152640,/g3t1_2,,fail
Status,112,9272206104,/g3t1_3,,success
Status,116,9309988635,/g4t1,,success
Status,117,9317190678,/g3t1_1,,running
Status,118,9317236233,/g3t1_1,,fail
Status,119,9321895012,/g3t1_2,,running
Status,120,9322141045,/g3t1_3,,running
Status,121,9322181563,/g3t1_2,,fail
Status,122,9322229927,/g3t1_3,,fail
Status,123,9366923639,/g3t1_1,,running
Status,124,9366944940,/g3t1_1,,fail
Status,125,9371632155,/g3t1_2,,running
Status,126,9371668609,/g3t1_3,,running
Status,127,9371677010,/g3t1_2,,fail
Status,128,9371864228,/g3t1_3,,fail
Status,129,9409547571,/g4t1,,success
Status,130,9417144707,/g3t1_1,,running
Status,131,9417169292,/g3t1_1,,fail
Status,132,9422053900,/g3t1_2,,running
Status,133,9422076941,/g3t1_3,,running
Status,134,9422084987,/g3t1_3,,fail
Status,135,9422092604,/g3t1_2,,fail
Status,136,9467341157,/g3t1_1,,running
Status,137,9467401335,/g3t1_1,,fail
Status,138,9472182538,/g3t1_2,,running
Status,139,9472205298,/g3t1_3,,running
Status,140,9472216158,/g3t1_2,,fail
Status,141,9472330650,/g3t1_3,,fail
Status,145,9510468372,/g4t1,,success
Status,146,9518151090,/g3t1_1,,running
Status,147,9518218908,/g3t1_1,,fail
Status,148,9522763574,/g3t1_2,,running
Status,149,9522840779,/g3t1_3,,running
Status,150,9523296749,/g3t1_2,,fail
Status,151,9523386817,/g3t1_3,,fail
Status,152,9567583701,/g3t1_1,,running
Status,153,9567613919,/g3t1_1,,fail
Status,154,9572384867,/g3t1_2,,running
Status,155,9572423803,/g3t1_2,,fail
Status,156,9572443397,/g3t1_3,,running
Status,157,9572633400,/g3t1_3,,fail
Status,158,9610388725,/g4t1,,success
Status,159,9618321710,/g3t1_1,,running
Status,160,9618393315,/g3t1_1,,fail
Status,161,9622775376,/g3t1_2,,running
Status,162,9622860368,/g3t1_3,,running
Status,163,9623272718,/g3t1_2,,fail
Status,164,9623359266,/g3t1_3,,fail
Status,165,9668353611,/g3t1_1,,running
Status,166,9668427691,/g3t1_1,,fail
Status,167,9673018706,/g3t1_2,,running
Status,168,9673100139,/g3t1_3,,running
Status,169,9673205497,/g3t1_2,,fail
Status,170,9673525397,/g3t1_3,,fail
Status,174,9710394641,/g4t1,,success
Status,175,9718486286,/g3t1_1,,running
Status,176,9718551098,/g3t1_1,,fail
Status,177,9723435594,/g3t1_2,,running
Status,178,9723529116,/g3t1_3,,running
Status,179,9723633621,/g3t1_3,,fail
Status,180,9723666600,/g3t1_2,,fail
Status,181,9768609986,/g3t1_1,,running
Status,182,9768677937,/g3t1_1,,fail
Status,183,9773267666,/g3t1_2,,running
Status,184,9773357441,/g3t1_2,,fail
Status,185,9773393820,/g3t1_3,,running
Status,186,9773740190,/g3t1_3,,fail
Status,187,9810836579,/g4t1,,success
Status,188,9818486184,/g3t1_1,,running
Status,189,9818856849,/g3t1_1,,success
Status,190,9823375107,/g3t1_2,,running
Status,191,9823611342,/g3t1_2,,fail
Status,192,9823999588,/g3t1_3,,running
Status,193,9824187965,/g3t1_3,,fail
Status,194,9868690338,/g3t1_1,,running
Status,195,9868737918,/g3t1_1,,fail
Status,196,9873074843,/g3t1_2,,running
Status,197,9873200009,/g3t1_2,,fail
Status,198,9873243442,/g3t1_3,,running
Status,199,9873470604,/g3t1_3,,fail
Status,203,9910524703,/g4t1,,success
Status,204,9918637653,/g3t1_1,,running
Status,205,9918811718,/g3t1_1,,fail
Status,206,9923742853,/g3t1_2,,running
Status,207,9923794548,/g3t1_2,,fail
Status,208,9923861595,/g3t1_3,,running
Status,209,9923876528,/g3t1_3,,fail
Status,210,9968676909,/g3t1_1,,running
Status,211,9968720627,/g3t1_1,,fail
Status,212,9972972503,/g3t1_2,,running
Status,213,9973013810,/g3t1_2,,fail
Status,214,9973145014,/g3t1_3,,running
Status,215,9973338251,/g3t1_3,,success
Status,216,10011105115,/g4t1,,success
Status,217,10019123337,/g3t1_1,,running
Status,218,10019552292,/g3t1_1,,success
Status,219,10023817751,/g3t1_2,,running
Status,220,10023910005,/g3t1_3,,running
Status,221,10024153617,/g3t1_2,,fail
Status,222,10024857076,/g3t1_3,,success
Status,223,10069188347,/g3t1_1,,running
Status,224,10069293868,/g3t1_1,,fail
Status,225,10073855435,/g3t1_2,,running
Status,226,10073889242,/g3t1_3,,running
Status,227,10073931311,/g3t1_2,,fail
Status,228,10073946224,/g3t1_3,,success
Status,232,10110338866,/g4t1,,success
Status,233,10118757250,/g3t1_1,,running
Status,234,10118780735,/g3t1_1,,fail
Status,235,10123498050,/g3t1_2,,running
Status,236,10123532720,/g3t1_2,,fail
Status,237,10123666714,/g3t1_3,,running
Status,238,10123688626,/g3t1_3,,fail
Status,239,10169261659,/g3t1_1,,running
Status,240,10169314372,/g3t1_1,,fail
Status,241,10174381156,/g3t1_3,,running
Status,242,10174421950,/g3t1_2,,running
Status,243,10174462593,/g3t1_2,,fail
Status,244,10174472512,/g3t1_3,,fail
Status,245,10210662662,/g4t1,,success
Status,246,10219214286,/g3t1_1,,running
Status,247,10219240256,/g3t1_1,,fail
Status,248,10223606004,/g3t1_2,,running
Status,249,10223757556,/g3t1_2,,fail
Status,250,10224133652,/g3t1_3,,running
Status,251,10224160948,/g3t1_3,,fail
Status,252,10269186987,/g3t1_1,,running
Status,253,10269210753,/g3t1_1,,fail
Status,254,10273737230,/g3t1_2,,running
Status,255,10274018044,/g3t1_3,,running
Status,256,10274042918,/g3t1_3,,fail
Status,257,10274075577,/g3t1_2,,fail
Status,261,10311046352,/g4t1,,success
Status,262,10319282667,/g3t1_1,,running
Status,263,10319307905,/g3t1_1,,fail
Status,264,10323851440,/g3t1_2,,running
Status,265,10323880575,/g3t1_2,,fail
Status,266,10323893631,/g3t1_3,,running
Status,267,10324033675,/g3t1_3,,fail
Status,268,10369310063,/g3t1_1,,running
Status,269,10369340386,/g3t1_1,,success
Status,270,10373932194,/g3t1_2,,running
Status,271,10373965309,/g3t1_3,,running
Status,272,10373998782,/g3t1_2,,fail
Status,273,10374151279,/g3t1_3,,fail
Status,274,10411084025,/g4t1,,success
Status,275,10419477266,/g3t1_1,,running
Status,276,10419503309,/g3t1_1,,fail
Status,277,10424363544,/g3t1_2,,running
Status,278,10424401516,/g3t1_3,,running
Status,279,10424411043,/g3t1_2,,fail
Status,280,10424420599,/g3t1_3,,fail
Status,281,10469987687,/g3t1_1,,running
Status,282,10470026127,/g3t1_1,,fail
Status,283,10474568002,/g3t1_3,,running
Status,284,10474616578,/g3t1_2,,running
Status,285,10474731476,/g3t1_2,,fail
Status,286,10474755971,/g3t1_3,,fail
Status,290,10511121340,/g4t1,,success
Status,291,10519557987,/g3t1_1,,running
Status,292,10519671199,/g3t1_1,,success
Status,293,10524139103,/g3t1_2,,running
Status,294,10524160199,/g3t1_3,,running
Status,295,10524192225,/g3t1_2,,fail
Status,296,10524200720,/g3t1_3,,fail
Status,297,10570204953,/g3t1_1,,running
Status,298,10570264215,/g3t1_1,,fail
Status,299,10574740099,/g3t1_3,,running
Status,300,10574794632,/g3t1_2,,running
Status,301,10574817153,/g3t1_2,,fail
Status,302,10574838753,/g3t1_3,,fail
Status,303,10611233129,/g4t1,,success
Status,304,10620342527,/g3t1_1,,running
Status,305,10620399818,/g3t1_1,,fail
Status,306,10624877141,/g3t1_3,,running
Status,307,10624944749,/g3t1_2,,running
Status,308,10625025098,/g3t1_3,,fail
Status,309,10625058683,/g3t1_2,,fail
Status,310,10670462529,/g3t1_1,,running
Status,311,10670519960,/g3t1_1,,fail
Status,312,10674941921,/g3t1_3,,running
Status,313,10674996774,/g3t1_2,,running
Status,314,10675021012,/g3t1_3,,fail
Status,315,10675321541,/g3t1_2,,fail
Status,319,10711371874,/g4t1,,success
Status,320,10720364930,/g3t1_1,,running
Status,321,10720401930,/g3t1_1,,fail
Status,322,10724913221,/g3t1_3,,running
Status,323,10724966943,/g3t1_2,,running
Status,324,10725034778,/g3t1_3,,fail
Status,325,10725049570,/g3t1_2,,fail
Status,326,10770591290,/g3t1_1,,running
Status,327,10770664920,/g3t1_1,,fail
Status,328,10775069418,/g3t1_3,,running
Status,329,10775134230,/g3t1_2,,running
Status,330,10775174344,/g3t1_2,,fail
Status,331,10775915391,/g3t1_3,,fail
Status,332,10811083621,/g4t1,,success
Status,333,10820382073,/g3t1_1,,running
Status,334,10820414564,/g3t1_1,,fail
Status,335,10824983598,/g3t1_3,,running
Status,336,10825023480,/g3t1_2,,running
Status,337,10825033655,/g3t1_3,,fail
Status,338,10825043067,/g3t1_2,,fail
Status,339,10870868988,/g3t1_1,,running
Status,340,10870928013,/g3t1_1,,fail
Status,341,10875023703,/g3t1_3,,running
Status,342,10875073279,/g3t1_2,,running
Status,343,10875126911,/g3t1_3,,fail
Status,344,10875142171,/g3t1_2,,fail
Status,348,10911258802,/g4t1,,success
Status,349,10920555953,/g3t1_1,,running
Status,350,10920596612,/g3t1_1,,success
Status,351,10925103395,/g3t1_3,,running
Status,352,10925171510,/g3t1_2,,running
Status,353,10925457520,/g3t1_3,,fail
Status,354,10925629167,/g3t1_2,,success
Status,355,10970623650,/g3t1_1,,running
Status,356,10970672929,/g3t1_1,,success
Status,357,10975219680,/g3t1_3,,running
Status,358,10975266759,/g3t1_2,,running
Status,359,10975441934,/g3t1_3,,fail
Status,360,10975489697,/g3t1_2,,success
Status,361,11012008974,/g4t1,,success
Status,362,11020684861,/g3t1_1,,running
Status,363,11020728190,/g3t1_1,,fail
Status,364,11025392925,/g3t1_2,,running
Status,365,11025437668,/g3t1_3,,running
Status,366,11025451558,/g3t1_2,,success
Status,367,11025463503,/g3t1_3,,fail
Status,368,11070820674,/g3t1_1,,running
Status,369,11070866269,/g3t1_1,,fail
Status,370,11075416087,/g3t1_3,,running
Status,371,11075456501,/g3t1_2,,running
Status,372,11075555904,/g3t1_3,,fail
Status,373,11075608054,/g3t1_2,,success
Status,377,11112448149,/g4t1,,success
Status,378,11120951419,/g3t1_1,,running
Status,379,11120985509,/g3t1_1,,fail
Status,380,11125612316,/g3t1_3,,running
Status,381,11125648023,/g3t1_2,,running
Status,382,11125680981,/g3t1_3,,fail
Status,383,11125695086,/g3t1_2,,fail
Status,384,11171148383,/g3t1_1,,running
Status,385,11171188796,/g3t1_1,,fail
Status,386,11176081521,/g3t1_3,,running
Status,387,11176146696,/g3t1_2,,running
Status,388,11176178885,/g3t1_3,,fail
Status,389,11176541344,/g3t1_2,,fail
Status,390,11212182340,/g4t1,,success
Status,391,11221653826,/g3t1_1,,running
Status,392,11221721973,/g3t1_1,,success
Status,393,11226473963,/g3t1_3,,running
Status,394,11226537515,/g3t1_2,,running
Status,395,11226676077,/g3t1_3,,fail
Status,396,11226703239,/g3t1_2,,fail
Status,397,11271437878,/g3t1_1,,running
Status,398,11271484147,/g3t1_1,,fail
Status,399,11275802879,/g3t1_3,,running
Status,400,11275841180,/g3t1_2,,running
Status,401,11275898934,/g3t1_3,,fail
Status,402,11276078022,/g3t1_2,,fail
Status,403,11311940188,/g4t1,,success
Status,404,11321581843,/g3t1_1,,running
Status,405,11321621449,/g3t1_1,,success
Status,406,11326300083,/g3t1_3,,running
Status,407,11326349816,/g3t1_2,,running
Status,408,11326414873,/g3t1_2,,fail
Status,409,11326534331,/g3t1_3,,fail
Status,410,11371725385,/g3t1_1,,running
Status,411,11371884724,/g3t1_1,,success
Status,412,11376187744,/g3t1_3,,running
Status,413,11376263720,/g3t1_2,,running
Status,414,11376288059,/g3t1_3,,fail
Status,415,11376462230,/g3t1_2,,fail
Status,416,11412623238,/g4t1,,success
Status,417,11421747592,/g3t1_1,,running
Status,418,11421840550,/g3t1_1,,fail
Status,419,11426241503,/g3t1_3,,running
Status,420,11426279131,/g3t1_2,,running
Status,421,11426293864,/g3t1_3,,fail
Status,422,11426550161,/g3t1_2,,fail
Status,423,11472148000,/g3t1_1,,running
Status,424,11472345738,/g3t1_1,,success
Status,425,11476458126,/g3t1_3,,running
Status,426,11477043183,/g3t1_2,,running
Status,427,11477096629,/g3t1_3,,fail
Status,428,11477172650,/g3t1_2,,fail
Status,429,11512282067,/g4t1,,success
Status,430,11522072357,/g3t1_1,,running
Status,431,11522436117,/g3t1_1,,success
Status,432,11526879185,/g3t1_3,,running
Status,433,11527023947,/g3t1_2,,running
Status,434,11527268476,/g3t1_2,,fail
Status,435,11527708576,/g3t1_3,,fail
Status,436,11572233038,/g3t1_1,,running
Status,437,11572914847,/g3t1_1,,success
Status,438,11576632143,/g3t1_3,,running
Status,439,11576746475,/g3t1_2,,running
Status,440,11576773298,/g3t1_3,,fail
Status,441,11577121877,/g3t1_2,,fail
Status,442,11612421579,/g4t1,,success
Status,443,11622637238,/g3t1_1,,running
Status,444,11623084715,/g3t1_1,,fail
Status,445,11627580914,/g3t1_3,,running
Status,446,11627654758,/g3t1_2,,running
Status,447,11627682992,/g3t1_2,,fail
Status,448,11627884796,/g3t1_3,,fail
Status,449,11672808906,/g3t1_1,,running
Status,450,11672881955,/g3t1_1,,fail
Status,451,11677158847,/g3t1_3,,running
Status,452,11677226976,/g3t1_2,,running
Status,453,11677324664,/g3t1_2,,fail
Status,454,11678321224,/g3t1_3,,fail
Status,455,11712828521,/g4t1,,success
Status,456,11723148081,/g3t1_1,,running
Status,457,11723452824,/g3t1_1,,success
Status,458,11727323438,/g3t1_3,,running
Status,459,11727423663,/g3t1_2,,running
Status,460,11727456024,/g3t1_2,,fail
Status,461,11727497136,/g3t1_3,,fail
Status,462,11772755769,/g3t1_1,,running
Status,463,11772812839,/g3t1_1,,fail
Status,464,11776694905,/g3t1_3,,running
Status,465,11776732184,/g3t1_3,,fail
Status,466,11776820077,/g3t1_2,,running
Status,467,11776862922,/g3t1_2,,fail
Status,468,11812629732,/g4t1,,success
Status,469,11822573931,/g3t1_1,,running
Status,470,11822619544,/g3t1_1,,fail
Status,471,11826876866,/g3t1_3,,running
Status,472,11826936555,/g3t1_2,,running
Status,473,11826971559,/g3t1_3,,fail
Status,474,11826981596,/g3t1_2,,fail
Status,475,11873351540,/g3t1_1,,running
Status,476,11873427550,/g3t1_1,,fail
Status,477,11877708757,/g3t1_3,,running
Status,478,11877764786,/g3t1_2,,running
Status,479,11877946433,/g3t1_3,,fail
Status,480,11878343434,/g3t1_2,,fail
Status,481,11912778265,/g4t1,,success
Status,482,11923142620,/g3t1_1,,running
Status,483,11923554343,/g3t1_1,,fail
Status,484,11927483552,/g3t1_3,,running
Status,485,11927556999,/g3t1_2,,running
Status,486,11928005690,/g3t1_3,,fail
Status,487,11928079807,/g3t1_2,,fail
Status,488,11973372771,/g3t1_1,,running
Status,489,11973851567,/g3t1_1,,fail
Status,490,11977946282,/g3t1_3,,running
Status,491,11977999532,/g3t1_2,,running
Status,492,11978082203,/g3t1_3,,fail
Status,493,11978106149,/g3t1_2,,fail
Status,494,12012888726,/g4t1,,success
Status,495,12023728238,/g3t1_1,,running
Status,496,12023821036,/g3t1_1,,fail
Status,497,12027802661,/g3t1_3,,running
Status,498,12027928521,/g3t1_2,,running
Status,499,12028040240,/g3t1_3,,fail
Status,500,12028296629,/g3t1_2,,fail
Status,501,12073584951,/g3t1_1,,running
Status,502,12073652237,/g3t1_1,,fail
Status,503,12078015317,/g3t1_3,,running
Status,504,12078323825,/g3t1_2,,running
Status,505,12078390935,/g3t1_2,,fail
Status,506,12078418699,/g3t1_3,,fail
Status,510,12112538891,/g4t1,,success
Status,511,12123379402,/g3t1_1,,running
Status,512,12123414459,/g3t1_1,,fail
Status,513,12128114157,/g3t1_2,,running
Status,514,12128164977,/g3t1_3,,running
Status,515,12128245554,/g3t1_3,,fail
Status,516,12128353974,/g3t1_2,,success
Status,517,12173696343,/g3t1_1,,running
Status,518,12174083718,/g3t1_1,,fail
Status,519,12178696770,/g3t1_3,,running
Status,520,12178802108,/g3t1_2,,running
Status,521,12178863897,/g3t1_3,,fail
Status,522,12179047045,/g3t1_2,,success
Status,523,12212936171,/g4t1,,success
Status,524,12223887979,/g3t1_1,,running
Status,525,12223975422,/g3t1_1,,fail
Status,526,12228355074,/g3t1_3,,running
Status,527,12228463653,/g3t1_2,,running
Status,528,12228532447,/g3t1_3,,fail
Status,529,12228825458,/g3t1_2,,success
Status,530,12274009709,/g3t1_1,,running
Status,531,12274080827,/g3t1_1,,fail
Status,532,12278542820,/g3t1_3,,running
Status,533,12278647961,/g3t1_2,,running
Status,534,12278716508,/g3t1_3,,fail
Status,535,12279245293,/g3t1_2,,success
Status,539,12313527663,/g4t1,,success
Status,540,12324210743,/g3t1_1,,running
Status,541,12324282459,/g3t1_1,,fail
Status,542,12329108674,/g3t1_3,,running
Status,543,12329181821,/g3t1_3,,success
Status,544,12329210270,/g3t1_2,,running
Status,545,12329237119,/g3t1_2,,fail
Status,546,12374359506,/g3t1_1,,running
Status,547,12374430831,/g3t1_1,,fail
Status,548,12378535963,/g3t1_3,,running
Status,549,12379140736,/g3t1_2,,running
Status,550,12379193982,/g3t1_2,,fail
Status,551,12379250827,/g3t1_3,,success
Status,552,12414197071,/g4t1,,success
Status,553,12424379743,/g3t1_1,,running
Status,554,12424472668,/g3t1_1,,fail
Status,555,12428981162,/g3t1_3,,running
Status,556,12429138838,/g3t1_2,,running
Status,557,12429180292,/g3t1_3,,success
Status,558,12429470221,/g3t1_2,,fail
Status,559,12474538989,/g3t1_1,,running
Status,560,12474631912,/g3t1_1,,fail
Status,561,12478903091,/g3t1_3,,running
Status,562,12479008805,/g3t1_2,,running
Status,563,12479205284,/g3t1_2,,fail
Status,564,12479235521,/g3t1_3,,success
Status,568,12512808714,/g4t1,,success
Status,569,12523948666,/g3t1_1,,running
Status,570,12523982339,/g3t1_1,,fail
Status,571,12528888495,/g3t1_3,,running
Status,572,12528942681,/g3t1_3,,fail
Status,573,12529160007,/g3t1_2,,running
Status,574,12529178670,/g3t1_2,,fail
Status,575,12574444402,/g3t1_1,,running
Status,576,12574471603,/g3t1_1,,fail
Status,577,12578733841,/g3t1_3,,running
Status,578,12578758347,/g3t1_2,,running
Status,579,12578767455,/g3t1_3,,fail
Status,580,12578775740,/g3t1_2,,fail
Status,581,12613268451,/g4t1,,success
Status,582,12624501427,/g3t1_1,,running
Status,583,12624786737,/g3t1_1,,fail
Status,584,12629270098,/g3t1_3,,running
Status,585,12629349328,/g3t1_2,,running
Status,586,12629373955,/g3t1_3,,fail
Status,587,12629539866,/g3t1_2,,fail
Status,588,12675034406,/g3t1_1,,running
Status,589,12675105807,/g3t1_1,,fail
Status,590,12679217684,/g3t1_3,,running
Status,591,12679299585,/g3t1_2,,running
Status,592,12679344227,/g3t1_3,,fail
Status,593,12679514830,/g3t1_2,,fail
Status,597,12713748137,/g4t1,,success
Status,598,12725196274,/g3t1_1,,running
Status,599,12725266381,/g3t1_1,,fail
Status,600,12729217424,/g3t1_3,,running
Status,601,12729301397,/g3t1_2,,running
Status,602,12729456518,/g3t1_3,,fail
Status,603,12730303020,/g3t1_2,,fail
Status,604,12775385853,/g3t1_1,,running
Status,605,12775459787,/g3t1_1,,fail
Status,606,12779371643,/g3t1_3,,running
Status,607,12779479788,/g3t1_2,,running
Status,608,12779799098,/g3t1_2,,fail
Status,609,12779850227,/g3t1_3,,fail
Status,610,12813318254,/g4t1,,success
Status,611,12825165152,/g3t1_1,,running
Status,612,12825213127,/g3t1_1,,fail
Status,613,12829361006,/g3t1_3,,running
Status,614,12829506622,/g3t1_2,,running
Status,615,12829605993,/g3t1_3,,fail
Status,616,12829624939,/g3t1_2,,fail
Status,617,12875221094,/g3t1_1,,running
Status,618,12875267578,/g3t1_1,,success
Status,619,12879490342,/g3t1_3,,running
Status,620,12879590373,/g3t1_2,,running
Status,621,12879613548,/g3t1_2,,fail
Status,622,12879634548,/g3t1_3,,fail
Status,626,12913443712,/g4t1,,success
Status,627,12925203411,/g3t1_1,,running
Status,628,12925241742,/g3t1_1,,fail
Status,629,12929373721,/g3t1_3,,running
Status,630,12929399305,/g3t1_3,,fail
Status,631,12929435863,/g3t1_2,,running
Status,632,12929444027,/g3t1_2,,fail
Status,633,12975256250,/g3t1_1,,running
Status,634,12975710137,/g3t1_1,,success
Status,635,12979526494,/g3t1_3,,running
Status,636,12979623460,/g3t1_2,,running
Status,637,12979949592,/g3t1_3,,fail
Status,638,12979992343,/g3t1_2,,fail
Status,639,13013930124,/g4t1,,success
Status,640,13025287435,/g3t1_1,,running
Status,641,13025592747,/g3t1_1,,success
Status,642,13030407588,/g3t1_2,,running
Status,643,13030492748,/g3t1_3,,running
Status,644,13030591281,/g3t1_3,,fail
Status,645,13030627639,/g3t1_2,,fail
Status,646,13075723107,/g3t1_1,,running
Status,647,13075780507,/g3t1_1,,fail
Status,648,13080056342,/g3t1_2,,running
Status,649,13080120268,/g3t1_2,,fail
Status,650,13080203893,/g3t1_3,,running
Status,651,13080238133,/g3t1_3,,fail
Status,655,13114323392,/g4t1,,success
Status,656,13126145664,/g3t1_1,,running
Status,657,13126213137,/g3t1_1,,fail
Status,658,13130933765,/g3t1_2,,running
Status,659,13131024462,/g3t1_3,,running
Status,660,13131056766,/g3t1_3,,fail
Status,661,13131466616,/g3t1_2,,success
Status,662,13175779153,/g3t1_1,,running
Status,663,13175831426,/g3t1_1,,fail
Status,664,13180045700,/g3t1_3,,running
Status,665,13180082678,/g3t1_3,,fail
Status,666,13180210007,/g3t1_2,,running
Status,667,13180248105,/g3t1_2,,success
Status,668,13214021204,/g4t1,,success
Status,669,13226087972,/g3t1_1,,running
Status,670,13226399578,/g3t1_1,,fail
Status,671,13230847277,/g3t1_2,,running
Status,672,13230928813,/g3t1_3,,running
Status,673,13231335639,/g3t1_3,,success
Status,674,13231400170,/g3t1_2,,success
Status,675,13276482399,/g3t1_1,,running
Status,676,13276572416,/g3t1_1,,fail
Status,677,13280849925,/g3t1_2,,running
Status,678,13280933842,/g3t1_3,,running
Status,679,13281214824,/g3t1_3,,fail
Status,680,13281462078,/g3t1_2,,success
Status,684,13314779950,/g4t1,,success
Status,685,13326475839,/g3t1_1,,running
Status,686,13326794508,/g3t1_1,,fail
Status,687,13330740679,/g3t1_3,,running
Status,688,13330819721,/g3t1_2,,running
Status,689,13330845264,/g3t1_2,,fail
Status,690,13331351145,/g3t1_3,,fail
Status,691,13376062197,/g3t1_1,,running
Status,692,13376089843,/g3t1_1,,fail
Status,693,13380300843,/g3t1_3,,running
Status,694,13380326285,/g3t1_2,,running
Status,695,13380419374,/g3t1_2,,fail
Status,696,13380571525,/g3t1_3,,fail
Status,697,13414536871,/g4t1,,success
Status,698,13426770698,/g3t1_1,,running
Status,699,13426844315,/g3t1_1,,fail
Status,700,13431052440,/g3t1_3,,running
Status,701,13431113268,/g3t1_2,,running
Status,702,13431218591,/g3t1_2,,fail
Status,703,13431243231,/g3t1_3,,fail
Status,704,13477063514,/g3t1_1,,running
Status,705,13477135737,/g3t1_1,,success
Status,706,13481169143,/g3t1_2,,running
Status,707,13481313917,/g3t1_3,,running
Status,708,13481889673,/g3t1_3,,fail
Status,709,13482029218,/g3t1_2,,fail
Status,713,13515124087,/g4t1,,success
Status,714,13527074323,/g3t1_1,,running
Status,715,13527141906,/g3t1_1,,fail
Status,716,13531582925,/g3t1_2,,running
Status,717,13531643939,/g3t1_3,,running
Status,718,13531692038,/g3t1_2,,fail
Status,719,13531791401,/g3t1_3,,fail
Status,720,13577277344,/g3t1_1,,running
Status,721,13577347257,/g3t1_1,,fail
Status,722,13581448493,/g3t1_2,,running
Status,723,13581518871,/g3t1_3,,running
Status,724,13581615661,/g3t1_3,,fail
Status,725,13581649431,/g3t1_2,,fail
Status,726,13614472611,/g4t1,,success
Status,727,13627255403,/g3t1_1,,running
Status,728,13627335525,/g3t1_1,,fail
Status,729,13631152339,/g3t1_2,,running
Status,730,13631197174,/g3t1_3,,running
Status,731,13631211277,/g3t1_2,,fail
Status,732,13631426808,/g3t1_3,,fail
Status,733,13676998217,/g3t1_1,,running
Status,734,13677045473,/g3t1_1,,fail
Status,735,13682032443,/g3t1_2,,running
Status,736,13682107820,/g3t1_3,,running
Status,737,13682134568,/g3t1_2,,fail
Status,738,13682324800,/g3t1_3,,fail
Status,742,13714977878,/g4t1,,success
Status,743,13727667927,/g3t1_1,,running
Status,744,13728011236,/g3t1_1,,fail
Status,745,13732181606,/g3t1_2,,running
Status,746,13732246152,/g3t1_3,,running
Status,747,13732281151,/g3t1_2,,fail
Status,748,13732517925,/g3t1_3,,fail
Status,749,13777758814,/g3t1_1,,running
Status,750,13777932771,/g3t1_1,,fail
Status,751,13782270731,/g3t1_2,,running
Status,752,13782344940,/g3t1_3,,running
Status,753,13782427494,/g3t1_3,,fail
Status,754,13782462357,/g3t1_2,,fail
Status,755,13815176568,/g4t1,,success
Status,756,13827717322,/g3t1_1,,running
Status,757,13827820682,/g3t1_1,,fail
Status,758,13832497201,/g3t1_3,,running
Status,759,13832586330,/g3t1_2,,running
Status,760,13832625675,/g3t1_3,,fail
Status,761,13832726841,/g3t1_2,,fail
Status,762,13877983185,/g3t1_1,,running
Status,763,13878052716,/g3t1_1,,fail
Status,764,13882292795,/g3t1_2,,running
Status,765,13882422239,/g3t1_3,,running
Status,766,13882465726,/g3t1_3,,fail
Status,767,13882691989,/g3t1_2,,fail
Status,771,13914950686,/g4t1,,success
Status,772,13928391923,/g3t1_1,,running
Status,773,13928460906,/g3t1_1,,fail
Status,774,13932602472,/g3t1_3,,running
Status,775,13932699655,/g3t1_2,,running
Status,776,13933168028,/g3t1_3,,fail
Status,777,13933253914,/g3t1_2,,fail
Status,778,13978566727,/g3t1_1,,running
Status,779,13978651439,/g3t1_1,,fail
Status,780,13982626856,/g3t1_2,,running
Status,781,13982709705,/g3t1_3,,running
Status,782,13982754648,/g3t1_3,,fail
Status,783,13982927851,/g3t1_2,,fail
Status,784,14014915295,/g4t1,,success
Status,785,14028062580,/g3t1_1,,running
Status,786,14028110209,/g3t1_1,,fail
Status,787,14032259877,/g3t1_2,,running
Status,788,14032316299,/g3t1_3,,running
Status,789,14032747899,/g3t1_2,,fail
Status,790,14032797794,/g3t1_3,,fail
Status,791,14078523530,/g3t1_1,,running
Status,792,14078596863,/g3t1_1,,fail
Status,793,14082855466,/g3t1_2,,running
Status,794,14082909287,/g3t1_3,,running
Status,795,14083008204,/g3t1_2,,fail
Status,796,14083033757,/g3t1_3,,fail
Status,800,14115258408,/g4t1,,success
Status,801,14128763993,/g3t1_1,,running
Status,802,14128824605,/g3t1_1,,fail
Status,803,14133247767,/g3t1_3,,running
Status,804,14133384273,/g3t1_2,,running
Status,805,14133429704,/g3t1_2,,fail
Status,806,14133618246,/g3t1_3,,fail
Status,807,14179325960,/g3t1_1,,running
Status,808,14179463567,/g3t1_1,,fail
Status,809,14183595708,/g3t1_2,,running
Status,810,14183703272,/g3t1_2,,fail
Status,811,14183779928,/g3t1_3,,running
Status,812,14183817371,/g3t1_3,,fail
Status,813,14214972698,/g4t1,,success
Status,814,14229204661,/g3t1_1,,running
Status,815,14229274120,/g3t1_1,,fail
Status,816,14233523875,/g3t1_3,,running
Status,817,14233585837,/g3t1_2,,running
Status,818,14233679374,/g3t1_2,,fail
Status,819,14233704638,/g3t1_3,,fail
Status,820,14279524806,/g3t1_1,,running
Status,821,14279597838,/g3t1_1,,fail
Status,822,14283553357,/g3t1_3,,running
Status,823,14283622552,/g3t1_2,,running
Status,824,14283650649,/g3t1_3,,fail
Status,825,14283679333,/g3t1_2,,fail
Status,829,14315599640,/g4t1,,success
Status,830,14329706847,/g3t1_1,,running
Status,831,14330125739,/g3t1_1,,fail
Status,832,14333700052,/g3t1_3,,running
Status,833,14333875177,/g3t1_2,,running
Status,834,14333962937,/g3t1_2,,fail
Status,835,14333989315,/g3t1_3,,fail
Status,836,14379562725,/g3t1_1,,running
Status,837,14380118479,/g3t1_1,,fail
Status,838,14383526639,/g3t1_3,,running
Status,839,14383592082,/g3t1_2,,running
Status,840,14384019402,/g3t1_3,,fail
Status,841,14384098191,/g3t1_2,,fail
Status,842,14415863177,/g4t1,,success
Status,843,14429880074,/g3t1_1,,running
Status,844,14429937779,/g3t1_1,,fail
Status,845,14433432855,/g3t1_3,,running
Status,846,14433525730,/g3t1_2,,running
Status,847,14433851748,/g3t1_2,,fail
Status,848,14434050819,/g3t1_3,,fail
Status,849,14479982996,/g3t1_1,,running
Status,850,14480062721,/g3t1_1,,fail
Status,851,14483695635,/g3t1_3,,running
Status,852,14483778962,/g3t1_2,,running
Status,853,14484179552,/g3t1_3,,fail
Status,854,14484589359,/g3t1_2,,fail
Status,858,14515850553,/g4t1,,success
Status,859,14530159265,/g3t1_1,,running
Status,860,14530243722,/g3t1_1,,fail
Status,861,14534091842,/g3t1_3,,running
Status,862,14534163443,/g3t1_2,,running
Status,863,14534241510,/g3t1_3,,fail
Status,864,14534531959,/g3t1_2,,fail
Status,865,14580341741,/g3t1_1,,running
Status,866,14580415723,/g3t1_1,,fail
Status,867,14584217383,/g3t1_3,,running
Status,868,14584282831,/g3t1_2,,running
Status,869,14584308647,/g3t1_2,,fail
Status,870,14584336081,/g3t1_3,,fail
Status,871,14615891812,/g4t1,,success
Status,872,14630270277,/g3t1_1,,running
Status,873,14630340110,/g3t1_1,,fail
Status,874,14633828335,/g3t1_2,,running
Status,875,14633868348,/g3t1_3,,running
Status,876,14633917188,/g3t1_3,,fail
Status,877,14633928803,/g3t1_2,,fail
Status,878,14679990244,/g3t1_1,,running
Status,879,14680027020,/g3t1_1,,fail
Status,880,14683816042,/g3t1_3,,running
Status,881,14683859908,/g3t1_2,,running
Status,882,14684021720,/g3t1_2,,fail
Status,883,14684063992,/g3t1_3,,fail
Status,887,14715685391,/g4t1,,success
Status,888,14730214349,/g3t1_1,,running
Status,889,14730474969,/g3t1_1,,success
Status,890,14734270072,/g3t1_2,,running
Status,891,14734301559,/g3t1_3,,running
Status,892,14734358558,/g3t1_2,,fail
Status,893,14734374661,/g3t1_3,,fail
Status,894,14780883144,/g3t1_1,,running
Status,895,14781041411,/g3t1_1,,fail
Status,896,14784636366,/g3t1_3,,running
Status,897,14784720662,/g3t1_2,,running
Status,898,14784751758,/g3t1_3,,fail
Status,899,14785096366,/g3t1_2,,fail
Status,900,14816250976,/g4t1,,success
Status,901,14831105526,/g3t1_1,,running
Status,902,14831173711,/g3t1_1,,fail
Status,903,14834864331,/g3t1_3,,running
Status,904,14834940616,/g3t1_2,,running
Status,905,14835035988,/g3t1_2,,fail
Status,906,14835300592,/g3t1_3,,fail
Status,907,14881129010,/g3t1_1,,running
Status,908,14881220114,/g3t1_1,,fail
Status,909,14884917294,/g3t1_3,,running
Status,910,14885066280,/g3t1_2,,running
Status,911,14885117408,/g3t1_3,,fail
Status,912,14885192352,/g3t1_2,,fail
Status,916,14916542695,/g4t1,,success
Status,917,14931318192,/g3t1_1,,running
Status,918,14931386481,/g3t1_1,,fail
Status,919,14934862785,/g3t1_3,,running
Status,920,14935058141,/g3t1_2,,running
Status,921,14935404644,/g3t1_3,,fail
Status,922,14935469192,/g3t1_2,,fail
Status,923,14981340309,/g3t1_1,,running
Status,924,14981409411,/g3t1_1,,fail
Status,925,14985165014,/g3t1_2,,running
Status,926,14985234637,/g3t1_3,,running
Status,927,14985296150,/g3t1_3,,fail
Status,928,14985319791,/g3t1_2,,fail
Status,929,15016585443,/g4t1,,success
Status,930,15031318259,/g3t1_1,,running
Status,931,15031374092,/g3t1_1,,fail
Status,932,15035695891,/g3t1_2,,running
Status,933,15035774661,/g3t1_3,,running
Status,934,15035964626,/g3t1_2,,fail
Status,935,15035997315,/g3t1_3,,fail
Status,936,15081559820,/g3t1_1,,running
Status,937,15081628511,/g3t1_1,,fail
Status,938,15085226750,/g3t1_3,,running
Status,939,15085341196,/g3t1_2,,running
Status,940,15085717542,/g3t1_2,,fail
Status,941,15086176828,/g3t1_3,,fail
Status,945,15116656390,/g4t1,,success
Status,946,15131861642,/g3t1_1,,running
Status,947,15131935315,/g3t1_1,,fail
Status,948,15135640742,/g3t1_2,,running
Status,949,15135713754,/g3t1_3,,running
Status,950,15135807796,/g3t1_3,,fail
Status,951,15136169776,/g3t1_2,,fail
Status,952,15181346621,/g3t1_1,,running
Status,953,15181383111,/g3t1_1,,fail
Status,954,15185204485,/g3t1_3,,running
Status,955,15185245568,/g3t1_2,,running
Status,956,15185266907,/g3t1_3,,fail
Status,957,15185284262,/g3t1_2,,fail
Status,958,15216606222,/g4t1,,success
Status,959,15232215606,/g3t1_1,,running
Status,960,15232292062,/g3t1_1,,fail
Status,961,15235843801,/g3t1_3,,running
Status,962,15235940456,/g3t1_2,,running
Status,963,15236415398,/g3t1_3,,fail
Status,964,15236559181,/g3t1_2,,fail
Status,965,15282051235,/g3t1_1,,running
Status,966,15282535116,/g3t1_1,,fail
Status,967,15285912275,/g3t1_3,,running
Status,968,15285978430,/g3t1_2,,running
Status,969,15286041255,/g3t1_2,,fail
Status,970,15286155295,/g3t1_3,,fail
Status,971,15316880300,/g4t1,,success
Status,972,15332360021,/g3t1_1,,running
Status,973,15332448695,/g3t1_1,,fail
Status,974,15335858788,/g3t1_2,,running
Status,975,15335938891,/g3t1_3,,running
Status,976,15336309076,/g3t1_3,,fail
Status,977,15336362086,/g3t1_2,,fail
Status,978,15382457558,/g3t1_1,,running
Status,979,15382805575,/g3t1_1,,fail
Status,980,15385925719,/g3t1_2,,running
Status,981,15385991359,/g3t1_3,,running
Status,982,15386399044,/g3t1_2,,fail
Status,983,15386480626,/g3t1_3,,fail
Status,984,15417021594,/g4t1,,success
Status,985,15432633463,/g3t1_1,,running
Status,986,15432705955,/g3t1_1,,fail
Status,987,15436201283,/g3t1_3,,running
Status,988,15436285215,/g3t1_2,,running
Status,989,15436840402,/g3t1_3,,fail
Status,990,15436949271,/g3t1_2,,fail
Status,991,15482652394,/g3t1_1,,running
Status,992,15482880425,/g3t1_1,,fail
Status,993,15486272177,/g3t1_2,,running
Status,994,15486375514,/g3t1_3,,running
Status,995,15486496613,/g3t1_2,,fail
Status,996,15486743097,/g3t1_3,,fail
Status,997,15517339301,/g4t1,,success
Status,998,15532722326,/g3t1_1,,running
Status,999,15532790577,/g3t1_1,,fail
Status,1000,15536322338,/g3t1_2,,running
Status,1001,15536456529,/g3t1_3,,running
Status,1002,15536963638,/g3t1_2,,fail
Status,1003,15537131359,/g3t1_3,,fail
Status,1004,15583007209,/g3t1_1,,running
Status,1005,15583076374,/g3t1_1,,fail
Status,1006,15586760191,/g3t1_2,,running
Status,1007,15586826779,/g3t1_3,,running
Status,1008,15587001346,/g3t1_2,,fail
Status,1009,15587053001,/g3t1_3,,fail
Status,1010,15617365480,/g4t1,,success
Status,1011,15633205488,/g3t1_1,,running
Status,1012,15633265205,/g3t1_1,,fail
Status,1013,15636964118,/g3t1_2,,running
Status,1014,15637029849,/g3t1_3,,running
Status,1015,15637203689,/g3t1_2,,fail
Status,1016,15637269786,/g3t1_3,,fail
Status,1017,15683334155,/g3t1_1,,running
Status,1018,15683401981,/g3t1_1,,fail
Status,1019,15687180771,/g3t1_3,,running
Status,1020,15687241713,/g3t1_2,,running
Status,1021,15687350391,/g3t1_3,,fail
Status,1022,15687383170,/g3t1_2,,fail
Status,1023,15717519615,/g4t1,,success
Status,1024,15733370326,/g3t1_1,,running
Status,1025,15733440558,/g3t1_1,,fail
Status,1026,15737442614,/g3t1_2,,running
Status,1027,15737564982,/g3t1_3,,running
Status,1028,15737624129,/g3t1_3,,fail
Status,1029,15737648079,/g3t1_2,,fail
Status,1030,15783638493,/g3t1_1,,running
Status,1031,15783709377,/g3t1_1,,fail
Status,1032,15787217610,/g3t1_3,,running
Status,1033,15787274624,/g3t1_2,,running
Status,1034,15787300814,/g3t1_3,,fail
Status,1035,15787699040,/g3t1_2,,fail
Status,1036,15817497521,/g4t1,,success
Status,1037,15833043434,/g3t1_1,,running
Status,1038,15833072662,/g3t1_1,,fail
Status,1039,15836711433,/g3t1_2,,running
Status,1040,15836732837,/g3t1_3,,running
Status,1041,15836763575,/g3t1_2,,fail
Status,1042,15836852625,/g3t1_3,,fail
Status,1043,15883020323,/g3t1_1,,running
Status,1044,15883044308,/g3t1_1,,fail
Status,1045,15886916979,/g3t1_3,,running
Status,1046,15886948920,/g3t1_2,,running
Status,1047,15886961813,/g3t1_3,,fail
Status,1048,15887027156,/g3t1_2,,fail
Status,1049,15917285037,/g4t1,,success
Status,1050,15933198776,/g3t1_1,,running
Status,1051,15933223271,/g3t1_1,,fail
Status,1052,15936917645,/g3t1_2,,running
Status,1053,15936942538,/g3t1_3,,running
Status,1054,15937179164,/g3t1_2,,fail
Status,1055,15937202993,/g3t1_3,,fail
Status,1056,15983210656,/g3t1_1,,running
Status,1057,15983238603,/g3t1_1,,fail
Status,1058,15987061701,/g3t1_3,,running
Status,1059,15987090716,/g3t1_2,,running
Status,1060,15987195974,/g3t1_2,,fail
Status,1061,15987222720,/g3t1_3,,fail
Status,1062,16017074016,/g4t1,,success
Status,1063,16033257697,/g3t1_1,,running
Status,1064,16033286318,/g3t1_1,,fail
Status,1065,16037255029,/g3t1_3,,running
Status,1066,16037300815,/g3t1_2,,running
Status,1067,16037422218,/g3t1_3,,fail
Status,1068,16037437062,/g3t1_2,,fail
Status,1069,16083427370,/g3t1_1,,running
Status,1070,16083451792,/g3t1_1,,fail
Status,1071,16087180809,/g3t1_3,,running
Status,1072,16087203339,/g3t1_2,,running
Status,1073,16087294931,/g3t1_2,,fail
Status,1074,16087304153,/g3t1_3,,fail
Status,1078,16117198178,/g4t1,,success
Status,1079,16133575843,/g3t1_1,,running
Status,1080,16133599278,/g3t1_1,,fail
Status,1081,16137229168,/g3t1_3,,running
Status,1082,16137251415,/g3t1_2,,running
Status,1083,16137288410,/g3t1_3,,fail
Status,1084,16137302539,/g3t1_2,,fail
Status,1085,16183634315,/g3t1_1,,running
Status,1086,16183666913,/g3t1_1,,fail
Status,1087,16187334629,/g3t1_2,,running
Status,1088,16187359027,/g3t1_3,,running
Status,1089,16187390901,/g3t1_2,,fail
Status,1090,16187400845,/g3t1_3,,success
Status,1091,16217254200,/g4t1,,success
Status,1092,16233610960,/g3t1_1,,running
Status,1093,16233638989,/g3t1_1,,fail
Status,1094,16237363395,/g3t1_2,,running
Status,1095,16237384434,/g3t1_3,,running
Status,1096,16237492302,/g3t1_2,,fail
Status,1097,16237522689,/g3t1_3,,success
Status,1098,16283735190,/g3t1_1,,running
Status,1099,16283757357,/g3t1_1,,fail
Status,1100,16287431591,/g3t1_3,,running
Status,1101,16287449657,/g3t1_2,,running
Status,1102,16287561298,/g3t1_2,,fail
Status,1103,16287573305,/g3t1_3,,success
Status,1107,16317209694,/g4t1,,success
Status,1108,16333803036,/g3t1_1,,running
Status,1109,16333825435,/g3t1_1,,fail
Status,1110,16337490282,/g3t1_2,,running
Status,1111,16337508679,/g3t1_3,,running
Status,1112,16337632191,/g3t1_3,,fail
Status,1113,16337649344,/g3t1_2,,success
Status,1114,16383924959,/g3t1_1,,running
Status,1115,16383944425,/g3t1_1,,success
Status,1116,16387537860,/g3t1_3,,running
Status,1117,16387556739,/g3t1_2,,running
Status,1118,16387570752,/g3t1_3,,fail
Status,1119,16387581819,/g3t1_2,,fail
Status,1120,16417345469,/g4t1,,success
Status,1121,16433988468,/g3t1_1,,running
Status,1122,16434022598,/g3t1_1,,fail
Status,1123,16437630284,/g3t1_2,,running
Status,1124,16437664779,/g3t1_3,,running
Status,1125,16437677135,/g3t1_2,,fail
Status,1126,16437822955,/g3t1_3,,fail
Status,1127,16484081920,/g3t1_1,,running
Status,1128,16484200680,/g3t1_1,,success
Status,1129,16487965279,/g3t1_3,,running
Status,1130,16487990915,/g3t1_2,,running
Status,1131,16487999781,/g3t1_2,,fail
Status,1132,16488007479,/g3t1_3,,fail
Status,1136,16517626867,/g4t1,,success
Status,1137,16535105698,/g3t1_1,,running
Status,1138,16535163856,/g3t1_1,,fail
Status,1139,16538536343,/g3t1_2,,running
Status,1140,16538598756,/g3t1_3,,running
Status,1141,16538616477,/g3t1_2,,fail
Status,1142,16538641606,/g3t1_3,,fail
Status,1143,16584886125,/g3t1_1,,running
Status,1144,16584934650,/g3t1_1,,fail
Status,1145,16588398556,/g3t1_2,,running
Status,1146,16588446098,/g3t1_3,,running
Status,1147,16588539210,/g3t1_2,,fail
Status,1148,16588589821,/g3t1_3,,fail
Status,1149,16618040619,/g4t1,,success
Status,1150,16635163674,/g3t1_1,,running
Status,1151,16635252894,/g3t1_1,,fail
Status,1152,16638765482,/g3t1_2,,running
Status,1153,16638960425,/g3t1_3,,running
Status,1154,16639109869,/g3t1_2,,fail
Status,1155,16639147292,/g3t1_3,,fail
Status,1156,16685140423,/g3t1_1,,running
Status,1157,16685199528,/g3t1_1,,fail
Status,1158,16688826478,/g3t1_2,,running
Status,1159,16688887928,/g3t1_3,,running
Status,1160,16689015037,/g3t1_2,,fail
Status,1161,16689060806,/g3t1_3,,fail
Status,1165,16718294419,/g4t1,,success
Status,1166,16735167159,/g3t1_1,,running
Status,1167,16735423788,/g3t1_1,,fail
Status,1168,16739117195,/g3t1_3,,running
Status,1169,16739211511,/g3t1_2,,running
Status,1170,16739399672,/g3t1_2,,fail
Status,1171,16739895729,/g3t1_3,,fail
Status,1172,16784973527,/g3t1_1,,running
Status,1173,16785088356,/g3t1_1,,fail
Status,1174,16788616606,/g3t1_2,,running
Status,1175,16788667685,/g3t1_3,,running
Status,1176,16788702144,/g3t1_2,,fail
Status,1177,16788942706,/g3t1_3,,fail
Status,1178,16817941375,/g4t1,,success
Status,1179,16835686441,/g3t1_1,,running
Status,1180,16835742008,/g3t1_1,,fail
Status,1181,16839440922,/g3t1_3,,running
Status,1182,16839521225,/g3t1_2,,running
Status,1183,16839547730,/g3t1_2,,fail
Status,1184,16839571727,/g3t1_3,,fail
Status,1185,16885660442,/g3t1_1,,running
Status,1186,16885720311,/g3t1_1,,fail
Status,1187,16890077886,/g3t1_2,,running
Status,1188,16890136429,/g3t1_3,,running
Status,1189,16890332218,/g3t1_3,,fail
Status,1190,16890376561,/g3t1_2,,fail
Status,1194,16918413911,/g4t1,,success
Status,1195,16935864418,/g3t1_1,,running
Status,1196,16935922265,/g3t1_1,,fail
Status,1197,16939715879,/g3t1_2,,running
Status,1198,16939780295,/g3t1_3,,running
Status,1199,16939804281,/g3t1_2,,fail
Status,1200,16940024521,/g3t1_3,,fail
Status,1201,16985590653,/g3t1_1,,running
Status,1202,16985630399,/g3t1_1,,fail
Status,1203,16989757185,/g3t1_2,,running
Status,1204,16989931143,/g3t1_3,,running
Status,1205,16990003528,/g3t1_2,,fail
Status,1206,16990078422,/g3t1_3,,fail
Status,1207,17018315393,/g4t1,,success
Status,1208,17035752288,/g3t1_1,,running
Status,1209,17035805574,/g3t1_1,,fail
Status,1210,17039774196,/g3t1_2,,running
Status,1211,17039830542,/g3t1_3,,running
Status,1212,17040141712,/g3t1_2,,fail
Status,1213,17040180049,/g3t1_3,,fail
Status,1214,17085937415,/g3t1_1,,running
Status,1215,17085976696,/g3t1_1,,fail
Status,1216,17089712971,/g3t1_2,,running
Status,1217,17089766579,/g3t1_3,,running
Status,1218,17089839733,/g3t1_2,,fail
Status,1219,17090003979,/g3t1_3,,fail
Status,1223,17118575399,/g4t1,,success
Status,1224,17136016752,/g3t1_1,,running
Status,1225,17136157145,/g3t1_1,,fail
Status,1226,17139954391,/g3t1_2,,running
Status,1227,17140096402,/g3t1_3,,running
Status,1228,17140124126,/g3t1_3,,fail
Status,1229,17140145095,/g3t1_2,,fail
Status,1230,17186029646,/g3t1_1,,running
Status,1231,17186147316,/g3t1_1,,fail
Status,1232,17190083821,/g3t1_2,,running
Status,1233,17190139695,/g3t1_3,,running
Status,1234,17190683803,/g3t1_2,,fail
Status,1235,17190724826,/g3t1_3,,fail
Status,1236,17218584891,/g4t1,,success
Status,1237,17236375826,/g3t1_1,,running
Status,1238,17236418231,/g3t1_1,,fail
Status,1239,17240037044,/g3t1_2,,running
Status,1240,17240122997,/g3t1_3,,running
Status,1241,17240419108,/g3t1_2,,fail
Status,1242,17240474825,/g3t1_3,,fail
Status,1243,17286248985,/g3t1_1,,running
Status,1244,17286297688,/g3t1_1,,fail
Status,1245,17289494699,/g3t1_2,,running
Status,1246,17290099724,/g3t1_2,,fail
Status,1247,17290139158,/g3t1_3,,running
Status,1248,17290158172,/g3t1_3,,fail
Status,1252,17318779822,/g4t1,,success
Status,1253,17336826531,/g3t1_1,,running
Status,1254,17336882728,/g3t1_1,,fail
Status,1255,17340385714,/g3t1_2,,running
Status,1256,17340445147,/g3t1_3,,running
Status,1257,17340518942,/g3t1_2,,fail
Status,1258,17340804939,/g3t1_3,,fail
Status,1259,17386719510,/g3t1_1,,running
Status,1260,17387008264,/g3t1_1,,success
Status,1261,17389962172,/g3t1_2,,running
Status,1262,17390565539,/g3t1_2,,fail
Status,1263,17390637410,/g3t1_3,,running
Status,1264,17390924293,/g3t1_3,,fail
Status,1265,17418901260,/g4t1,,success
Status,1266,17436778830,/g3t1_1,,running
Status,1267,17436841025,/g3t1_1,,fail
Status,1268,17439998779,/g3t1_2,,running
Status,1269,17440357279,/g3t1_2,,fail
Status,1270,17440559098,/g3t1_3,,running
Status,1271,17441040187,/g3t1_3,,fail
Status,1272,17487499914,/g3t1_1,,running
Status,1273,17487566944,/g3t1_1,,fail
Status,1274,17490675205,/g3t1_2,,running
Status,1275,17490797255,/g3t1_2,,fail
Status,1276,17490929421,/g3t1_3,,running
Status,1277,17491304509,/g3t1_3,,success
Status,1281,17518959009,/g4t1,,success
Status,1282,17537619443,/g3t1_1,,running
Status,1283,17537696132,/g3t1_1,,fail
Status,1284,17540705406,/g3t1_2,,running
Status,1285,17540776840,/g3t1_2,,fail
Status,1286,17540814251,/g3t1_3,,running
Status,1287,17541532163,/g3t1_3,,fail
Status,1288,17587188792,/g3t1_1,,running
Status,1289,17587224680,/g3t1_1,,fail
Status,1290,17590128592,/g3t1_2,,running
Status,1291,17590304813,/g3t1_2,,fail
Status,1292,17590593794,/g3t1_3,,running
Status,1293,17590905125,/g3t1_3,,fail
Status,1294,17618671486,/g4t1,,success
Status,1295,17637103590,/g3t1_1,,running
Status,1296,17637130549,/g3t1_1,,success
Status,1297,17640392026,/g3t1_2,,running
Status,1298,17640429757,/g3t1_2,,fail
Status,1299,17640589434,/g3t1_3,,running
Status,1300,17640676863,/g3t1_3,,fail
Status,1301,17687072628,/g3t1_1,,running
Status,1302,17687096247,/g3t1_1,,fail
Status,1303,17690311343,/g3t1_2,,running
Status,1304,17690335533,/g3t1_2,,fail
Status,1305,17690551006,/g3t1_3,,running
Status,1306,17690867969,/g3t1_3,,fail
Status,1310,17718790792,/g4t1,,success
Status,1311,17737159864,/g3t1_1,,running
Status,1312,17737193795,/g3t1_1,,fail
Status,1313,17740298469,/g3t1_2,,running
Status,1314,17740426405,/g3t1_2,,fail
Status,1315,17740728591,/g3t1_3,,running
Status,1316,17740754994,/g3t1_3,,fail
Status,1317,17787235453,/g3t1_1,,running
Status,1318,17787266307,/g3t1_1,,fail
Status,1319,17790393661,/g3t1_2,,running
Status,1320,17790423048,/g3t1_2,,fail
Status,1321,17790730187,/g3t1_3,,running
Status,1322,17790811451,/g3t1_3,,fail
Status,1323,17818774297,/g4t1,,success
Status,1324,17837258956,/g3t1_1,,running
Status,1325,17837352379,/g3t1_1,,fail
Status,1326,17840483577,/g3t1_2,,running
Status,1327,17840710303,/g3t1_2,,fail
Status,1328,17840757302,/g3t1_3,,running
Status,1329,17840991201,/g3t1_3,,fail
Status,1330,17887825707,/g3t1_1,,running
Status,1331,17887872655,/g3t1_1,,fail
Status,1332,17890738915,/g3t1_2,,running
Status,1333,17890790505,/g3t1_2,,fail
Status,1334,17891095190,/g3t1_3,,running
Status,1335,17891177627,/g3t1_3,,fail
Status,1339,17919279122,/g4t1,,success
Status,1340,17937938398,/g3t1_1,,running
Status,1341,17938253851,/g3t1_1,,fail
Status,1342,17940889670,/g3t1_2,,running
Status,1343,17940945948,/g3t1_2,,fail
Status,1344,17941351863,/g3t1_3,,running
Status,1345,17941406430,/g3t1_3,,fail
Status,1346,17987665109,/g3t1_1,,running
Status,1347,17987690478,/g3t1_1,,fail
Status,1348,17990649943,/g3t1_2,,running
Status,1349,17990675501,/g3t1_2,,fail
Status,1350,17991015138,/g3t1_3,,running
Status,1351,17991042759,/g3t1_3,,fail
Status,1352,18019373939,/g4t1,,success
Status,1353,18038298657,/g3t1_1,,running
Status,1354,18038357382,/g3t1_1,,fail
Status,1355,18041354338,/g3t1_2,,running
Status,1356,18041428844,/g3t1_2,,fail
Status,1357,18041483625,/g3t1_3,,running
Status,1358,18041598163,/g3t1_3,,fail
Status,1359,18088389501,/g3t1_1,,running
Status,1360,18088449009,/g3t1_1,,fail
Status,1361,18091314745,/g3t1_2,,running
Status,1362,18091590758,/g3t1_2,,fail
Status,1363,18091641769,/g3t1_3,,running
Status,1364,18091888840,/g3t1_3,,fail
Status,1368,18119236194,/g4t1,,success
Status,1369,18138863848,/g3t1_1,,running
Status,1370,18139057143,/g3t1_1,,fail
Status,1371,18141253312,/g3t1_2,,running
Status,1372,18142200833,/g3t1_3,,running
Status,1373,18142294613,/g3t1_2,,success
Status,1374,18142380325,/g3t1_3,,fail
Status,1375,18188543098,/g3t1_1,,running
Status,1376,18188587174,/g3t1_1,,fail
Status,1377,18191024069,/g3t1_2,,running
Status,1378,18191242960,/g3t1_2,,success
Status,1379,18191273548,/g3t1_3,,running
Status,1380,18191503677,/g3t1_3,,fail
Status,1381,18219711503,/g4t1,,success
Status,1382,18238540522,/g3t1_1,,running
Status,1383,18238598880,/g3t1_1,,fail
Status,1384,18241581753,/g3t1_2,,running
Status,1385,18241684157,/g3t1_2,,success
Status,1386,18241736603,/g3t1_3,,running
Status,1387,18242106265,/g3t1_3,,fail
Status,1388,18288616249,/g3t1_1,,running
Status,1389,18288941326,/g3t1_1,,success
Status,1390,18291688076,/g3t1_2,,running
Status,1391,18292060951,/g3t1_3,,running
Status,1392,18292107384,/g3t1_2,,success
Status,1393,18292179281,/g3t1_3,,fail
Status,1397,18320260742,/g4t1,,success
Status,1398,18339217124,/g3t1_1,,running
Status,1399,18339611242,/g3t1_1,,fail
Status,1400,18342726077,/g3t1_2,,running
Status,1401,18342800392,/g3t1_2,,fail
Status,1402,18342898810,/g3t1_3,,running
Status,1403,18342936019,/g3t1_3,,fail
Status,1404,18389323965,/g3t1_1,,running
Status,1405,18390230317,/g3t1_1,,success
Status,1406,18392069503,/g3t1_2,,running
Status,1407,18392232071,/g3t1_2,,fail
Status,1408,18392298594,/g3t1_3,,running
Status,1409,18392344557,/g3t1_3,,fail
Status,1410,18420168624,/g4t1,,success
Status,1411,18439261301,/g3t1_1,,running
Status,1412,18439870611,/g3t1_1,,fail
Status,1413,18442301308,/g3t1_2,,running
Status,1414,18442378104,/g3t1_2,,fail
Status,1415,18442475744,/g3t1_3,,running
Status,1416,18442912228,/g3t1_3,,fail
Status,1417,18489595641,/g3t1_1,,running
Status,1418,18489665538,/g3t1_1,,success
Status,1419,18492384287,/g3t1_2,,running
Status,1420,18492451102,/g3t1_2,,fail
Status,1421,18492629246,/g3t1_3,,running
Status,1422,18492913270,/g3t1_3,,fail
Status,1426,18520275779,/g4t1,,success
Status,1427,18539696103,/g3t1_1,,running
Status,1428,18539770268,/g3t1_1,,fail
Status,1429,18542540757,/g3t1_2,,running
Status,1430,18542759678,/g3t1_3,,running
Status,1431,18543193705,/g3t1_3,,fail
Status,1432,18543316181,/g3t1_2,,success
Status,1433,18589704346,/g3t1_1,,running
Status,1434,18589880356,/g3t1_1,,fail
Status,1435,18592716906,/g3t1_2,,running
Status,1436,18592767606,/g3t1_3,,running
Status,1437,18592879259,/g3t1_2,,success
Status,1438,18593193298,/g3t1_3,,fail
Status,1439,18620526605,/g4t1,,success
Status,1440,18639762617,/g3t1_1,,running
Status,1441,18639852661,/g3t1_1,,fail
Status,1442,18642820204,/g3t1_2,,running
Status,1443,18642916439,/g3t1_3,,running
Status,1444,18643334451,/g3t1_2,,success
Status,1445,18643528005,/g3t1_3,,fail
Status,1446,18689854974,/g3t1_1,,running
Status,1447,18690129415,/g3t1_1,,fail
Status,1448,18692911528,/g3t1_2,,running
Status,1449,18692990847,/g3t1_3,,running
Status,1450,18693425308,/g3t1_3,,fail
Status,1451,18693539525,/g3t1_2,,success
Status,1455,18720619027,/g4t1,,success
Status,1456,18740112834,/g3t1_1,,running
Status,1457,18740483877,/g3t1_1,,success
Status,1458,18743044023,/g3t1_2,,running
Status,1459,18743258002,/g3t1_3,,running
Status,1460,18743335851,/g3t1_2,,fail
Status,1461,18743423203,/g3t1_3,,fail
Status,1462,18790348215,/g3t1_1,,running
Status,1463,18790864163,/g3t1_1,,success
Status,1464,18793078526,/g3t1_2,,running
Status,1465,18793162087,/g3t1_3,,running
Status,1466,18793200824,/g3t1_2,,fail
Status,1467,18793578102,/g3t1_3,,fail
Status,1468,18820666599,/g4t1,,success
Status,1469,18840228494,/g3t1_1,,running
Status,1470,18840599536,/g3t1_1,,success
Status,1471,18843340887,/g3t1_2,,running
Status,1472,18843430678,/g3t1_3,,running
Status,1473,18843615587,/g3t1_2,,fail
Status,1474,18843660783,/g3t1_3,,fail
Status,1475,18890385727,/g3t1_1,,running
Status,1476,18890790195,/g3t1_1,,success
Status,1477,18893655098,/g3t1_2,,running
Status,1478,18893723306,/g3t1_3,,running
Status,1479,18893849256,/g3t1_3,,fail
Status,1480,18893961744,/g3t1_2,,fail
Status,1484,18920752822,/g4t1,,success
Status,1485,18940367265,/g3t1_1,,running
Status,1486,18940768812,/g3t1_1,,success
Status,1487,18943237781,/g3t1_2,,running
Status,1488,18943792013,/g3t1_2,,success
Status,1489,18943837758,/g3t1_3,,running
Status,1490,18943908065,/g3t1_3,,fail
Status,1491,18990625490,/g3t1_1,,running
Status,1492,18990704232,/g3t1_1,,fail
Status,1493,18993323107,/g3t1_2,,running
Status,1494,18993557446,/g3t1_3,,running
Status,1495,18993975234,/g3t1_2,,success
Status,1496,18994075417,/g3t1_3,,fail
Status,1497,19021359306,/g4t1,,success
Status,1498,19040645932,/g3t1_1,,running
Status,1499,19041106905,/g3t1_1,,fail
Status,1500,19043347894,/g3t1_2,,running
Status,1501,19043732640,/g3t1_2,,fail
Status,1502,19044292741,/g3t1_3,,running
Status,1503,19044434178,/g3t1_3,,fail
Status,1504,19090180456,/g3t1_1,,running
Status,1505,19090296646,/g3t1_1,,fail
Status,1506,19092918015,/g3t1_2,,running
Status,1507,19093147151,/g3t1_2,,fail
Status,1508,19093185788,/g3t1_3,,running
Status,1509,19093228329,/g3t1_3,,fail
Status,1513,19120895122,/g4t1,,success
Status,1514,19140360391,/g3t1_1,,running
Status,1515,19140396529,/g3t1_1,,fail
Status,1516,19143122764,/g3t1_2,,running
Status,1517,19143160643,/g3t1_2,,fail
Status,1518,19143407985,/g3t1_3,,running
Status,1519,19143447304,/g3t1_3,,fail
Status,1520,19190947500,/g3t1_1,,running
Status,1521,19191174799,/g3t1_1,,fail
Status,1522,19193764859,/g3t1_2,,running
Status,1523,19193913291,/g3t1_3,,running
Status,1524,19194300677,/g3t1_2,,fail
Status,1525,19194372197,/g3t1_3,,fail
Status,1526,19220804753,/g4t1,,success
Status,1527,19240497772,/g3t1_1,,running
Status,1528,19240602537,/g3t1_1,,fail
Status,1529,19243206781,/g3t1_2,,running
Status,1530,19243401076,/g3t1_2,,fail
Status,1531,19243428216,/g3t1_3,,running
Status,1532,19243545413,/g3t1_3,,fail
Status,1533,19290487940,/g3t1_1,,running
Status,1534,19290525725,/g3t1_1,,fail
Status,1535,19293701904,/g3t1_2,,running
Status,1536,19293742558,/g3t1_3,,running
Status,1537,19293771762,/g3t1_3,,fail
Status,1538,19293841656,/g3t1_2,,fail
Status,1539,19320588743,/g4t1,,success
Status,1540,19340601166,/g3t1_1,,running
Status,1541,19340793095,/g3t1_1,,fail
Status,1542,19343942713,/g3t1_2,,running
Status,1543,19343971422,/g3t1_3,,running
Status,1544,19343984062,/g3t1_3,,fail
Status,1545,19344190117,/g3t1_2,,fail
Status,1546,19390830518,/g3t1_1,,running
Status,1547,19390875616,/g3t1_1,,fail
Status,1548,19393597214,/g3t1_2,,running
Status,1549,19393865170,/g3t1_2,,fail
Status,1550,19393883512,/g3t1_3,,running
Status,1551,19393908649,/g3t1_3,,fail
Status,1552,19420842279,/g4t1,,success
Status,1553,19441285480,/g3t1_1,,running
Status,1554,19441560093,/g3t1_1,,fail
Status,1555,19443798691,/g3t1_2,,running
Status,1556,19443825402,/g3t1_3,,running
Status,1557,19443835619,/g3t1_2,,fail
Status,1558,19443844474,/g3t1_3,,fail
Status,1559,19490759604,/g3t1_1,,running
Status,1560,19490786159,/g3t1_1,,success
Status,1561,19493673499,/g3t1_2,,running
Status,1562,19493722113,/g3t1_3,,running
Status,1563,19493739224,/g3t1_2,,fail
Status,1564,19493871845,/g3t1_3,,fail
Status,1565,19520827902,/g4t1,,success
Status,1566,19541155289,/g3t1_1,,running
Status,1567,19541206914,/g3t1_1,,fail
Status,1568,19543766587,/g3t1_2,,running
Status,1569,19543797472,/g3t1_3,,running
Status,1570,19543934143,/g3t1_2,,fail
Status,1571,19543989955,/g3t1_3,,fail
Status,1572,19591333361,/g3t1_1,,running
Status,1573,19591374122,/g3t1_1,,fail
Status,1574,19593967191,/g3t1_2,,running
Status,1575,19593994646,/g3t1_3,,running
Status,1576,19594025046,/g3t1_2,,fail
Status,1577,19594038912,/g3t1_3,,fail
Status,1578,19620921485,/g4t1,,success
Status,1579,19641204290,/g3t1_1,,running
Status,1580,19641237930,/g3t1_1,,fail
Status,1581,19643953005,/g3t1_2,,running
Status,1582,19643984874,/g3t1_3,,running
Status,1583,19644002796,/g3t1_2,,fail
Status,1584,19644184374,/g3t1_3,,fail
Status,1585,19691566974,/g3t1_1,,running
Status,1586,19691629866,/g3t1_1,,fail
Status,1587,19694367350,/g3t1_2,,running
Status,1588,19694410638,/g3t1_3,,running
Status,1589,19694492293,/g3t1_3,,fail
Status,1590,19694515025,/g3t1_2,,fail
Status,1591,19720870143,/g4t1,,success
Status,1592,19741245181,/g3t1_1,,running
Status,1593,19741283482,/g3t1_1,,fail
Status,1594,19744143090,/g3t1_2,,running
Status,1595,19744170758,/g3t1_3,,running
Status,1596,19744265570,/g3t1_3,,fail
Status,1597,19744277976,/g3t1_2,,fail
Status,1598,19791539117,/g3t1_1,,running
Status,1599,19791601787,/g3t1_1,,fail
Status,1600,19794942759,/g3t1_2,,running
Status,1601,19794989853,/g3t1_3,,running
Status,1602,19795003785,/g3t1_3,,fail
Status,1603,19795017609,/g3t1_2,,fail
Status,1604,19821558588,/g4t1,,success
Status,1605,19841894484,/g3t1_1,,running
Status,1606,19841967219,/g3t1_1,,fail
Status,1607,19845026706,/g3t1_3,,running
Status,1608,19845116936,/g3t1_2,,running
Status,1609,19845415188,/g3t1_3,,fail
Status,1610,19845450680,/g3t1_2,,fail
Status,1611,19892014936,/g3t1_1,,running
Status,1612,19892061799,/g3t1_1,,fail
Status,1613,19895106354,/g3t1_2,,running
Status,1614,19895148824,/g3t1_3,,running
Status,1615,19895165030,/g3t1_3,,fail
Status,1616,19895181226,/g3t1_2,,fail
Status,1617,19921228904,/g4t1,,success
Status,1618,19942210363,/g3t1_1,,running
Status,1619,19942247899,/g3t1_1,,fail
Status,1620,19945127951,/g3t1_2,,running
Status,1621,19945160920,/g3t1_3,,running
Status,1622,19945203240,/g3t1_3,,fail
Status,1623,19945215066,/g3t1_2,,fail
Status,1624,19991689357,/g3t1_1,,running
Status,1625,19991817009,/g3t1_1,,fail
Status,1626,19994764443,/g3t1_2,,running
Status,1627,19994793658,/g3t1_3,,running
Status,1628,19994952151,/g3t1_3,,fail
Status,1629,19994984457,/g3t1_2,,fail
Status,1630,20021379279,/g4t1,,success
Status,1631,20041896530,/g3t1_1,,running
Status,1632,20041963229,/g3t1_1,,fail
Status,1633,20045230844,/g3t1_2,,running
Status,1634,20045351278,/g3t1_3,,running
Status,1635,20045471399,/g3t1_2,,fail
Status,1636,20045545401,/g3t1_3,,fail
Status,1637,20092226157,/g3t1_1,,running
Status,1638,20092484874,/g3t1_1,,fail
Status,1639,20095668375,/g3t1_2,,running
Status,1640,20095831558,/g3t1_3,,running
Status,1641,20095920731,/g3t1_2,,fail
Status,1642,20096133501,/g3t1_3,,fail
Status,1646,20122087085,/g4t1,,success
Status,1647,20142435385,/g3t1_1,,running
Status,1648,20142546789,/g3t1_1,,fail
Status,1649,20146262025,/g3t1_2,,running
Status,1650,20146391286,/g3t1_3,,running
Status,1651,20146434499,/g3t1_2,,fail
Status,1652,20146515692,/g3t1_3,,fail
Status,1653,20192308203,/g3t1_1,,running
Status,1654,20192383252,/g3t1_1,,fail
Status,1655,20195487327,/g3t1_2,,running
Status,1656,20195532638,/g3t1_3,,running
Status,1657,20195601709,/g3t1_2,,fail
Status,1658,20195623763,/g3t1_3,,fail
Status,1659,20222441832,/g4t1,,success
Status,1660,20242965094,/g3t1_1,,running
Status,1661,20243037652,/g3t1_1,,fail
Status,1662,20245560266,/g3t1_2,,running
Status,1663,20245616457,/g3t1_3,,running
Status,1664,20245642361,/g3t1_2,,fail
Status,1665,20245752146,/g3t1_3,,fail
Status,1666,20292672963,/g3t1_1,,running
Status,1667,20292731262,/g3t1_1,,fail
Status,1668,20295676546,/g3t1_2,,running
Status,1669,20295732030,/g3t1_3,,running
Status,1670,20295757129,/g3t1_2,,fail
Status,1671,20296077927,/g3t1_3,,fail
Status,1675,20322455480,/g4t1,,success
Status,1676,20343659332,/g3t1_1,,running
Status,1677,20343883438,/g3t1_1,,fail
Status,1678,20348013458,/g3t1_2,,running
Status,1679,20348081465,/g3t1_2,,success
Status,1680,20348582191,/g3t1_3,,running
Status,1681,20348728930,/g3t1_3,,fail
Status,1682,20392597871,/g3t1_1,,running
Status,1683,20392722822,/g3t1_1,,fail
Status,1684,20395856315,/g3t1_3,,running
Status,1685,20395921073,/g3t1_2,,running
Status,1686,20395942117,/g3t1_2,,fail
Status,1687,20396094167,/g3t1_3,,fail
Status,1688,20421975925,/g4t1,,success
Status,1689,20442831251,/g3t1_1,,running
