
Status,2,3393550385,/g4t1,,init
Status,3,8813225411,/g3t1_1,,init
Status,5,8823283233,/g3t1_1,,init
Status,6,8823314910,/g3t1_1,,running
Status,7,8823989624,/g3t1_1,,success
Status,8,8873318367,/g3t1_1,,running
Status,9,8873471698,/g3t1_1,,success
Status,10,8923604383,/g3t1_1,,running
Status,11,8923632733,/g3t1_1,,success
Status,12,8973594001,/g3t1_1,,running
Status,13,8973612221,/g3t1_1,,success
Status,15,8995387854,/g3t1_2,,init
Status,16,9002548076,/g3t1_2,,init
Status,17,9002571282,/g3t1_2,,running
Status,18,9003548398,/g3t1_2,,success
Status,19,9023676624,/g3t1_1,,running
Status,20,9023706366,/g3t1_1,,success
Status,21,9052776547,/g3t1_2,,running
Status,22,9052796693,/g3t1_2,,success
Status,23,9073879524,/g3t1_1,,running
Status,24,9073901248,/g3t1_1,,success
Status,26,9095971674,/g3t1_3,,init
Status,27,9102742112,/g3t1_2,,running
Status,28,9102773828,/g3t1_2,,success
Status,29,9105959639,/g3t1_3,,init
Status,30,9105996577,/g3t1_3,,running
Status,31,9107104364,/g3t1_3,,success
Status,32,9123980993,/g3t1_1,,running
Status,33,9124003629,/g3t1_1,,success
Status,34,9153012913,/g3t1_2,,running
Status,35,9153037491,/g3t1_2,,success
Status,36,9156033530,/g3t1_3,,running
Status,37,9156198521,/g3t1_3,,success
Status,38,9174186950,/g3t1_1,,running
Status,39,9174313091,/g3t1_1,,success
Status,40,9203390039,/g3t1_2,,running
Status,41,9203925745,/g3t1_2,,success
Status,42,9206597313,/g3t1_3,,running
Status,43,9207138348,/g3t1_3,,success
Status,44,9208868708,/g4t1,,success
Status,45,9224313653,/g3t1_1,,running
Status,46,9224517029,/g3t1_1,,success
Status,47,9253459424,/g3t1_2,,running
Status,48,9253697483,/g3t1_2,,success
Status,49,9256358581,/g3t1_3,,running
Status,50,9256872794,/g3t1_3,,success
Status,51,9274888856,/g3t1_1,,running
Status,52,9275349040,/g3t1_1,,success
Status,53,9303860223,/g3t1_2,,running
Status,54,9304208284,/g3t1_2,,success
Status,55,9306390946,/g3t1_3,,running
Status,56,9306687135,/g3t1_3,,success
Status,57,9308798026,/g4t1,,success
Status,58,9324827192,/g3t1_1,,running
Status,59,9325037895,/g3t1_1,,success
Status,60,9353716681,/g3t1_2,,running
Status,61,9353951314,/g3t1_2,,success
Status,62,9356537699,/g3t1_3,,running
Status,63,9356820751,/g3t1_3,,success
Status,64,9374882266,/g3t1_1,,running
Status,65,9374996057,/g3t1_1,,success
Status,66,9404196240,/g3t1_2,,running
Status,67,9404486450,/g3t1_2,,success
Status,68,9407670119,/g3t1_3,,running
Status,69,9407752485,/g3t1_3,,success
Status,70,9409523131,/g4t1,,success
Status,71,9425069721,/g3t1_1,,running
Status,72,9425717281,/g3t1_1,,success
Status,73,9454345169,/g3t1_2,,running
Status,74,9454412778,/g3t1_2,,success
Status,75,9457105735,/g3t1_3,,running
Status,76,9457493598,/g3t1_3,,success
Status,77,9475420443,/g3t1_1,,running
Status,78,9475721719,/g3t1_1,,success
Status,79,9504289703,/g3t1_2,,running
Status,80,9504518632,/g3t1_2,,success
Status,81,9506945077,/g3t1_3,,running
Status,82,9506990805,/g3t1_3,,success
Status,83,9509151362,/g4t1,,fail
Status,84,9524991036,/g3t1_1,,running
Status,85,9525026004,/g3t1_1,,success
Status,86,9554085166,/g3t1_2,,running
Status,87,9554251249,/g3t1_2,,success
Status,88,9556848194,/g3t1_3,,running
Status,89,9556878538,/g3t1_3,,success
Status,90,9575251959,/g3t1_1,,running
Status,91,9575299694,/g3t1_1,,success
Status,92,9604180311,/g3t1_2,,running
Status,93,9604207019,/g3t1_2,,success
Status,94,9606869234,/g3t1_3,,running
Status,95,9606893726,/g3t1_3,,success
Status,96,9608975989,/g4t1,,fail
Status,97,9625167570,/g3t1_1,,running
Status,98,9625192082,/g3t1_1,,success
Status,99,9654329852,/g3t1_2,,running
Status,100,9654354603,/g3t1_2,,success
Status,101,9656949814,/g3t1_3,,running
Status,102,9656979444,/g3t1_3,,success
Status,103,9675201481,/g3t1_1,,running
Status,104,9675226803,/g3t1_1,,success
Status,105,9704316766,/g3t1_2,,running
Status,106,9704341051,/g3t1_2,,success
Status,107,9706892511,/g3t1_3,,running
Status,108,9707178652,/g3t1_3,,success
Status,109,9708936064,/g4t1,,fail
Status,110,9725177221,/g3t1_1,,running
Status,111,9725207685,/g3t1_1,,success
Status,112,9754824318,/g3t1_2,,running
Status,113,9754869440,/g3t1_2,,success
Status,114,9757132854,/g3t1_3,,running
Status,115,9757270907,/g3t1_3,,success
Status,116,9775342795,/g3t1_1,,running
Status,117,9775494620,/g3t1_1,,success
Status,118,9804443481,/g3t1_2,,running
Status,119,9804568688,/g3t1_2,,success
Status,120,9807454805,/g3t1_3,,running
Status,121,9807490074,/g3t1_3,,success
Status,122,9808919287,/g4t1,,fail
Status,123,9825722629,/g3t1_1,,running
Status,124,9825754833,/g3t1_1,,success
Status,125,9854661319,/g3t1_2,,running
Status,126,9854844071,/g3t1_2,,success
Status,127,9857242756,/g3t1_3,,running
Status,128,9857381740,/g3t1_3,,success
Status,129,9875596146,/g3t1_1,,running
Status,130,9875621704,/g3t1_1,,success
Status,131,9904644914,/g3t1_2,,running
Status,132,9904673471,/g3t1_2,,success
Status,133,9907474484,/g3t1_3,,running
Status,134,9907545808,/g3t1_3,,success
Status,135,9909135529,/g4t1,,fail
Status,136,9925650998,/g3t1_1,,running
Status,137,9925695328,/g3t1_1,,success
Status,138,9955494070,/g3t1_2,,running
Status,139,9956207419,/g3t1_2,,success
Status,140,9957716320,/g3t1_3,,running
Status,141,9957828300,/g3t1_3,,success
Status,142,9975572951,/g3t1_1,,running
Status,143,9975693983,/g3t1_1,,success
Status,144,10005442050,/g3t1_2,,running
Status,145,10006303672,/g3t1_2,,success
Status,146,10007455666,/g3t1_3,,running
Status,147,10007539697,/g3t1_3,,success
Status,148,10009244904,/g4t1,,fail
Status,149,10025684947,/g3t1_1,,running
Status,150,10025828420,/g3t1_1,,success
Status,151,10055059054,/g3t1_2,,running
Status,152,10055088162,/g3t1_2,,success
Status,153,10057562656,/g3t1_3,,running
Status,154,10057628576,/g3t1_3,,success
Status,155,10075790968,/g3t1_1,,running
Status,156,10075885512,/g3t1_1,,success
Status,157,10105506244,/g3t1_2,,running
Status,158,10105546331,/g3t1_2,,success
Status,159,10107872983,/g3t1_3,,running
Status,160,10107902889,/g3t1_3,,success
Status,161,10109171917,/g4t1,,fail
Status,162,10125874567,/g3t1_1,,running
Status,163,10125979474,/g3t1_1,,success
Status,164,10155299782,/g3t1_2,,running
Status,165,10155323923,/g3t1_2,,success
Status,166,10158007581,/g3t1_3,,running
Status,167,10158032994,/g3t1_3,,success
Status,168,10176054893,/g3t1_1,,running
Status,169,10176086243,/g3t1_1,,success
Status,170,10205395222,/g3t1_2,,running
Status,171,10205580440,/g3t1_2,,success
Status,172,10207817471,/g3t1_3,,running
Status,173,10207864232,/g3t1_3,,success
Status,174,10209390558,/g4t1,,fail
Status,175,10226138196,/g3t1_1,,running
Status,176,10226207231,/g3t1_1,,success
Status,177,10255555998,/g3t1_2,,running
Status,178,10255582213,/g3t1_2,,success
Status,179,10258815249,/g3t1_3,,running
Status,180,10258878451,/g3t1_3,,success
Status,181,10276583883,/g3t1_1,,running
Status,182,10276959153,/g3t1_1,,success
Status,183,10306325889,/g3t1_2,,running
Status,184,10306396087,/g3t1_2,,success
Status,185,10308781288,/g3t1_3,,running
Status,186,10309301430,/g3t1_3,,success
Status,187,10310350270,/g4t1,,fail
Status,188,10326775277,/g3t1_1,,running
Status,189,10326956969,/g3t1_1,,success
Status,190,10356443067,/g3t1_2,,running
Status,191,10356880972,/g3t1_2,,success
Status,192,10358309583,/g3t1_3,,running
Status,193,10358399038,/g3t1_3,,success
Status,194,10376353215,/g3t1_1,,running
Status,195,10376389229,/g3t1_1,,success
Status,196,10405778822,/g3t1_2,,running
Status,197,10405903990,/g3t1_2,,success
Status,198,10408230072,/g3t1_3,,running
Status,199,10408254745,/g3t1_3,,success
Status,200,10409460227,/g4t1,,fail
Status,201,10426464423,/g3t1_1,,running
Status,202,10426486784,/g3t1_1,,success
Status,203,10456870589,/g3t1_2,,running
Status,204,10456952708,/g3t1_2,,success
Status,205,10458816104,/g3t1_3,,running
Status,206,10459210115,/g3t1_3,,success
Status,207,10477090791,/g3t1_1,,running
Status,208,10477149418,/g3t1_1,,success
Status,209,10506488707,/g3t1_2,,running
Status,210,10506910663,/g3t1_2,,success
Status,211,10508684756,/g3t1_3,,running
Status,212,10509096944,/g3t1_3,,success
Status,213,10510006609,/g4t1,,fail
Status,214,10527088980,/g3t1_1,,running
Status,215,10527395665,/g3t1_1,,success
Status,216,10556685995,/g3t1_2,,running
Status,217,10556971836,/g3t1_2,,success
Status,218,10558764329,/g3t1_3,,running
Status,219,10559319921,/g3t1_3,,success
Status,220,10577248710,/g3t1_1,,running
Status,221,10577647100,/g3t1_1,,success
Status,222,10607382600,/g3t1_2,,running
Status,223,10607428377,/g3t1_2,,success
Status,224,10609000799,/g3t1_3,,running
Status,225,10609040580,/g3t1_3,,success
Status,226,10609878000,/g4t1,,fail
Status,227,10627186797,/g3t1_1,,running
Status,228,10627385937,/g3t1_1,,success
Status,229,10656854399,/g3t1_2,,running
Status,230,10657171230,/g3t1_2,,success
Status,231,10658827449,/g3t1_3,,running
Status,232,10659003723,/g3t1_3,,success
Status,233,10677218797,/g3t1_1,,running
Status,234,10677274299,/g3t1_1,,success
Status,235,10706481254,/g3t1_2,,running
Status,236,10706516232,/g3t1_2,,success
Status,237,10708673943,/g3t1_3,,running
Status,238,10708863526,/g3t1_3,,success
Status,239,10709578464,/g4t1,,fail
Status,240,10727111919,/g3t1_1,,running
Status,241,10727183292,/g3t1_1,,success
Status,242,10756558488,/g3t1_2,,running
Status,243,10756671202,/g3t1_2,,success
Status,244,10758792840,/g3t1_3,,running
Status,245,10758948600,/g3t1_3,,success
Status,246,10777299957,/g3t1_1,,running
Status,247,10777341211,/g3t1_1,,success
Status,248,10807160352,/g3t1_2,,running
Status,249,10807290835,/g3t1_2,,success
Status,250,10808976516,/g3t1_3,,running
Status,251,10809082943,/g3t1_3,,success
Status,252,10809696378,/g4t1,,fail
Status,253,10827417972,/g3t1_1,,running
Status,254,10827713503,/g3t1_1,,success
Status,255,10857392658,/g3t1_2,,running
Status,256,10857462955,/g3t1_2,,success
Status,257,10859599890,/g3t1_3,,running
Status,258,10859970397,/g3t1_3,,success
Status,259,10877726438,/g3t1_1,,running
Status,260,10878034704,/g3t1_1,,success
Status,261,10908149635,/g3t1_2,,running
Status,262,10908213019,/g3t1_2,,success
Status,263,10909757501,/g3t1_3,,running
Status,264,10910485521,/g3t1_3,,success
Status,265,10910548035,/g4t1,,fail
Status,266,10928079589,/g3t1_1,,running
Status,267,10928843943,/g3t1_1,,success
Status,268,10957138665,/g3t1_2,,running
Status,269,10957214270,/g3t1_2,,success
Status,270,10959609830,/g3t1_3,,running
Status,271,10959636636,/g3t1_3,,success
Status,272,10977649485,/g3t1_1,,running
Status,273,10977819381,/g3t1_1,,success
Status,274,11007260023,/g3t1_2,,running
Status,275,11007284285,/g3t1_2,,success
Status,276,11009202443,/g3t1_3,,running
Status,277,11009304099,/g3t1_3,,success
Status,278,11009858322,/g4t1,,fail
Status,279,11027675338,/g3t1_1,,running
Status,280,11027796731,/g3t1_1,,success
Status,281,11057382816,/g3t1_2,,running
Status,282,11057503654,/g3t1_2,,success
Status,283,11059351369,/g3t1_3,,running
Status,284,11059554596,/g3t1_3,,success
Status,285,11078140119,/g3t1_1,,running
Status,286,11078460583,/g3t1_1,,success
Status,287,11107771560,/g3t1_2,,running
Status,288,11107955379,/g3t1_2,,success
Status,289,11109666843,/g3t1_3,,running
Status,290,11110222055,/g3t1_3,,success
Status,291,11110660990,/g4t1,,fail
Status,292,11128489925,/g3t1_1,,running
Status,293,11128550424,/g3t1_1,,success
Status,294,11158201376,/g3t1_2,,running
Status,295,11158261003,/g3t1_2,,success
Status,296,11159880190,/g3t1_3,,running
Status,297,11160186489,/g3t1_3,,success
Status,298,11178497680,/g3t1_1,,running
Status,299,11178847433,/g3t1_1,,success
Status,300,11208077267,/g3t1_2,,running
Status,301,11208337233,/g3t1_2,,success
Status,302,11210076216,/g3t1_3,,running
Status,303,11210888667,/g3t1_3,,success
Status,304,11210943517,/g4t1,,fail
Status,305,11228813283,/g3t1_1,,running
Status,306,11228878465,/g3t1_1,,success
Status,307,11257866245,/g3t1_2,,running
Status,308,11257957955,/g3t1_2,,success
Status,309,11259713078,/g3t1_3,,running
Status,310,11259820304,/g3t1_3,,success
Status,311,11278530736,/g3t1_1,,running
Status,312,11278751199,/g3t1_1,,success
Status,313,11308125807,/g3t1_2,,running
Status,314,11308329876,/g3t1_2,,success
Status,315,11309996123,/g3t1_3,,running
Status,316,11310413730,/g3t1_3,,success
Status,317,11310452281,/g4t1,,fail
Status,318,11328593865,/g3t1_1,,running
Status,319,11328632719,/g3t1_1,,success
Status,320,11358640066,/g3t1_2,,running
Status,321,11358706316,/g3t1_2,,success
Status,322,11360239842,/g3t1_3,,running
Status,323,11361055345,/g3t1_3,,success
Status,324,11379189152,/g3t1_1,,running
Status,325,11379644384,/g3t1_1,,success
Status,326,11408905281,/g3t1_2,,running
Status,327,11409318520,/g3t1_2,,success
Status,328,11410637322,/g3t1_3,,running
Status,329,11411508965,/g4t1,,fail
Status,330,11411738617,/g3t1_3,,success
Status,331,11428754664,/g3t1_1,,running
Status,332,11428919726,/g3t1_1,,success
Status,333,11458350266,/g3t1_2,,running
Status,334,11458375463,/g3t1_2,,success
Status,335,11460031744,/g3t1_3,,running
Status,336,11460171573,/g3t1_3,,success
Status,337,11478827053,/g3t1_1,,running
Status,338,11478890649,/g3t1_1,,success
Status,339,11508944182,/g3t1_2,,running
Status,340,11509386352,/g3t1_2,,success
Status,341,11510582556,/g3t1_3,,running
Status,342,11511010782,/g3t1_3,,success
Status,343,11511691922,/g4t1,,fail
Status,344,11529548869,/g3t1_1,,running
Status,345,11530416601,/g3t1_1,,success
Status,346,11559526660,/g3t1_2,,running
Status,347,11559596010,/g3t1_2,,success
Status,348,11560706015,/g3t1_3,,running
Status,349,11561079603,/g3t1_3,,success
Status,350,11579749531,/g3t1_1,,running
Status,351,11579960641,/g3t1_1,,success
Status,352,11609355017,/g3t1_2,,running
Status,353,11609856084,/g3t1_2,,success
Status,354,11611520116,/g3t1_3,,running
Status,355,11611658610,/g3t1_3,,success
Status,356,11611706096,/g4t1,,fail
Status,357,11629966589,/g3t1_1,,running
Status,358,11630174398,/g3t1_1,,success
Status,359,11659446959,/g3t1_2,,running
Status,360,11659882608,/g3t1_2,,success
Status,361,11661069761,/g3t1_3,,running
Status,362,11661572520,/g3t1_3,,success
Status,363,11680051490,/g3t1_1,,running
Status,364,11680337744,/g3t1_1,,success
Status,365,11709535308,/g3t1_2,,running
Status,366,11710596588,/g3t1_2,,success
Status,367,11712189324,/g3t1_3,,running
Status,368,11712331598,/g4t1,,fail
Status,369,11712434026,/g3t1_3,,success
Status,370,11729775699,/g3t1_1,,running
Status,371,11730210616,/g3t1_1,,success
Status,372,11759001472,/g3t1_2,,running
Status,373,11759064824,/g3t1_2,,success
Status,374,11760661150,/g3t1_3,,running
Status,375,11760750031,/g3t1_3,,success
Status,376,11780466620,/g3t1_1,,running
Status,377,11780528006,/g3t1_1,,success
Status,378,11809716272,/g3t1_2,,running
Status,379,11810155204,/g3t1_2,,success
Status,380,11811989251,/g3t1_3,,running
Status,381,11812055348,/g3t1_3,,success
Status,382,11812080804,/g4t1,,fail
Status,383,11830167706,/g3t1_1,,running
Status,384,11830216222,/g3t1_1,,success
Status,385,11859299450,/g3t1_2,,running
Status,386,11859428291,/g3t1_2,,success
Status,387,11860798961,/g3t1_3,,running
Status,388,11860888858,/g3t1_3,,success
Status,389,11879890665,/g3t1_1,,running
Status,390,11879916628,/g3t1_1,,success
Status,391,11909509341,/g3t1_2,,running
Status,392,11909535849,/g3t1_2,,success
Status,393,11910891590,/g3t1_3,,running
Status,394,11911123027,/g3t1_3,,success
Status,395,11911294221,/g4t1,,fail
Status,396,11930014304,/g3t1_1,,running
Status,397,11930042435,/g3t1_1,,success
Status,398,11959609615,/g3t1_2,,running
Status,399,11959728250,/g3t1_2,,success
Status,400,11961126446,/g3t1_3,,running
Status,401,11961316886,/g3t1_3,,success
Status,402,11979976355,/g3t1_1,,running
Status,403,11980012883,/g3t1_1,,success
Status,404,12009782433,/g3t1_2,,running
Status,405,12009831068,/g3t1_2,,success
Status,406,12011116199,/g3t1_3,,running
Status,407,12011317974,/g3t1_3,,success
Status,408,12011418670,/g4t1,,fail
Status,409,12030145296,/g3t1_1,,running
Status,410,12030180780,/g3t1_1,,success
Status,411,12059728471,/g3t1_2,,running
Status,412,12059879694,/g3t1_2,,success
Status,413,12061280801,/g3t1_3,,running
Status,414,12061409830,/g3t1_3,,success
Status,415,12080093400,/g3t1_1,,running
Status,416,12080333394,/g3t1_1,,success
Status,417,12109821422,/g3t1_2,,running
Status,418,12109846873,/g3t1_2,,success
Status,419,12111508337,/g3t1_3,,running
Status,420,12111545502,/g3t1_3,,success
Status,421,12111558659,/g4t1,,fail
Status,422,12130272711,/g3t1_1,,running
Status,423,12130330980,/g3t1_1,,success
Status,424,12159941892,/g3t1_2,,running
Status,425,12159965737,/g3t1_2,,success
Status,426,12161350606,/g3t1_3,,running
Status,427,12161456001,/g3t1_3,,success
Status,428,12180202568,/g3t1_1,,running
Status,429,12180296037,/g3t1_1,,success
Status,430,12209929502,/g3t1_2,,running
Status,431,12210213477,/g3t1_2,,success
Status,432,12211394764,/g3t1_3,,running
Status,433,12211420694,/g4t1,,fail
Status,434,12211577396,/g3t1_3,,success
Status,435,12230361130,/g3t1_1,,running
Status,436,12230458319,/g3t1_1,,success
Status,437,12260181081,/g3t1_2,,running
Status,438,12260214442,/g3t1_2,,success
Status,439,12261576458,/g3t1_3,,running
Status,440,12261625010,/g3t1_3,,success
Status,441,12280433912,/g3t1_1,,running
Status,442,12280686010,/g3t1_1,,success
Status,443,12310368007,/g3t1_2,,running
Status,444,12310399688,/g3t1_2,,success
Status,445,12311520623,/g4t1,,fail
Status,446,12311687643,/g3t1_3,,running
Status,447,12311874852,/g3t1_3,,success
Status,448,12330593029,/g3t1_1,,running
Status,449,12330707757,/g3t1_1,,success
Status,450,12360375983,/g3t1_2,,running
Status,451,12360509035,/g3t1_2,,success
Status,452,12361662948,/g3t1_3,,running
Status,453,12361891564,/g3t1_3,,success
Status,454,12380738978,/g3t1_1,,running
Status,455,12380772849,/g3t1_1,,success
Status,456,12410902130,/g3t1_2,,running
Status,457,12410982775,/g3t1_2,,success
Status,458,12412060972,/g4t1,,fail
Status,459,12412326589,/g3t1_3,,running
Status,460,12412845647,/g3t1_3,,success
Status,461,12430653547,/g3t1_1,,running
Status,462,12430850353,/g3t1_1,,success
Status,463,12460552768,/g3t1_2,,running
Status,464,12460582957,/g3t1_2,,success
Status,465,12461881659,/g3t1_3,,running
Status,466,12462012969,/g3t1_3,,success
Status,467,12480861983,/g3t1_1,,running
Status,468,12480885874,/g3t1_1,,success
Status,469,12510728964,/g3t1_2,,running
Status,470,12510754635,/g3t1_2,,success
Status,471,12511786747,/g4t1,,fail
Status,472,12511963195,/g3t1_3,,running
Status,473,12512075566,/g3t1_3,,success
Status,474,12530866978,/g3t1_1,,running
Status,475,12530902569,/g3t1_1,,success
Status,476,12560698601,/g3t1_2,,running
Status,477,12560870801,/g3t1_2,,success
Status,478,12562056182,/g3t1_3,,running
Status,479,12562171836,/g3t1_3,,success
Status,480,12580940125,/g3t1_1,,running
Status,481,12580964458,/g3t1_1,,success
Status,482,12610715075,/g3t1_2,,running
Status,483,12610857141,/g3t1_2,,success
Status,484,12611718611,/g4t1,,fail
Status,485,12612083286,/g3t1_3,,running
Status,486,12612216886,/g3t1_3,,success
Status,487,12631061897,/g3t1_1,,running
Status,488,12631087319,/g3t1_1,,success
Status,489,12660851891,/g3t1_2,,running
Status,490,12660882126,/g3t1_2,,success
Status,491,12662208629,/g3t1_3,,running
Status,492,12662232218,/g3t1_3,,success
Status,493,12681040335,/g3t1_1,,running
Status,494,12681158727,/g3t1_1,,success
Status,495,12711276815,/g3t1_2,,running
Status,496,12711759675,/g3t1_2,,success
Status,497,12712443435,/g4t1,,fail
Status,498,12712506842,/g3t1_3,,running
Status,499,12713196034,/g3t1_3,,success
Status,500,12731639407,/g3t1_1,,running
Status,501,12732246892,/g3t1_1,,success
Status,502,12761287191,/g3t1_2,,running
Status,503,12761416666,/g3t1_2,,success
Status,504,12762419437,/g3t1_3,,running
Status,505,12763103850,/g3t1_3,,success
Status,506,12781319661,/g3t1_1,,running
Status,507,12781350404,/g3t1_1,,success
Status,508,12810965836,/g3t1_2,,running
Status,509,12811211685,/g3t1_2,,success
Status,510,12811782444,/g4t1,,fail
Status,511,12812371465,/g3t1_3,,running
Status,512,12812476207,/g3t1_3,,success
Status,513,12832497697,/g3t1_1,,running
Status,514,12832571568,/g3t1_1,,success
Status,515,12861194603,/g3t1_2,,running
Status,516,12861320284,/g3t1_2,,success
Status,517,12862438251,/g3t1_3,,running
Status,518,12862677134,/g3t1_3,,success
Status,519,12881506536,/g3t1_1,,running
Status,520,12881643268,/g3t1_1,,success
Status,521,12911415056,/g3t1_2,,running
Status,522,12911440149,/g3t1_2,,success
Status,523,12911918208,/g4t1,,fail
Status,524,12912486174,/g3t1_3,,running
Status,525,12912671605,/g3t1_3,,success
Status,526,12931612313,/g3t1_1,,running
Status,527,12931636777,/g3t1_1,,success
Status,528,12961435266,/g3t1_2,,running
Status,529,12961467312,/g3t1_2,,success
Status,530,12962755459,/g3t1_3,,running
Status,531,12962864469,/g3t1_3,,success
Status,532,12981751541,/g3t1_1,,running
Status,533,12981783812,/g3t1_1,,success
Status,534,13011490698,/g3t1_2,,running
Status,535,13011515465,/g3t1_2,,success
Status,536,13012014851,/g4t1,,fail
Status,537,13012677870,/g3t1_3,,running
Status,538,13012767511,/g3t1_3,,success
Status,539,13031867368,/g3t1_1,,running
Status,540,13031892652,/g3t1_1,,success
Status,541,13061451839,/g3t1_2,,running
Status,542,13061547793,/g3t1_2,,success
Status,543,13062703324,/g3t1_3,,running
Status,544,13062846203,/g3t1_3,,success
Status,545,13082008868,/g3t1_1,,running
Status,546,13082039133,/g3t1_1,,success
Status,547,13111701683,/g3t1_2,,running
Status,548,13111728282,/g3t1_2,,success
Status,549,13112108481,/g4t1,,fail
Status,550,13112764302,/g3t1_3,,running
Status,551,13112873073,/g3t1_3,,success
Status,552,13131981203,/g3t1_1,,running
Status,553,13132272183,/g3t1_1,,success
Status,554,13162270497,/g3t1_2,,running
Status,555,13162506956,/g3t1_2,,success
Status,556,13163437152,/g3t1_3,,running
Status,557,13163762156,/g3t1_3,,success
Status,558,13182949214,/g3t1_1,,running
Status,559,13183468288,/g3t1_1,,success
Status,560,13212618423,/g3t1_2,,running
Status,561,13212718503,/g3t1_2,,success
Status,562,13213152804,/g4t1,,fail
Status,563,13213654024,/g3t1_3,,running
Status,564,13214005344,/g3t1_3,,success
Status,565,13232420501,/g3t1_1,,running
Status,566,13232679941,/g3t1_1,,success
Status,567,13261868858,/g3t1_2,,running
Status,568,13261991066,/g3t1_2,,success
Status,569,13263129252,/g3t1_3,,running
Status,570,13263289966,/g3t1_3,,success
Status,571,13282329858,/g3t1_1,,running
Status,572,13282471528,/g3t1_1,,success
Status,573,13311951842,/g3t1_2,,running
Status,574,13312086222,/g3t1_2,,success
Status,575,13312258326,/g4t1,,fail
Status,576,13313116628,/g3t1_3,,running
Status,577,13313326306,/g3t1_3,,success
Status,578,13332494509,/g3t1_1,,running
Status,579,13332653801,/g3t1_1,,success
Status,580,13362479041,/g3t1_2,,running
Status,581,13362527641,/g3t1_2,,success
Status,582,13363576229,/g3t1_3,,running
Status,583,13363920420,/g3t1_3,,success
Status,584,13383235802,/g3t1_1,,running
Status,585,13384041325,/g3t1_1,,success
Status,586,13412723713,/g3t1_2,,running
Status,587,13413146840,/g3t1_2,,success
Status,588,13413213264,/g4t1,,fail
Status,589,13413973392,/g3t1_3,,running
Status,590,13414461664,/g3t1_3,,success
Status,591,13433330215,/g3t1_1,,running
Status,592,13433397796,/g3t1_1,,success
Status,593,13462670372,/g3t1_2,,running
Status,594,13463123074,/g3t1_2,,success
Status,595,13463927613,/g3t1_3,,running
Status,596,13464659014,/g3t1_3,,success
Status,597,13483368691,/g3t1_1,,running
Status,598,13483799012,/g3t1_1,,success
Status,599,13512923842,/g3t1_2,,running
Status,600,13513190027,/g4t1,,fail
Status,601,13513285469,/g3t1_2,,success
Status,602,13514558022,/g3t1_3,,running
Status,603,13514639304,/g3t1_3,,success
Status,604,13533455727,/g3t1_1,,running
Status,605,13534141068,/g3t1_1,,success
Status,606,13563270897,/g3t1_2,,running
Status,607,13563738875,/g3t1_2,,success
Status,608,13564589474,/g3t1_3,,running
Status,609,13565163888,/g3t1_3,,success
Status,610,13583266664,/g3t1_1,,running
Status,611,13583429435,/g3t1_1,,success
Status,612,13612640169,/g3t1_2,,running
Status,613,13612670423,/g4t1,,fail
Status,614,13612696081,/g3t1_2,,success
Status,615,13613779409,/g3t1_3,,running
Status,616,13613993592,/g3t1_3,,success
Status,617,13633080522,/g3t1_1,,running
Status,618,13633105424,/g3t1_1,,success
Status,619,13663430129,/g3t1_2,,running
Status,620,13663499609,/g3t1_2,,success
Status,621,13664547959,/g3t1_3,,running
Status,622,13665021112,/g3t1_3,,success
Status,623,13683794631,/g3t1_1,,running
Status,624,13684412276,/g3t1_1,,success
Status,625,13712891261,/g3t1_2,,running
Status,626,13712945209,/g4t1,,fail
Status,627,13712956566,/g3t1_2,,success
Status,628,13714040925,/g3t1_3,,running
Status,629,13714096234,/g3t1_3,,success
Status,630,13733429589,/g3t1_1,,running
Status,631,13733453852,/g3t1_1,,success
Status,632,13762847506,/g3t1_2,,running
Status,633,13762957220,/g3t1_2,,success
Status,634,13763968543,/g3t1_3,,running
Status,635,13764170631,/g3t1_3,,success
Status,636,13783640571,/g3t1_1,,running
Status,637,13783883635,/g3t1_1,,success
Status,638,13814224988,/g3t1_2,,running
Status,639,13814354227,/g4t1,,fail
Status,640,13814398894,/g3t1_2,,success
Status,641,13814954114,/g3t1_3,,running
Status,642,13816013967,/g3t1_3,,success
Status,643,13834217567,/g3t1_1,,running
Status,644,13834656683,/g3t1_1,,success
Status,645,13863759804,/g3t1_2,,running
Status,646,13864070804,/g3t1_2,,success
Status,647,13864814963,/g3t1_3,,running
Status,648,13865394235,/g3t1_3,,success
Status,649,13884273233,/g3t1_1,,running
Status,650,13884768974,/g3t1_1,,success
Status,651,13913000825,/g4t1,,fail
Status,652,13913323429,/g3t1_2,,running
Status,653,13913356975,/g3t1_2,,success
Status,654,13914387110,/g3t1_3,,running
Status,655,13914522562,/g3t1_3,,success
Status,656,13933706937,/g3t1_1,,running
Status,657,13933824857,/g3t1_1,,success
Status,658,13963410932,/g3t1_2,,running
Status,659,13963438668,/g3t1_2,,success
Status,660,13964501733,/g3t1_3,,running
Status,661,13964622766,/g3t1_3,,success
Status,662,13984040852,/g3t1_1,,running
Status,663,13984392779,/g3t1_1,,success
Status,664,14013023197,/g4t1,,fail
Status,665,14013413428,/g3t1_2,,running
Status,666,14013675639,/g3t1_2,,success
Status,667,14014462843,/g3t1_3,,running
Status,668,14014595477,/g3t1_3,,success
Status,669,14034655554,/g3t1_1,,running
Status,670,14035203934,/g3t1_1,,success
Status,671,14064395321,/g3t1_2,,running
Status,672,14064488778,/g3t1_2,,success
Status,673,14065405662,/g3t1_3,,running
Status,674,14065494322,/g3t1_3,,success
Status,675,14084546723,/g3t1_1,,running
Status,676,14084899852,/g3t1_1,,success
Status,677,14113910073,/g4t1,,fail
Status,678,14113994863,/g3t1_2,,running
Status,679,14114352977,/g3t1_2,,success
Status,680,14115242670,/g3t1_3,,running
Status,681,14115671371,/g3t1_3,,success
Status,682,14134554417,/g3t1_1,,running
Status,683,14134836672,/g3t1_1,,success
Status,684,14164172320,/g3t1_2,,running
Status,685,14164408961,/g3t1_2,,success
Status,686,14165382369,/g3t1_3,,running
Status,687,14165894895,/g3t1_3,,success
Status,688,14184585061,/g3t1_1,,running
Status,689,14184950118,/g3t1_1,,success
Status,690,14214035907,/g4t1,,fail
Status,691,14214125170,/g3t1_2,,running
Status,692,14214534200,/g3t1_2,,success
Status,693,14216026408,/g3t1_3,,running
Status,694,14216113480,/g3t1_3,,success
Status,695,14235162228,/g3t1_1,,running
Status,696,14235711046,/g3t1_1,,success
Status,697,14263928597,/g3t1_2,,running
Status,698,14264024946,/g3t1_2,,success
Status,699,14265017537,/g3t1_3,,running
Status,700,14265261765,/g3t1_3,,success
Status,701,14284530619,/g3t1_1,,running
Status,702,14284615378,/g3t1_1,,success
Status,703,14313370938,/g4t1,,fail
Status,704,14313825336,/g3t1_2,,running
Status,705,14314025675,/g3t1_2,,success
Status,706,14315055242,/g3t1_3,,running
Status,707,14315241279,/g3t1_3,,success
Status,708,14334846629,/g3t1_1,,running
Status,709,14334893717,/g3t1_1,,success
Status,710,14364227782,/g3t1_2,,running
Status,711,14364472207,/g3t1_2,,success
Status,712,14365131531,/g3t1_3,,running
Status,713,14365272788,/g3t1_3,,success
Status,714,14385344616,/g3t1_1,,running
Status,715,14385894965,/g3t1_1,,success
Status,716,14414166174,/g4t1,,fail
Status,717,14414912566,/g3t1_2,,running
Status,718,14414987854,/g3t1_2,,success
Status,719,14415983298,/g3t1_3,,running
Status,720,14416558704,/g3t1_3,,success
Status,721,14436465571,/g3t1_1,,running
Status,722,14436942513,/g3t1_1,,success
Status,723,14464935425,/g3t1_2,,running
Status,724,14465423241,/g3t1_2,,success
Status,725,14465890362,/g3t1_3,,running
Status,726,14466406818,/g3t1_3,,success
Status,727,14485969053,/g3t1_1,,running
Status,728,14486237448,/g3t1_1,,success
Status,729,14514035210,/g4t1,,fail
Status,730,14514691849,/g3t1_2,,running
Status,731,14515172625,/g3t1_2,,success
Status,732,14515515850,/g3t1_3,,running
Status,733,14515848233,/g3t1_3,,success
Status,734,14536594654,/g3t1_1,,running
Status,735,14537227980,/g3t1_1,,success
Status,736,14565047799,/g3t1_2,,running
Status,737,14565533613,/g3t1_2,,success
Status,738,14566640381,/g3t1_3,,running
Status,739,14566696849,/g3t1_3,,success
Status,740,14586240971,/g3t1_1,,running
Status,741,14586422745,/g3t1_1,,success
Status,742,14613917425,/g4t1,,fail
Status,743,14614589631,/g3t1_2,,running
Status,744,14614751523,/g3t1_2,,success
Status,745,14615625179,/g3t1_3,,running
Status,746,14615809330,/g3t1_3,,success
Status,747,14636637875,/g3t1_1,,running
Status,748,14636691906,/g3t1_1,,success
Status,749,14664690274,/g3t1_2,,running
Status,750,14664836481,/g3t1_2,,success
Status,751,14665770061,/g3t1_3,,running
Status,752,14665868598,/g3t1_3,,success
Status,753,14686310596,/g3t1_1,,running
Status,754,14686342192,/g3t1_1,,success
Status,755,14713887035,/g4t1,,fail
Status,756,14714788646,/g3t1_2,,running
Status,757,14714813940,/g3t1_2,,success
Status,758,14715677230,/g3t1_3,,running
Status,759,14715810609,/g3t1_3,,success
Status,760,14736254011,/g3t1_1,,running
Status,761,14736279114,/g3t1_1,,success
Status,762,14765513535,/g3t1_2,,running
Status,763,14765600369,/g3t1_2,,success
Status,764,14766589012,/g3t1_3,,running
Status,765,14766871243,/g3t1_3,,success
Status,766,14786900942,/g3t1_1,,running
Status,767,14787378096,/g3t1_1,,success
Status,768,14814892456,/g4t1,,fail
Status,769,14815488153,/g3t1_2,,running
Status,770,14816309214,/g3t1_2,,success
Status,771,14816639501,/g3t1_3,,running
Status,772,14817265330,/g3t1_3,,success
Status,773,14837050503,/g3t1_1,,running
Status,774,14837815565,/g3t1_1,,success
Status,775,14865619040,/g3t1_2,,running
Status,776,14866504445,/g3t1_2,,success
Status,777,14866591292,/g3t1_3,,running
Status,778,14867451467,/g3t1_3,,success
Status,779,14887199083,/g3t1_1,,running
Status,780,14887471304,/g3t1_1,,success
Status,781,14915121551,/g4t1,,fail
Status,782,14915843498,/g3t1_2,,running
Status,783,14916910127,/g3t1_2,,success
Status,784,14917088960,/g3t1_3,,running
Status,785,14917887184,/g3t1_3,,success
Status,786,14937048284,/g3t1_1,,running
Status,787,14937106291,/g3t1_1,,success
Status,788,14965336212,/g3t1_2,,running
Status,789,14965361173,/g3t1_2,,success
Status,790,14966238015,/g3t1_3,,running
Status,791,14966431915,/g3t1_3,,success
Status,792,14987073218,/g3t1_1,,running
Status,793,14987115710,/g3t1_1,,success
Status,794,15014289614,/g4t1,,fail
Status,795,15015323360,/g3t1_2,,running
Status,796,15015522615,/g3t1_2,,success
Status,797,15016316362,/g3t1_3,,running
Status,798,15016417406,/g3t1_3,,success
Status,799,15036768908,/g3t1_1,,running
Status,800,15036800058,/g3t1_1,,success
Status,801,15065818042,/g3t1_2,,running
Status,802,15066064641,/g3t1_2,,success
Status,803,15066877368,/g3t1_3,,running
Status,804,15067541630,/g3t1_3,,success
Status,805,15087637001,/g3t1_1,,running
Status,806,15087711115,/g3t1_1,,success
Status,807,15115305303,/g4t1,,fail
Status,808,15115990798,/g3t1_2,,running
Status,809,15117024408,/g3t1_2,,success
Status,810,15117146751,/g3t1_3,,running
Status,811,15117429032,/g3t1_3,,success
Status,812,15137590706,/g3t1_1,,running
Status,813,15137981874,/g3t1_1,,success
Status,814,15166443551,/g3t1_2,,running
Status,815,15166535496,/g3t1_2,,success
Status,816,15167324100,/g3t1_3,,running
Status,817,15167733509,/g3t1_3,,success
Status,818,15188133154,/g3t1_1,,running
Status,819,15188209574,/g3t1_1,,success
Status,820,15215587394,/g4t1,,fail
Status,821,15216349073,/g3t1_2,,running
Status,822,15217289626,/g3t1_2,,success
Status,823,15217460566,/g3t1_3,,running
Status,824,15218346429,/g3t1_3,,success
Status,825,15237772404,/g3t1_1,,running
Status,826,15238130472,/g3t1_1,,success
Status,827,15266526669,/g3t1_2,,running
Status,828,15267575338,/g3t1_2,,success
Status,829,15267658535,/g3t1_3,,running
Status,830,15268455173,/g3t1_3,,success
Status,831,15288385035,/g3t1_1,,running
Status,832,15288625264,/g3t1_1,,success
Status,833,15314787811,/g4t1,,fail
Status,834,15316077406,/g3t1_2,,running
Status,835,15316128914,/g3t1_2,,success
Status,836,15317005604,/g3t1_3,,running
Status,837,15317321950,/g3t1_3,,success
Status,838,15337883286,/g3t1_1,,running
Status,839,15337939624,/g3t1_1,,success
Status,840,15366434026,/g3t1_2,,running
Status,841,15366486497,/g3t1_2,,success
Status,842,15367474472,/g3t1_3,,running
Status,843,15368275680,/g3t1_3,,success
Status,844,15388024260,/g3t1_1,,running
Status,845,15388059985,/g3t1_1,,success
Status,846,15415840648,/g4t1,,fail
Status,847,15416817458,/g3t1_2,,running
Status,848,15418155823,/g3t1_3,,running
Status,849,15418225492,/g3t1_2,,success
Status,850,15418618229,/g3t1_3,,success
Status,851,15438540932,/g3t1_1,,running
Status,852,15438610635,/g3t1_1,,success
Status,853,15466625746,/g3t1_2,,running
Status,854,15466999828,/g3t1_2,,success
Status,855,15468292220,/g3t1_3,,running
Status,856,15468371662,/g3t1_3,,success
Status,857,15488296291,/g3t1_1,,running
Status,858,15488349378,/g3t1_1,,success
Status,859,15515752312,/g4t1,,fail
Status,860,15516776850,/g3t1_2,,running
Status,861,15517200594,/g3t1_2,,success
Status,862,15518213337,/g3t1_3,,running
Status,863,15518567635,/g3t1_3,,success
Status,864,15538759229,/g3t1_1,,running
Status,865,15538840382,/g3t1_1,,success
Status,866,15566968234,/g3t1_2,,running
Status,867,15567237139,/g3t1_2,,success
Status,868,15568256754,/g3t1_3,,running
Status,869,15568675012,/g3t1_3,,success
Status,870,15588514927,/g3t1_1,,running
Status,871,15588723956,/g3t1_1,,success
Status,872,15615954444,/g4t1,,fail
Status,873,15617335623,/g3t1_2,,running
Status,874,15618245595,/g3t1_2,,success
Status,875,15618983422,/g3t1_3,,running
Status,876,15619112058,/g3t1_3,,success
Status,877,15638815859,/g3t1_1,,running
Status,878,15639174456,/g3t1_1,,success
Status,879,15667460574,/g3t1_2,,running
Status,880,15668680557,/g3t1_2,,success
Status,881,15668763011,/g3t1_3,,running
Status,882,15669126713,/g3t1_3,,success
Status,883,15689171399,/g3t1_1,,running
Status,884,15689243422,/g3t1_1,,success
Status,885,15715348667,/g4t1,,fail
Status,886,15716889367,/g3t1_2,,running
Status,887,15717032867,/g3t1_2,,success
Status,888,15718184432,/g3t1_3,,running
Status,889,15718505148,/g3t1_3,,success
Status,890,15738683506,/g3t1_1,,running
Status,891,15738726729,/g3t1_1,,success
Status,892,15767135252,/g3t1_2,,running
Status,893,15767236297,/g3t1_2,,success
Status,894,15768174731,/g3t1_3,,running
Status,895,15768342831,/g3t1_3,,success
Status,896,15788577741,/g3t1_1,,running
Status,897,15788654081,/g3t1_1,,success
Status,898,15815285810,/g4t1,,fail
Status,899,15817382834,/g3t1_2,,running
Status,900,15817410003,/g3t1_2,,success
Status,901,15818495039,/g3t1_3,,running
Status,902,15818540537,/g3t1_3,,success
Status,903,15839430912,/g3t1_1,,running
Status,904,15839949547,/g3t1_1,,success
Status,905,15867995949,/g3t1_2,,running
Status,906,15868410491,/g3t1_2,,success
Status,907,15869177806,/g3t1_3,,running
Status,908,15869610767,/g3t1_3,,success
Status,909,15889598755,/g3t1_1,,running
Status,910,15889667019,/g3t1_1,,success
Status,911,15916200986,/g4t1,,fail
Status,912,15918044558,/g3t1_2,,running
Status,913,15918551394,/g3t1_2,,success
Status,914,15918911819,/g3t1_3,,running
Status,915,15919423796,/g3t1_3,,success
Status,916,15940166127,/g3t1_1,,running
Status,917,15940469976,/g3t1_1,,success
Status,918,15968086341,/g3t1_2,,running
Status,919,15968897305,/g3t1_2,,success
Status,920,15969019744,/g3t1_3,,running
Status,921,15969810822,/g3t1_3,,success
Status,922,15989757777,/g3t1_1,,running
Status,923,15990080025,/g3t1_1,,success
Status,924,16016333785,/g4t1,,fail
Status,925,16018062849,/g3t1_2,,running
Status,926,16018477499,/g3t1_2,,success
Status,927,16019432175,/g3t1_3,,running
Status,928,16019500964,/g3t1_3,,success
Status,929,16040209332,/g3t1_1,,running
Status,930,16040277784,/g3t1_1,,success
Status,931,16068374208,/g3t1_2,,running
Status,932,16068864505,/g3t1_2,,success
Status,933,16069609646,/g3t1_3,,running
Status,934,16070278138,/g3t1_3,,success
Status,935,16090294604,/g3t1_1,,running
Status,936,16090389034,/g3t1_1,,success
Status,937,16115708232,/g4t1,,fail
Status,938,16118026573,/g3t1_2,,running
Status,939,16118058805,/g3t1_2,,success
Status,940,16118871061,/g3t1_3,,running
Status,941,16118990033,/g3t1_3,,success
Status,942,16139381519,/g3t1_1,,running
Status,943,16139450362,/g3t1_1,,success
Status,944,16168116091,/g3t1_2,,running
Status,945,16168145325,/g3t1_2,,success
Status,946,16168892380,/g3t1_3,,running
Status,947,16169067268,/g3t1_3,,success
Status,948,16190182386,/g3t1_1,,running
Status,949,16190488345,/g3t1_1,,success
Status,950,16216544596,/g4t1,,fail
Status,951,16218482586,/g3t1_2,,running
Status,952,16218940898,/g3t1_2,,success
Status,953,16219448207,/g3t1_3,,running
Status,954,16220201594,/g3t1_3,,success
Status,955,16240343920,/g3t1_1,,running
Status,956,16240647742,/g3t1_1,,success
Status,957,16268768083,/g3t1_2,,running
Status,958,16269299864,/g3t1_2,,success
Status,959,16269437468,/g3t1_3,,running
Status,960,16270406485,/g3t1_3,,success
Status,961,16290391752,/g3t1_1,,running
Status,962,16290695304,/g3t1_1,,success
Status,963,16316588401,/g4t1,,fail
Status,964,16318758088,/g3t1_2,,running
Status,965,16319341974,/g3t1_2,,success
Status,966,16320150068,/g3t1_3,,running
Status,967,16320796943,/g3t1_3,,success
Status,968,16340417464,/g3t1_1,,running
Status,969,16340971248,/g3t1_1,,success
Status,970,16368523283,/g3t1_2,,running
Status,971,16368777330,/g3t1_2,,success
Status,972,16369303946,/g3t1_3,,running
Status,973,16369686004,/g3t1_3,,success
Status,974,16390112465,/g3t1_1,,running
Status,975,16390444318,/g3t1_1,,success
Status,976,16416603537,/g4t1,,fail
Status,977,16418822549,/g3t1_2,,running
Status,978,16419537465,/g3t1_2,,success
Status,979,16419949327,/g3t1_3,,running
Status,980,16420305396,/g3t1_3,,success
Status,981,16440726455,/g3t1_1,,running
Status,982,16441147066,/g3t1_1,,success
Status,983,16469222494,/g3t1_2,,running
Status,984,16469322765,/g3t1_2,,success
Status,985,16470101498,/g3t1_3,,running
Status,986,16470695302,/g3t1_3,,success
Status,987,16490784694,/g3t1_1,,running
Status,988,16490948203,/g3t1_1,,success
Status,989,16516722006,/g4t1,,fail
Status,990,16519469585,/g3t1_2,,running
Status,991,16519565509,/g3t1_2,,success
Status,992,16520106409,/g3t1_3,,running
Status,993,16520535810,/g3t1_3,,success
Status,994,16540825752,/g3t1_1,,running
Status,995,16541546718,/g3t1_1,,success
Status,996,16569582709,/g3t1_2,,running
Status,997,16570042848,/g3t1_2,,success
Status,998,16570185158,/g3t1_3,,running
Status,999,16571085248,/g3t1_3,,success
Status,1000,16591132327,/g3t1_1,,running
Status,1001,16591355143,/g3t1_1,,success
Status,1002,16616913788,/g4t1,,fail
Status,1003,16619857705,/g3t1_2,,running
Status,1004,16621369942,/g3t1_2,,success
Status,1005,16621481333,/g3t1_3,,running
Status,1006,16621576103,/g3t1_3,,success
Status,1007,16641144011,/g3t1_1,,running
Status,1008,16641915635,/g3t1_1,,success
Status,1009,16669869064,/g3t1_2,,running
Status,1010,16670021271,/g3t1_2,,success
Status,1011,16670498752,/g3t1_3,,running
Status,1012,16670894615,/g3t1_3,,success
Status,1013,16691524736,/g3t1_1,,running
Status,1014,16691861209,/g3t1_1,,success
Status,1015,16717008898,/g4t1,,fail
Status,1016,16719973784,/g3t1_2,,running
Status,1017,16720407589,/g3t1_2,,success
Status,1018,16720504536,/g3t1_3,,running
Status,1019,16721019294,/g3t1_3,,success
Status,1020,16741357651,/g3t1_1,,running
Status,1021,16741738970,/g3t1_1,,success
Status,1022,16769837753,/g3t1_2,,running
Status,1023,16770549469,/g3t1_3,,running
Status,1024,16770885517,/g3t1_3,,success
Status,1025,16770964842,/g3t1_2,,success
Status,1026,16791554585,/g3t1_1,,running
Status,1027,16792109621,/g3t1_1,,success
Status,1028,16817108887,/g4t1,,fail
Status,1029,16820413153,/g3t1_2,,running
Status,1030,16820767876,/g3t1_2,,success
Status,1031,16820820463,/g3t1_3,,running
Status,1032,16821743066,/g3t1_3,,success
Status,1033,16841689261,/g3t1_1,,running
Status,1034,16842115634,/g3t1_1,,success
Status,1035,16870409384,/g3t1_2,,running
Status,1036,16870541252,/g3t1_2,,success
Status,1037,16870900198,/g3t1_3,,running
Status,1038,16871609153,/g3t1_3,,success
Status,1039,16891734173,/g3t1_1,,running
Status,1040,16892609253,/g3t1_1,,success
Status,1041,16917292254,/g4t1,,fail
Status,1042,16920415377,/g3t1_2,,running
Status,1043,16921108323,/g3t1_3,,running
Status,1044,16921880785,/g3t1_2,,success
Status,1045,16921954573,/g3t1_3,,success
Status,1046,16941804000,/g3t1_1,,running
Status,1047,16942397962,/g3t1_1,,success
Status,1048,16970492829,/g3t1_2,,running
Status,1049,16971543211,/g3t1_3,,running
Status,1050,16971608607,/g3t1_2,,success
Status,1051,16971841051,/g3t1_3,,success
Status,1052,16992014737,/g3t1_1,,running
Status,1053,16992396344,/g3t1_1,,success
Status,1054,17017474401,/g4t1,,fail
Status,1055,17020683925,/g3t1_2,,running
Status,1056,17021603545,/g3t1_3,,running
Status,1057,17021805793,/g3t1_2,,success
Status,1058,17022693122,/g3t1_3,,success
Status,1059,17042226550,/g3t1_1,,running
Status,1060,17042303194,/g3t1_1,,success
Status,1061,17070838131,/g3t1_2,,running
Status,1062,17071345335,/g3t1_2,,success
Status,1063,17071446843,/g3t1_3,,running
Status,1064,17071862413,/g3t1_3,,success
Status,1065,17092511148,/g3t1_1,,running
Status,1066,17092569684,/g3t1_1,,success
Status,1067,17117598820,/g4t1,,fail
Status,1068,17122009854,/g3t1_2,,running
Status,1069,17122372170,/g3t1_3,,running
Status,1070,17122424466,/g3t1_2,,success
Status,1071,17122631391,/g3t1_3,,success
Status,1072,17142929465,/g3t1_1,,running
Status,1073,17143003854,/g3t1_1,,success
Status,1074,17170418097,/g3t1_2,,running
Status,1075,17170555177,/g3t1_2,,success
Status,1076,17170920982,/g3t1_3,,running
Status,1077,17171007898,/g3t1_3,,success
Status,1078,17191992918,/g3t1_1,,running
Status,1079,17192017131,/g3t1_1,,success
Status,1080,17216758890,/g4t1,,fail
Status,1081,17220375299,/g3t1_2,,running
Status,1082,17220450680,/g3t1_2,,success
Status,1083,17220918765,/g3t1_3,,running
Status,1084,17221103245,/g3t1_3,,success
Status,1085,17242121651,/g3t1_1,,running
Status,1086,17242274505,/g3t1_1,,success
Status,1087,17271690339,/g3t1_2,,running
Status,1088,17271829281,/g3t1_2,,success
Status,1089,17271944919,/g3t1_3,,running
Status,1090,17272440250,/g3t1_3,,success
Status,1091,17292823311,/g3t1_1,,running
Status,1092,17293217364,/g3t1_1,,success
Status,1093,17317515843,/g4t1,,fail
Status,1094,17321106723,/g3t1_2,,running
Status,1095,17321405815,/g3t1_2,,success
Status,1096,17322176739,/g3t1_3,,running
Status,1097,17322344687,/g3t1_3,,success
Status,1098,17343190596,/g3t1_1,,running
Status,1099,17343257645,/g3t1_1,,success
Status,1100,17371478329,/g3t1_2,,running
Status,1101,17372048865,/g3t1_3,,running
Status,1102,17372656367,/g3t1_2,,success
Status,1103,17372744286,/g3t1_3,,success
Status,1104,17393046169,/g3t1_1,,running
Status,1105,17393438922,/g3t1_1,,success
Status,1106,17417841236,/g4t1,,fail
Status,1107,17421490279,/g3t1_2,,running
Status,1108,17422271849,/g3t1_2,,success
Status,1109,17422332795,/g3t1_3,,running
Status,1110,17422685479,/g3t1_3,,success
Status,1111,17443718232,/g3t1_1,,running
Status,1112,17443840819,/g3t1_1,,success
Status,1113,17471897282,/g3t1_2,,running
Status,1114,17471969804,/g3t1_3,,running
Status,1115,17472490278,/g3t1_2,,success
Status,1116,17472776697,/g3t1_3,,success
Status,1117,17493508273,/g3t1_1,,running
Status,1118,17494041841,/g3t1_1,,success
Status,1119,17518050770,/g4t1,,fail
Status,1120,17521400385,/g3t1_2,,running
Status,1121,17521960806,/g3t1_3,,running
Status,1122,17522015414,/g3t1_2,,success
Status,1123,17522551071,/g3t1_3,,success
Status,1124,17543689080,/g3t1_1,,running
Status,1125,17544030836,/g3t1_1,,success
Status,1126,17572455136,/g3t1_2,,running
Status,1127,17572567638,/g3t1_3,,running
Status,1128,17572618361,/g3t1_2,,success
Status,1129,17573047986,/g3t1_3,,success
Status,1130,17593843109,/g3t1_1,,running
Status,1131,17594289627,/g3t1_1,,success
Status,1132,17618062499,/g4t1,,fail
Status,1133,17621778360,/g3t1_2,,running
Status,1134,17622420916,/g3t1_2,,success
Status,1135,17622495354,/g3t1_3,,running
Status,1136,17623009460,/g3t1_3,,success
Status,1137,17644067010,/g3t1_1,,running
Status,1138,17644363350,/g3t1_1,,success
Status,1139,17672751648,/g3t1_2,,running
Status,1140,17672821673,/g3t1_3,,running
Status,1141,17672886685,/g3t1_2,,success
Status,1142,17673342371,/g3t1_3,,success
Status,1143,17694302140,/g3t1_1,,running
Status,1144,17694598399,/g3t1_1,,success
Status,1145,17718080213,/g4t1,,fail
Status,1146,17722780624,/g3t1_2,,running
Status,1147,17722885860,/g3t1_3,,running
Status,1148,17722925142,/g3t1_2,,success
Status,1149,17723468533,/g3t1_3,,success
Status,1150,17744655286,/g3t1_1,,running
Status,1151,17745405174,/g3t1_1,,success
Status,1152,17772113260,/g3t1_2,,running
Status,1153,17772361993,/g3t1_2,,success
Status,1154,17772438584,/g3t1_3,,running
Status,1155,17773097302,/g3t1_3,,success
Status,1156,17793774446,/g3t1_1,,running
Status,1157,17793915704,/g3t1_1,,success
Status,1158,17817448092,/g4t1,,fail
Status,1159,17823092919,/g3t1_2,,running
Status,1160,17823154638,/g3t1_3,,running
Status,1161,17823211352,/g3t1_2,,success
Status,1162,17823511770,/g3t1_3,,success
Status,1163,17844366674,/g3t1_1,,running
Status,1164,17845015819,/g3t1_1,,success
Status,1165,17872935504,/g3t1_2,,running
Status,1166,17873076228,/g3t1_3,,running
Status,1167,17873255367,/g3t1_2,,success
Status,1168,17873632118,/g3t1_3,,success
Status,1169,17894752313,/g3t1_1,,running
Status,1170,17895398559,/g3t1_1,,success
Status,1171,17918323645,/g4t1,,fail
Status,1172,17923361568,/g3t1_2,,running
Status,1173,17923470880,/g3t1_3,,running
Status,1174,17924049715,/g3t1_2,,success
Status,1175,17924117092,/g3t1_3,,success
Status,1176,17944837057,/g3t1_1,,running
Status,1177,17945282139,/g3t1_1,,success
Status,1178,17973323623,/g3t1_2,,running
Status,1179,17973420105,/g3t1_3,,running
Status,1180,17973824786,/g3t1_3,,success
Status,1181,17973902430,/g3t1_2,,success
Status,1182,17994947034,/g3t1_1,,running
Status,1183,17995277264,/g3t1_1,,success
Status,1184,18018498092,/g4t1,,fail
Status,1185,18023767552,/g3t1_3,,running
Status,1186,18023915702,/g3t1_2,,running
Status,1187,18024283449,/g3t1_2,,success
Status,1188,18024352299,/g3t1_3,,success
Status,1189,18045112662,/g3t1_1,,running
Status,1190,18045466956,/g3t1_1,,success
Status,1191,18073707505,/g3t1_2,,running
Status,1192,18073834146,/g3t1_3,,running
Status,1193,18074013488,/g3t1_3,,success
Status,1194,18074336673,/g3t1_2,,success
Status,1195,18095016467,/g3t1_1,,running
Status,1196,18095471121,/g3t1_1,,success
Status,1197,18118476677,/g4t1,,fail
Status,1198,18123792810,/g3t1_3,,running
Status,1199,18123916301,/g3t1_2,,running
Status,1200,18124289262,/g3t1_3,,success
Status,1201,18124359513,/g3t1_2,,success
Status,1202,18145523891,/g3t1_1,,running
Status,1203,18145590722,/g3t1_1,,success
Status,1204,18174281788,/g3t1_2,,running
Status,1205,18174349548,/g3t1_3,,running
Status,1206,18174374843,/g3t1_2,,success
Status,1207,18174397677,/g3t1_3,,success
Status,1208,18195573175,/g3t1_1,,running
Status,1209,18196103088,/g3t1_1,,success
Status,1210,18218616630,/g4t1,,fail
Status,1211,18224264187,/g3t1_3,,running
Status,1212,18224318264,/g3t1_3,,success
Status,1213,18224407878,/g3t1_2,,running
Status,1214,18224441722,/g3t1_2,,success
Status,1215,18245148138,/g3t1_1,,running
Status,1216,18245173326,/g3t1_1,,success
Status,1217,18274742273,/g3t1_2,,running
Status,1218,18274801572,/g3t1_3,,running
Status,1219,18274860884,/g3t1_2,,success
Status,1220,18274887381,/g3t1_3,,success
Status,1221,18295295920,/g3t1_1,,running
Status,1222,18295331841,/g3t1_1,,success
Status,1223,18318194047,/g4t1,,fail
Status,1224,18323757560,/g3t1_2,,running
Status,1225,18323809431,/g3t1_3,,running
Status,1226,18324155911,/g3t1_3,,success
Status,1227,18324199153,/g3t1_2,,success
Status,1228,18345685568,/g3t1_1,,running
Status,1229,18346159223,/g3t1_1,,success
Status,1230,18374669073,/g3t1_3,,running
Status,1231,18374762532,/g3t1_2,,running
Status,1232,18374872074,/g3t1_2,,success
Status,1233,18375332014,/g3t1_3,,success
Status,1234,18395885831,/g3t1_1,,running
Status,1235,18396353936,/g3t1_1,,success
Status,1236,18418857248,/g4t1,,fail
Status,1237,18424563238,/g3t1_2,,running
Status,1238,18424664857,/g3t1_3,,running
Status,1239,18424759255,/g3t1_2,,success
Status,1240,18425136631,/g3t1_3,,success
Status,1241,18445949478,/g3t1_1,,running
Status,1242,18446232580,/g3t1_1,,success
Status,1243,18474632352,/g3t1_3,,running
Status,1244,18474693559,/g3t1_2,,running
Status,1245,18474752696,/g3t1_3,,success
Status,1246,18474791187,/g3t1_2,,success
Status,1247,18496147075,/g3t1_1,,running
Status,1248,18496619322,/g3t1_1,,success
Status,1249,18519281630,/g4t1,,fail
Status,1250,18524981107,/g3t1_3,,running
Status,1251,18525124197,/g3t1_2,,running
Status,1252,18525173182,/g3t1_2,,success
Status,1253,18525210418,/g3t1_3,,success
Status,1254,18546499376,/g3t1_1,,running
Status,1255,18546589600,/g3t1_1,,success
Status,1256,18574388532,/g3t1_3,,running
Status,1257,18574443769,/g3t1_2,,running
Status,1258,18574631387,/g3t1_3,,success
Status,1259,18574751558,/g3t1_2,,success
Status,1260,18595841785,/g3t1_1,,running
Status,1261,18595911138,/g3t1_1,,success
Status,1262,18618996520,/g4t1,,fail
Status,1263,18624372828,/g3t1_3,,running
Status,1264,18624425183,/g3t1_2,,running
Status,1265,18624440031,/g3t1_3,,success
Status,1266,18624472365,/g3t1_2,,success
Status,1267,18646220368,/g3t1_1,,running
Status,1268,18646274844,/g3t1_1,,success
Status,1269,18675450418,/g3t1_2,,running
Status,1270,18675540844,/g3t1_3,,running
Status,1271,18675996402,/g3t1_3,,success
Status,1272,18676060931,/g3t1_2,,success
Status,1273,18696679241,/g3t1_1,,running
Status,1274,18697069106,/g3t1_1,,success
Status,1275,18719481595,/g4t1,,fail
Status,1276,18725560699,/g3t1_2,,running
Status,1277,18725635430,/g3t1_3,,running
Status,1278,18725663013,/g3t1_2,,success
Status,1279,18725848045,/g3t1_3,,success
Status,1280,18747218389,/g3t1_1,,running
Status,1281,18747293262,/g3t1_1,,success
Status,1282,18775714894,/g3t1_2,,running
Status,1283,18775794060,/g3t1_3,,running
Status,1284,18776162015,/g3t1_2,,success
Status,1285,18776206971,/g3t1_3,,success
Status,1286,18796983758,/g3t1_1,,running
Status,1287,18797700641,/g3t1_1,,success
Status,1288,18819430644,/g4t1,,fail
Status,1289,18825821822,/g3t1_2,,running
Status,1290,18825897257,/g3t1_3,,running
Status,1291,18826069183,/g3t1_3,,success
Status,1292,18826100870,/g3t1_2,,success
Status,1293,18847162665,/g3t1_1,,running
Status,1294,18847423909,/g3t1_1,,success
Status,1295,18875857947,/g3t1_2,,running
Status,1296,18875956471,/g3t1_3,,running
Status,1297,18876403791,/g3t1_3,,success
Status,1298,18876492656,/g3t1_2,,success
Status,1299,18897315529,/g3t1_1,,running
Status,1300,18897767595,/g3t1_1,,success
Status,1301,18919722586,/g4t1,,fail
Status,1302,18926147192,/g3t1_3,,running
Status,1303,18926218344,/g3t1_2,,running
Status,1304,18926309372,/g3t1_2,,success
Status,1305,18926626513,/g3t1_3,,success
Status,1306,18947819654,/g3t1_1,,running
Status,1307,18948284008,/g3t1_1,,success
Status,1308,18976796001,/g3t1_2,,running
Status,1309,18976872557,/g3t1_3,,running
Status,1310,18976902264,/g3t1_2,,success
Status,1311,18976940906,/g3t1_3,,success
Status,1312,18997767347,/g3t1_1,,running
Status,1313,18998281693,/g3t1_1,,success
Status,1314,19019887191,/g4t1,,fail
Status,1315,19026439392,/g3t1_2,,running
Status,1316,19026677939,/g3t1_3,,running
Status,1317,19026733073,/g3t1_2,,success
Status,1318,19026759252,/g3t1_3,,success
Status,1319,19048336707,/g3t1_1,,running
Status,1320,19048455228,/g3t1_1,,success
Status,1321,19076507585,/g3t1_2,,running
Status,1322,19076615733,/g3t1_3,,running
Status,1323,19077239323,/g3t1_3,,success
Status,1324,19077374514,/g3t1_2,,success
Status,1325,19097937923,/g3t1_1,,running
Status,1326,19098333367,/g3t1_1,,success
Status,1327,19119434575,/g4t1,,fail
Status,1328,19126201895,/g3t1_2,,running
Status,1329,19126230407,/g3t1_2,,success
Status,1330,19126262966,/g3t1_3,,running
Status,1331,19126272142,/g3t1_3,,success
Status,1332,19148022215,/g3t1_1,,running
Status,1333,19148289897,/g3t1_1,,success
Status,1334,19176686179,/g3t1_2,,running
Status,1335,19176807999,/g3t1_3,,running
Status,1336,19177556388,/g3t1_3,,success
Status,1337,19177650641,/g3t1_2,,success
Status,1338,19198621302,/g3t1_1,,running
Status,1339,19199376563,/g3t1_1,,success
Status,1340,19219939616,/g4t1,,fail
Status,1341,19227130325,/g3t1_3,,running
Status,1342,19227303714,/g3t1_2,,running
Status,1343,19227650458,/g3t1_3,,success
Status,1344,19227741762,/g3t1_2,,success
Status,1345,19248449345,/g3t1_1,,running
Status,1346,19249022263,/g3t1_1,,success
Status,1347,19277366422,/g3t1_3,,running
Status,1348,19277445970,/g3t1_2,,running
Status,1349,19277767619,/g3t1_2,,success
Status,1350,19277819017,/g3t1_3,,success
Status,1351,19298587811,/g3t1_1,,running
Status,1352,19298894761,/g3t1_1,,success
Status,1353,19320096816,/g4t1,,fail
Status,1354,19327515862,/g3t1_2,,running
Status,1355,19327588787,/g3t1_3,,running
Status,1356,19327666752,/g3t1_3,,success
Status,1357,19327689772,/g3t1_2,,success
Status,1358,19348585008,/g3t1_1,,running
Status,1359,19349150277,/g3t1_1,,success
Status,1360,19377482183,/g3t1_3,,running
Status,1361,19377551702,/g3t1_2,,running
Status,1362,19377721749,/g3t1_2,,success
Status,1363,19377994531,/g3t1_3,,success
Status,1364,19398970150,/g3t1_1,,running
Status,1365,19399097694,/g3t1_1,,success
Status,1366,19420123159,/g4t1,,fail
Status,1367,19427428621,/g3t1_2,,running
Status,1368,19427524771,/g3t1_2,,success
Status,1369,19427638740,/g3t1_3,,running
Status,1370,19428026480,/g3t1_3,,success
Status,1371,19448798181,/g3t1_1,,running
Status,1372,19449264919,/g3t1_1,,success
Status,1373,19477871361,/g3t1_3,,running
Status,1374,19477944180,/g3t1_3,,success
Status,1375,19478117863,/g3t1_2,,running
Status,1376,19478236053,/g3t1_2,,success
Status,1377,19498612935,/g3t1_1,,running
Status,1378,19498740768,/g3t1_1,,success
Status,1379,19520470161,/g4t1,,fail
Status,1380,19527636737,/g3t1_2,,running
Status,1381,19527758787,/g3t1_3,,running
Status,1382,19527988083,/g3t1_2,,success
Status,1383,19528291964,/g3t1_3,,success
Status,1384,19549292199,/g3t1_1,,running
Status,1385,19549741739,/g3t1_1,,success
Status,1386,19578101450,/g3t1_2,,running
Status,1387,19578178464,/g3t1_3,,running
Status,1388,19578206714,/g3t1_2,,success
Status,1389,19578230177,/g3t1_3,,success
Status,1390,19599334860,/g3t1_1,,running
Status,1391,19599822902,/g3t1_1,,success
Status,1392,19620502330,/g4t1,,fail
Status,1393,19627780672,/g3t1_2,,running
Status,1394,19628010374,/g3t1_3,,running
Status,1395,19628521514,/g3t1_3,,success
Status,1396,19628593027,/g3t1_2,,success
Status,1397,19649413664,/g3t1_1,,running
Status,1398,19649780049,/g3t1_1,,success
Status,1399,19678243709,/g3t1_2,,running
Status,1400,19678333868,/g3t1_3,,running
Status,1401,19678651090,/g3t1_3,,success
Status,1402,19678703454,/g3t1_2,,success
Status,1403,19699531322,/g3t1_1,,running
Status,1404,19699854472,/g3t1_1,,success
Status,1405,19720474921,/g4t1,,fail
Status,1406,19728505378,/g3t1_2,,running
Status,1407,19728594249,/g3t1_3,,running
Status,1408,19728668837,/g3t1_3,,success
Status,1409,19728705971,/g3t1_2,,success
Status,1410,19749797661,/g3t1_1,,running
Status,1411,19750212193,/g3t1_1,,success
Status,1412,19778390962,/g3t1_3,,running
Status,1413,19778465966,/g3t1_3,,success
Status,1414,19778645150,/g3t1_2,,running
Status,1415,19778705448,/g3t1_2,,success
Status,1416,19800049609,/g3t1_1,,running
Status,1417,19800320457,/g3t1_1,,success
Status,1418,19820610598,/g4t1,,fail
Status,1419,19828226660,/g3t1_3,,running
Status,1420,19828297980,/g3t1_2,,running
Status,1421,19828644618,/g3t1_3,,success
Status,1422,19828726663,/g3t1_2,,success
Status,1423,19850243886,/g3t1_1,,running
Status,1424,19850576682,/g3t1_1,,success
Status,1425,19878415014,/g3t1_2,,running
Status,1426,19878570882,/g3t1_3,,running
Status,1427,19878705975,/g3t1_3,,success
Status,1428,19879010570,/g3t1_2,,success
Status,1429,19900583178,/g3t1_1,,running
Status,1430,19901131030,/g3t1_1,,success
Status,1431,19920727968,/g4t1,,fail
Status,1432,19928562478,/g3t1_3,,running
Status,1433,19928659569,/g3t1_2,,running
Status,1434,19928701771,/g3t1_3,,success
Status,1435,19929038316,/g3t1_2,,success
Status,1436,19950127873,/g3t1_1,,running
Status,1437,19950911577,/g3t1_1,,success
Status,1438,19978720832,/g3t1_3,,running
Status,1439,19978791226,/g3t1_2,,running
Status,1440,19979308319,/g3t1_2,,success
Status,1441,19979377440,/g3t1_3,,success
Status,1442,20000538876,/g3t1_1,,running
Status,1443,20000887310,/g3t1_1,,success
Status,1444,20020825456,/g4t1,,fail
Status,1445,20029042728,/g3t1_3,,running
Status,1446,20029134743,/g3t1_2,,running
Status,1447,20029225526,/g3t1_2,,success
Status,1448,20029617724,/g3t1_3,,success
Status,1449,20050543751,/g3t1_1,,running
Status,1450,20050728286,/g3t1_1,,success
Status,1451,20078963780,/g3t1_3,,running
Status,1452,20079137950,/g3t1_2,,running
Status,1453,20079626969,/g3t1_2,,success
Status,1454,20079695076,/g3t1_3,,success
Status,1455,20100656691,/g3t1_1,,running
Status,1456,20101307833,/g3t1_1,,success
Status,1457,20121038950,/g4t1,,fail
Status,1458,20129688029,/g3t1_3,,running
Status,1459,20129762698,/g3t1_3,,success
Status,1460,20129862056,/g3t1_2,,running
Status,1461,20129888213,/g3t1_2,,success
Status,1462,20150811854,/g3t1_1,,running
Status,1463,20151007881,/g3t1_1,,success
Status,1464,20179467032,/g3t1_3,,running
Status,1465,20179593016,/g3t1_2,,running
Status,1466,20179886863,/g3t1_3,,success
Status,1467,20179935391,/g3t1_2,,success
Status,1468,20200817070,/g3t1_1,,running
Status,1469,20201199661,/g3t1_1,,success
Status,1470,20221128021,/g4t1,,fail
Status,1471,20229145779,/g3t1_3,,running
Status,1472,20229394801,/g3t1_2,,running
Status,1473,20229635326,/g3t1_2,,success
Status,1474,20229687595,/g3t1_3,,success
Status,1475,20250905388,/g3t1_1,,running
Status,1476,20251329042,/g3t1_1,,success
Status,1477,20279911149,/g3t1_3,,running
Status,1478,20279980190,/g3t1_2,,running
Status,1479,20280267233,/g3t1_2,,success
Status,1480,20280318248,/g3t1_3,,success
Status,1481,20301215387,/g3t1_1,,running
Status,1482,20301287714,/g3t1_1,,success
Status,1483,20321190398,/g4t1,,fail
Status,1484,20330164914,/g3t1_3,,running
Status,1485,20330256515,/g3t1_2,,running
Status,1486,20330442161,/g3t1_3,,success
Status,1487,20330565054,/g3t1_2,,success
Status,1488,20351571763,/g3t1_1,,running
Status,1489,20351646451,/g3t1_1,,success
Status,1490,20380007662,/g3t1_3,,running
Status,1491,20380405221,/g3t1_2,,running
Status,1492,20380536794,/g3t1_3,,success
Status,1493,20380599828,/g3t1_2,,success
Status,1494,20401462544,/g3t1_1,,running
Status,1495,20401889552,/g3t1_1,,success
Status,1496,20421316063,/g4t1,,fail
Status,1497,20430081422,/g3t1_2,,running
Status,1498,20430181674,/g3t1_3,,running
Status,1499,20430878790,/g3t1_2,,success
Status,1500,20430958624,/g3t1_3,,success
Status,1501,20451528222,/g3t1_1,,running
Status,1502,20451926919,/g3t1_1,,success
Status,1503,20480334831,/g3t1_3,,running
Status,1504,20480434232,/g3t1_2,,running
Status,1505,20480530874,/g3t1_3,,success
Status,1506,20480616827,/g3t1_2,,success
Status,1507,20501511006,/g3t1_1,,running
Status,1508,20501988589,/g3t1_1,,success
Status,1509,20521448692,/g4t1,,fail
Status,1510,20530446141,/g3t1_3,,running
Status,1511,20530559625,/g3t1_2,,running
