
Status,2,20524439954,/g4t1,,init
Status,3,25535541533,/g3t1_2,,init
Status,5,25542666328,/g3t1_2,,init
Status,6,25542678043,/g3t1_2,,running
Status,7,25543061583,/g3t1_2,,success
Status,8,25743826717,/g3t1_2,,running
Status,9,25744573863,/g3t1_2,,success
Status,10,25944026564,/g3t1_2,,running
Status,11,25944718182,/g3t1_2,,success
Status,12,26144549258,/g3t1_2,,running
Status,13,26144623103,/g3t1_2,,success
Status,14,26345137241,/g3t1_2,,running
Status,15,26345211039,/g3t1_2,,success
Status,16,26535890314,/g4t1,,success
Status,17,26544472872,/g3t1_2,,running
Status,18,26545068137,/g3t1_2,,success
Status,19,26744926764,/g3t1_2,,running
Status,20,26745359298,/g3t1_2,,success
Status,21,26945071485,/g3t1_2,,running
Status,22,26945854229,/g3t1_2,,success
Status,23,27144888796,/g3t1_2,,running
Status,24,27145463221,/g3t1_2,,success
Status,25,27345318700,/g3t1_2,,running
Status,26,27345883992,/g3t1_2,,success
Status,27,27536302578,/g4t1,,success
Status,28,27545207664,/g3t1_2,,running
Status,29,27545715623,/g3t1_2,,success
Status,30,27745397191,/g3t1_2,,running
Status,31,27745697963,/g3t1_2,,success
Status,32,27945893462,/g3t1_2,,running
Status,33,27945968502,/g3t1_2,,success
Status,34,28145815612,/g3t1_2,,running
Status,35,28146169017,/g3t1_2,,success
Status,36,28346122440,/g3t1_2,,running
Status,37,28346215594,/g3t1_2,,success
Status,38,28535535758,/g4t1,,success
Status,39,28545609349,/g3t1_2,,running
Status,40,28546026232,/g3t1_2,,success
Status,41,28745421684,/g3t1_2,,running
Status,42,28745725409,/g3t1_2,,success
Status,43,28946639663,/g3t1_2,,running
Status,44,28947057750,/g3t1_2,,success
Status,45,29146872476,/g3t1_2,,running
Status,46,29146940204,/g3t1_2,,success
Status,47,29346756999,/g3t1_2,,running
Status,48,29347250569,/g3t1_2,,success
Status,49,29536523914,/g4t1,,success
Status,50,29546945457,/g3t1_2,,running
Status,51,29547615724,/g3t1_2,,success
Status,52,29747565276,/g3t1_2,,running
Status,53,29748024836,/g3t1_2,,success
Status,54,29947609544,/g3t1_2,,running
Status,55,29947964940,/g3t1_2,,success
Status,56,30148131103,/g3t1_2,,running
Status,57,30148469714,/g3t1_2,,success
Status,58,30348243085,/g3t1_2,,running
Status,59,30349242841,/g3t1_2,,success
Status,60,30536699112,/g4t1,,success
Status,61,30547898296,/g3t1_2,,running
Status,62,30548285697,/g3t1_2,,success
Status,63,30748635980,/g3t1_2,,running
Status,64,30749551923,/g3t1_2,,success
Status,65,30948369929,/g3t1_2,,running
Status,66,30948840104,/g3t1_2,,success
Status,67,31148778776,/g3t1_2,,running
Status,68,31149416985,/g3t1_2,,success
Status,69,31348962120,/g3t1_2,,running
Status,70,31349866146,/g3t1_2,,success
Status,71,31537172504,/g4t1,,success
Status,72,31548963330,/g3t1_2,,running
Status,73,31549464069,/g3t1_2,,success
Status,74,31749090840,/g3t1_2,,running
Status,75,31749451408,/g3t1_2,,success
Status,76,31949327008,/g3t1_2,,running
Status,77,31949779436,/g3t1_2,,success
Status,78,32149555706,/g3t1_2,,running
Status,79,32150429476,/g3t1_2,,success
Status,80,32349956892,/g3t1_2,,running
Status,81,32351046247,/g3t1_2,,success
Status,82,32537057581,/g4t1,,success
Status,83,32549774138,/g3t1_2,,running
Status,84,32550085514,/g3t1_2,,success
Status,85,32750124302,/g3t1_2,,running
Status,86,32750519446,/g3t1_2,,success
Status,87,32950599600,/g3t1_2,,running
Status,88,32950678623,/g3t1_2,,success
Status,89,33150458767,/g3t1_2,,running
Status,90,33150877576,/g3t1_2,,success
Status,91,33350625999,/g3t1_2,,running
Status,92,33350796370,/g3t1_2,,success
Status,93,33537711773,/g4t1,,success
Status,94,33550673980,/g3t1_2,,running
Status,95,33551345412,/g3t1_2,,success
Status,96,33750074267,/g3t1_2,,running
Status,97,33750107413,/g3t1_2,,success
Status,98,33950881780,/g3t1_2,,running
Status,99,33951463570,/g3t1_2,,success
Status,100,34150754154,/g3t1_2,,running
Status,101,34151085394,/g3t1_2,,success
Status,102,34351269461,/g3t1_2,,running
Status,103,34351796334,/g3t1_2,,success
Status,104,34537605865,/g4t1,,success
Status,105,34551179787,/g3t1_2,,running
Status,106,34551697857,/g3t1_2,,success
Status,107,34751632862,/g3t1_2,,running
Status,108,34751981281,/g3t1_2,,success
Status,109,34952319461,/g3t1_2,,running
Status,110,34952394588,/g3t1_2,,success
Status,111,35151892093,/g3t1_2,,running
Status,112,35152203774,/g3t1_2,,success
Status,113,35352078668,/g3t1_2,,running
Status,114,35352585514,/g3t1_2,,success
Status,115,35537539347,/g4t1,,success
Status,116,35552198699,/g3t1_2,,running
Status,117,35552465881,/g3t1_2,,success
Status,118,35752560497,/g3t1_2,,running
Status,119,35752899176,/g3t1_2,,success
Status,120,35952830068,/g3t1_2,,running
Status,121,35953645133,/g3t1_2,,success
Status,122,36153032305,/g3t1_2,,running
Status,123,36153618444,/g3t1_2,,success
Status,124,36353339299,/g3t1_2,,running
Status,125,36353792310,/g3t1_2,,success
Status,126,36537975037,/g4t1,,success
Status,127,36553084028,/g3t1_2,,running
Status,128,36553602150,/g3t1_2,,success
Status,129,36753441377,/g3t1_2,,running
Status,130,36754110561,/g3t1_2,,success
Status,131,36953787432,/g3t1_2,,running
Status,132,36954803619,/g3t1_2,,success
Status,133,37153941483,/g3t1_2,,running
Status,134,37154235642,/g3t1_2,,success
Status,135,37354072122,/g3t1_2,,running
Status,136,37354723887,/g3t1_2,,success
Status,137,37537829528,/g4t1,,success
Status,138,37554107059,/g3t1_2,,running
Status,139,37554168545,/g3t1_2,,success
Status,140,37754493329,/g3t1_2,,running
Status,141,37755321563,/g3t1_2,,success
Status,142,37955027876,/g3t1_2,,running
Status,143,37955100628,/g3t1_2,,success
Status,144,38154902664,/g3t1_2,,running
Status,145,38155239111,/g3t1_2,,success
Status,146,38355499728,/g3t1_2,,running
Status,147,38355892729,/g3t1_2,,success
Status,148,38538071892,/g4t1,,success
Status,149,38555593990,/g3t1_2,,running
Status,150,38555846769,/g3t1_2,,success
Status,151,38755113071,/g3t1_2,,running
Status,152,38755336988,/g3t1_2,,success
Status,153,38956127345,/g3t1_2,,running
Status,154,38956591104,/g3t1_2,,success
Status,155,39156526903,/g3t1_2,,running
Status,156,39156729068,/g3t1_2,,success
Status,157,39356387852,/g3t1_2,,running
Status,158,39357140493,/g3t1_2,,success
Status,159,39537719733,/g4t1,,success
Status,160,39556477284,/g3t1_2,,running
Status,161,39556858836,/g3t1_2,,success
Status,162,39757033915,/g3t1_2,,running
Status,163,39757419707,/g3t1_2,,success
Status,164,39957021790,/g3t1_2,,running
Status,165,39957362215,/g3t1_2,,success
Status,166,40157196597,/g3t1_2,,running
Status,167,40157586642,/g3t1_2,,success
Status,168,40357404175,/g3t1_2,,running
Status,169,40357848217,/g3t1_2,,success
Status,170,40537822643,/g4t1,,success
Status,171,40557073475,/g3t1_2,,running
Status,172,40557265043,/g3t1_2,,success
Status,173,40757854442,/g3t1_2,,running
Status,174,40758374023,/g3t1_2,,success
Status,175,40958001357,/g3t1_2,,running
Status,176,40958597762,/g3t1_2,,success
Status,177,41158549100,/g3t1_2,,running
Status,178,41159009782,/g3t1_2,,success
Status,179,41358580635,/g3t1_2,,running
Status,180,41358978247,/g3t1_2,,success
Status,181,41538734089,/g4t1,,success
Status,182,41558852071,/g3t1_2,,running
Status,183,41559313453,/g3t1_2,,success
Status,184,41759043169,/g3t1_2,,running
Status,185,41759834038,/g3t1_2,,success
Status,186,41959269951,/g3t1_2,,running
Status,187,41959788120,/g3t1_2,,success
Status,188,42159782733,/g3t1_2,,running
Status,189,42160328540,/g3t1_2,,success
Status,190,42360007299,/g3t1_2,,running
Status,191,42360679204,/g3t1_2,,success
Status,192,42538623729,/g4t1,,success
Status,193,42559941111,/g3t1_2,,running
Status,194,42560248746,/g3t1_2,,success
Status,195,42760570399,/g3t1_2,,running
Status,196,42761156696,/g3t1_2,,success
Status,197,42960501826,/g3t1_2,,running
Status,198,42960881618,/g3t1_2,,success
Status,199,43160705769,/g3t1_2,,running
Status,200,43161331809,/g3t1_2,,success
Status,201,43360996439,/g3t1_2,,running
Status,202,43361840094,/g3t1_2,,success
Status,203,43538984580,/g4t1,,success
Status,204,43560965551,/g3t1_2,,running
Status,205,43561429697,/g3t1_2,,success
Status,206,43761189648,/g3t1_2,,running
Status,207,43761777556,/g3t1_2,,success
Status,208,43961292606,/g3t1_2,,running
Status,209,43961899488,/g3t1_2,,success
Status,210,44160679283,/g3t1_2,,running
Status,211,44160778121,/g3t1_2,,success
Status,212,44361793419,/g3t1_2,,running
Status,213,44362683203,/g3t1_2,,success
Status,214,44539281830,/g4t1,,success
Status,215,44561566885,/g3t1_2,,running
Status,216,44561888442,/g3t1_2,,success
Status,217,44761939469,/g3t1_2,,running
Status,218,44762639235,/g3t1_2,,success
Status,219,44962432629,/g3t1_2,,running
Status,220,44963214145,/g3t1_2,,success
Status,221,45162620100,/g3t1_2,,running
Status,222,45162693699,/g3t1_2,,success
Status,223,45362680158,/g3t1_2,,running
Status,224,45363294909,/g3t1_2,,success
Status,225,45539523018,/g4t1,,success
Status,226,45562435281,/g3t1_2,,running
Status,227,45563169591,/g3t1_2,,success
Status,228,45763061917,/g3t1_2,,running
Status,229,45763726665,/g3t1_2,,success
Status,230,45963317728,/g3t1_2,,running
Status,231,45964074317,/g3t1_2,,success
Status,232,46163524273,/g3t1_2,,running
Status,233,46164010530,/g3t1_2,,success
Status,234,46363918157,/g3t1_2,,running
Status,235,46364362283,/g3t1_2,,success
Status,236,46539885828,/g4t1,,success
Status,237,46563754820,/g3t1_2,,running
Status,238,46564562214,/g3t1_2,,success
Status,239,46764386657,/g3t1_2,,running
Status,240,46764805183,/g3t1_2,,success
Status,241,46964461166,/g3t1_2,,running
Status,242,46964908866,/g3t1_2,,success
Status,243,47164667847,/g3t1_2,,running
Status,244,47165319424,/g3t1_2,,success
Status,245,47364849526,/g3t1_2,,running
Status,246,47365086542,/g3t1_2,,success
Status,247,47539886995,/g4t1,,success
Status,248,47564870634,/g3t1_2,,running
Status,249,47565503986,/g3t1_2,,success
Status,250,47765890992,/g3t1_2,,running
Status,251,47766107152,/g3t1_2,,success
Status,252,47965690627,/g3t1_2,,running
Status,253,47966101513,/g3t1_2,,success
Status,254,48165707910,/g3t1_2,,running
Status,255,48166475918,/g3t1_2,,success
Status,256,48366218215,/g3t1_2,,running
Status,257,48366556950,/g3t1_2,,success
Status,258,48540597246,/g4t1,,success
Status,259,48565741318,/g3t1_2,,running
Status,260,48566172208,/g3t1_2,,success
Status,261,48766003997,/g3t1_2,,running
Status,262,48766331471,/g3t1_2,,success
Status,263,48966624104,/g3t1_2,,running
Status,264,48966723916,/g3t1_2,,success
Status,265,49166875692,/g3t1_2,,running
Status,266,49167463714,/g3t1_2,,success
Status,267,49366942072,/g3t1_2,,running
Status,268,49367952666,/g3t1_2,,success
Status,269,49540351937,/g4t1,,success
Status,270,49566924750,/g3t1_2,,running
Status,271,49567674244,/g3t1_2,,success
Status,272,49767524853,/g3t1_2,,running
Status,273,49768334847,/g3t1_2,,success
Status,274,49967220235,/g3t1_2,,running
Status,275,49967718095,/g3t1_2,,success
Status,276,50167557218,/g3t1_2,,running
Status,277,50168068941,/g3t1_2,,success
Status,278,50367876512,/g3t1_2,,running
Status,279,50368487347,/g3t1_2,,success
Status,280,50540802851,/g4t1,,success
Status,281,50568033410,/g3t1_2,,running
Status,282,50568516932,/g3t1_2,,success
Status,283,50768130315,/g3t1_2,,running
Status,284,50768508021,/g3t1_2,,success
Status,285,50968390169,/g3t1_2,,running
Status,286,50968913545,/g3t1_2,,success
Status,287,51168465906,/g3t1_2,,running
Status,288,51168932842,/g3t1_2,,success
Status,289,51368829666,/g3t1_2,,running
Status,290,51369340614,/g3t1_2,,success
Status,291,51541104865,/g4t1,,success
Status,292,51568583995,/g3t1_2,,running
Status,293,51569057870,/g3t1_2,,success
Status,294,51768859383,/g3t1_2,,running
Status,295,51769406723,/g3t1_2,,success
Status,296,51968947665,/g3t1_2,,running
Status,297,51969559430,/g3t1_2,,success
Status,298,52169273755,/g3t1_2,,running
Status,299,52169739659,/g3t1_2,,success
Status,300,52369602298,/g3t1_2,,running
Status,301,52370379099,/g3t1_2,,success
Status,302,52541017323,/g4t1,,success
Status,303,52569496093,/g3t1_2,,running
Status,304,52569553951,/g3t1_2,,success
Status,305,52769684822,/g3t1_2,,running
Status,306,52770562029,/g3t1_2,,success
Status,307,52970100109,/g3t1_2,,running
Status,308,52970823807,/g3t1_2,,success
Status,309,53170166953,/g3t1_2,,running
Status,310,53170511674,/g3t1_2,,success
Status,311,53370173766,/g3t1_2,,running
Status,312,53371135595,/g3t1_2,,success
Status,313,53541003380,/g4t1,,success
Status,314,53570373285,/g3t1_2,,running
Status,315,53570979704,/g3t1_2,,success
Status,316,53770634973,/g3t1_2,,running
Status,317,53771142348,/g3t1_2,,success
Status,318,53970769886,/g3t1_2,,running
Status,319,53971317522,/g3t1_2,,success
Status,320,54171003171,/g3t1_2,,running
Status,321,54171445342,/g3t1_2,,success
Status,322,54371595360,/g3t1_2,,running
Status,323,54371706864,/g3t1_2,,success
Status,324,54541084566,/g4t1,,success
Status,325,54571073004,/g3t1_2,,running
Status,326,54571967423,/g3t1_2,,success
Status,327,54771647048,/g3t1_2,,running
Status,328,54772045632,/g3t1_2,,success
Status,329,54972015888,/g3t1_2,,running
Status,330,54972529206,/g3t1_2,,success
Status,332,55172022447,/g3t1_2,,running
Status,333,55172708961,/g3t1_2,,success
Status,335,55371987408,/g3t1_2,,running
Status,336,55372599112,/g3t1_2,,success
Status,338,55541436173,/g4t1,,success
Status,339,55572012551,/g3t1_2,,running
Status,340,55572515884,/g3t1_2,,success
Status,342,55772268999,/g3t1_2,,running
Status,343,55772859435,/g3t1_2,,success
Status,345,55972404672,/g3t1_2,,running
Status,346,55972939751,/g3t1_2,,success
Status,348,56172507895,/g3t1_2,,running
Status,349,56172753365,/g3t1_2,,fail
Status,351,56372673485,/g3t1_2,,running
Status,352,56372741621,/g3t1_2,,fail
Status,354,56541490068,/g4t1,,success
Status,355,56572738225,/g3t1_2,,running
Status,356,56572888294,/g3t1_2,,fail
Status,358,56772812512,/g3t1_2,,running
Status,359,56773197207,/g3t1_2,,success
Status,361,56972912359,/g3t1_2,,running
Status,362,56972983711,/g3t1_2,,fail
Status,364,57173197421,/g3t1_2,,running
Status,365,57173872644,/g3t1_2,,success
Status,367,57373211627,/g3t1_2,,running
Status,368,57373293001,/g3t1_2,,fail
Status,370,57541694186,/g4t1,,success
Status,371,57573414034,/g3t1_2,,running
Status,372,57573480109,/g3t1_2,,fail
Status,374,57773674018,/g3t1_2,,running
Status,375,57773943598,/g3t1_2,,success
Status,377,57973591616,/g3t1_2,,running
Status,378,57973672165,/g3t1_2,,fail
Status,380,58173800686,/g3t1_2,,running
Status,381,58174174463,/g3t1_2,,success
Status,383,58374105579,/g3t1_2,,running
Status,384,58374723351,/g3t1_2,,success
Status,386,58541817311,/g4t1,,success
Status,387,58574243689,/g3t1_2,,running
Status,388,58575012200,/g3t1_2,,success
Status,390,58773711533,/g3t1_2,,running
Status,391,58773899828,/g3t1_2,,success
Status,393,58974413602,/g3t1_2,,running
Status,394,58975051825,/g3t1_2,,success
Status,396,59174536426,/g3t1_2,,running
Status,397,59174953109,/g3t1_2,,success
Status,399,59374542088,/g3t1_2,,running
Status,400,59374864902,/g3t1_2,,fail
Status,402,59541676554,/g4t1,,success
Status,403,59574732419,/g3t1_2,,running
Status,404,59575116153,/g3t1_2,,success
Status,406,59775214053,/g3t1_2,,running
Status,407,59775280278,/g3t1_2,,success
Status,409,59975328891,/g3t1_2,,running
Status,410,59975780973,/g3t1_2,,success
Status,412,60175232721,/g3t1_2,,running
Status,413,60175899956,/g3t1_2,,success
Status,415,60375790145,/g3t1_2,,running
Status,416,60376244033,/g3t1_2,,success
Status,418,60542016910,/g4t1,,success
Status,419,60575522838,/g3t1_2,,running
Status,420,60576160160,/g3t1_2,,success
Status,422,60775840481,/g3t1_2,,running
Status,423,60775900970,/g3t1_2,,fail
Status,425,60976398359,/g3t1_2,,running
Status,426,60976465602,/g3t1_2,,success
Status,428,61176313216,/g3t1_2,,running
Status,429,61177067316,/g3t1_2,,success
Status,431,61376499342,/g3t1_2,,running
Status,432,61377092918,/g3t1_2,,success
Status,434,61542291156,/g4t1,,success
Status,435,61576380412,/g3t1_2,,running
Status,436,61576542522,/g3t1_2,,success
Status,438,61776696519,/g3t1_2,,running
Status,439,61777098355,/g3t1_2,,success
Status,441,61976573301,/g3t1_2,,running
Status,442,61977108156,/g3t1_2,,success
Status,444,62176826406,/g3t1_2,,running
Status,445,62177457278,/g3t1_2,,success
Status,447,62376825970,/g3t1_2,,running
Status,448,62377255576,/g3t1_2,,success
Status,450,62542258037,/g4t1,,success
Status,451,62577150943,/g3t1_2,,running
Status,452,62577324877,/g3t1_2,,fail
Status,454,62777206597,/g3t1_2,,running
Status,455,62777370163,/g3t1_2,,success
Status,457,62977311068,/g3t1_2,,running
Status,458,62977684331,/g3t1_2,,success
Status,460,63177463720,/g3t1_2,,running
Status,461,63177745066,/g3t1_2,,fail
Status,463,63377503852,/g3t1_2,,running
Status,464,63377776320,/g3t1_2,,success
Status,466,63543101712,/g4t1,,success
Status,467,63577635566,/g3t1_2,,running
Status,468,63577701071,/g3t1_2,,fail
Status,470,63777968354,/g3t1_2,,running
Status,471,63778231897,/g3t1_2,,success
Status,473,63977895699,/g3t1_2,,running
Status,474,63978568445,/g3t1_2,,success
Status,476,64178654738,/g3t1_2,,running
Status,477,64178719970,/g3t1_2,,success
Status,479,64378418199,/g3t1_2,,running
Status,480,64378482763,/g3t1_2,,fail
Status,482,64542925792,/g4t1,,success
Status,483,64578410625,/g3t1_2,,running
Status,484,64578722625,/g3t1_2,,fail
Status,486,64778798669,/g3t1_2,,running
Status,487,64779458414,/g3t1_2,,success
Status,489,64978877382,/g3t1_2,,running
Status,490,64979109145,/g3t1_2,,success
Status,492,65178860494,/g3t1_2,,running
Status,493,65178942200,/g3t1_2,,fail
Status,495,65378887198,/g3t1_2,,running
Status,496,65378958139,/g3t1_2,,fail
Status,498,65542882554,/g4t1,,success
Status,499,65579216784,/g3t1_2,,running
Status,500,65579288648,/g3t1_2,,fail
Status,502,65779571535,/g3t1_2,,running
Status,503,65779877324,/g3t1_2,,success
Status,505,65979314155,/g3t1_2,,running
Status,506,65979454955,/g3t1_2,,fail
Status,508,66179838429,/g3t1_2,,running
Status,509,66180334737,/g3t1_2,,success
Status,511,66379701556,/g3t1_2,,running
Status,512,66380131075,/g3t1_2,,fail
Status,514,66543349579,/g4t1,,success
Status,515,66580026771,/g3t1_2,,running
Status,516,66580091629,/g3t1_2,,fail
Status,518,66780241942,/g3t1_2,,running
Status,519,66780899083,/g3t1_2,,success
Status,521,66980127306,/g3t1_2,,running
Status,522,66980597156,/g3t1_2,,success
Status,524,67180332927,/g3t1_2,,running
Status,525,67180650576,/g3t1_2,,success
Status,527,67380586079,/g3t1_2,,running
Status,528,67381013372,/g3t1_2,,success
Status,530,67543650404,/g4t1,,success
Status,531,67580541781,/g3t1_2,,running
Status,532,67580840349,/g3t1_2,,success
Status,534,67780667604,/g3t1_2,,running
Status,535,67781304273,/g3t1_2,,success
Status,537,67980820590,/g3t1_2,,running
Status,538,67980967639,/g3t1_2,,success
Status,540,68180987811,/g3t1_2,,running
Status,541,68181062668,/g3t1_2,,fail
Status,543,68381231244,/g3t1_2,,running
Status,544,68381618927,/g3t1_2,,success
Status,546,68543576931,/g4t1,,success
Status,547,68581110601,/g3t1_2,,running
Status,548,68581458049,/g3t1_2,,success
Status,550,68780703298,/g3t1_2,,running
Status,551,68780852124,/g3t1_2,,success
Status,553,68981327157,/g3t1_2,,running
Status,554,68981754693,/g3t1_2,,success
Status,556,69181643830,/g3t1_2,,running
Status,557,69181966133,/g3t1_2,,success
Status,559,69381608739,/g3t1_2,,running
Status,560,69381884244,/g3t1_2,,success
Status,562,69544087194,/g4t1,,success
Status,563,69581830184,/g3t1_2,,running
Status,564,69581891986,/g3t1_2,,fail
Status,566,69781863718,/g3t1_2,,running
Status,567,69782678467,/g3t1_2,,success
Status,569,69981957089,/g3t1_2,,running
Status,570,69982228856,/g3t1_2,,success
Status,572,70182561804,/g3t1_2,,running
Status,573,70182625318,/g3t1_2,,success
Status,575,70382467764,/g3t1_2,,running
Status,576,70382703477,/g3t1_2,,fail
Status,578,70543895169,/g4t1,,success
Status,579,70582686886,/g3t1_2,,running
Status,580,70583048707,/g3t1_2,,success
Status,582,70783034111,/g3t1_2,,running
Status,583,70783142762,/g3t1_2,,fail
Status,585,70982959669,/g3t1_2,,running
Status,586,70983307574,/g3t1_2,,success
Status,588,71183461664,/g3t1_2,,running
Status,589,71183836728,/g3t1_2,,success
Status,591,71383332166,/g3t1_2,,running
Status,592,71383761330,/g3t1_2,,success
Status,594,71544391761,/g4t1,,success
Status,595,71583613963,/g3t1_2,,running
Status,596,71583694825,/g3t1_2,,fail
Status,598,71783951652,/g3t1_2,,running
Status,599,71784014135,/g3t1_2,,fail
Status,601,71984014083,/g3t1_2,,running
Status,602,71984127739,/g3t1_2,,success
Status,604,72184116196,/g3t1_2,,running
Status,605,72184179775,/g3t1_2,,fail
Status,607,72384219047,/g3t1_2,,running
Status,608,72384604449,/g3t1_2,,success
Status,610,72544370039,/g4t1,,success
Status,611,72584170730,/g3t1_2,,running
Status,612,72584754732,/g3t1_2,,success
Status,614,72784517897,/g3t1_2,,running
Status,615,72785160117,/g3t1_2,,success
Status,617,72984754184,/g3t1_2,,running
Status,618,72984817272,/g3t1_2,,success
Status,620,73184636102,/g3t1_2,,running
Status,621,73185120215,/g3t1_2,,fail
Status,623,73384977436,/g3t1_2,,running
Status,624,73385052311,/g3t1_2,,success
Status,626,73544571874,/g4t1,,success
Status,627,73584833416,/g3t1_2,,running
Status,628,73585528109,/g3t1_2,,success
Status,630,73785396237,/g3t1_2,,running
Status,631,73785700100,/g3t1_2,,success
Status,633,73985425256,/g3t1_2,,running
Status,634,73985490141,/g3t1_2,,success
Status,636,74185436094,/g3t1_2,,running
Status,637,74185878687,/g3t1_2,,success
Status,639,74385444422,/g3t1_2,,running
Status,640,74385744935,/g3t1_2,,fail
Status,642,74544753075,/g4t1,,success
Status,643,74585533602,/g3t1_2,,running
Status,644,74585772080,/g3t1_2,,success
Status,646,74785717246,/g3t1_2,,running
Status,647,74786160101,/g3t1_2,,success
Status,649,74985959331,/g3t1_2,,running
Status,650,74986025202,/g3t1_2,,success
Status,652,75186044026,/g3t1_2,,running
Status,653,75186465598,/g3t1_2,,success
Status,655,75386233640,/g3t1_2,,running
Status,656,75386295824,/g3t1_2,,success
Status,658,75544997516,/g4t1,,success
Status,659,75586280384,/g3t1_2,,running
Status,660,75586583751,/g3t1_2,,success
Status,662,75785705800,/g3t1_2,,running
Status,663,75785735041,/g3t1_2,,success
Status,665,75986361744,/g3t1_2,,running
Status,666,75986804105,/g3t1_2,,success
Status,668,76186626169,/g3t1_2,,running
Status,669,76186912140,/g3t1_2,,success
Status,671,76386735351,/g3t1_2,,running
Status,672,76387070019,/g3t1_2,,success
Status,674,76544878251,/g4t1,,success
Status,675,76586911183,/g3t1_2,,running
Status,676,76587739408,/g3t1_2,,success
Status,678,76787430729,/g3t1_2,,running
Status,679,76788192036,/g3t1_2,,success
Status,681,76987250383,/g3t1_2,,running
Status,682,76987423912,/g3t1_2,,fail
Status,684,77187541083,/g3t1_2,,running
Status,685,77187867064,/g3t1_2,,success
Status,687,77387680990,/g3t1_2,,running
Status,688,77388088078,/g3t1_2,,success
Status,690,77545337540,/g4t1,,success
Status,691,77587957550,/g3t1_2,,running
Status,692,77588421675,/g3t1_2,,success
Status,694,77787822886,/g3t1_2,,running
Status,695,77788095511,/g3t1_2,,success
Status,697,77988088563,/g3t1_2,,running
Status,698,77988541143,/g3t1_2,,success
Status,700,78188451197,/g3t1_2,,running
Status,701,78188849504,/g3t1_2,,success
Status,703,78388451961,/g3t1_2,,running
Status,704,78388753788,/g3t1_2,,success
Status,706,78545342641,/g4t1,,success
Status,707,78588646456,/g3t1_2,,running
Status,708,78589076971,/g3t1_2,,success
Status,710,78788080712,/g3t1_2,,running
Status,711,78788275143,/g3t1_2,,success
Status,713,78988749256,/g3t1_2,,running
Status,714,78989079145,/g3t1_2,,success
Status,716,79188949930,/g3t1_2,,running
Status,717,79189018993,/g3t1_2,,fail
Status,719,79389159716,/g3t1_2,,running
Status,720,79389236022,/g3t1_2,,success
Status,722,79545493799,/g4t1,,success
Status,723,79589280479,/g3t1_2,,running
Status,724,79589342970,/g3t1_2,,fail
Status,726,79789279222,/g3t1_2,,running
Status,727,79789999383,/g3t1_2,,fail
Status,729,79989503876,/g3t1_2,,running
Status,730,79989916193,/g3t1_2,,success
Status,732,80189606762,/g3t1_2,,running
Status,733,80190072335,/g3t1_2,,success
Status,735,80389700774,/g3t1_2,,running
Status,736,80390303784,/g3t1_2,,success
Status,738,80545952078,/g4t1,,success
Status,739,80589964737,/g3t1_2,,running
Status,740,80590458026,/g3t1_2,,success
Status,742,80790113886,/g3t1_2,,running
Status,743,80790176954,/g3t1_2,,fail
Status,745,80990190061,/g3t1_2,,running
Status,746,80990253811,/g3t1_2,,fail
Status,748,81190334578,/g3t1_2,,running
Status,749,81190400721,/g3t1_2,,fail
Status,751,81390526541,/g3t1_2,,running
Status,752,81391243460,/g3t1_2,,success
Status,754,81545855293,/g4t1,,success
Status,755,81590570208,/g3t1_2,,running
Status,756,81590634270,/g3t1_2,,fail
Status,758,81790756310,/g3t1_2,,running
Status,759,81791328527,/g3t1_2,,success
Status,761,81990761335,/g3t1_2,,running
Status,762,81991126387,/g3t1_2,,success
Status,764,82191146594,/g3t1_2,,running
Status,765,82191589064,/g3t1_2,,success
Status,767,82391216006,/g3t1_2,,running
Status,768,82391566735,/g3t1_2,,success
Status,770,82546077331,/g4t1,,success
Status,771,82591476534,/g3t1_2,,running
Status,772,82591707063,/g3t1_2,,success
Status,774,82791467903,/g3t1_2,,running
Status,775,82791855261,/g3t1_2,,fail
Status,777,82991721344,/g3t1_2,,running
Status,778,82991815514,/g3t1_2,,success
Status,780,83191932791,/g3t1_2,,running
Status,781,83192228551,/g3t1_2,,success
Status,783,83391870268,/g3t1_2,,running
Status,784,83392578103,/g3t1_2,,success
Status,786,83546247486,/g4t1,,success
Status,787,83592034620,/g3t1_2,,running
Status,788,83592672510,/g3t1_2,,success
Status,790,83792413220,/g3t1_2,,running
Status,791,83792476330,/g3t1_2,,fail
Status,793,83992505884,/g3t1_2,,running
Status,794,83992571145,/g3t1_2,,fail
Status,796,84192655637,/g3t1_2,,running
Status,797,84192726685,/g3t1_2,,fail
Status,799,84392658089,/g3t1_2,,running
Status,800,84393018357,/g3t1_2,,success
Status,802,84546081146,/g4t1,,success
Status,803,84592766410,/g3t1_2,,running
Status,804,84593127580,/g3t1_2,,success
Status,806,84792725395,/g3t1_2,,running
Status,807,84793076764,/g3t1_2,,fail
Status,809,84992824289,/g3t1_2,,running
Status,810,84993450441,/g3t1_2,,success
Status,812,85193076061,/g3t1_2,,running
Status,813,85193163472,/g3t1_2,,fail
Status,815,85393113425,/g3t1_2,,running
Status,816,85393463815,/g3t1_2,,fail
Status,818,85546234176,/g4t1,,success
Status,819,85593368965,/g3t1_2,,running
Status,820,85593446840,/g3t1_2,,success
Status,822,85793521803,/g3t1_2,,running
Status,823,85794195509,/g3t1_2,,fail
Status,825,85993605933,/g3t1_2,,running
Status,826,85994493267,/g3t1_2,,success
Status,828,86193840551,/g3t1_2,,running
Status,829,86194204841,/g3t1_2,,success
Status,831,86394281523,/g3t1_2,,running
Status,832,86394410560,/g3t1_2,,success
Status,834,86546844289,/g4t1,,success
Status,835,86594062218,/g3t1_2,,running
Status,836,86594264893,/g3t1_2,,fail
Status,838,86793634845,/g3t1_2,,running
Status,839,86793836608,/g3t1_2,,success
Status,841,86994419982,/g3t1_2,,running
Status,842,86994482445,/g3t1_2,,success
Status,844,87194320992,/g3t1_2,,running
Status,845,87194755861,/g3t1_2,,success
Status,847,87394929463,/g3t1_2,,running
Status,848,87395317344,/g3t1_2,,success
Status,850,87546926439,/g4t1,,success
Status,851,87594856482,/g3t1_2,,running
Status,852,87594921485,/g3t1_2,,fail
Status,854,87794896923,/g3t1_2,,running
Status,855,87795533876,/g3t1_2,,success
Status,857,87995003014,/g3t1_2,,running
Status,858,87995065930,/g3t1_2,,fail
Status,860,88195177903,/g3t1_2,,running
Status,861,88195593824,/g3t1_2,,success
Status,863,88395274053,/g3t1_2,,running
Status,864,88395660922,/g3t1_2,,success
Status,866,88546683722,/g4t1,,success
Status,867,88594572035,/g3t1_2,,running
Status,868,88594697734,/g3t1_2,,success
Status,870,88794890796,/g3t1_2,,running
Status,871,88795045530,/g3t1_2,,success
Status,873,88994759080,/g3t1_2,,running
Status,874,88994797081,/g3t1_2,,success
Status,876,89195824937,/g3t1_2,,running
Status,877,89195892634,/g3t1_2,,fail
Status,879,89395831810,/g3t1_2,,running
Status,880,89395914529,/g3t1_2,,fail
Status,882,89547017359,/g4t1,,success
Status,883,89595881926,/g3t1_2,,running
Status,884,89596385783,/g3t1_2,,success
Status,886,89796135421,/g3t1_2,,running
Status,887,89796459471,/g3t1_2,,fail
Status,889,89996264134,/g3t1_2,,running
Status,890,89996324637,/g3t1_2,,success
Status,892,90196172674,/g3t1_2,,running
Status,893,90197118200,/g3t1_2,,success
Status,895,90396528389,/g3t1_2,,running
Status,896,90396600063,/g3t1_2,,success
Status,898,90547066736,/g4t1,,success
Status,899,90596698024,/g3t1_2,,running
Status,900,90596995384,/g3t1_2,,fail
Status,902,90796841417,/g3t1_2,,running
Status,903,90797104431,/g3t1_2,,success
Status,905,90996875473,/g3t1_2,,running
Status,906,90997457771,/g3t1_2,,success
Status,908,91197173927,/g3t1_2,,running
Status,909,91197245238,/g3t1_2,,fail
Status,911,91397253969,/g3t1_2,,running
Status,912,91398095851,/g3t1_2,,success
Status,914,91547254213,/g4t1,,success
Status,915,91597336946,/g3t1_2,,running
Status,916,91597423905,/g3t1_2,,success
Status,918,91797400719,/g3t1_2,,running
Status,919,91797795943,/g3t1_2,,success
Status,921,91996767017,/g3t1_2,,running
Status,922,91996951170,/g3t1_2,,success
Status,924,92197767881,/g3t1_2,,running
Status,925,92197828798,/g3t1_2,,success
Status,927,92397362499,/g3t1_2,,running
Status,928,92397940989,/g3t1_2,,success
Status,930,92547130962,/g4t1,,success
Status,931,92597329299,/g3t1_2,,running
Status,932,92597695965,/g3t1_2,,success
Status,934,92797376699,/g3t1_2,,running
Status,935,92797402776,/g3t1_2,,success
Status,937,92997670269,/g3t1_2,,running
Status,938,92997718156,/g3t1_2,,fail
Status,940,93197647689,/g3t1_2,,running
Status,941,93198137289,/g3t1_2,,success
Status,943,93397796737,/g3t1_2,,running
Status,944,93397913907,/g3t1_2,,fail
Status,945,93547257374,/g4t1,,success
Status,947,93597740058,/g3t1_2,,running
Status,948,93597889301,/g3t1_2,,success
Status,950,93798133154,/g3t1_2,,running
Status,951,93798198743,/g3t1_2,,success
Status,953,93998127695,/g3t1_2,,running
Status,954,93998166449,/g3t1_2,,fail
Status,956,94198150651,/g3t1_2,,running
Status,957,94198273001,/g3t1_2,,success
Status,959,94398300123,/g3t1_2,,running
Status,960,94398461412,/g3t1_2,,success
Status,961,94547004898,/g4t1,,success
Status,963,94598650543,/g3t1_2,,running
Status,964,94598687229,/g3t1_2,,fail
Status,966,94799180175,/g3t1_2,,running
Status,967,94799575313,/g3t1_2,,fail
Status,969,94999428001,/g3t1_2,,running
Status,970,94999501238,/g3t1_2,,fail
Status,972,95199864322,/g3t1_2,,running
Status,973,95200220742,/g3t1_2,,success
Status,975,95399570062,/g3t1_2,,running
Status,976,95399976683,/g3t1_2,,success
Status,977,95548010994,/g4t1,,success
Status,979,95600109692,/g3t1_2,,running
Status,980,95600751247,/g3t1_2,,success
Status,982,95799979687,/g3t1_2,,running
Status,983,95800352989,/g3t1_2,,success
Status,985,96000300632,/g3t1_2,,running
Status,986,96001202327,/g3t1_2,,success
Status,988,96200223473,/g3t1_2,,running
Status,989,96200675624,/g3t1_2,,success
Status,991,96400591315,/g3t1_2,,running
Status,992,96400689415,/g3t1_2,,success
Status,993,96548308258,/g4t1,,success
Status,995,96600587966,/g3t1_2,,running
Status,996,96600840695,/g3t1_2,,success
Status,998,96800571568,/g3t1_2,,running
Status,999,96800874874,/g3t1_2,,success
Status,1001,97000657493,/g3t1_2,,running
Status,1002,97001550753,/g3t1_2,,success
Status,1004,97200115977,/g3t1_2,,running
Status,1005,97200136491,/g3t1_2,,fail
Status,1007,97400498260,/g3t1_2,,running
Status,1008,97400792053,/g3t1_2,,success
Status,1009,97547263831,/g4t1,,success
Status,1011,97600698328,/g3t1_2,,running
Status,1012,97600917938,/g3t1_2,,success
Status,1014,97801041309,/g3t1_2,,running
Status,1015,97801560748,/g3t1_2,,success
Status,1017,98001187296,/g3t1_2,,running
Status,1018,98001635156,/g3t1_2,,success
Status,1020,98201366564,/g3t1_2,,running
Status,1021,98201888169,/g3t1_2,,success
Status,1023,98401524395,/g3t1_2,,running
Status,1024,98402150182,/g3t1_2,,success
Status,1025,98548422710,/g4t1,,success
Status,1027,98601567390,/g3t1_2,,running
Status,1028,98601855413,/g3t1_2,,success
Status,1030,98801396351,/g3t1_2,,running
Status,1031,98801442387,/g3t1_2,,success
Status,1033,99001936161,/g3t1_2,,running
Status,1034,99001998541,/g3t1_2,,success
Status,1036,99201877474,/g3t1_2,,running
Status,1037,99202251254,/g3t1_2,,success
Status,1039,99401938641,/g3t1_2,,running
Status,1040,99402741833,/g3t1_2,,success
Status,1041,99549186905,/g4t1,,success
Status,1043,99602082552,/g3t1_2,,running
Status,1044,99602383508,/g3t1_2,,success
Status,1046,99802347471,/g3t1_2,,running
Status,1047,99802733301,/g3t1_2,,success
Status,1049,100002548065,/g3t1_2,,running
Status,1050,100003007073,/g3t1_2,,success
Status,1052,100202445457,/g3t1_2,,running
Status,1053,100202958446,/g3t1_2,,success
Status,1055,100402680414,/g3t1_2,,running
Status,1056,100402753267,/g3t1_2,,fail
Status,1057,100549138861,/g4t1,,success
Status,1059,100602906543,/g3t1_2,,running
Status,1060,100603314973,/g3t1_2,,success
Status,1062,100802921208,/g3t1_2,,running
Status,1063,100803313011,/g3t1_2,,success
Status,1065,101003037437,/g3t1_2,,running
Status,1066,101003682595,/g3t1_2,,fail
Status,1068,101203214082,/g3t1_2,,running
Status,1069,101203935896,/g3t1_2,,success
Status,1071,101403558822,/g3t1_2,,running
Status,1072,101403618980,/g3t1_2,,success
Status,1073,101549572867,/g4t1,,success
Status,1075,101603571141,/g3t1_2,,running
Status,1076,101603627093,/g3t1_2,,fail
Status,1078,101803660290,/g3t1_2,,running
Status,1079,101804047337,/g3t1_2,,fail
Status,1081,102004017378,/g3t1_2,,running
Status,1082,102004352489,/g3t1_2,,success
Status,1084,102203956531,/g3t1_2,,running
Status,1085,102204221931,/g3t1_2,,success
Status,1087,102404142842,/g3t1_2,,running
Status,1088,102404670269,/g3t1_2,,success
Status,1089,102549518659,/g4t1,,success
Status,1091,102604321524,/g3t1_2,,running
Status,1092,102604761203,/g3t1_2,,success
Status,1094,102804424856,/g3t1_2,,running
Status,1095,102805012118,/g3t1_2,,success
Status,1097,103004544354,/g3t1_2,,running
Status,1098,103004912264,/g3t1_2,,success
Status,1100,103204770876,/g3t1_2,,running
Status,1101,103205031704,/g3t1_2,,success
Status,1103,103404736664,/g3t1_2,,running
Status,1104,103405030301,/g3t1_2,,success
Status,1105,103549921232,/g4t1,,success
Status,1107,103604963969,/g3t1_2,,running
Status,1108,103605171637,/g3t1_2,,fail
Status,1110,103804764597,/g3t1_2,,running
Status,1111,103804813110,/g3t1_2,,success
Status,1113,104005168063,/g3t1_2,,running
Status,1114,104005440601,/g3t1_2,,success
Status,1116,104205428639,/g3t1_2,,running
Status,1117,104205894531,/g3t1_2,,success
Status,1119,104405493200,/g3t1_2,,running
Status,1120,104405557023,/g3t1_2,,fail
Status,1121,104550055240,/g4t1,,success
Status,1123,104605517990,/g3t1_2,,running
Status,1124,104605581837,/g3t1_2,,fail
Status,1126,104805575954,/g3t1_2,,running
Status,1127,104805934287,/g3t1_2,,success
Status,1129,105005760934,/g3t1_2,,running
Status,1130,105006064718,/g3t1_2,,success
Status,1132,105206238547,/g3t1_2,,running
Status,1133,105206302786,/g3t1_2,,fail
Status,1135,105405973732,/g3t1_2,,running
Status,1136,105406309650,/g3t1_2,,success
Status,1137,105550474386,/g4t1,,success
Status,1139,105606044343,/g3t1_2,,running
Status,1140,105606429649,/g3t1_2,,success
Status,1142,105806248599,/g3t1_2,,running
Status,1143,105806604707,/g3t1_2,,success
Status,1145,106006356788,/g3t1_2,,running
Status,1146,106006805749,/g3t1_2,,success
Status,1148,106206661690,/g3t1_2,,running
Status,1149,106207344316,/g3t1_2,,success
Status,1151,106406590436,/g3t1_2,,running
Status,1152,106407326388,/g3t1_2,,success
Status,1153,106550730753,/g4t1,,success
Status,1155,106606798371,/g3t1_2,,running
Status,1156,106606859709,/g3t1_2,,fail
Status,1158,106807008232,/g3t1_2,,running
Status,1159,106807082761,/g3t1_2,,fail
Status,1161,107007045156,/g3t1_2,,running
Status,1162,107007351014,/g3t1_2,,success
Status,1164,107207271407,/g3t1_2,,running
Status,1165,107207700944,/g3t1_2,,success
Status,1167,107407212095,/g3t1_2,,running
Status,1168,107407617240,/g3t1_2,,success
Status,1169,107550893726,/g4t1,,success
Status,1171,107607309954,/g3t1_2,,running
Status,1172,107608015304,/g3t1_2,,fail
Status,1174,107807525490,/g3t1_2,,running
Status,1175,107807971386,/g3t1_2,,success
Status,1177,108007586771,/g3t1_2,,running
Status,1178,108008976897,/g3t1_2,,success
Status,1180,108207756227,/g3t1_2,,running
Status,1181,108208442533,/g3t1_2,,success
Status,1183,108407891060,/g3t1_2,,running
Status,1184,108408236153,/g3t1_2,,success
Status,1185,108551138023,/g4t1,,success
Status,1187,108608066797,/g3t1_2,,running
Status,1188,108608594274,/g3t1_2,,success
Status,1190,108808207477,/g3t1_2,,running
Status,1191,108808528753,/g3t1_2,,fail
Status,1193,109008446522,/g3t1_2,,running
Status,1194,109009470601,/g3t1_2,,success
Status,1196,109208668581,/g3t1_2,,running
Status,1197,109208743491,/g3t1_2,,success
Status,1199,109408578469,/g3t1_2,,running
Status,1200,109408658756,/g3t1_2,,success
Status,1201,109551249947,/g4t1,,success
Status,1203,109608598743,/g3t1_2,,running
Status,1204,109608858757,/g3t1_2,,success
Status,1206,109808292905,/g3t1_2,,running
Status,1207,109808345339,/g3t1_2,,fail
Status,1209,110008874753,/g3t1_2,,running
Status,1210,110009216988,/g3t1_2,,success
Status,1212,110208929090,/g3t1_2,,running
Status,1213,110209439324,/g3t1_2,,success
Status,1215,110409078965,/g3t1_2,,running
Status,1216,110409430903,/g3t1_2,,fail
Status,1217,110551492181,/g4t1,,success
Status,1219,110609350865,/g3t1_2,,running
Status,1220,110609707179,/g3t1_2,,success
Status,1222,110809281816,/g3t1_2,,running
Status,1223,110809518370,/g3t1_2,,success
Status,1225,111009421674,/g3t1_2,,running
Status,1226,111009755262,/g3t1_2,,success
Status,1228,111209591038,/g3t1_2,,running
Status,1229,111209663554,/g3t1_2,,success
Status,1231,111409744435,/g3t1_2,,running
Status,1232,111410227372,/g3t1_2,,success
Status,1233,111552108660,/g4t1,,success
Status,1235,111610103220,/g3t1_2,,running
Status,1236,111610166733,/g3t1_2,,success
Status,1238,111810146831,/g3t1_2,,running
Status,1239,111810546776,/g3t1_2,,success
Status,1241,112010391131,/g3t1_2,,running
Status,1242,112010896529,/g3t1_2,,success
Status,1244,112210315727,/g3t1_2,,running
Status,1245,112210382421,/g3t1_2,,fail
Status,1247,112410109457,/g3t1_2,,running
Status,1248,112410337395,/g3t1_2,,success
Status,1249,112552021912,/g4t1,,success
Status,1251,112610692868,/g3t1_2,,running
Status,1252,112611184628,/g3t1_2,,success
Status,1254,112809988374,/g3t1_2,,running
Status,1255,112810011066,/g3t1_2,,success
Status,1257,113010993816,/g3t1_2,,running
Status,1258,113011056997,/g3t1_2,,fail
Status,1260,113211028283,/g3t1_2,,running
Status,1261,113211909431,/g3t1_2,,success
Status,1263,113411235332,/g3t1_2,,running
Status,1264,113411650633,/g3t1_2,,fail
Status,1265,113552463410,/g4t1,,success
Status,1267,113611327589,/g3t1_2,,running
Status,1268,113612189260,/g3t1_2,,success
Status,1270,113811035298,/g3t1_2,,running
Status,1271,113811304422,/g3t1_2,,success
Status,1273,114011307011,/g3t1_2,,running
Status,1274,114011707616,/g3t1_2,,success
Status,1276,114211536525,/g3t1_2,,running
Status,1277,114212086884,/g3t1_2,,success
Status,1279,114412110697,/g3t1_2,,running
Status,1280,114412193129,/g3t1_2,,success
Status,1281,114552468019,/g4t1,,success
Status,1283,114612091907,/g3t1_2,,running
Status,1284,114612157884,/g3t1_2,,fail
Status,1286,114812114028,/g3t1_2,,running
Status,1287,114812190914,/g3t1_2,,fail
Status,1289,115012412222,/g3t1_2,,running
Status,1290,115013169357,/g3t1_2,,success
Status,1292,115212353981,/g3t1_2,,running
Status,1293,115212810344,/g3t1_2,,success
Status,1295,115412361855,/g3t1_2,,running
Status,1296,115412561461,/g3t1_2,,fail
Status,1297,115552481578,/g4t1,,success
Status,1299,115612573047,/g3t1_2,,running
Status,1300,115612959686,/g3t1_2,,success
Status,1302,115812980678,/g3t1_2,,running
Status,1303,115813042465,/g3t1_2,,success
Status,1305,116013075952,/g3t1_2,,running
Status,1306,116013132202,/g3t1_2,,success
Status,1308,116212945575,/g3t1_2,,running
Status,1309,116212999223,/g3t1_2,,fail
Status,1311,116413034078,/g3t1_2,,running
Status,1312,116413364277,/g3t1_2,,success
Status,1313,116553223886,/g4t1,,success
Status,1315,116613309605,/g3t1_2,,running
Status,1316,116613610201,/g3t1_2,,success
Status,1318,116813463611,/g3t1_2,,running
Status,1319,116813525421,/g3t1_2,,fail
Status,1321,117013693779,/g3t1_2,,running
Status,1322,117013758439,/g3t1_2,,success
Status,1324,117213569982,/g3t1_2,,running
Status,1325,117213832937,/g3t1_2,,success
Status,1327,117413937771,/g3t1_2,,running
Status,1328,117414463507,/g3t1_2,,success
Status,1329,117553187483,/g4t1,,success
Status,1331,117613944590,/g3t1_2,,running
Status,1332,117614398675,/g3t1_2,,success
Status,1334,117813338216,/g3t1_2,,running
Status,1335,117813360583,/g3t1_2,,fail
Status,1337,118014365017,/g3t1_2,,running
Status,1338,118014775014,/g3t1_2,,success
Status,1340,118214389091,/g3t1_2,,running
Status,1341,118214847502,/g3t1_2,,success
Status,1343,118414556398,/g3t1_2,,running
Status,1344,118415024420,/g3t1_2,,fail
Status,1345,118553348372,/g4t1,,success
Status,1347,118615001760,/g3t1_2,,running
Status,1348,118615530573,/g3t1_2,,success
Status,1350,118815218937,/g3t1_2,,running
Status,1351,118815752160,/g3t1_2,,success
Status,1353,119015188315,/g3t1_2,,running
Status,1354,119015787273,/g3t1_2,,success
Status,1356,119215642129,/g3t1_2,,running
Status,1357,119215706362,/g3t1_2,,fail
Status,1359,119415620773,/g3t1_2,,running
Status,1360,119416054128,/g3t1_2,,success
Status,1361,119553286756,/g4t1,,success
Status,1363,119615550634,/g3t1_2,,running
Status,1364,119616064512,/g3t1_2,,success
Status,1366,119815107659,/g3t1_2,,running
Status,1367,119815211489,/g3t1_2,,success
Status,1369,120015903949,/g3t1_2,,running
Status,1370,120016329935,/g3t1_2,,success
Status,1372,120215969800,/g3t1_2,,running
Status,1373,120216513540,/g3t1_2,,success
Status,1375,120416121762,/g3t1_2,,running
Status,1376,120416793692,/g3t1_2,,success
Status,1377,120553616544,/g4t1,,success
Status,1379,120616304023,/g3t1_2,,running
Status,1380,120617100571,/g3t1_2,,success
Status,1382,120816234443,/g3t1_2,,running
Status,1383,120816719373,/g3t1_2,,success
Status,1385,121016471606,/g3t1_2,,running
Status,1386,121017052119,/g3t1_2,,success
Status,1388,121216671300,/g3t1_2,,running
Status,1389,121216919104,/g3t1_2,,success
Status,1391,121416657479,/g3t1_2,,running
Status,1392,121416711330,/g3t1_2,,fail
Status,1393,121552998059,/g4t1,,success
Status,1395,121616117711,/g3t1_2,,running
Status,1396,121616238214,/g3t1_2,,success
Status,1398,121816176634,/g3t1_2,,running
Status,1399,121816345652,/g3t1_2,,success
Status,1401,122016977917,/g3t1_2,,running
Status,1402,122017255975,/g3t1_2,,success
Status,1404,122217403105,/g3t1_2,,running
Status,1405,122217467082,/g3t1_2,,fail
Status,1407,122416680911,/g3t1_2,,running
Status,1408,122416771629,/g3t1_2,,success
Status,1409,122552865571,/g4t1,,success
Status,1411,122616974669,/g3t1_2,,running
Status,1412,122617001324,/g3t1_2,,fail
Status,1414,122816966073,/g3t1_2,,running
Status,1415,122817028892,/g3t1_2,,success
Status,1417,123017463162,/g3t1_2,,running
Status,1418,123017659964,/g3t1_2,,success
Status,1420,123217695867,/g3t1_2,,running
Status,1421,123218054481,/g3t1_2,,fail
Status,1423,123417467259,/g3t1_2,,running
Status,1424,123417619684,/g3t1_2,,success
Status,1425,123553985330,/g4t1,,success
Status,1427,123617589247,/g3t1_2,,running
Status,1428,123617622740,/g3t1_2,,success
Status,1430,123818125624,/g3t1_2,,running
Status,1431,123818425663,/g3t1_2,,fail
Status,1433,124018237255,/g3t1_2,,running
Status,1434,124018915637,/g3t1_2,,success
Status,1436,124218178725,/g3t1_2,,running
Status,1437,124219100378,/g3t1_2,,success
Status,1439,124417859430,/g3t1_2,,running
Status,1440,124417998024,/g3t1_2,,success
Status,1441,124553805345,/g4t1,,success
Status,1443,124618630701,/g3t1_2,,running
Status,1444,124619322951,/g3t1_2,,success
Status,1446,124818908636,/g3t1_2,,running
Status,1447,124818970566,/g3t1_2,,fail
Status,1449,125018451585,/g3t1_2,,running
Status,1450,125018524855,/g3t1_2,,success
Status,1452,125219159592,/g3t1_2,,running
Status,1453,125219243480,/g3t1_2,,fail
Status,1455,125419438284,/g3t1_2,,running
Status,1456,125419616801,/g3t1_2,,success
Status,1457,125554416748,/g4t1,,success
Status,1459,125619296102,/g3t1_2,,running
Status,1460,125619758050,/g3t1_2,,success
Status,1462,125819221687,/g3t1_2,,running
Status,1463,125819416693,/g3t1_2,,success
Status,1465,126019795630,/g3t1_2,,running
Status,1466,126019873601,/g3t1_2,,fail
Status,1468,126219271764,/g3t1_2,,running
Status,1469,126219293815,/g3t1_2,,success
Status,1471,126418982911,/g3t1_2,,running
Status,1472,126419042917,/g3t1_2,,success
Status,1473,126553302991,/g4t1,,success
Status,1475,126619724522,/g3t1_2,,running
Status,1476,126620415034,/g3t1_2,,success
Status,1478,126819830613,/g3t1_2,,running
Status,1479,126820370019,/g3t1_2,,success
Status,1481,127020065267,/g3t1_2,,running
Status,1482,127020518505,/g3t1_2,,success
Status,1484,127219800501,/g3t1_2,,running
Status,1485,127220011890,/g3t1_2,,success
Status,1487,127420128781,/g3t1_2,,running
Status,1488,127420582018,/g3t1_2,,success
Status,1489,127554070509,/g4t1,,success
Status,1491,127619974799,/g3t1_2,,running
Status,1492,127620345255,/g3t1_2,,success
Status,1494,127820324478,/g3t1_2,,running
Status,1495,127820755030,/g3t1_2,,success
Status,1497,128020869097,/g3t1_2,,running
Status,1498,128021275081,/g3t1_2,,success
Status,1500,128220826325,/g3t1_2,,running
Status,1501,128221039739,/g3t1_2,,success
Status,1503,128421063636,/g3t1_2,,running
Status,1504,128421446770,/g3t1_2,,success
Status,1505,128554394048,/g4t1,,success
Status,1507,128620330202,/g3t1_2,,running
Status,1508,128620359597,/g3t1_2,,success
Status,1510,128821428499,/g3t1_2,,running
Status,1511,128821515274,/g3t1_2,,success
Status,1513,129021192365,/g3t1_2,,running
Status,1514,129021696630,/g3t1_2,,success
Status,1516,129220935903,/g3t1_2,,running
Status,1517,129221488278,/g3t1_2,,success
Status,1519,129421407109,/g3t1_2,,running
Status,1520,129422318417,/g3t1_2,,success
Status,1521,129553852953,/g4t1,,success
Status,1523,129620731092,/g3t1_2,,running
Status,1524,129620755096,/g3t1_2,,success
Status,1526,129821594169,/g3t1_2,,running
Status,1527,129821855489,/g3t1_2,,success
Status,1529,130021658539,/g3t1_2,,running
Status,1530,130022089215,/g3t1_2,,success
Status,1532,130222148012,/g3t1_2,,running
Status,1533,130223244923,/g3t1_2,,success
Status,1535,130421071004,/g3t1_2,,running
Status,1536,130421152249,/g3t1_2,,success
Status,1537,130553672163,/g4t1,,success
Status,1539,130621283932,/g3t1_2,,running
Status,1540,130621305925,/g3t1_2,,fail
Status,1542,130821310450,/g3t1_2,,running
Status,1543,130821335722,/g3t1_2,,fail
Status,1545,131021324649,/g3t1_2,,running
Status,1546,131021412148,/g3t1_2,,success
Status,1548,131221585637,/g3t1_2,,running
Status,1549,131221608442,/g3t1_2,,fail
Status,1551,131421462129,/g3t1_2,,running
Status,1552,131421536869,/g3t1_2,,success
Status,1553,131553849832,/g4t1,,success
Status,1555,131621644151,/g3t1_2,,running
Status,1556,131621733468,/g3t1_2,,fail
Status,1558,131821760009,/g3t1_2,,running
Status,1559,131821783172,/g3t1_2,,success
Status,1561,132021780988,/g3t1_2,,running
Status,1562,132022002078,/g3t1_2,,success
Status,1564,132222428978,/g3t1_2,,running
Status,1565,132222682733,/g3t1_2,,success
Status,1567,132422636211,/g3t1_2,,running
Status,1568,132422696913,/g3t1_2,,fail
Status,1569,132554833960,/g4t1,,success
Status,1571,132623133294,/g3t1_2,,running
Status,1572,132623240753,/g3t1_2,,fail
Status,1574,132822278031,/g3t1_2,,running
Status,1575,132822370352,/g3t1_2,,success
Status,1577,133023001011,/g3t1_2,,running
Status,1578,133023049546,/g3t1_2,,fail
Status,1580,133223178431,/g3t1_2,,running
Status,1581,133223585300,/g3t1_2,,success
Status,1583,133423475740,/g3t1_2,,running
Status,1584,133424429307,/g3t1_2,,success
Status,1585,133555011770,/g4t1,,success
Status,1587,133622764693,/g3t1_2,,running
Status,1588,133622784922,/g3t1_2,,success
Status,1590,133822883878,/g3t1_2,,running
Status,1591,133822905370,/g3t1_2,,success
Status,1593,134023056963,/g3t1_2,,running
Status,1594,134023154646,/g3t1_2,,success
Status,1596,134223827413,/g3t1_2,,running
Status,1597,134224125648,/g3t1_2,,fail
Status,1599,134424125751,/g3t1_2,,running
Status,1600,134424890949,/g3t1_2,,success
Status,1601,134554338251,/g4t1,,success
Status,1603,134624251318,/g3t1_2,,running
Status,1604,134624670270,/g3t1_2,,success
Status,1606,134824366237,/g3t1_2,,running
Status,1607,134824526323,/g3t1_2,,fail
Status,1609,135023766972,/g3t1_2,,running
Status,1610,135023789391,/g3t1_2,,fail
Status,1612,135224173365,/g3t1_2,,running
Status,1613,135224734230,/g3t1_2,,success
Status,1615,135424926936,/g3t1_2,,running
Status,1616,135424992990,/g3t1_2,,success
Status,1617,135555452046,/g4t1,,success
Status,1619,135624887274,/g3t1_2,,running
Status,1620,135625514309,/g3t1_2,,success
Status,1622,135824891061,/g3t1_2,,running
Status,1623,135825613650,/g3t1_2,,success
Status,1625,136025059750,/g3t1_2,,running
Status,1626,136025851514,/g3t1_2,,success
Status,1628,136225603860,/g3t1_2,,running
Status,1629,136225686113,/g3t1_2,,success
Status,1631,136425344306,/g3t1_2,,running
Status,1632,136425733213,/g3t1_2,,success
Status,1633,136555149237,/g4t1,,success
Status,1635,136625629233,/g3t1_2,,running
Status,1636,136626021465,/g3t1_2,,success
Status,1638,136825654293,/g3t1_2,,running
Status,1639,136826044696,/g3t1_2,,fail
Status,1641,137025917492,/g3t1_2,,running
Status,1642,137026616904,/g3t1_2,,success
Status,1644,137226010867,/g3t1_2,,running
Status,1645,137226935625,/g3t1_2,,success
Status,1647,137426179853,/g3t1_2,,running
Status,1648,137427288066,/g3t1_2,,success
Status,1649,137555579705,/g4t1,,success
Status,1651,137625749902,/g3t1_2,,running
Status,1652,137626141345,/g3t1_2,,success
Status,1654,137826388929,/g3t1_2,,running
Status,1655,137826745938,/g3t1_2,,success
Status,1657,138026062807,/g3t1_2,,running
Status,1658,138026637132,/g3t1_2,,success
Status,1660,138226565365,/g3t1_2,,running
Status,1661,138227168260,/g3t1_2,,success
Status,1663,138426692377,/g3t1_2,,running
Status,1664,138427171862,/g3t1_2,,success
Status,1665,138555627142,/g4t1,,success
Status,1667,138626615210,/g3t1_2,,running
Status,1668,138626797171,/g3t1_2,,success
Status,1670,138826520157,/g3t1_2,,running
Status,1671,138826923222,/g3t1_2,,success
Status,1673,139027103662,/g3t1_2,,running
Status,1674,139027713981,/g3t1_2,,success
Status,1676,139226555092,/g3t1_2,,running
Status,1677,139226580239,/g3t1_2,,success
Status,1679,139427347382,/g3t1_2,,running
Status,1680,139427847392,/g3t1_2,,success
Status,1681,139555686515,/g4t1,,success
Status,1683,139627886390,/g3t1_2,,running
Status,1684,139627948292,/g3t1_2,,success
Status,1686,139827631304,/g3t1_2,,running
Status,1687,139828188061,/g3t1_2,,fail
Status,1689,140027792703,/g3t1_2,,running
Status,1690,140028126209,/g3t1_2,,fail
Status,1692,140228035965,/g3t1_2,,running
Status,1693,140228202220,/g3t1_2,,success
Status,1695,140428221294,/g3t1_2,,running
Status,1696,140428285037,/g3t1_2,,fail
Status,1697,140555836467,/g4t1,,success
Status,1699,140627796195,/g3t1_2,,running
Status,1700,140627967016,/g3t1_2,,success
Status,1702,140828418719,/g3t1_2,,running
Status,1703,140828748883,/g3t1_2,,success
Status,1705,141028535966,/g3t1_2,,running
Status,1706,141029100417,/g3t1_2,,success
Status,1708,141228786821,/g3t1_2,,running
Status,1709,141228926037,/g3t1_2,,success
Status,1711,141428657362,/g3t1_2,,running
Status,1712,141429113618,/g3t1_2,,success
Status,1713,141556563510,/g4t1,,success
Status,1715,141628975655,/g3t1_2,,running
Status,1716,141629659478,/g3t1_2,,success
Status,1718,141829131145,/g3t1_2,,running
Status,1719,141829658297,/g3t1_2,,success
Status,1721,142029155539,/g3t1_2,,running
Status,1722,142029607712,/g3t1_2,,success
Status,1724,142229570875,/g3t1_2,,running
Status,1725,142229626812,/g3t1_2,,success
Status,1727,142429459575,/g3t1_2,,running
Status,1728,142430270277,/g3t1_2,,success
Status,1729,142556253272,/g4t1,,success
Status,1731,142629641621,/g3t1_2,,running
Status,1732,142630263957,/g3t1_2,,fail
Status,1734,142829692163,/g3t1_2,,running
Status,1735,142829763284,/g3t1_2,,fail
Status,1737,143030118725,/g3t1_2,,running
Status,1738,143030514849,/g3t1_2,,success
Status,1740,143229940324,/g3t1_2,,running
Status,1741,143230308272,/g3t1_2,,success
Status,1743,143430087204,/g3t1_2,,running
Status,1744,143430609312,/g3t1_2,,success
Status,1745,143555757129,/g4t1,,success
Status,1747,143630348325,/g3t1_2,,running
Status,1748,143631078900,/g3t1_2,,success
Status,1750,143830418333,/g3t1_2,,running
Status,1751,143830785210,/g3t1_2,,success
Status,1753,144030428994,/g3t1_2,,running
Status,1754,144030794340,/g3t1_2,,success
Status,1756,144230543702,/g3t1_2,,running
Status,1757,144230844653,/g3t1_2,,success
Status,1759,144430287096,/g3t1_2,,running
Status,1760,144430533335,/g3t1_2,,success
Status,1761,144556850723,/g4t1,,success
Status,1763,144630790117,/g3t1_2,,running
Status,1764,144630852684,/g3t1_2,,fail
Status,1766,144830928513,/g3t1_2,,running
Status,1767,144831173457,/g3t1_2,,success
Status,1769,145031115186,/g3t1_2,,running
Status,1770,145031179829,/g3t1_2,,fail
Status,1772,145231324073,/g3t1_2,,running
Status,1773,145231661401,/g3t1_2,,success
Status,1775,145431580120,/g3t1_2,,running
Status,1776,145432004358,/g3t1_2,,success
Status,1777,145556926570,/g4t1,,success
Status,1779,145631699685,/g3t1_2,,running
Status,1780,145632338900,/g3t1_2,,success
Status,1782,145830953118,/g3t1_2,,running
Status,1783,145831191062,/g3t1_2,,success
Status,1785,146031698560,/g3t1_2,,running
Status,1786,146031758311,/g3t1_2,,fail
Status,1788,146231825987,/g3t1_2,,running
Status,1789,146232401012,/g3t1_2,,success
Status,1791,146432057446,/g3t1_2,,running
Status,1792,146434307710,/g3t1_2,,success
Status,1793,146556127367,/g4t1,,success
Status,1795,146632224081,/g3t1_2,,running
Status,1796,146632612995,/g3t1_2,,success
Status,1798,146832770827,/g3t1_2,,running
Status,1799,146832868547,/g3t1_2,,success
Status,1801,147032409931,/g3t1_2,,running
Status,1802,147032977373,/g3t1_2,,success
Status,1804,147232163490,/g3t1_2,,running
Status,1805,147232334110,/g3t1_2,,success
Status,1807,147432881872,/g3t1_2,,running
Status,1808,147432945376,/g3t1_2,,fail
Status,1809,147556025645,/g4t1,,success
Status,1811,147632208107,/g3t1_2,,running
Status,1812,147632311789,/g3t1_2,,success
Status,1814,147832384742,/g3t1_2,,running
Status,1815,147832409568,/g3t1_2,,success
Status,1817,148033033876,/g3t1_2,,running
Status,1818,148033743005,/g3t1_2,,success
Status,1820,148232492494,/g3t1_2,,running
Status,1821,148232871135,/g3t1_2,,success
Status,1823,148433400704,/g3t1_2,,running
Status,1824,148433546804,/g3t1_2,,success
Status,1825,148557216146,/g4t1,,success
Status,1827,148633506199,/g3t1_2,,running
Status,1828,148633571290,/g3t1_2,,success
Status,1830,148833400178,/g3t1_2,,running
Status,1831,148833848198,/g3t1_2,,success
Status,1833,149033609115,/g3t1_2,,running
Status,1834,149034153151,/g3t1_2,,success
Status,1836,149233633595,/g3t1_2,,running
Status,1837,149234041320,/g3t1_2,,success
Status,1839,149433895825,/g3t1_2,,running
Status,1840,149434322193,/g3t1_2,,success
Status,1841,149557252342,/g4t1,,success
Status,1843,149634160723,/g3t1_2,,running
Status,1844,149634434729,/g3t1_2,,fail
Status,1846,149834340621,/g3t1_2,,running
Status,1847,149834580920,/g3t1_2,,fail
Status,1849,150034335524,/g3t1_2,,running
Status,1850,150035069207,/g3t1_2,,success
Status,1852,150234311200,/g3t1_2,,running
Status,1853,150235149761,/g3t1_2,,success
Status,1855,150434689692,/g3t1_2,,running
Status,1856,150435219116,/g3t1_2,,fail
Status,1857,150557034902,/g4t1,,success
Status,1859,150634804625,/g3t1_2,,running
Status,1860,150635062612,/g3t1_2,,success
Status,1862,150834741718,/g3t1_2,,running
Status,1863,150835048728,/g3t1_2,,success
Status,1865,151034743520,/g3t1_2,,running
Status,1866,151035080244,/g3t1_2,,success
Status,1868,151234954791,/g3t1_2,,running
Status,1869,151235259067,/g3t1_2,,fail
Status,1871,151434988866,/g3t1_2,,running
Status,1872,151435252824,/g3t1_2,,fail
Status,1873,151557255080,/g4t1,,success
Status,1875,151634448949,/g3t1_2,,running
Status,1876,151634664343,/g3t1_2,,fail
Status,1878,151834616410,/g3t1_2,,running
Status,1879,151834815933,/g3t1_2,,success
Status,1881,152035074177,/g3t1_2,,running
Status,1882,152035403096,/g3t1_2,,success
Status,1884,152234761746,/g3t1_2,,running
Status,1885,152234785746,/g3t1_2,,fail
Status,1887,152434834448,/g3t1_2,,running
Status,1888,152434855012,/g3t1_2,,fail
Status,1889,152556566229,/g4t1,,success
Status,1891,152634904080,/g3t1_2,,running
Status,1892,152634919881,/g3t1_2,,success
Status,1894,152834948862,/g3t1_2,,running
Status,1895,152834971875,/g3t1_2,,fail
Status,1897,153035033203,/g3t1_2,,running
Status,1898,153035209404,/g3t1_2,,success
Status,1900,153235241875,/g3t1_2,,running
Status,1901,153235259532,/g3t1_2,,success
Status,1903,153435282232,/g3t1_2,,running
Status,1904,153435331214,/g3t1_2,,success
Status,1905,153557148924,/g4t1,,success
Status,1907,153635258715,/g3t1_2,,running
Status,1908,153635277141,/g3t1_2,,success
Status,1910,153835285975,/g3t1_2,,running
Status,1911,153835302883,/g3t1_2,,fail
Status,1913,154035409857,/g3t1_2,,running
Status,1914,154035435549,/g3t1_2,,success
Status,1916,154235449019,/g3t1_2,,running
Status,1917,154235540597,/g3t1_2,,success
Status,1919,154435561313,/g3t1_2,,running
Status,1920,154435577371,/g3t1_2,,success
Status,1921,154556691720,/g4t1,,success
Status,1923,154635724063,/g3t1_2,,running
Status,1924,154635765400,/g3t1_2,,fail
Status,1926,154835722655,/g3t1_2,,running
Status,1927,154835815217,/g3t1_2,,success
Status,1929,155035772118,/g3t1_2,,running
Status,1930,155035793626,/g3t1_2,,success
Status,1932,155235855289,/g3t1_2,,running
Status,1933,155235896433,/g3t1_2,,success
Status,1935,155435845813,/g3t1_2,,running
Status,1936,155435863265,/g3t1_2,,fail
Status,1937,155556736927,/g4t1,,success
Status,1939,155635955648,/g3t1_2,,running
Status,1940,155635990028,/g3t1_2,,fail
Status,1942,155836039488,/g3t1_2,,running
Status,1943,155836059661,/g3t1_2,,fail
Status,1945,156036143787,/g3t1_2,,running
Status,1946,156036222324,/g3t1_2,,success
Status,1948,156236301362,/g3t1_2,,running
Status,1949,156237064719,/g3t1_2,,success
Status,1951,156436297455,/g3t1_2,,running
Status,1952,156436320501,/g3t1_2,,success
Status,1953,156556845934,/g4t1,,success
Status,1955,156636453122,/g3t1_2,,running
Status,1956,156636540139,/g3t1_2,,success
Status,1958,156836497622,/g3t1_2,,running
Status,1959,156836513758,/g3t1_2,,fail
Status,1961,157036644595,/g3t1_2,,running
Status,1962,157036661274,/g3t1_2,,fail
Status,1964,157236656713,/g3t1_2,,running
Status,1965,157236717816,/g3t1_2,,success
Status,1967,157436727771,/g3t1_2,,running
Status,1968,157436814429,/g3t1_2,,success
Status,1969,157556876924,/g4t1,,success
Status,1971,157636892964,/g3t1_2,,running
Status,1972,157636910583,/g3t1_2,,success
Status,1974,157836974323,/g3t1_2,,running
Status,1975,157836995646,/g3t1_2,,success
Status,1977,158037054239,/g3t1_2,,running
Status,1978,158037074936,/g3t1_2,,success
Status,1980,158237130161,/g3t1_2,,running
Status,1981,158237151736,/g3t1_2,,success
Status,1983,158437230003,/g3t1_2,,running
Status,1984,158437248525,/g3t1_2,,fail
Status,1985,158557178923,/g4t1,,success
Status,1987,158640387068,/g3t1_2,,running
Status,1988,158640412183,/g3t1_2,,success
Status,1990,158837310126,/g3t1_2,,running
Status,1991,158837330825,/g3t1_2,,fail
Status,1993,159037405048,/g3t1_2,,running
Status,1994,159037430891,/g3t1_2,,success
Status,1996,159237613093,/g3t1_2,,running
Status,1997,159237640227,/g3t1_2,,success
Status,1999,159437788543,/g3t1_2,,running
Status,2000,159438010921,/g3t1_2,,success
Status,2001,159557079819,/g4t1,,success
Status,2003,159637659903,/g3t1_2,,running
Status,2004,159637676692,/g3t1_2,,fail
Status,2006,159837883605,/g3t1_2,,running
Status,2007,159837911425,/g3t1_2,,success
Status,2009,160037839418,/g3t1_2,,running
Status,2010,160037859281,/g3t1_2,,fail
Status,2012,160238690149,/g3t1_2,,running
Status,2013,160238744625,/g3t1_2,,fail
