
Status,2,20534656837,/g4t1,,init
Status,4,25747712616,/g3t1_1,,init
Status,5,25754398680,/g3t1_1,,init
Status,6,25754423142,/g3t1_1,,running
Status,7,25755577863,/g3t1_1,,success
Status,8,25953470008,/g3t1_3,,init
Status,10,25953576701,/g3t1_2,,init
Status,12,25960671872,/g3t1_2,,init
Status,13,25960685116,/g3t1_2,,running
Status,14,25960746399,/g3t1_3,,init
Status,15,25960756020,/g3t1_3,,running
Status,16,25962133232,/g3t1_2,,success
Status,17,25962299236,/g3t1_3,,success
Status,19,26155605254,/g3t1_4,,init
Status,20,26160942351,/g3t1_2,,running
Status,21,26160957614,/g3t1_2,,success
Status,22,26161138312,/g3t1_4,,init
Status,23,26161150668,/g3t1_4,,running
Status,24,26162484702,/g3t1_4,,success
Status,25,26361544189,/g3t1_2,,running
Status,26,26362353875,/g3t1_2,,success
Status,27,26544592364,/g4t1,,success
Status,28,26561956903,/g3t1_2,,running
Status,29,26562765774,/g3t1_2,,success
Status,30,26762190064,/g3t1_2,,running
Status,31,26762521910,/g3t1_2,,success
Status,32,26962362696,/g3t1_2,,running
Status,33,26962822317,/g3t1_2,,success
Status,34,27162412724,/g3t1_4,,running
Status,35,27162955420,/g3t1_2,,running
Status,36,27163492660,/g3t1_2,,success
Status,37,27173623510,/g3t1_4,,success
Status,38,27362711733,/g3t1_2,,running
Status,39,27363266568,/g3t1_2,,success
Status,40,27544801173,/g4t1,,success
Status,41,27562750811,/g3t1_2,,running
Status,42,27563434004,/g3t1_2,,success
Status,43,27763014022,/g3t1_2,,running
Status,44,27763374363,/g3t1_2,,success
Status,45,27963242485,/g3t1_2,,running
Status,46,27963506923,/g3t1_2,,success
Status,47,28162102139,/g3t1_4,,running
Status,48,28162983658,/g3t1_2,,running
Status,49,28163470359,/g3t1_2,,success
Status,50,28173726340,/g3t1_4,,success
Status,51,28363508118,/g3t1_2,,running
Status,52,28363820695,/g3t1_2,,success
Status,53,28544872159,/g4t1,,success
Status,54,28563363262,/g3t1_2,,running
Status,55,28563636297,/g3t1_2,,success
Status,56,28763557452,/g3t1_2,,running
Status,57,28764055220,/g3t1_2,,success
Status,58,28963856275,/g3t1_2,,running
Status,59,28964218608,/g3t1_2,,success
Status,60,29162357011,/g3t1_4,,running
Status,61,29163873836,/g3t1_2,,running
Status,62,29164206313,/g3t1_2,,success
Status,63,29175127753,/g3t1_4,,success
Status,64,29363971240,/g3t1_2,,running
Status,65,29364288538,/g3t1_2,,success
Status,66,29545143777,/g4t1,,success
Status,67,29564041065,/g3t1_2,,running
Status,68,29564594003,/g3t1_2,,success
Status,69,29764467334,/g3t1_2,,running
Status,70,29764906428,/g3t1_2,,success
Status,71,29963821110,/g3t1_2,,running
Status,72,29963950202,/g3t1_2,,success
Status,73,30162024621,/g3t1_4,,running
Status,74,30163824179,/g3t1_2,,running
Status,75,30164035770,/g3t1_2,,success
Status,76,30165159706,/g3t1_4,,success
Status,77,30365049100,/g3t1_2,,running
Status,78,30365120019,/g3t1_2,,success
Status,79,30545616623,/g4t1,,success
Status,80,30564614847,/g3t1_2,,running
Status,81,30565533999,/g3t1_2,,success
Status,82,30755743449,/g3t1_1,,running
Status,83,30756407537,/g3t1_1,,success
Status,84,30765272054,/g3t1_2,,running
Status,85,30765654087,/g3t1_2,,success
Status,86,30965108695,/g3t1_2,,running
Status,87,30965604143,/g3t1_2,,success
Status,88,31163008611,/g3t1_4,,running
Status,89,31165038777,/g3t1_2,,running
Status,90,31165854743,/g3t1_2,,success
Status,91,31171847357,/g3t1_4,,success
Status,92,31365077744,/g3t1_2,,running
Status,93,31365525507,/g3t1_2,,success
Status,94,31545646518,/g4t1,,success
Status,95,31565568561,/g3t1_2,,running
Status,96,31566153655,/g3t1_2,,success
Status,97,31765491845,/g3t1_2,,running
Status,98,31765885898,/g3t1_2,,success
Status,99,31965668027,/g3t1_2,,running
Status,100,31966344032,/g3t1_2,,success
Status,101,32163360710,/g3t1_4,,running
Status,102,32165714954,/g3t1_2,,running
Status,103,32166452059,/g3t1_2,,success
Status,104,32172575996,/g3t1_4,,success
Status,105,32365865211,/g3t1_2,,running
Status,106,32366735890,/g3t1_2,,success
Status,107,32546041196,/g4t1,,success
Status,108,32565959399,/g3t1_2,,running
Status,109,32566720324,/g3t1_2,,success
Status,110,32766069938,/g3t1_2,,running
Status,111,32766732963,/g3t1_2,,success
Status,112,32966706162,/g3t1_2,,running
Status,113,32967069898,/g3t1_2,,success
Status,114,33163316735,/g3t1_4,,running
Status,115,33166307432,/g3t1_2,,running
Status,116,33167191761,/g3t1_2,,success
Status,117,33171733647,/g3t1_4,,success
Status,118,33367037360,/g3t1_2,,running
Status,119,33367463618,/g3t1_2,,success
Status,120,33545950530,/g4t1,,success
Status,121,33566959922,/g3t1_2,,running
Status,122,33567295334,/g3t1_2,,success
Status,123,33767179661,/g3t1_2,,running
Status,124,33767889452,/g3t1_2,,success
Status,125,33967335191,/g3t1_2,,running
Status,126,33967527992,/g3t1_2,,success
Status,127,34163521614,/g3t1_4,,running
Status,128,34167336827,/g3t1_2,,running
Status,129,34168889289,/g3t1_2,,success
Status,130,34174818631,/g3t1_4,,success
Status,131,34367759700,/g3t1_2,,running
Status,132,34368075598,/g3t1_2,,success
Status,133,34546506314,/g4t1,,success
Status,134,34567612708,/g3t1_2,,running
Status,135,34568115102,/g3t1_2,,success
Status,136,34767775984,/g3t1_2,,running
Status,137,34768409245,/g3t1_2,,success
Status,138,34968095028,/g3t1_2,,running
Status,139,34968313254,/g3t1_2,,success
Status,140,35163705310,/g3t1_4,,running
Status,141,35167894123,/g3t1_2,,running
Status,142,35168589711,/g3t1_2,,success
Status,143,35172756035,/g3t1_4,,success
Status,144,35368472576,/g3t1_2,,running
Status,145,35368596792,/g3t1_2,,success
Status,146,35546376202,/g4t1,,success
Status,147,35568066647,/g3t1_2,,running
Status,148,35568350503,/g3t1_2,,success
Status,149,35755778140,/g3t1_1,,running
Status,150,35756045282,/g3t1_1,,success
Status,151,35767974289,/g3t1_2,,running
Status,152,35768575447,/g3t1_2,,success
Status,153,35961738384,/g3t1_3,,running
Status,154,35962415500,/g3t1_3,,success
Status,155,35968042944,/g3t1_2,,running
Status,156,35968797023,/g3t1_2,,success
Status,157,36163940332,/g3t1_4,,running
Status,158,36168349127,/g3t1_2,,running
Status,159,36168976085,/g3t1_2,,success
Status,160,36172752010,/g3t1_4,,success
Status,161,36368821470,/g3t1_2,,running
Status,162,36369161963,/g3t1_2,,success
Status,163,36546833803,/g4t1,,success
Status,164,36568871269,/g3t1_2,,running
Status,165,36569264990,/g3t1_2,,success
Status,166,36769021537,/g3t1_2,,running
Status,167,36769437686,/g3t1_2,,success
Status,168,36969152571,/g3t1_2,,running
Status,169,36969488878,/g3t1_2,,success
Status,170,37164107392,/g3t1_4,,running
Status,171,37169283451,/g3t1_2,,running
Status,172,37169767393,/g3t1_2,,success
Status,173,37243060149,/g3t1_4,,success
Status,174,37369472311,/g3t1_2,,running
Status,175,37369777075,/g3t1_2,,success
Status,176,37547091578,/g4t1,,success
Status,177,37569566127,/g3t1_2,,running
Status,178,37570115312,/g3t1_2,,success
Status,179,37770503532,/g3t1_2,,running
Status,180,37770647686,/g3t1_2,,success
Status,181,37970305517,/g3t1_2,,running
Status,182,37970959352,/g3t1_2,,success
Status,183,38164187001,/g3t1_4,,running
Status,184,38170066288,/g3t1_2,,running
Status,185,38170712382,/g3t1_2,,success
Status,186,38172277925,/g3t1_4,,success
Status,187,38370523817,/g3t1_2,,running
Status,188,38371004063,/g3t1_2,,success
Status,189,38547202684,/g4t1,,success
Status,190,38570777029,/g3t1_2,,running
Status,191,38570845552,/g3t1_2,,success
Status,192,38770623882,/g3t1_2,,running
Status,193,38771051623,/g3t1_2,,success
Status,194,38971049359,/g3t1_2,,running
Status,195,38971690733,/g3t1_2,,success
Status,196,39163597507,/g3t1_4,,running
Status,197,39167273919,/g3t1_4,,success
Status,198,39170214614,/g3t1_2,,running
Status,199,39170389091,/g3t1_2,,success
Status,200,39371526391,/g3t1_2,,running
Status,201,39372220993,/g3t1_2,,success
Status,202,39547214800,/g4t1,,success
Status,203,39571141433,/g3t1_2,,running
Status,204,39571964649,/g3t1_2,,success
Status,205,39771775689,/g3t1_2,,running
Status,206,39772224864,/g3t1_2,,success
Status,207,39971840649,/g3t1_2,,running
Status,208,39972549509,/g3t1_2,,success
Status,209,40164475189,/g3t1_4,,running
Status,210,40171490033,/g3t1_2,,running
Status,211,40172135713,/g3t1_2,,success
Status,212,40173097915,/g3t1_4,,success
Status,213,40371892689,/g3t1_2,,running
Status,214,40372438814,/g3t1_2,,success
Status,215,40547619707,/g4t1,,success
Status,216,40572170767,/g3t1_2,,running
Status,217,40572242866,/g3t1_2,,success
Status,218,40756191319,/g3t1_1,,running
Status,219,40756423732,/g3t1_1,,success
Status,220,40772165653,/g3t1_2,,running
Status,221,40772826061,/g3t1_2,,success
Status,222,40972561693,/g3t1_2,,running
Status,223,40973052403,/g3t1_2,,success
Status,225,41164298902,/g3t1_4,,running
Status,226,41172400649,/g3t1_2,,running
Status,227,41172471365,/g3t1_4,,success
Status,228,41172941726,/g3t1_2,,success
Status,229,41372734965,/g3t1_2,,running
Status,230,41373206209,/g3t1_2,,success
Status,231,41547468939,/g4t1,,success
Status,232,41573185345,/g3t1_2,,running
Status,233,41573251159,/g3t1_2,,success
Status,234,41772751885,/g3t1_2,,running
Status,235,41773142400,/g3t1_2,,success
Status,236,41973602920,/g3t1_2,,running
Status,237,41973673954,/g3t1_2,,success
Status,238,42164732394,/g3t1_4,,running
Status,239,42172814838,/g3t1_2,,running
Status,240,42173453890,/g3t1_2,,success
Status,241,42238980006,/g3t1_4,,success
Status,242,42373058869,/g3t1_2,,running
Status,243,42373802652,/g3t1_2,,success
Status,244,42547869841,/g4t1,,success
Status,245,42573257453,/g3t1_2,,running
Status,246,42573567962,/g3t1_2,,success
Status,247,42773797315,/g3t1_2,,running
Status,248,42774257752,/g3t1_2,,success
Status,249,42974244153,/g3t1_2,,running
Status,250,42974305014,/g3t1_2,,success
Status,251,43164677304,/g3t1_4,,running
Status,252,43172496740,/g3t1_4,,success
Status,253,43173681297,/g3t1_2,,running
Status,254,43174276831,/g3t1_2,,success
Status,255,43374212949,/g3t1_2,,running
Status,256,43374491266,/g3t1_2,,success
Status,257,43548025415,/g4t1,,success
Status,258,43574192717,/g3t1_2,,running
Status,259,43575271734,/g3t1_2,,success
Status,260,43774664587,/g3t1_2,,running
Status,261,43775079050,/g3t1_2,,success
Status,262,43974944120,/g3t1_2,,running
Status,263,43975733364,/g3t1_2,,success
Status,264,44164664426,/g3t1_4,,running
Status,265,44172343744,/g3t1_4,,success
Status,266,44174674123,/g3t1_2,,running
Status,267,44175290088,/g3t1_2,,success
Status,268,44375290207,/g3t1_2,,running
Status,269,44375712628,/g3t1_2,,success
Status,270,44548387010,/g4t1,,success
Status,271,44575044460,/g3t1_2,,running
Status,272,44575649977,/g3t1_2,,success
Status,273,44775263450,/g3t1_2,,running
Status,274,44775985668,/g3t1_2,,success
Status,275,44975695046,/g3t1_2,,running
Status,276,44976220803,/g3t1_2,,success
Status,277,45164975536,/g3t1_4,,running
Status,278,45175470186,/g3t1_2,,running
Status,279,45175856130,/g3t1_2,,success
Status,280,45178265363,/g3t1_4,,success
Status,281,45375578518,/g3t1_2,,running
Status,282,45376004552,/g3t1_2,,success
Status,283,45548168507,/g4t1,,success
Status,284,45575709574,/g3t1_2,,running
Status,285,45576147892,/g3t1_2,,success
Status,286,45756155075,/g3t1_1,,running
Status,287,45756414448,/g3t1_1,,success
Status,288,45776040771,/g3t1_2,,running
Status,289,45776614680,/g3t1_2,,success
Status,290,45962100138,/g3t1_3,,running
Status,291,45962664265,/g3t1_3,,fail
Status,292,45975811301,/g3t1_2,,running
Status,293,45976454531,/g3t1_2,,success
Status,294,46165445569,/g3t1_4,,running
Status,295,46175958672,/g3t1_2,,running
Status,296,46176260975,/g3t1_4,,success
Status,297,46176607194,/g3t1_2,,success
Status,300,46376638562,/g3t1_2,,running
Status,301,46376992852,/g3t1_2,,success
Status,302,46548550150,/g4t1,,success
Status,303,46576211262,/g3t1_2,,running
Status,304,46576718416,/g3t1_2,,success
Status,305,46776784235,/g3t1_2,,running
Status,306,46777610559,/g3t1_2,,success
Status,307,46976926931,/g3t1_2,,running
Status,308,46977254341,/g3t1_2,,success
Status,309,47165738784,/g3t1_4,,running
Status,310,47170807227,/g3t1_4,,fail
Status,311,47176764273,/g3t1_2,,running
Status,312,47177285734,/g3t1_2,,success
Status,313,47377395497,/g3t1_2,,running
Status,314,47377460080,/g3t1_2,,success
Status,315,47548474006,/g4t1,,success
Status,316,47577042590,/g3t1_2,,running
Status,317,47577789324,/g3t1_2,,success
Status,318,47777360649,/g3t1_2,,running
Status,319,47777652905,/g3t1_2,,success
Status,320,47977256409,/g3t1_2,,running
Status,321,47977660880,/g3t1_2,,success
Status,322,48165632275,/g3t1_4,,running
Status,323,48166487341,/g3t1_4,,fail
Status,324,48177648782,/g3t1_2,,running
Status,325,48177911702,/g3t1_2,,success
Status,326,48378040217,/g3t1_2,,running
Status,327,48378338295,/g3t1_2,,success
Status,328,48548712129,/g4t1,,success
Status,329,48577777688,/g3t1_2,,running
Status,330,48578232255,/g3t1_2,,success
Status,331,48778168263,/g3t1_2,,running
Status,332,48778543660,/g3t1_2,,success
Status,333,48978194059,/g3t1_2,,running
Status,334,48978940789,/g3t1_2,,success
Status,335,49166194247,/g3t1_4,,running
Status,336,49167054076,/g3t1_4,,fail
Status,337,49179241827,/g3t1_2,,running
Status,338,49179414103,/g3t1_2,,success
Status,339,49379287675,/g3t1_2,,running
Status,340,49380087584,/g3t1_2,,success
Status,341,49548957882,/g4t1,,success
Status,342,49579237844,/g3t1_2,,running
Status,343,49579300949,/g3t1_2,,success
Status,344,49779388780,/g3t1_2,,running
Status,345,49779950338,/g3t1_2,,success
Status,346,49979905332,/g3t1_2,,running
Status,347,49980375546,/g3t1_2,,success
Status,348,50165865582,/g3t1_4,,running
Status,349,50166599365,/g3t1_4,,fail
Status,350,50179604619,/g3t1_2,,running
Status,351,50180578013,/g3t1_2,,success
Status,352,50380205246,/g3t1_2,,running
Status,353,50380591814,/g3t1_2,,success
Status,354,50548800589,/g4t1,,success
Status,355,50580009697,/g3t1_2,,running
Status,356,50580339833,/g3t1_2,,success
Status,357,50755874927,/g3t1_1,,running
Status,358,50756692957,/g3t1_1,,success
Status,359,50780240041,/g3t1_2,,running
Status,360,50780488958,/g3t1_2,,success
Status,361,50980482635,/g3t1_2,,running
Status,362,50980885219,/g3t1_2,,success
Status,363,51166464085,/g3t1_4,,running
Status,364,51167074020,/g3t1_4,,fail
Status,365,51180409380,/g3t1_2,,running
Status,366,51181027715,/g3t1_2,,success
Status,367,51380522146,/g3t1_2,,running
Status,368,51381008381,/g3t1_2,,success
Status,369,51549146306,/g4t1,,success
Status,370,51580993230,/g3t1_2,,running
Status,371,51581625802,/g3t1_2,,success
Status,372,51780995690,/g3t1_2,,running
Status,373,51781593675,/g3t1_2,,success
Status,374,51981108491,/g3t1_2,,running
Status,375,51981499451,/g3t1_2,,success
Status,376,52166641319,/g3t1_4,,running
Status,377,52168119553,/g3t1_4,,fail
Status,378,52180980504,/g3t1_2,,running
Status,379,52181709729,/g3t1_2,,success
Status,380,52381472059,/g3t1_2,,running
Status,381,52382107066,/g3t1_2,,success
Status,382,52549188391,/g4t1,,success
Status,383,52581510033,/g3t1_2,,running
Status,384,52582285022,/g3t1_2,,success
Status,385,52781947906,/g3t1_2,,running
Status,386,52782797835,/g3t1_2,,success
Status,387,52982009196,/g3t1_2,,running
Status,388,52983037792,/g3t1_2,,success
Status,389,53166883194,/g3t1_4,,running
Status,390,53167683594,/g3t1_4,,fail
Status,391,53181841696,/g3t1_2,,running
Status,392,53182501061,/g3t1_2,,success
Status,393,53382682827,/g3t1_2,,running
Status,394,53383516169,/g3t1_2,,success
Status,395,53549768281,/g4t1,,success
Status,396,53582472531,/g3t1_2,,running
Status,397,53583064773,/g3t1_2,,success
Status,398,53782949754,/g3t1_2,,running
Status,399,53783551608,/g3t1_2,,success
Status,400,53983019698,/g3t1_2,,running
Status,401,53983634227,/g3t1_2,,success
Status,402,54166639500,/g3t1_4,,running
Status,403,54167601309,/g3t1_4,,fail
Status,404,54183130529,/g3t1_2,,running
Status,405,54183519309,/g3t1_2,,success
Status,406,54383406656,/g3t1_2,,running
Status,407,54384079423,/g3t1_2,,success
Status,408,54549877673,/g4t1,,success
Status,409,54583366425,/g3t1_2,,running
Status,410,54583828207,/g3t1_2,,success
Status,411,54783879527,/g3t1_2,,running
Status,412,54784276315,/g3t1_2,,success
Status,413,54983967482,/g3t1_2,,running
Status,414,54984607927,/g3t1_2,,success
Status,415,55166996568,/g3t1_4,,running
Status,416,55167658375,/g3t1_4,,fail
Status,417,55183884106,/g3t1_2,,running
Status,418,55184170985,/g3t1_2,,success
Status,419,55384223516,/g3t1_2,,running
Status,420,55384677235,/g3t1_2,,success
Status,421,55550236455,/g4t1,,success
Status,422,55584323132,/g3t1_2,,running
Status,423,55585118689,/g3t1_2,,success
Status,424,55756439410,/g3t1_1,,running
Status,425,55756956658,/g3t1_1,,success
Status,426,55784298051,/g3t1_2,,running
Status,427,55784757721,/g3t1_2,,success
Status,428,55962272599,/g3t1_3,,running
Status,429,55962693854,/g3t1_3,,success
Status,430,55984787621,/g3t1_2,,running
Status,431,55984869425,/g3t1_2,,success
Status,432,56167330947,/g3t1_4,,running
Status,433,56168242061,/g3t1_4,,fail
Status,434,56184568749,/g3t1_2,,running
Status,435,56185204019,/g3t1_2,,success
Status,438,56385194694,/g3t1_2,,running
Status,440,56385634082,/g3t1_2,,success
Status,441,56550194009,/g4t1,,success
Status,442,56584818696,/g3t1_2,,running
Status,443,56585405729,/g3t1_2,,fail
Status,444,56785859773,/g3t1_2,,running
Status,445,56785931494,/g3t1_2,,fail
Status,446,56985446067,/g3t1_2,,running
Status,447,56985507046,/g3t1_2,,fail
Status,448,57167728559,/g3t1_4,,running
Status,449,57177183270,/g3t1_4,,success
Status,450,57185516534,/g3t1_2,,running
Status,451,57185933235,/g3t1_2,,fail
Status,452,57385687138,/g3t1_2,,running
Status,453,57385746804,/g3t1_2,,fail
Status,454,57550335055,/g4t1,,success
Status,455,57586063036,/g3t1_2,,running
Status,456,57586135493,/g3t1_2,,fail
Status,457,57786322872,/g3t1_2,,running
Status,458,57786389323,/g3t1_2,,fail
Status,459,57986743695,/g3t1_2,,running
Status,460,57986830686,/g3t1_2,,fail
Status,461,58167548830,/g3t1_4,,running
Status,462,58175022945,/g3t1_4,,success
Status,463,58186216291,/g3t1_2,,running
Status,464,58186758667,/g3t1_2,,fail
Status,465,58386819961,/g3t1_2,,running
Status,466,58387063878,/g3t1_2,,fail
Status,467,58550378771,/g4t1,,success
Status,468,58586643475,/g3t1_2,,running
Status,469,58587026543,/g3t1_2,,fail
Status,470,58787330935,/g3t1_2,,running
Status,471,58787404130,/g3t1_2,,fail
Status,472,58987326885,/g3t1_2,,running
Status,473,58987396040,/g3t1_2,,fail
Status,474,59167819608,/g3t1_4,,running
Status,475,59176265953,/g3t1_4,,success
Status,476,59187204204,/g3t1_2,,running
Status,477,59187640019,/g3t1_2,,fail
Status,478,59387822983,/g3t1_2,,running
Status,479,59387893140,/g3t1_2,,fail
Status,480,59550529254,/g4t1,,success
Status,481,59587574423,/g3t1_2,,running
Status,482,59587928728,/g3t1_2,,fail
Status,483,59787940694,/g3t1_2,,running
Status,484,59788312766,/g3t1_2,,fail
Status,485,59988352424,/g3t1_2,,running
Status,486,59988422006,/g3t1_2,,fail
Status,487,60167796274,/g3t1_4,,running
Status,488,60175523849,/g3t1_4,,success
Status,489,60188049549,/g3t1_2,,running
Status,490,60188273285,/g3t1_2,,fail
Status,491,60388314254,/g3t1_2,,running
Status,492,60388403928,/g3t1_2,,fail
Status,493,60550849878,/g4t1,,success
Status,494,60588356700,/g3t1_2,,running
Status,495,60588474281,/g3t1_2,,fail
Status,496,60756352009,/g3t1_1,,running
Status,497,60756984666,/g3t1_1,,success
Status,498,60788927461,/g3t1_2,,running
Status,499,60789017923,/g3t1_2,,fail
Status,500,60989104982,/g3t1_2,,running
Status,501,60989177836,/g3t1_2,,fail
Status,502,61167972966,/g3t1_4,,running
Status,503,61175826001,/g3t1_4,,success
Status,504,61188983173,/g3t1_2,,running
Status,505,61189053948,/g3t1_2,,fail
Status,506,61389250082,/g3t1_2,,running
Status,507,61389322203,/g3t1_2,,fail
Status,509,61551008056,/g4t1,,success
Status,510,61589119782,/g3t1_2,,running
Status,511,61589534569,/g3t1_2,,fail
Status,512,61789665814,/g3t1_2,,running
Status,513,61790347822,/g3t1_2,,fail
Status,514,61989294235,/g3t1_2,,running
Status,515,61989610224,/g3t1_2,,fail
Status,516,62168184170,/g3t1_4,,running
Status,517,62189814801,/g3t1_2,,running
Status,518,62190154358,/g3t1_2,,fail
Status,519,62245523733,/g3t1_4,,success
Status,520,62390265259,/g3t1_2,,running
Status,521,62390345187,/g3t1_2,,fail
Status,522,62551490773,/g4t1,,success
Status,523,62590115886,/g3t1_2,,running
Status,524,62590178022,/g3t1_2,,fail
Status,525,62790731513,/g3t1_2,,running
Status,526,62790821358,/g3t1_2,,fail
Status,527,62990959744,/g3t1_2,,running
Status,528,62991419241,/g3t1_2,,fail
Status,529,63168395610,/g3t1_4,,running
Status,530,63176818727,/g3t1_4,,success
Status,531,63190969735,/g3t1_2,,running
Status,532,63191371837,/g3t1_2,,fail
Status,533,63391313569,/g3t1_2,,running
Status,534,63391699904,/g3t1_2,,fail
Status,535,63551660079,/g4t1,,success
Status,536,63591195846,/g3t1_2,,running
Status,537,63591588252,/g3t1_2,,fail
Status,538,63791886844,/g3t1_2,,running
Status,539,63791961213,/g3t1_2,,fail
Status,540,63991896560,/g3t1_2,,running
Status,541,63991972250,/g3t1_2,,fail
Status,542,64168607375,/g3t1_4,,running
Status,543,64177467954,/g3t1_4,,success
Status,544,64191711785,/g3t1_2,,running
Status,545,64192041549,/g3t1_2,,fail
Status,546,64392165178,/g3t1_2,,running
Status,547,64392237361,/g3t1_2,,fail
Status,548,64551695923,/g4t1,,success
Status,549,64591349112,/g3t1_2,,running
Status,550,64591375655,/g3t1_2,,fail
Status,551,64792434210,/g3t1_2,,running
Status,552,64793040756,/g3t1_2,,fail
Status,553,64992412304,/g3t1_2,,running
Status,554,64992656373,/g3t1_2,,fail
Status,555,65168558797,/g3t1_4,,running
Status,556,65175719235,/g3t1_4,,success
Status,557,65192336872,/g3t1_2,,running
Status,558,65192919169,/g3t1_2,,fail
Status,559,65392737771,/g3t1_2,,running
Status,560,65392798481,/g3t1_2,,fail
Status,561,65551966851,/g4t1,,success
Status,562,65592889519,/g3t1_2,,running
Status,563,65593231523,/g3t1_2,,fail
Status,564,65756596205,/g3t1_1,,running
Status,565,65757420576,/g3t1_1,,success
Status,566,65792824878,/g3t1_2,,running
Status,567,65793107933,/g3t1_2,,fail
Status,568,65962461008,/g3t1_3,,running
Status,569,65962929403,/g3t1_3,,success
Status,570,65993288096,/g3t1_2,,running
Status,571,65993349630,/g3t1_2,,fail
Status,572,66168903592,/g3t1_4,,running
Status,573,66178250927,/g3t1_4,,success
Status,574,66193140883,/g3t1_2,,running
Status,575,66193514330,/g3t1_2,,fail
Status,576,66393626490,/g3t1_2,,running
Status,577,66393853777,/g3t1_2,,fail
Status,580,66552110880,/g4t1,,success
Status,581,66593678450,/g3t1_2,,running
Status,582,66594000591,/g3t1_2,,success
Status,583,66793978823,/g3t1_2,,running
Status,584,66794321656,/g3t1_2,,success
Status,585,66994392250,/g3t1_2,,running
Status,586,66995238438,/g3t1_2,,success
Status,587,67168789075,/g3t1_4,,running
Status,588,67169376317,/g3t1_4,,fail
Status,589,67194523471,/g3t1_2,,running
Status,590,67194666035,/g3t1_2,,success
Status,591,67394801530,/g3t1_2,,running
Status,592,67396011623,/g3t1_2,,success
Status,593,67552147214,/g4t1,,success
Status,594,67594736302,/g3t1_2,,running
Status,595,67595591924,/g3t1_2,,success
Status,596,67795171535,/g3t1_2,,running
Status,597,67795838663,/g3t1_2,,success
Status,598,67995135994,/g3t1_2,,running
Status,599,67995472339,/g3t1_2,,success
Status,600,68169400512,/g3t1_4,,running
Status,601,68170325010,/g3t1_4,,fail
Status,602,68195110879,/g3t1_2,,running
Status,603,68195416111,/g3t1_2,,success
Status,604,68395611647,/g3t1_2,,running
Status,605,68396236639,/g3t1_2,,success
Status,606,68552348358,/g4t1,,success
Status,607,68595426263,/g3t1_2,,running
Status,608,68596333557,/g3t1_2,,success
Status,609,68796021308,/g3t1_2,,running
Status,610,68796430103,/g3t1_2,,success
Status,611,68996041881,/g3t1_2,,running
Status,612,68996717146,/g3t1_2,,success
Status,613,69168821551,/g3t1_4,,running
Status,614,69169006052,/g3t1_4,,fail
Status,615,69195647895,/g3t1_2,,running
Status,616,69195880263,/g3t1_2,,success
Status,617,69396622663,/g3t1_2,,running
Status,618,69397505102,/g3t1_2,,success
Status,619,69552719822,/g4t1,,success
Status,620,69596530199,/g3t1_2,,running
Status,621,69597028678,/g3t1_2,,success
Status,622,69797158502,/g3t1_2,,running
Status,623,69797251881,/g3t1_2,,success
Status,624,69997385547,/g3t1_2,,running
Status,625,69997682166,/g3t1_2,,success
Status,626,70169500597,/g3t1_4,,running
Status,627,70175977553,/g3t1_4,,fail
Status,628,70197169697,/g3t1_2,,running
Status,629,70197492147,/g3t1_2,,success
Status,630,70397569094,/g3t1_2,,running
Status,631,70398868379,/g3t1_2,,success
Status,632,70552547255,/g4t1,,success
Status,633,70597424360,/g3t1_2,,running
Status,634,70597898534,/g3t1_2,,success
Status,635,70756764598,/g3t1_1,,running
Status,636,70757200035,/g3t1_1,,success
Status,637,70797810881,/g3t1_2,,running
Status,638,70798640648,/g3t1_2,,success
Status,639,70997229980,/g3t1_2,,running
Status,640,70997571569,/g3t1_2,,success
Status,641,71169679408,/g3t1_4,,running
Status,642,71171059072,/g3t1_4,,fail
Status,643,71197952801,/g3t1_2,,running
Status,644,71198673612,/g3t1_2,,success
Status,645,71398205888,/g3t1_2,,running
Status,646,71399020361,/g3t1_2,,success
Status,647,71553103549,/g4t1,,success
Status,648,71598351331,/g3t1_2,,running
Status,649,71598820146,/g3t1_2,,success
Status,651,71799101603,/g3t1_2,,running
Status,652,71799480358,/g3t1_2,,success
Status,653,71999036703,/g3t1_2,,running
Status,654,71999519368,/g3t1_2,,success
Status,655,72169784553,/g3t1_4,,running
Status,656,72170899245,/g3t1_4,,fail
Status,657,72198897280,/g3t1_2,,running
Status,658,72199417255,/g3t1_2,,success
Status,659,72399444280,/g3t1_2,,running
Status,660,72400322803,/g3t1_2,,success
Status,661,72552998662,/g4t1,,success
Status,662,72599327913,/g3t1_2,,running
Status,663,72599388744,/g3t1_2,,success
Status,664,72799921295,/g3t1_2,,running
Status,665,72800586453,/g3t1_2,,success
Status,666,72999089802,/g3t1_2,,running
Status,667,72999277173,/g3t1_2,,success
Status,668,73170209337,/g3t1_4,,running
Status,669,73171754892,/g3t1_4,,fail
Status,670,73200001268,/g3t1_2,,running
Status,671,73200239633,/g3t1_2,,success
Status,672,73400108767,/g3t1_2,,running
Status,673,73400548608,/g3t1_2,,success
Status,674,73553414976,/g4t1,,success
Status,675,73600094253,/g3t1_2,,running
Status,676,73600450575,/g3t1_2,,success
Status,677,73800265263,/g3t1_2,,running
Status,678,73800854937,/g3t1_2,,success
Status,679,74000412003,/g3t1_2,,running
Status,680,74001094996,/g3t1_2,,success
Status,681,74169897396,/g3t1_4,,running
Status,682,74170396128,/g3t1_4,,fail
Status,683,74200682307,/g3t1_2,,running
Status,684,74200763026,/g3t1_2,,success
Status,685,74400847273,/g3t1_2,,running
Status,686,74401583396,/g3t1_2,,success
Status,687,74553646309,/g4t1,,success
Status,688,74600710495,/g3t1_2,,running
Status,689,74601173916,/g3t1_2,,success
Status,690,74801085830,/g3t1_2,,running
Status,691,74802241161,/g3t1_2,,success
Status,692,75001316300,/g3t1_2,,running
Status,693,75002071952,/g3t1_2,,success
Status,694,75170373770,/g3t1_4,,running
Status,695,75170812512,/g3t1_4,,fail
Status,696,75201415675,/g3t1_2,,running
Status,697,75202474778,/g3t1_2,,success
Status,698,75401955050,/g3t1_2,,running
Status,699,75402675159,/g3t1_2,,success
Status,700,75553605424,/g4t1,,success
Status,701,75601766917,/g3t1_2,,running
Status,702,75602188635,/g3t1_2,,success
Status,703,75756865414,/g3t1_1,,running
Status,704,75757296501,/g3t1_1,,success
Status,705,75801859639,/g3t1_2,,running
Status,706,75802152363,/g3t1_2,,success
Status,707,75963071396,/g3t1_3,,running
Status,708,75963477297,/g3t1_3,,fail
Status,709,76001991231,/g3t1_2,,running
Status,710,76002353022,/g3t1_2,,success
Status,711,76170360443,/g3t1_4,,running
Status,712,76171179790,/g3t1_4,,fail
Status,713,76202243195,/g3t1_2,,running
Status,714,76202316194,/g3t1_2,,success
Status,715,76402683673,/g3t1_2,,running
Status,716,76403401110,/g3t1_2,,success
Status,717,76553996477,/g4t1,,success
Status,718,76602738685,/g3t1_2,,running
Status,719,76602798988,/g3t1_2,,success
Status,722,76802815140,/g3t1_2,,running
Status,723,76803588877,/g3t1_2,,success
Status,724,77003202295,/g3t1_2,,running
Status,725,77004245285,/g3t1_2,,success
Status,726,77170979292,/g3t1_4,,running
Status,727,77176213257,/g3t1_4,,success
Status,728,77203158226,/g3t1_2,,running
Status,729,77203504919,/g3t1_2,,success
Status,730,77403651258,/g3t1_2,,running
Status,731,77404319491,/g3t1_2,,success
Status,732,77554085286,/g4t1,,success
Status,733,77603596244,/g3t1_2,,running
Status,734,77603965566,/g3t1_2,,success
Status,735,77803763708,/g3t1_2,,running
Status,736,77804355548,/g3t1_2,,success
Status,737,78004000026,/g3t1_2,,running
Status,738,78004468588,/g3t1_2,,success
Status,739,78170964506,/g3t1_4,,running
Status,740,78178707199,/g3t1_4,,success
Status,741,78203922754,/g3t1_2,,running
Status,742,78204079137,/g3t1_2,,success
Status,743,78404368742,/g3t1_2,,running
Status,744,78404744055,/g3t1_2,,success
Status,745,78554266685,/g4t1,,success
Status,746,78604152130,/g3t1_2,,running
Status,747,78605138599,/g3t1_2,,success
Status,748,78804562180,/g3t1_2,,running
Status,749,78804887072,/g3t1_2,,success
Status,750,79004414984,/g3t1_2,,running
Status,751,79004987404,/g3t1_2,,success
Status,752,79171141810,/g3t1_4,,running
Status,753,79178397288,/g3t1_4,,success
Status,754,79204743198,/g3t1_2,,running
Status,755,79205016337,/g3t1_2,,success
Status,756,79404805301,/g3t1_2,,running
Status,757,79405492177,/g3t1_2,,success
Status,758,79554694734,/g4t1,,success
Status,759,79604954973,/g3t1_2,,running
Status,760,79605550936,/g3t1_2,,success
Status,761,79805177916,/g3t1_2,,running
Status,762,79805860272,/g3t1_2,,success
Status,763,80005269846,/g3t1_2,,running
Status,764,80006078132,/g3t1_2,,success
Status,765,80171324427,/g3t1_4,,running
Status,766,80179030520,/g3t1_4,,success
Status,767,80205224290,/g3t1_2,,running
Status,768,80205946136,/g3t1_2,,success
Status,769,80405834916,/g3t1_2,,running
Status,770,80406360361,/g3t1_2,,success
Status,771,80554960481,/g4t1,,success
Status,772,80605788999,/g3t1_2,,running
Status,773,80605854399,/g3t1_2,,success
Status,774,80756950859,/g3t1_1,,running
Status,775,80757560376,/g3t1_1,,success
Status,776,80805860420,/g3t1_2,,running
Status,777,80806250533,/g3t1_2,,success
Status,778,81006279388,/g3t1_2,,running
Status,779,81007209529,/g3t1_2,,success
Status,780,81171344111,/g3t1_4,,running
Status,781,81180387717,/g3t1_4,,success
Status,782,81205454936,/g3t1_2,,running
Status,783,81205685264,/g3t1_2,,success
Status,784,81406831851,/g3t1_2,,running
Status,785,81407465736,/g3t1_2,,success
Status,786,81554882114,/g4t1,,success
Status,787,81606654354,/g3t1_2,,running
Status,788,81607132585,/g3t1_2,,success
Status,789,81807371359,/g3t1_2,,running
Status,790,81808062741,/g3t1_2,,success
Status,791,82007303882,/g3t1_2,,running
Status,792,82007767500,/g3t1_2,,success
Status,793,82171402096,/g3t1_4,,running
Status,794,82207096980,/g3t1_2,,running
Status,795,82207472657,/g3t1_2,,success
Status,796,82227916434,/g3t1_4,,success
Status,797,82407317839,/g3t1_2,,running
Status,798,82408180554,/g3t1_2,,success
Status,799,82554951722,/g4t1,,success
Status,800,82607362283,/g3t1_2,,running
Status,801,82607910598,/g3t1_2,,success
Status,802,82807670100,/g3t1_2,,running
Status,803,82808406001,/g3t1_2,,success
Status,804,83007914115,/g3t1_2,,running
Status,805,83008746580,/g3t1_2,,success
Status,806,83172030227,/g3t1_4,,running
Status,807,83182496156,/g3t1_4,,success
Status,808,83207603025,/g3t1_2,,running
Status,809,83207875895,/g3t1_2,,success
Status,810,83408066859,/g3t1_2,,running
Status,811,83408453055,/g3t1_2,,success
Status,812,83555252632,/g4t1,,success
Status,813,83608263432,/g3t1_2,,running
Status,814,83608509680,/g3t1_2,,success
Status,815,83808303720,/g3t1_2,,running
Status,816,83808904601,/g3t1_2,,success
Status,817,84008653260,/g3t1_2,,running
Status,818,84009354354,/g3t1_2,,success
Status,819,84172025039,/g3t1_4,,running
Status,820,84179646469,/g3t1_4,,success
Status,821,84208634224,/g3t1_2,,running
Status,822,84209106189,/g3t1_2,,success
Status,823,84409077974,/g3t1_2,,running
Status,824,84409881501,/g3t1_2,,success
Status,825,84555598013,/g4t1,,success
Status,826,84608980688,/g3t1_2,,running
Status,827,84609926062,/g3t1_2,,success
Status,828,84809494165,/g3t1_2,,running
Status,829,84810202662,/g3t1_2,,success
Status,830,85009499093,/g3t1_2,,running
Status,831,85009837674,/g3t1_2,,success
Status,832,85172106286,/g3t1_4,,running
Status,833,85180801410,/g3t1_4,,success
Status,834,85209450447,/g3t1_2,,running
Status,835,85209791761,/g3t1_2,,success
Status,836,85410040796,/g3t1_2,,running
Status,837,85410529759,/g3t1_2,,success
Status,838,85556074193,/g4t1,,success
Status,839,85609834928,/g3t1_2,,running
Status,840,85610263624,/g3t1_2,,success
Status,841,85757223185,/g3t1_1,,running
Status,842,85758235886,/g3t1_1,,success
Status,843,85809887577,/g3t1_2,,running
Status,844,85810762835,/g3t1_2,,success
Status,845,85963323140,/g3t1_3,,running
Status,846,85963957660,/g3t1_3,,success
Status,847,86010023790,/g3t1_2,,running
Status,848,86010704438,/g3t1_2,,success
Status,849,86172105271,/g3t1_4,,running
Status,850,86179482154,/g3t1_4,,success
Status,851,86210222536,/g3t1_2,,running
Status,852,86211028853,/g3t1_2,,success
Status,853,86410502740,/g3t1_2,,running
Status,854,86410978670,/g3t1_2,,success
Status,855,86555767147,/g4t1,,success
Status,856,86610618231,/g3t1_2,,running
Status,857,86611106706,/g3t1_2,,success
Status,858,86810960467,/g3t1_2,,running
Status,859,86811994675,/g3t1_2,,success
Status,864,87011191458,/g3t1_2,,running
Status,865,87011526120,/g3t1_2,,fail
Status,866,87172766781,/g3t1_4,,running
Status,867,87177632924,/g3t1_4,,fail
Status,868,87211036480,/g3t1_2,,running
Status,869,87211616725,/g3t1_2,,fail
Status,870,87411584270,/g3t1_2,,running
Status,871,87412053738,/g3t1_2,,fail
Status,872,87555999971,/g4t1,,success
Status,873,87611328857,/g3t1_2,,running
Status,874,87612269319,/g3t1_2,,fail
Status,875,87811973886,/g3t1_2,,running
Status,876,87812044758,/g3t1_2,,fail
Status,877,88011968352,/g3t1_2,,running
Status,878,88012074046,/g3t1_2,,fail
Status,879,88172387510,/g3t1_4,,running
Status,880,88173487110,/g3t1_4,,fail
Status,881,88211914828,/g3t1_2,,running
Status,882,88211997297,/g3t1_2,,fail
Status,883,88412139065,/g3t1_2,,running
Status,884,88412542316,/g3t1_2,,fail
Status,885,88556204561,/g4t1,,success
Status,886,88612330707,/g3t1_2,,running
Status,887,88612401021,/g3t1_2,,fail
Status,888,88812686943,/g3t1_2,,running
Status,889,88813059500,/g3t1_2,,fail
Status,890,89012762660,/g3t1_2,,running
Status,891,89012853817,/g3t1_2,,fail
Status,892,89172640687,/g3t1_4,,running
Status,893,89173157787,/g3t1_4,,fail
Status,894,89212488448,/g3t1_2,,running
Status,895,89212833552,/g3t1_2,,fail
Status,896,89413426546,/g3t1_2,,running
Status,897,89413501874,/g3t1_2,,fail
Status,898,89556131659,/g4t1,,success
Status,899,89613145892,/g3t1_2,,running
Status,900,89613207667,/g3t1_2,,fail
Status,901,89813348079,/g3t1_2,,running
Status,902,89813416389,/g3t1_2,,fail
Status,903,90012788110,/g3t1_2,,running
Status,904,90012826370,/g3t1_2,,fail
Status,905,90173100071,/g3t1_4,,running
Status,906,90173713228,/g3t1_4,,fail
Status,907,90213548198,/g3t1_2,,running
Status,908,90213609682,/g3t1_2,,fail
Status,909,90414078150,/g3t1_2,,running
Status,910,90414151784,/g3t1_2,,fail
Status,911,90556512080,/g4t1,,success
Status,912,90614000085,/g3t1_2,,running
Status,913,90614062866,/g3t1_2,,fail
Status,914,90757349269,/g3t1_1,,running
Status,915,90757674722,/g3t1_1,,fail
Status,916,90813916554,/g3t1_2,,running
Status,917,90814136842,/g3t1_2,,fail
Status,918,91014437569,/g3t1_2,,running
Status,919,91014852599,/g3t1_2,,fail
Status,920,91172752016,/g3t1_4,,running
Status,921,91173621515,/g3t1_4,,fail
Status,922,91214236974,/g3t1_2,,running
Status,923,91214625857,/g3t1_2,,fail
Status,924,91414909084,/g3t1_2,,running
Status,925,91415603394,/g3t1_2,,fail
Status,926,91556397638,/g4t1,,success
Status,927,91614844376,/g3t1_2,,running
Status,928,91614909506,/g3t1_2,,fail
Status,929,91815415147,/g3t1_2,,running
Status,930,91815482914,/g3t1_2,,fail
Status,932,92014950827,/g3t1_2,,running
Status,933,92015237251,/g3t1_2,,fail
Status,934,92173356866,/g3t1_4,,running
Status,935,92174018616,/g3t1_4,,fail
Status,936,92215350054,/g3t1_2,,running
Status,937,92215411039,/g3t1_2,,fail
Status,938,92415528527,/g3t1_2,,running
Status,939,92415995183,/g3t1_2,,fail
Status,940,92556855393,/g4t1,,success
Status,941,92615889317,/g3t1_2,,running
Status,942,92615948895,/g3t1_2,,fail
Status,943,92815877656,/g3t1_2,,running
Status,944,92816220437,/g3t1_2,,fail
Status,945,93016275332,/g3t1_2,,running
Status,946,93016346595,/g3t1_2,,fail
Status,947,93173458845,/g3t1_4,,running
Status,948,93174660149,/g3t1_4,,fail
Status,949,93215912041,/g3t1_2,,running
Status,950,93216295582,/g3t1_2,,fail
Status,951,93416377598,/g3t1_2,,running
Status,952,93416756197,/g3t1_2,,fail
Status,953,93556972114,/g4t1,,success
Status,954,93616431254,/g3t1_2,,running
Status,955,93616730805,/g3t1_2,,fail
Status,956,93817204948,/g3t1_2,,running
Status,957,93817299849,/g3t1_2,,fail
Status,958,94017266214,/g3t1_2,,running
Status,959,94017339494,/g3t1_2,,fail
Status,960,94173250567,/g3t1_4,,running
Status,961,94173693463,/g3t1_4,,fail
Status,962,94216973051,/g3t1_2,,running
Status,963,94217124652,/g3t1_2,,fail
Status,964,94417350412,/g3t1_2,,running
Status,965,94417434717,/g3t1_2,,fail
Status,966,94557127972,/g4t1,,success
Status,967,94617468761,/g3t1_2,,running
Status,968,94617534064,/g3t1_2,,fail
Status,969,94817761843,/g3t1_2,,running
Status,970,94817829626,/g3t1_2,,fail
Status,971,95017938913,/g3t1_2,,running
Status,972,95018231162,/g3t1_2,,fail
Status,973,95173721521,/g3t1_4,,running
Status,974,95174675030,/g3t1_4,,fail
Status,975,95217759269,/g3t1_2,,running
Status,976,95217820851,/g3t1_2,,fail
Status,977,95418131938,/g3t1_2,,running
Status,978,95418353813,/g3t1_2,,fail
Status,979,95557110341,/g4t1,,success
Status,980,95618260533,/g3t1_2,,running
Status,981,95618320698,/g3t1_2,,fail
Status,982,95757659126,/g3t1_1,,running
Status,983,95758111301,/g3t1_1,,fail
Status,984,95818443890,/g3t1_2,,running
Status,985,95818508273,/g3t1_2,,fail
Status,986,95963296706,/g3t1_3,,running
Status,987,95964070085,/g3t1_3,,success
Status,988,96018851746,/g3t1_2,,running
Status,989,96018915814,/g3t1_2,,fail
Status,990,96173967811,/g3t1_4,,running
Status,991,96174930477,/g3t1_4,,fail
Status,992,96218537836,/g3t1_2,,running
Status,993,96218892909,/g3t1_2,,fail
Status,994,96419324534,/g3t1_2,,running
Status,995,96419599678,/g3t1_2,,fail
Status,996,96557468807,/g4t1,,success
Status,997,96619298299,/g3t1_2,,running
Status,998,96619506662,/g3t1_2,,fail
Status,999,96819697636,/g3t1_2,,running
Status,1000,96820040126,/g3t1_2,,fail
Status,1001,97019794303,/g3t1_2,,running
Status,1002,97020285376,/g3t1_2,,fail
Status,1005,97174301714,/g3t1_4,,running
Status,1006,97179154437,/g3t1_4,,success
Status,1007,97219843416,/g3t1_2,,running
Status,1008,97220116339,/g3t1_2,,success
Status,1009,97420089378,/g3t1_2,,running
Status,1010,97421154261,/g3t1_2,,success
Status,1011,97557733242,/g4t1,,success
Status,1012,97620052052,/g3t1_2,,running
Status,1013,97620705265,/g3t1_2,,success
Status,1014,97820542870,/g3t1_2,,running
Status,1015,97821422062,/g3t1_2,,success
Status,1016,98020616986,/g3t1_2,,running
Status,1017,98021399407,/g3t1_2,,success
Status,1018,98174178229,/g3t1_4,,running
Status,1019,98185218692,/g3t1_4,,success
Status,1020,98220507303,/g3t1_2,,running
Status,1021,98221030840,/g3t1_2,,success
Status,1022,98420996828,/g3t1_2,,running
Status,1023,98421751880,/g3t1_2,,success
Status,1024,98557756576,/g4t1,,success
Status,1025,98621040775,/g3t1_2,,running
Status,1026,98621606578,/g3t1_2,,success
Status,1027,98821364661,/g3t1_2,,running
Status,1028,98821946168,/g3t1_2,,success
Status,1029,99021211687,/g3t1_2,,running
Status,1030,99021796331,/g3t1_2,,success
Status,1031,99173870061,/g3t1_4,,running
Status,1032,99179711953,/g3t1_4,,success
Status,1033,99221403288,/g3t1_2,,running
Status,1034,99222001207,/g3t1_2,,success
Status,1035,99421917244,/g3t1_2,,running
Status,1036,99422695706,/g3t1_2,,success
Status,1037,99558662934,/g4t1,,success
Status,1038,99622225284,/g3t1_2,,running
Status,1039,99622292362,/g3t1_2,,success
Status,1040,99822314044,/g3t1_2,,running
Status,1041,99823340545,/g3t1_2,,success
Status,1042,100022534454,/g3t1_2,,running
Status,1043,100023092099,/g3t1_2,,success
Status,1044,100174393133,/g3t1_4,,running
Status,1045,100185522044,/g3t1_4,,success
Status,1046,100222459150,/g3t1_2,,running
Status,1047,100222793674,/g3t1_2,,success
Status,1048,100423134522,/g3t1_2,,running
Status,1049,100423678075,/g3t1_2,,success
Status,1050,100558311948,/g4t1,,success
Status,1051,100623086037,/g3t1_2,,running
Status,1052,100623449757,/g3t1_2,,success
Status,1053,100757397917,/g3t1_1,,running
Status,1054,100757780703,/g3t1_1,,fail
Status,1055,100823074999,/g3t1_2,,running
Status,1056,100823400068,/g3t1_2,,success
Status,1057,101023444746,/g3t1_2,,running
Status,1058,101023909309,/g3t1_2,,success
Status,1059,101174846469,/g3t1_4,,running
Status,1060,101182669102,/g3t1_4,,success
Status,1061,101223317274,/g3t1_2,,running
Status,1062,101223817126,/g3t1_2,,success
Status,1063,101423935106,/g3t1_2,,running
Status,1064,101424721215,/g3t1_2,,success
Status,1065,101558541150,/g4t1,,success
Status,1066,101623800385,/g3t1_2,,running
Status,1067,101624534848,/g3t1_2,,success
Status,1068,101824163151,/g3t1_2,,running
Status,1069,101824766311,/g3t1_2,,success
Status,1070,102024309778,/g3t1_2,,running
Status,1071,102024815113,/g3t1_2,,success
Status,1073,102174791364,/g3t1_4,,running
Status,1074,102182215510,/g3t1_4,,success
Status,1075,102224485728,/g3t1_2,,running
Status,1076,102224542505,/g3t1_2,,success
Status,1077,102424460375,/g3t1_2,,running
Status,1078,102424899112,/g3t1_2,,success
Status,1079,102558871979,/g4t1,,success
Status,1080,102624733228,/g3t1_2,,running
Status,1081,102625183713,/g3t1_2,,success
Status,1082,102824856535,/g3t1_2,,running
Status,1083,102825257965,/g3t1_2,,success
Status,1084,103025267821,/g3t1_2,,running
Status,1085,103025939579,/g3t1_2,,success
Status,1086,103175082113,/g3t1_4,,running
Status,1087,103184078046,/g3t1_4,,success
Status,1088,103225084261,/g3t1_2,,running
Status,1089,103225409389,/g3t1_2,,success
Status,1090,103425320717,/g3t1_2,,running
Status,1091,103425760648,/g3t1_2,,success
Status,1092,103559165622,/g4t1,,success
Status,1093,103625436146,/g3t1_2,,running
Status,1094,103625812077,/g3t1_2,,success
Status,1095,103825898724,/g3t1_2,,running
Status,1096,103826847102,/g3t1_2,,success
Status,1097,104026518922,/g3t1_2,,running
Status,1098,104026663352,/g3t1_2,,success
Status,1099,104175232089,/g3t1_4,,running
Status,1100,104183167747,/g3t1_4,,success
Status,1101,104225827268,/g3t1_2,,running
Status,1102,104226023712,/g3t1_2,,success
Status,1103,104426774897,/g3t1_2,,running
Status,1104,104426858892,/g3t1_2,,success
Status,1105,104559689141,/g4t1,,success
Status,1106,104626219971,/g3t1_2,,running
Status,1107,104626273521,/g3t1_2,,success
Status,1108,104827036723,/g3t1_2,,running
Status,1109,104827783335,/g3t1_2,,success
Status,1110,105027119106,/g3t1_2,,running
Status,1111,105027547935,/g3t1_2,,success
Status,1112,105175019175,/g3t1_4,,running
Status,1113,105182366356,/g3t1_4,,success
Status,1114,105227049283,/g3t1_2,,running
Status,1115,105227561620,/g3t1_2,,success
Status,1116,105427662247,/g3t1_2,,running
Status,1117,105427996130,/g3t1_2,,success
Status,1118,105559880976,/g4t1,,success
Status,1119,105627473240,/g3t1_2,,running
Status,1120,105627760674,/g3t1_2,,success
Status,1121,105757818632,/g3t1_1,,running
Status,1122,105758138380,/g3t1_1,,fail
Status,1123,105827349324,/g3t1_2,,running
Status,1124,105827535277,/g3t1_2,,success
Status,1125,105963651153,/g3t1_3,,running
Status,1126,105963904404,/g3t1_3,,fail
Status,1127,106027878993,/g3t1_2,,running
Status,1128,106028285926,/g3t1_2,,success
Status,1129,106175407630,/g3t1_4,,running
Status,1130,106182536434,/g3t1_4,,success
Status,1131,106227809351,/g3t1_2,,running
Status,1132,106228338785,/g3t1_2,,success
Status,1133,106427855427,/g3t1_2,,running
Status,1134,106428203380,/g3t1_2,,success
Status,1135,106559898419,/g4t1,,success
Status,1136,106628186421,/g3t1_2,,running
Status,1137,106628479016,/g3t1_2,,success
Status,1138,106828421160,/g3t1_2,,running
Status,1139,106829587825,/g3t1_2,,success
Status,1140,107028639597,/g3t1_2,,running
Status,1141,107029186130,/g3t1_2,,success
Status,1142,107175640653,/g3t1_4,,running
Status,1143,107183513267,/g3t1_4,,success
Status,1147,107228468447,/g3t1_2,,running
Status,1148,107228989638,/g3t1_2,,success
Status,1149,107429141993,/g3t1_2,,running
Status,1150,107429970365,/g3t1_2,,success
Status,1151,107560275572,/g4t1,,success
Status,1152,107628707118,/g3t1_2,,running
Status,1153,107629025679,/g3t1_2,,success
Status,1154,107829163777,/g3t1_2,,running
Status,1155,107829530562,/g3t1_2,,success
Status,1156,108029388339,/g3t1_2,,running
Status,1157,108029846684,/g3t1_2,,success
Status,1158,108175776088,/g3t1_4,,running
Status,1159,108176353623,/g3t1_4,,fail
Status,1160,108229416484,/g3t1_2,,running
Status,1161,108229977993,/g3t1_2,,success
Status,1162,108429888556,/g3t1_2,,running
Status,1163,108430217003,/g3t1_2,,success
Status,1164,108560182102,/g4t1,,success
Status,1165,108629743270,/g3t1_2,,running
Status,1166,108630154323,/g3t1_2,,success
Status,1167,108830161644,/g3t1_2,,running
Status,1168,108831023875,/g3t1_2,,success
Status,1169,109030514164,/g3t1_2,,running
Status,1170,109031208936,/g3t1_2,,success
Status,1171,109176047381,/g3t1_4,,running
Status,1172,109181029285,/g3t1_4,,fail
Status,1173,109230425231,/g3t1_2,,running
Status,1174,109231421780,/g3t1_2,,success
Status,1175,109431261801,/g3t1_2,,running
Status,1176,109431729622,/g3t1_2,,success
Status,1177,109560360912,/g4t1,,success
Status,1178,109631006218,/g3t1_2,,running
Status,1179,109631539484,/g3t1_2,,success
Status,1180,109831384897,/g3t1_2,,running
Status,1181,109832280620,/g3t1_2,,success
Status,1182,110031588268,/g3t1_2,,running
Status,1183,110032368649,/g3t1_2,,success
Status,1184,110176272164,/g3t1_4,,running
Status,1185,110177299881,/g3t1_4,,fail
Status,1186,110231382343,/g3t1_2,,running
Status,1187,110232092038,/g3t1_2,,success
Status,1188,110431896108,/g3t1_2,,running
Status,1189,110432369323,/g3t1_2,,success
Status,1190,110560450007,/g4t1,,success
Status,1191,110632118040,/g3t1_2,,running
Status,1192,110632532059,/g3t1_2,,success
Status,1193,110758191197,/g3t1_1,,running
Status,1194,110758745611,/g3t1_1,,success
Status,1195,110832084167,/g3t1_2,,running
Status,1196,110832690965,/g3t1_2,,success
Status,1197,111032093095,/g3t1_2,,running
Status,1198,111032391370,/g3t1_2,,success
Status,1199,111176088413,/g3t1_4,,running
Status,1200,111176691539,/g3t1_4,,fail
Status,1201,111232125160,/g3t1_2,,running
Status,1202,111232559136,/g3t1_2,,success
Status,1203,111432450376,/g3t1_2,,running
Status,1204,111432923824,/g3t1_2,,success
Status,1205,111560407072,/g4t1,,success
Status,1206,111632448531,/g3t1_2,,running
Status,1207,111633273501,/g3t1_2,,success
Status,1208,111832653197,/g3t1_2,,running
Status,1209,111833074018,/g3t1_2,,success
Status,1210,112033044198,/g3t1_2,,running
Status,1211,112033720400,/g3t1_2,,success
Status,1212,112176304420,/g3t1_4,,running
Status,1213,112176910908,/g3t1_4,,fail
Status,1214,112233036200,/g3t1_2,,running
Status,1215,112233832890,/g3t1_2,,success
Status,1216,112433556144,/g3t1_2,,running
Status,1217,112433704463,/g3t1_2,,success
Status,1218,112560998621,/g4t1,,success
Status,1219,112633437161,/g3t1_2,,running
Status,1220,112633839616,/g3t1_2,,success
Status,1221,112833854550,/g3t1_2,,running
Status,1222,112835107779,/g3t1_2,,success
Status,1223,113034058783,/g3t1_2,,running
Status,1224,113034833430,/g3t1_2,,success
Status,1225,113176996912,/g3t1_4,,running
Status,1226,113178210308,/g3t1_4,,fail
Status,1227,113233922157,/g3t1_2,,running
Status,1228,113234801286,/g3t1_2,,success
Status,1229,113434497296,/g3t1_2,,running
Status,1230,113435047051,/g3t1_2,,success
Status,1231,113561040323,/g4t1,,success
Status,1232,113634485384,/g3t1_2,,running
Status,1233,113634912127,/g3t1_2,,success
Status,1234,113835187916,/g3t1_2,,running
Status,1235,113835935086,/g3t1_2,,success
Status,1236,114035549109,/g3t1_2,,running
Status,1237,114035619477,/g3t1_2,,success
Status,1238,114176772654,/g3t1_4,,running
Status,1239,114177479648,/g3t1_4,,fail
Status,1240,114235063357,/g3t1_2,,running
Status,1241,114235422364,/g3t1_2,,success
Status,1242,114435658694,/g3t1_2,,running
Status,1243,114436069015,/g3t1_2,,success
Status,1244,114560970181,/g4t1,,success
Status,1245,114635821888,/g3t1_2,,running
Status,1246,114636374265,/g3t1_2,,success
Status,1247,114836126862,/g3t1_2,,running
Status,1248,114836420133,/g3t1_2,,success
Status,1249,115035921560,/g3t1_2,,running
Status,1250,115036923402,/g3t1_2,,success
Status,1251,115177482495,/g3t1_4,,running
Status,1252,115178818038,/g3t1_4,,fail
Status,1253,115235849489,/g3t1_2,,running
Status,1254,115236144622,/g3t1_2,,success
Status,1255,115436397247,/g3t1_2,,running
Status,1256,115437476396,/g3t1_2,,success
Status,1257,115561318243,/g4t1,,success
Status,1258,115636554155,/g3t1_2,,running
Status,1259,115636917069,/g3t1_2,,success
Status,1260,115758055607,/g3t1_1,,running
Status,1261,115758747455,/g3t1_1,,success
Status,1262,115836791753,/g3t1_2,,running
Status,1263,115837172179,/g3t1_2,,success
Status,1264,115963930660,/g3t1_3,,running
Status,1265,115964574480,/g3t1_3,,success
Status,1266,116036681697,/g3t1_2,,running
Status,1267,116037350828,/g3t1_2,,success
Status,1268,116177244522,/g3t1_4,,running
Status,1269,116178113570,/g3t1_4,,fail
Status,1270,116236991032,/g3t1_2,,running
Status,1271,116237668610,/g3t1_2,,success
Status,1272,116437096745,/g3t1_2,,running
Status,1273,116437928174,/g3t1_2,,success
Status,1274,116561401150,/g4t1,,success
Status,1275,116637241062,/g3t1_2,,running
Status,1276,116637813009,/g3t1_2,,success
Status,1277,116837785454,/g3t1_2,,running
Status,1278,116838496273,/g3t1_2,,success
Status,1279,117037987893,/g3t1_2,,running
Status,1280,117038484626,/g3t1_2,,success
Status,1281,117177513691,/g3t1_4,,running
Status,1282,117178099556,/g3t1_4,,fail
Status,1283,117237755569,/g3t1_2,,running
Status,1284,117238126780,/g3t1_2,,success
Status,1288,117437958317,/g3t1_2,,running
Status,1289,117438138969,/g3t1_2,,fail
Status,1290,117561672144,/g4t1,,success
Status,1291,117638303234,/g3t1_2,,running
Status,1292,117638363562,/g3t1_2,,fail
Status,1293,117838820377,/g3t1_2,,running
Status,1294,117838897824,/g3t1_2,,fail
Status,1295,118039202164,/g3t1_2,,running
Status,1296,118039439955,/g3t1_2,,fail
Status,1297,118177789688,/g3t1_4,,running
Status,1298,118182949948,/g3t1_4,,success
Status,1299,118238774400,/g3t1_2,,running
Status,1300,118239022702,/g3t1_2,,fail
Status,1301,118439322156,/g3t1_2,,running
Status,1302,118439383733,/g3t1_2,,fail
Status,1303,118561493524,/g4t1,,success
Status,1304,118639538751,/g3t1_2,,running
Status,1305,118639599636,/g3t1_2,,fail
Status,1306,118839722523,/g3t1_2,,running
Status,1307,118840007609,/g3t1_2,,fail
Status,1308,119039943228,/g3t1_2,,running
Status,1309,119040016713,/g3t1_2,,fail
Status,1310,119177846680,/g3t1_4,,running
Status,1311,119185991126,/g3t1_4,,success
Status,1312,119239880692,/g3t1_2,,running
Status,1313,119239940758,/g3t1_2,,fail
Status,1314,119440164757,/g3t1_2,,running
Status,1315,119440240223,/g3t1_2,,fail
Status,1316,119561805504,/g4t1,,success
Status,1317,119640116862,/g3t1_2,,running
Status,1318,119640374345,/g3t1_2,,fail
Status,1319,119840362540,/g3t1_2,,running
Status,1320,119840432028,/g3t1_2,,fail
Status,1321,120040518507,/g3t1_2,,running
Status,1322,120040943470,/g3t1_2,,fail
Status,1323,120177824518,/g3t1_4,,running
Status,1324,120185346803,/g3t1_4,,success
Status,1325,120240894892,/g3t1_2,,running
Status,1326,120240957724,/g3t1_2,,fail
Status,1327,120440697435,/g3t1_2,,running
Status,1328,120440841604,/g3t1_2,,fail
Status,1329,120561862511,/g4t1,,success
Status,1330,120640922287,/g3t1_2,,running
Status,1331,120641255067,/g3t1_2,,fail
Status,1332,120758521748,/g3t1_1,,running
Status,1333,120759233915,/g3t1_1,,success
Status,1334,120841127908,/g3t1_2,,running
Status,1335,120841221125,/g3t1_2,,fail
Status,1336,121041292457,/g3t1_2,,running
Status,1337,121041443001,/g3t1_2,,fail
Status,1338,121178293654,/g3t1_4,,running
Status,1339,121186244846,/g3t1_4,,success
Status,1340,121241510702,/g3t1_2,,running
Status,1341,121241573755,/g3t1_2,,fail
Status,1342,121442472723,/g3t1_2,,running
Status,1343,121442654445,/g3t1_2,,fail
Status,1344,121562324022,/g4t1,,success
Status,1345,121641647757,/g3t1_2,,running
Status,1346,121641689078,/g3t1_2,,fail
Status,1347,121843042658,/g3t1_2,,running
Status,1348,121843121117,/g3t1_2,,fail
Status,1349,122042222994,/g3t1_2,,running
Status,1350,122042497226,/g3t1_2,,fail
Status,1351,122178292170,/g3t1_4,,running
Status,1352,122185862608,/g3t1_4,,success
Status,1353,122242721132,/g3t1_2,,running
Status,1354,122242795992,/g3t1_2,,fail
Status,1355,122443085311,/g3t1_2,,running
Status,1356,122443171910,/g3t1_2,,fail
Status,1358,122562209671,/g4t1,,success
Status,1359,122643110766,/g3t1_2,,running
Status,1360,122643171826,/g3t1_2,,fail
Status,1361,122843416878,/g3t1_2,,running
Status,1362,122843477312,/g3t1_2,,fail
Status,1363,123043819130,/g3t1_2,,running
Status,1364,123043987562,/g3t1_2,,fail
Status,1365,123178838156,/g3t1_4,,running
Status,1366,123191605219,/g3t1_4,,success
Status,1367,123243751304,/g3t1_2,,running
Status,1368,123243811367,/g3t1_2,,fail
Status,1369,123443882785,/g3t1_2,,running
Status,1370,123444267258,/g3t1_2,,fail
Status,1371,123562511513,/g4t1,,success
Status,1372,123644150046,/g3t1_2,,running
Status,1373,123644252584,/g3t1_2,,fail
Status,1374,123844529994,/g3t1_2,,running
Status,1375,123844606057,/g3t1_2,,fail
Status,1376,124044263345,/g3t1_2,,running
Status,1377,124044321344,/g3t1_2,,fail
Status,1378,124178831660,/g3t1_4,,running
Status,1379,124190360091,/g3t1_4,,success
Status,1380,124244358731,/g3t1_2,,running
Status,1381,124244415030,/g3t1_2,,fail
Status,1382,124444808225,/g3t1_2,,running
Status,1383,124445120234,/g3t1_2,,fail
Status,1384,124563078682,/g4t1,,success
Status,1385,124644502712,/g3t1_2,,running
Status,1386,124644544240,/g3t1_2,,fail
Status,1387,124845094437,/g3t1_2,,running
Status,1388,124845153885,/g3t1_2,,fail
Status,1389,125045685984,/g3t1_2,,running
Status,1390,125045756461,/g3t1_2,,fail
Status,1391,125179309733,/g3t1_4,,running
Status,1392,125188142018,/g3t1_4,,success
Status,1393,125245334217,/g3t1_2,,running
Status,1394,125245630820,/g3t1_2,,fail
Status,1395,125445561970,/g3t1_2,,running
Status,1396,125446033199,/g3t1_2,,fail
Status,1397,125563157217,/g4t1,,success
Status,1398,125645534095,/g3t1_2,,running
Status,1399,125645717258,/g3t1_2,,fail
Status,1400,125758396503,/g3t1_1,,running
Status,1401,125758783255,/g3t1_1,,success
Status,1402,125845239794,/g3t1_2,,running
Status,1403,125845399963,/g3t1_2,,fail
Status,1404,125964206360,/g3t1_3,,running
Status,1405,125964864679,/g3t1_3,,success
Status,1406,126046250488,/g3t1_2,,running
Status,1407,126046505948,/g3t1_2,,fail
Status,1408,126179488627,/g3t1_4,,running
Status,1409,126188591276,/g3t1_4,,success
Status,1410,126246171828,/g3t1_2,,running
Status,1411,126246231843,/g3t1_2,,fail
Status,1412,126446212830,/g3t1_2,,running
Status,1413,126446905611,/g3t1_2,,fail
Status,1414,126563366106,/g4t1,,success
Status,1415,126646887048,/g3t1_2,,running
Status,1416,126646958931,/g3t1_2,,fail
Status,1417,126847139203,/g3t1_2,,running
Status,1418,126847211814,/g3t1_2,,fail
Status,1419,127047091217,/g3t1_2,,running
Status,1420,127047151925,/g3t1_2,,fail
Status,1421,127179930063,/g3t1_4,,running
Status,1422,127188758092,/g3t1_4,,success
Status,1423,127247174081,/g3t1_2,,running
Status,1424,127247563304,/g3t1_2,,fail
Status,1425,127447960815,/g3t1_2,,running
Status,1426,127448030338,/g3t1_2,,fail
Status,1429,127563249945,/g4t1,,success
Status,1430,127647738252,/g3t1_2,,running
Status,1431,127648104934,/g3t1_2,,success
Status,1432,127848166997,/g3t1_2,,running
Status,1433,127848618045,/g3t1_2,,success
Status,1434,128048284123,/g3t1_2,,running
Status,1435,128048831872,/g3t1_2,,success
Status,1436,128179704288,/g3t1_4,,running
Status,1437,128180233289,/g3t1_4,,fail
Status,1438,128247962934,/g3t1_2,,running
Status,1439,128248413589,/g3t1_2,,success
Status,1440,128448562918,/g3t1_2,,running
Status,1441,128449041514,/g3t1_2,,success
Status,1442,128563481079,/g4t1,,success
Status,1443,128649050016,/g3t1_2,,running
Status,1444,128649849082,/g3t1_2,,success
Status,1445,128849317389,/g3t1_2,,running
Status,1446,128849583314,/g3t1_2,,success
Status,1447,129049061881,/g3t1_2,,running
Status,1448,129049780116,/g3t1_2,,success
Status,1449,129179375548,/g3t1_4,,running
Status,1450,129181547088,/g3t1_4,,fail
Status,1451,129249317310,/g3t1_2,,running
Status,1452,129249718942,/g3t1_2,,success
Status,1453,129449615784,/g3t1_2,,running
Status,1454,129450303101,/g3t1_2,,success
Status,1455,129563902171,/g4t1,,success
Status,1456,129649795620,/g3t1_2,,running
Status,1457,129650657735,/g3t1_2,,success
Status,1458,129850237213,/g3t1_2,,running
Status,1459,129851250792,/g3t1_2,,success
Status,1460,130050229057,/g3t1_2,,running
Status,1461,130050818131,/g3t1_2,,success
Status,1462,130179874598,/g3t1_4,,running
Status,1463,130180839306,/g3t1_4,,fail
Status,1464,130250400517,/g3t1_2,,running
Status,1465,130250908984,/g3t1_2,,success
Status,1466,130450540818,/g3t1_2,,running
Status,1467,130451348096,/g3t1_2,,success
Status,1468,130563882164,/g4t1,,success
Status,1469,130650809822,/g3t1_2,,running
Status,1470,130651591765,/g3t1_2,,success
Status,1471,130758761107,/g3t1_1,,running
Status,1472,130759289232,/g3t1_1,,success
Status,1473,130850984872,/g3t1_2,,running
Status,1474,130851505031,/g3t1_2,,success
Status,1475,131051694370,/g3t1_2,,running
Status,1476,131052297150,/g3t1_2,,success
Status,1477,131179918999,/g3t1_4,,running
Status,1478,131180527222,/g3t1_4,,fail
Status,1479,131251353649,/g3t1_2,,running
Status,1480,131252000552,/g3t1_2,,success
Status,1481,131451689205,/g3t1_2,,running
Status,1482,131452297411,/g3t1_2,,success
Status,1483,131564052591,/g4t1,,success
Status,1484,131652019281,/g3t1_2,,running
Status,1485,131653062736,/g3t1_2,,success
Status,1486,131852075966,/g3t1_2,,running
Status,1487,131852609378,/g3t1_2,,success
Status,1488,132052254286,/g3t1_2,,running
Status,1489,132052972274,/g3t1_2,,success
Status,1490,132180479094,/g3t1_4,,running
Status,1491,132181639238,/g3t1_4,,fail
Status,1492,132252494818,/g3t1_2,,running
Status,1493,132253019853,/g3t1_2,,success
Status,1494,132452620697,/g3t1_2,,running
Status,1495,132453401371,/g3t1_2,,success
Status,1496,132564421179,/g4t1,,success
Status,1498,132652526518,/g3t1_2,,running
Status,1499,132652970498,/g3t1_2,,success
Status,1500,132853106075,/g3t1_2,,running
Status,1501,132853554201,/g3t1_2,,success
Status,1502,133052946434,/g3t1_2,,running
Status,1503,133053313707,/g3t1_2,,success
Status,1504,133180379587,/g3t1_4,,running
Status,1505,133181132877,/g3t1_4,,fail
Status,1506,133253027953,/g3t1_2,,running
Status,1507,133253751609,/g3t1_2,,success
Status,1508,133453285720,/g3t1_2,,running
Status,1509,133453798992,/g3t1_2,,success
Status,1510,133564236348,/g4t1,,success
Status,1511,133653531499,/g3t1_2,,running
Status,1512,133654195162,/g3t1_2,,success
Status,1513,133853796067,/g3t1_2,,running
Status,1514,133854802621,/g3t1_2,,success
Status,1515,134054179845,/g3t1_2,,running
Status,1516,134054800637,/g3t1_2,,success
Status,1517,134180692262,/g3t1_4,,running
Status,1518,134181353454,/g3t1_4,,fail
Status,1519,134254416773,/g3t1_2,,running
Status,1520,134254482523,/g3t1_2,,success
Status,1521,134454507956,/g3t1_2,,running
Status,1522,134455075082,/g3t1_2,,success
Status,1523,134564704766,/g4t1,,success
Status,1524,134654863718,/g3t1_2,,running
Status,1525,134655314605,/g3t1_2,,success
Status,1526,134855163430,/g3t1_2,,running
Status,1527,134855895349,/g3t1_2,,success
Status,1528,135055698193,/g3t1_2,,running
Status,1529,135055800031,/g3t1_2,,success
Status,1530,135180688594,/g3t1_4,,running
Status,1531,135181558049,/g3t1_4,,fail
Status,1532,135255332299,/g3t1_2,,running
Status,1533,135255742834,/g3t1_2,,success
Status,1534,135455706473,/g3t1_2,,running
