
Status,2,3554540850,/g4t1,,init
Status,3,8742912629,/g3t1_1,,init
Status,5,8749768667,/g3t1_1,,init
Status,6,8749791925,/g3t1_1,,running
Status,7,8750248466,/g3t1_1,,success
Status,8,8799968970,/g3t1_1,,running
Status,9,8800095158,/g3t1_1,,success
Status,10,8850024557,/g3t1_1,,running
Status,11,8850170883,/g3t1_1,,success
Status,12,8864225937,/g3t1_2,,init
Status,14,8872053063,/g3t1_2,,init
Status,15,8872072200,/g3t1_2,,running
Status,16,8872497958,/g3t1_2,,success
Status,17,8900233924,/g3t1_1,,running
Status,18,8900307808,/g3t1_1,,success
Status,19,8922464858,/g3t1_2,,running
Status,20,8922598094,/g3t1_2,,success
Status,21,8950266858,/g3t1_1,,running
Status,22,8950600193,/g3t1_1,,success
Status,24,8965009985,/g3t1_3,,init
Status,25,8972477010,/g3t1_2,,running
Status,26,8972615021,/g3t1_2,,success
Status,27,8982320821,/g3t1_3,,init
Status,28,8982351829,/g3t1_3,,running
Status,29,8982952565,/g3t1_3,,success
Status,30,9000461103,/g3t1_1,,running
Status,31,9000642255,/g3t1_1,,success
Status,32,9022585188,/g3t1_2,,running
Status,33,9022796416,/g3t1_2,,success
Status,37,9032680670,/g3t1_3,,running
Status,38,9032705000,/g3t1_3,,success
Status,39,9050654275,/g3t1_1,,running
Status,40,9050874040,/g3t1_1,,success
Status,41,9069652748,/g4t1,,success
Status,42,9072617420,/g3t1_2,,running
Status,43,9072706922,/g3t1_2,,success
Status,44,9082682091,/g3t1_3,,running
Status,45,9082707454,/g3t1_3,,success
Status,46,9100851612,/g3t1_1,,running
Status,47,9100876743,/g3t1_1,,success
Status,48,9123569481,/g3t1_2,,running
Status,49,9123612579,/g3t1_2,,success
Status,50,9132685470,/g3t1_3,,running
Status,51,9132751841,/g3t1_3,,success
Status,52,9151160076,/g3t1_1,,running
Status,53,9153565588,/g3t1_1,,success
Status,54,9170286839,/g4t1,,success
Status,55,9173017722,/g3t1_2,,running
Status,56,9173652593,/g3t1_2,,success
Status,57,9183341794,/g3t1_3,,running
Status,58,9183412683,/g3t1_3,,success
Status,59,9201134168,/g3t1_1,,running
Status,60,9201367438,/g3t1_1,,success
Status,61,9223809014,/g3t1_2,,running
Status,62,9223875091,/g3t1_2,,success
Status,66,9233021091,/g3t1_3,,running
Status,67,9233044997,/g3t1_3,,success
Status,68,9251547661,/g3t1_1,,running
Status,69,9251585805,/g3t1_1,,success
Status,70,9269852785,/g4t1,,success
Status,71,9273205175,/g3t1_2,,running
Status,72,9273375076,/g3t1_2,,success
Status,73,9282887036,/g3t1_3,,running
Status,74,9282929955,/g3t1_3,,success
Status,75,9301114423,/g3t1_1,,running
Status,76,9301245701,/g3t1_1,,success
Status,77,9324063077,/g3t1_2,,running
Status,78,9324480707,/g3t1_2,,success
Status,79,9333454990,/g3t1_3,,running
Status,80,9333770753,/g3t1_3,,success
Status,81,9352430588,/g3t1_1,,running
Status,82,9352487595,/g3t1_1,,success
Status,83,9370366790,/g4t1,,success
Status,84,9373916926,/g3t1_2,,running
Status,85,9374565110,/g3t1_2,,success
Status,86,9383501875,/g3t1_3,,running
Status,87,9383785584,/g3t1_3,,success
Status,88,9402009691,/g3t1_1,,running
Status,89,9402488165,/g3t1_1,,success
Status,90,9423883257,/g3t1_2,,running
Status,91,9424164700,/g3t1_2,,success
Status,95,9434006074,/g3t1_3,,running
Status,96,9434086657,/g3t1_3,,success
Status,97,9451820383,/g3t1_1,,running
Status,98,9452523370,/g3t1_1,,success
Status,99,9470509718,/g4t1,,fail
Status,100,9473651967,/g3t1_2,,running
Status,101,9473704098,/g3t1_2,,success
Status,102,9483529935,/g3t1_3,,running
Status,103,9483973872,/g3t1_3,,success
Status,104,9501887633,/g3t1_1,,running
Status,105,9502187853,/g3t1_1,,success
Status,106,9523817318,/g3t1_2,,running
Status,107,9523902365,/g3t1_2,,success
Status,108,9533818637,/g3t1_3,,running
Status,109,9534069718,/g3t1_3,,success
Status,110,9552204386,/g3t1_1,,running
Status,111,9552257845,/g3t1_1,,success
Status,112,9570720871,/g4t1,,fail
Status,113,9574215825,/g3t1_2,,running
Status,114,9575433190,/g3t1_2,,success
Status,115,9583956476,/g3t1_3,,running
Status,116,9584288164,/g3t1_3,,success
Status,117,9602230383,/g3t1_1,,running
Status,118,9602477356,/g3t1_1,,success
Status,119,9624172247,/g3t1_2,,running
Status,120,9624588174,/g3t1_2,,success
Status,124,9634095536,/g3t1_3,,running
Status,125,9635322478,/g3t1_3,,success
Status,126,9652659030,/g3t1_1,,running
Status,127,9652867343,/g3t1_1,,success
Status,128,9670835873,/g4t1,,fail
Status,129,9674167050,/g3t1_2,,running
Status,130,9674478192,/g3t1_2,,success
Status,131,9684381987,/g3t1_3,,running
Status,132,9684754587,/g3t1_3,,success
Status,133,9702458496,/g3t1_1,,running
Status,134,9702786513,/g3t1_1,,success
Status,135,9724302027,/g3t1_2,,running
Status,136,9724664697,/g3t1_2,,success
Status,137,9734779910,/g3t1_3,,running
Status,138,9734847019,/g3t1_3,,success
Status,139,9752811551,/g3t1_1,,running
Status,140,9753263901,/g3t1_1,,success
Status,141,9770887088,/g4t1,,fail
Status,142,9774628244,/g3t1_2,,running
Status,143,9774903455,/g3t1_2,,success
Status,144,9785044790,/g3t1_3,,running
Status,145,9785628711,/g3t1_3,,success
Status,146,9802786398,/g3t1_1,,running
Status,147,9803124045,/g3t1_1,,success
Status,148,9824439828,/g3t1_2,,running
Status,149,9824950204,/g3t1_2,,success
Status,153,9834672125,/g3t1_3,,running
Status,154,9834726298,/g3t1_3,,success
Status,155,9852841439,/g3t1_1,,running
Status,156,9853194647,/g3t1_1,,success
Status,157,9871042162,/g4t1,,fail
Status,158,9874603254,/g3t1_2,,running
Status,159,9874883324,/g3t1_2,,success
Status,160,9884547044,/g3t1_3,,running
Status,161,9885000381,/g3t1_3,,success
Status,162,9902750232,/g3t1_1,,running
Status,163,9902784089,/g3t1_1,,success
Status,164,9924341923,/g3t1_2,,running
Status,165,9924370243,/g3t1_2,,success
Status,166,9934496833,/g3t1_3,,running
Status,167,9934533066,/g3t1_3,,success
Status,168,9952581424,/g3t1_1,,running
Status,169,9952658688,/g3t1_1,,success
Status,170,9970505615,/g4t1,,fail
Status,171,9974438687,/g3t1_2,,running
Status,172,9974467692,/g3t1_2,,success
Status,173,9984339271,/g3t1_3,,running
Status,174,9984589735,/g3t1_3,,success
Status,175,10003196525,/g3t1_1,,running
Status,176,10003478741,/g3t1_1,,success
Status,177,10024770587,/g3t1_2,,running
Status,178,10025107575,/g3t1_2,,success
Status,182,10035470612,/g3t1_3,,running
Status,183,10036263316,/g3t1_3,,success
Status,184,10052877064,/g3t1_1,,running
Status,185,10053141022,/g3t1_1,,success
Status,186,10070765257,/g4t1,,fail
Status,187,10074535822,/g3t1_2,,running
Status,188,10074731278,/g3t1_2,,success
Status,189,10085573868,/g3t1_3,,running
Status,190,10085949672,/g3t1_3,,success
Status,191,10103476973,/g3t1_1,,running
Status,192,10103536721,/g3t1_1,,success
Status,193,10124925764,/g3t1_2,,running
Status,194,10125591782,/g3t1_2,,success
Status,195,10135367187,/g3t1_3,,running
Status,196,10135768769,/g3t1_3,,success
Status,197,10153460500,/g3t1_1,,running
Status,198,10153908131,/g3t1_1,,success
Status,199,10171318265,/g4t1,,fail
Status,200,10175427805,/g3t1_2,,running
Status,201,10175487492,/g3t1_2,,success
Status,202,10185481689,/g3t1_3,,running
Status,203,10185824717,/g3t1_3,,success
Status,204,10203641472,/g3t1_1,,running
Status,205,10203778964,/g3t1_1,,success
Status,206,10224995278,/g3t1_2,,running
Status,207,10225143588,/g3t1_2,,success
Status,211,10235056088,/g3t1_3,,running
Status,212,10235269428,/g3t1_3,,success
Status,213,10253223672,/g3t1_1,,running
Status,214,10253343539,/g3t1_1,,success
Status,215,10270771977,/g4t1,,fail
Status,216,10274973051,/g3t1_2,,running
Status,217,10275047325,/g3t1_2,,success
Status,218,10284992167,/g3t1_3,,running
Status,219,10285150225,/g3t1_3,,success
Status,220,10303333767,/g3t1_1,,running
Status,221,10303596485,/g3t1_1,,success
Status,222,10325067728,/g3t1_2,,running
Status,223,10325189720,/g3t1_2,,success
Status,224,10335202139,/g3t1_3,,running
Status,225,10335323239,/g3t1_3,,success
Status,226,10353558247,/g3t1_1,,running
Status,227,10353606900,/g3t1_1,,fail
Status,228,10371151608,/g4t1,,fail
Status,229,10375285857,/g3t1_2,,running
Status,230,10375455439,/g3t1_2,,success
Status,231,10385375370,/g3t1_3,,running
Status,232,10385585865,/g3t1_3,,success
Status,233,10403743981,/g3t1_1,,running
Status,234,10403802363,/g3t1_1,,success
Status,235,10425700427,/g3t1_2,,running
Status,236,10425930675,/g3t1_2,,success
Status,240,10436585672,/g3t1_3,,running
Status,241,10437158924,/g3t1_3,,success
Status,242,10454894001,/g3t1_1,,running
Status,243,10454960883,/g3t1_1,,success
Status,244,10471458432,/g4t1,,fail
Status,245,10476107832,/g3t1_2,,running
Status,246,10476211942,/g3t1_2,,success
Status,247,10486008180,/g3t1_3,,running
Status,248,10486423146,/g3t1_3,,success
Status,249,10504099225,/g3t1_1,,running
Status,250,10504147602,/g3t1_1,,success
Status,251,10525859334,/g3t1_2,,running
Status,252,10526389874,/g3t1_2,,success
Status,253,10536321013,/g3t1_3,,running
Status,254,10536979814,/g3t1_3,,success
Status,255,10554111570,/g3t1_1,,running
Status,256,10554865882,/g3t1_1,,success
Status,257,10571659588,/g4t1,,fail
Status,258,10576335187,/g3t1_2,,running
Status,259,10577022113,/g3t1_2,,success
Status,260,10586770742,/g3t1_3,,running
Status,261,10588130114,/g3t1_3,,success
Status,262,10604559834,/g3t1_1,,running
Status,263,10604621325,/g3t1_1,,success
Status,264,10626864629,/g3t1_2,,running
Status,265,10626921318,/g3t1_2,,success
Status,269,10636952493,/g3t1_3,,running
Status,270,10637026369,/g3t1_3,,success
Status,271,10654732403,/g3t1_1,,running
Status,272,10654802177,/g3t1_1,,success
Status,273,10671829196,/g4t1,,fail
Status,274,10676379124,/g3t1_2,,running
Status,275,10677017236,/g3t1_2,,success
Status,276,10686530528,/g3t1_3,,running
Status,277,10686817277,/g3t1_3,,success
Status,278,10704985420,/g3t1_1,,running
Status,279,10705084543,/g3t1_1,,success
Status,280,10726332094,/g3t1_2,,running
Status,281,10726674294,/g3t1_2,,success
Status,282,10736521524,/g3t1_3,,running
Status,283,10736680223,/g3t1_3,,success
Status,284,10754112353,/g3t1_1,,running
Status,285,10754253972,/g3t1_1,,success
Status,286,10771333219,/g4t1,,fail
Status,287,10776475865,/g3t1_2,,running
Status,288,10776511797,/g3t1_2,,success
Status,289,10786300999,/g3t1_3,,running
Status,290,10786438005,/g3t1_3,,success
Status,291,10804229044,/g3t1_1,,running
Status,292,10804415835,/g3t1_1,,success
Status,293,10826438951,/g3t1_2,,running
Status,294,10826492782,/g3t1_2,,success
Status,298,10836412340,/g3t1_3,,running
Status,299,10836561071,/g3t1_3,,success
Status,300,10854384363,/g3t1_1,,running
Status,301,10854538045,/g3t1_1,,success
Status,302,10871368562,/g4t1,,fail
Status,303,10876291462,/g3t1_2,,running
Status,304,10876326975,/g3t1_2,,success
Status,305,10886445068,/g3t1_3,,running
Status,306,10886689586,/g3t1_3,,success
Status,307,10904274525,/g3t1_1,,running
Status,308,10904492656,/g3t1_1,,success
Status,309,10926721066,/g3t1_2,,running
Status,310,10926957660,/g3t1_2,,success
Status,311,10936592879,/g3t1_3,,running
Status,312,10936618656,/g3t1_3,,success
Status,313,10954436774,/g3t1_1,,running
Status,314,10954628348,/g3t1_1,,success
Status,315,10971443773,/g4t1,,fail
Status,316,10976435068,/g3t1_2,,running
Status,317,10976466572,/g3t1_2,,success
Status,318,10986712810,/g3t1_3,,running
Status,319,10986737403,/g3t1_3,,success
Status,320,11004486403,/g3t1_1,,running
Status,321,11004623043,/g3t1_1,,success
Status,322,11026896420,/g3t1_2,,running
Status,323,11026942724,/g3t1_2,,success
Status,327,11036726245,/g3t1_3,,running
Status,328,11036855401,/g3t1_3,,success
Status,329,11054732287,/g3t1_1,,running
Status,330,11054767804,/g3t1_1,,success
Status,331,11071492449,/g4t1,,fail
Status,332,11076676810,/g3t1_2,,running
Status,333,11076728353,/g3t1_2,,success
Status,334,11086827409,/g3t1_3,,running
Status,335,11086864020,/g3t1_3,,success
Status,336,11104689001,/g3t1_1,,running
Status,337,11104773859,/g3t1_1,,success
Status,338,11126830269,/g3t1_2,,running
Status,339,11126864523,/g3t1_2,,success
Status,340,11136913650,/g3t1_3,,running
Status,341,11136961510,/g3t1_3,,success
Status,342,11154711578,/g3t1_1,,running
Status,343,11154833882,/g3t1_1,,success
Status,344,11171471633,/g4t1,,fail
Status,345,11176867347,/g3t1_2,,running
Status,346,11176893261,/g3t1_2,,success
Status,347,11186916713,/g3t1_3,,running
Status,348,11186972371,/g3t1_3,,success
Status,349,11204911712,/g3t1_1,,running
Status,350,11204933534,/g3t1_1,,success
Status,351,11226891616,/g3t1_2,,running
Status,352,11226912144,/g3t1_2,,success
Status,356,11237136582,/g3t1_3,,running
Status,357,11237156454,/g3t1_3,,success
Status,358,11254958449,/g3t1_1,,running
Status,359,11254992029,/g3t1_1,,success
Status,360,11271540081,/g4t1,,fail
Status,361,11277155499,/g3t1_2,,running
Status,362,11277175309,/g3t1_2,,success
Status,363,11287129497,/g3t1_3,,running
Status,364,11287220549,/g3t1_3,,success
Status,365,11305230866,/g3t1_1,,running
Status,366,11305260005,/g3t1_1,,success
Status,367,11327309915,/g3t1_2,,running
Status,368,11327343945,/g3t1_2,,success
Status,369,11337318532,/g3t1_3,,running
Status,370,11337343274,/g3t1_3,,success
Status,371,11355346286,/g3t1_1,,running
Status,372,11355370564,/g3t1_1,,success
Status,373,11371729392,/g4t1,,fail
Status,374,11377314090,/g3t1_2,,running
Status,375,11377460441,/g3t1_2,,success
Status,376,11388186449,/g3t1_3,,running
Status,377,11388655763,/g3t1_3,,success
Status,378,11406047204,/g3t1_1,,running
Status,379,11406122536,/g3t1_1,,fail
Status,380,11428367844,/g3t1_2,,running
Status,381,11428438155,/g3t1_2,,success
Status,385,11438037871,/g3t1_3,,running
Status,386,11438638087,/g3t1_3,,success
Status,387,11455955618,/g3t1_1,,running
Status,388,11456583553,/g3t1_1,,success
Status,389,11472517902,/g4t1,,fail
Status,390,11478035669,/g3t1_2,,running
Status,391,11478423144,/g3t1_2,,success
Status,392,11487586623,/g3t1_3,,running
Status,393,11487754320,/g3t1_3,,success
Status,394,11506161070,/g3t1_1,,running
Status,395,11506200985,/g3t1_1,,success
Status,396,11528430578,/g3t1_2,,running
Status,397,11528807710,/g3t1_2,,success
Status,398,11538251542,/g3t1_3,,running
Status,399,11538652891,/g3t1_3,,success
Status,400,11556601375,/g3t1_1,,running
Status,401,11556670943,/g3t1_1,,success
Status,402,11572714773,/g4t1,,fail
Status,403,11578242141,/g3t1_2,,running
Status,404,11578544769,/g3t1_2,,success
Status,405,11588033981,/g3t1_3,,running
Status,406,11588184747,/g3t1_3,,success
Status,407,11605991610,/g3t1_1,,running
Status,408,11606196169,/g3t1_1,,success
Status,409,11628600833,/g3t1_2,,running
Status,410,11628955320,/g3t1_2,,success
Status,414,11638294075,/g3t1_3,,running
Status,415,11638595326,/g3t1_3,,success
Status,416,11656378638,/g3t1_1,,running
Status,417,11656746493,/g3t1_1,,success
Status,418,11672934387,/g4t1,,fail
Status,419,11678829421,/g3t1_2,,running
Status,420,11679262701,/g3t1_2,,success
Status,421,11688205521,/g3t1_3,,running
Status,422,11688256563,/g3t1_3,,success
Status,423,11706411134,/g3t1_1,,running
Status,424,11706465177,/g3t1_1,,fail
Status,425,11728518058,/g3t1_2,,running
Status,426,11728699335,/g3t1_2,,success
Status,427,11738012532,/g3t1_3,,running
Status,428,11738040474,/g3t1_3,,success
Status,429,11756200894,/g3t1_1,,running
Status,430,11756383747,/g3t1_1,,success
Status,431,11772587254,/g4t1,,fail
Status,432,11779234192,/g3t1_2,,running
Status,433,11779656537,/g3t1_2,,success
Status,434,11788547634,/g3t1_3,,running
Status,435,11789034245,/g3t1_3,,success
Status,436,11806817358,/g3t1_1,,running
Status,437,11807379282,/g3t1_1,,success
Status,438,11828786951,/g3t1_2,,running
Status,439,11829411650,/g3t1_2,,success
Status,443,11838732406,/g3t1_3,,running
Status,444,11838840933,/g3t1_3,,success
Status,445,11857020681,/g3t1_1,,running
Status,446,11857312162,/g3t1_1,,success
Status,447,11872406227,/g4t1,,fail
Status,448,11878681870,/g3t1_2,,running
Status,449,11879181538,/g3t1_2,,success
Status,450,11888563535,/g3t1_3,,running
Status,451,11888604261,/g3t1_3,,success
Status,452,11906850730,/g3t1_1,,running
Status,453,11907063849,/g3t1_1,,success
Status,454,11928993182,/g3t1_2,,running
Status,455,11929484796,/g3t1_2,,success
Status,456,11939175414,/g3t1_3,,running
Status,457,11940535792,/g3t1_3,,success
Status,458,11956902600,/g3t1_1,,running
Status,459,11957238678,/g3t1_1,,success
Status,460,11972814827,/g4t1,,fail
Status,461,11979230100,/g3t1_2,,running
Status,462,11979408584,/g3t1_2,,success
Status,463,11988980438,/g3t1_3,,running
Status,464,11989135035,/g3t1_3,,success
Status,465,12006824777,/g3t1_1,,running
Status,466,12007118157,/g3t1_1,,success
Status,467,12029130197,/g3t1_2,,running
Status,468,12029863974,/g3t1_2,,success
Status,472,12038937021,/g3t1_3,,running
Status,473,12039034739,/g3t1_3,,success
Status,474,12057076652,/g3t1_1,,running
Status,475,12057121106,/g3t1_1,,success
Status,476,12072377670,/g4t1,,fail
Status,477,12079391441,/g3t1_2,,running
Status,478,12079435391,/g3t1_2,,success
Status,479,12088994166,/g3t1_3,,running
Status,480,12089233109,/g3t1_3,,success
Status,481,12107045239,/g3t1_1,,running
Status,482,12107249120,/g3t1_1,,fail
Status,483,12129220811,/g3t1_2,,running
Status,484,12129738176,/g3t1_2,,success
Status,485,12139316568,/g3t1_3,,running
Status,486,12139509805,/g3t1_3,,success
Status,487,12157294908,/g3t1_1,,running
Status,488,12157641344,/g3t1_1,,success
Status,489,12172591234,/g4t1,,fail
Status,490,12179401456,/g3t1_2,,running
Status,491,12179817095,/g3t1_2,,success
Status,492,12189290638,/g3t1_3,,running
Status,493,12189423007,/g3t1_3,,success
Status,494,12207208864,/g3t1_1,,running
Status,495,12207476387,/g3t1_1,,success
Status,496,12229851912,/g3t1_2,,running
Status,497,12230384536,/g3t1_2,,success
Status,501,12239323099,/g3t1_3,,running
Status,502,12239461931,/g3t1_3,,success
Status,503,12257747738,/g3t1_1,,running
Status,504,12257824756,/g3t1_1,,success
Status,505,12273151520,/g4t1,,fail
Status,506,12279734455,/g3t1_2,,running
Status,507,12279870970,/g3t1_2,,success
Status,508,12289376226,/g3t1_3,,running
Status,509,12289408613,/g3t1_3,,success
Status,510,12307326674,/g3t1_1,,running
Status,511,12307498272,/g3t1_1,,success
Status,512,12330195965,/g3t1_2,,running
Status,513,12330436347,/g3t1_2,,success
Status,514,12339313507,/g3t1_3,,running
Status,515,12339458748,/g3t1_3,,success
Status,516,12357342177,/g3t1_1,,running
Status,517,12357383867,/g3t1_1,,success
Status,518,12372776843,/g4t1,,fail
Status,519,12380154704,/g3t1_2,,running
Status,520,12380357742,/g3t1_2,,success
Status,521,12389392844,/g3t1_3,,running
Status,522,12389574031,/g3t1_3,,success
Status,523,12407727747,/g3t1_1,,running
Status,524,12408087505,/g3t1_1,,success
Status,525,12430237068,/g3t1_2,,running
Status,526,12430547295,/g3t1_2,,success
Status,530,12439596222,/g3t1_3,,running
Status,531,12439626451,/g3t1_3,,success
Status,532,12457594412,/g3t1_1,,running
Status,533,12457692710,/g3t1_1,,success
Status,534,12472871313,/g4t1,,fail
Status,535,12480549050,/g3t1_2,,running
Status,536,12480674486,/g3t1_2,,success
Status,537,12489589487,/g3t1_3,,running
Status,538,12489621352,/g3t1_3,,success
Status,539,12507727076,/g3t1_1,,running
Status,540,12507797080,/g3t1_1,,success
Status,541,12530607277,/g3t1_2,,running
Status,542,12530657880,/g3t1_2,,success
Status,543,12539794100,/g3t1_3,,running
Status,544,12540081381,/g3t1_3,,success
Status,545,12558048155,/g3t1_1,,running
Status,546,12558129941,/g3t1_1,,fail
Status,547,12573291304,/g4t1,,fail
Status,548,12580602183,/g3t1_2,,running
Status,549,12580934661,/g3t1_2,,success
Status,550,12589968546,/g3t1_3,,running
Status,551,12590173421,/g3t1_3,,success
Status,552,12607879380,/g3t1_1,,running
Status,553,12607917189,/g3t1_1,,fail
Status,554,12630312732,/g3t1_2,,running
Status,555,12630474071,/g3t1_2,,success
Status,559,12639778812,/g3t1_3,,running
Status,560,12639940247,/g3t1_3,,success
Status,561,12657907913,/g3t1_1,,running
Status,562,12657933076,/g3t1_1,,success
Status,563,12672985194,/g4t1,,fail
Status,564,12680330006,/g3t1_2,,running
Status,565,12680490049,/g3t1_2,,success
Status,566,12689786390,/g3t1_3,,running
Status,567,12689984353,/g3t1_3,,success
Status,568,12707995319,/g3t1_1,,running
Status,569,12708026188,/g3t1_1,,success
Status,570,12730629459,/g3t1_2,,running
Status,571,12730659747,/g3t1_2,,success
Status,572,12739778632,/g3t1_3,,running
Status,573,12739927510,/g3t1_3,,success
Status,574,12757962475,/g3t1_1,,running
Status,575,12758216968,/g3t1_1,,fail
Status,576,12772951693,/g4t1,,fail
Status,577,12780542604,/g3t1_2,,running
Status,578,12780695301,/g3t1_2,,success
Status,579,12789962588,/g3t1_3,,running
Status,580,12790082521,/g3t1_3,,success
Status,581,12808111491,/g3t1_1,,running
Status,582,12808142995,/g3t1_1,,success
Status,583,12830807755,/g3t1_2,,running
Status,584,12831066645,/g3t1_2,,success
Status,588,12840404625,/g3t1_3,,running
Status,589,12840600791,/g3t1_3,,success
Status,590,12858409372,/g3t1_1,,running
Status,591,12858925825,/g3t1_1,,success
Status,592,12873903643,/g4t1,,fail
Status,593,12881636244,/g3t1_2,,running
Status,594,12881711320,/g3t1_2,,success
Status,595,12890659345,/g3t1_3,,running
Status,596,12891354357,/g3t1_3,,success
Status,597,12908916606,/g3t1_1,,running
Status,598,12909333310,/g3t1_1,,success
Status,599,12931617650,/g3t1_2,,running
Status,600,12932013926,/g3t1_2,,success
Status,601,12940868949,/g3t1_3,,running
Status,602,12941094507,/g3t1_3,,success
Status,603,12958681953,/g3t1_1,,running
Status,604,12958721133,/g3t1_1,,success
Status,605,12973236876,/g4t1,,fail
Status,606,12981568944,/g3t1_2,,running
Status,607,12981861386,/g3t1_2,,success
Status,608,12990621393,/g3t1_3,,running
Status,609,12990666430,/g3t1_3,,success
Status,610,13008597172,/g3t1_1,,running
Status,611,13008755809,/g3t1_1,,success
Status,612,13031349700,/g3t1_2,,running
Status,613,13031383587,/g3t1_2,,success
Status,617,13040910291,/g3t1_3,,running
Status,618,13041261845,/g3t1_3,,success
Status,619,13059232372,/g3t1_1,,running
Status,620,13059834007,/g3t1_1,,success
Status,621,13073984641,/g4t1,,fail
Status,622,13081841561,/g3t1_2,,running
Status,623,13082747669,/g3t1_2,,success
Status,624,13091219367,/g3t1_3,,running
Status,625,13091916191,/g3t1_3,,fail
Status,626,13109345993,/g3t1_1,,running
Status,627,13109582094,/g3t1_1,,success
Status,628,13131572243,/g3t1_2,,running
Status,629,13131802350,/g3t1_2,,success
Status,630,13141040429,/g3t1_3,,running
Status,631,13141080979,/g3t1_3,,success
Status,632,13158910130,/g3t1_1,,running
Status,633,13159139007,/g3t1_1,,success
Status,634,13173556299,/g4t1,,fail
Status,635,13182004878,/g3t1_2,,running
Status,636,13182352668,/g3t1_2,,success
Status,637,13191548655,/g3t1_3,,running
Status,638,13192151169,/g3t1_3,,success
Status,639,13209653874,/g3t1_1,,running
Status,640,13209723720,/g3t1_1,,fail
Status,641,13232456890,/g3t1_2,,running
Status,642,13232804525,/g3t1_2,,success
Status,646,13241491679,/g3t1_3,,running
Status,647,13242338271,/g3t1_3,,success
Status,648,13259811753,/g3t1_1,,running
Status,649,13260386468,/g3t1_1,,success
Status,650,13274322391,/g4t1,,fail
Status,651,13282824866,/g3t1_2,,running
Status,652,13282964227,/g3t1_2,,success
Status,653,13291747684,/g3t1_3,,running
Status,654,13292187159,/g3t1_3,,success
Status,655,13309799035,/g3t1_1,,running
Status,656,13310342001,/g3t1_1,,success
Status,657,13332632398,/g3t1_2,,running
Status,658,13333342855,/g3t1_2,,success
Status,659,13341822503,/g3t1_3,,running
Status,660,13342293256,/g3t1_3,,success
Status,661,13360393747,/g3t1_1,,running
Status,662,13360492588,/g3t1_1,,success
Status,663,13374731926,/g4t1,,fail
Status,664,13382770912,/g3t1_2,,running
Status,665,13383553033,/g3t1_2,,success
Status,666,13391924834,/g3t1_3,,running
Status,667,13392560559,/g3t1_3,,success
Status,668,13409690308,/g3t1_1,,running
Status,669,13409780822,/g3t1_1,,success
Status,670,13432448683,/g3t1_2,,running
Status,671,13432716703,/g3t1_2,,success
Status,675,13441737808,/g3t1_3,,running
Status,676,13441975892,/g3t1_3,,success
Status,677,13459771836,/g3t1_1,,running
Status,678,13460019313,/g3t1_1,,success
Status,679,13474376096,/g4t1,,fail
Status,680,13482975426,/g3t1_2,,running
Status,681,13483449360,/g3t1_2,,success
Status,682,13492227608,/g3t1_3,,running
Status,683,13492296523,/g3t1_3,,success
Status,684,13510438712,/g3t1_1,,running
Status,685,13510512691,/g3t1_1,,fail
Status,686,13533329624,/g3t1_2,,running
Status,687,13533421275,/g3t1_2,,success
Status,688,13542285541,/g3t1_3,,running
Status,689,13542895852,/g3t1_3,,success
Status,690,13560408849,/g3t1_1,,running
Status,691,13561260055,/g3t1_1,,success
Status,692,13574091348,/g4t1,,fail
Status,693,13582614260,/g3t1_2,,running
Status,694,13582679689,/g3t1_2,,success
Status,695,13592112150,/g3t1_3,,running
Status,696,13592151427,/g3t1_3,,success
Status,697,13610166872,/g3t1_1,,running
Status,698,13610203686,/g3t1_1,,success
Status,699,13632687217,/g3t1_2,,running
Status,700,13632786503,/g3t1_2,,success
Status,704,13642147530,/g3t1_3,,running
Status,705,13642182057,/g3t1_3,,success
Status,706,13660333566,/g3t1_1,,running
Status,707,13660367179,/g3t1_1,,success
Status,708,13674124149,/g4t1,,fail
Status,709,13682929477,/g3t1_2,,running
Status,710,13683154739,/g3t1_2,,success
Status,711,13692155488,/g3t1_3,,running
Status,712,13692203771,/g3t1_3,,success
Status,713,13710297507,/g3t1_1,,running
Status,714,13710469841,/g3t1_1,,success
Status,715,13733796804,/g3t1_2,,running
Status,716,13733861836,/g3t1_2,,success
Status,717,13742526516,/g3t1_3,,running
Status,718,13743197842,/g3t1_3,,success
Status,719,13760888435,/g3t1_1,,running
Status,720,13761780219,/g3t1_1,,success
Status,721,13774739644,/g4t1,,fail
Status,722,13783073001,/g3t1_2,,running
Status,723,13783223189,/g3t1_2,,success
Status,724,13792355112,/g3t1_3,,running
Status,725,13792502001,/g3t1_3,,success
Status,726,13810482690,/g3t1_1,,running
Status,727,13810541560,/g3t1_1,,success
Status,728,13833032769,/g3t1_2,,running
Status,729,13833131528,/g3t1_2,,success
Status,733,13842335011,/g3t1_3,,running
Status,734,13842381745,/g3t1_3,,success
Status,735,13861196383,/g3t1_1,,running
Status,736,13861254983,/g3t1_1,,success
Status,737,13874103789,/g4t1,,fail
Status,738,13883289946,/g3t1_2,,running
Status,739,13883398225,/g3t1_2,,success
Status,740,13892764089,/g3t1_3,,running
Status,741,13892809836,/g3t1_3,,success
Status,742,13911074841,/g3t1_1,,running
Status,743,13911399292,/g3t1_1,,success
Status,744,13933340882,/g3t1_2,,running
Status,745,13933811704,/g3t1_2,,success
Status,746,13942690154,/g3t1_3,,running
Status,747,13942715640,/g3t1_3,,success
Status,748,13961126006,/g3t1_1,,running
Status,749,13961510487,/g3t1_1,,success
Status,750,13975243857,/g4t1,,fail
Status,751,13983959200,/g3t1_2,,running
Status,752,13984217457,/g3t1_2,,success
Status,753,13993000036,/g3t1_3,,running
Status,754,13993053604,/g3t1_3,,success
Status,755,14010885539,/g3t1_1,,running
Status,756,14011163080,/g3t1_1,,fail
Status,757,14033654651,/g3t1_2,,running
Status,758,14033768740,/g3t1_2,,success
Status,762,14043173469,/g3t1_3,,running
Status,763,14043409972,/g3t1_3,,success
Status,764,14061443383,/g3t1_1,,running
Status,765,14061661516,/g3t1_1,,success
Status,766,14074774207,/g4t1,,fail
Status,767,14083609578,/g3t1_2,,running
Status,768,14083807067,/g3t1_2,,success
Status,769,14093512714,/g3t1_3,,running
Status,770,14093560780,/g3t1_3,,success
Status,771,14111742395,/g3t1_1,,running
Status,772,14112186916,/g3t1_1,,success
Status,773,14133960984,/g3t1_2,,running
Status,774,14134484991,/g3t1_2,,success
Status,775,14143311391,/g3t1_3,,running
Status,776,14143385420,/g3t1_3,,success
Status,777,14161692936,/g3t1_1,,running
Status,778,14161754812,/g3t1_1,,fail
Status,779,14174482671,/g4t1,,fail
Status,780,14183700211,/g3t1_2,,running
Status,781,14183923442,/g3t1_2,,success
Status,782,14193148540,/g3t1_3,,running
Status,783,14193216509,/g3t1_3,,success
Status,784,14211592902,/g3t1_1,,running
Status,785,14211727510,/g3t1_1,,success
Status,789,14233822229,/g3t1_2,,running
Status,790,14234160564,/g3t1_2,,success
Status,791,14243383273,/g3t1_3,,running
Status,792,14243473883,/g3t1_3,,success
Status,793,14261426342,/g3t1_1,,running
Status,794,14261572052,/g3t1_1,,success
Status,795,14274832767,/g4t1,,fail
Status,796,14284400923,/g3t1_2,,running
Status,797,14284782464,/g3t1_2,,success
Status,798,14293856501,/g3t1_3,,running
Status,799,14294268996,/g3t1_3,,success
Status,800,14311726408,/g3t1_1,,running
Status,801,14312175867,/g3t1_1,,success
Status,802,14334542955,/g3t1_2,,running
Status,803,14335153180,/g3t1_2,,success
Status,804,14343891619,/g3t1_3,,running
Status,805,14344164354,/g3t1_3,,success
Status,806,14362016548,/g3t1_1,,running
Status,807,14362083094,/g3t1_1,,fail
Status,808,14375489920,/g4t1,,fail
Status,809,14384550590,/g3t1_2,,running
Status,810,14385403658,/g3t1_2,,success
Status,811,14393995223,/g3t1_3,,running
Status,812,14394914797,/g3t1_3,,success
Status,813,14411699888,/g3t1_1,,running
Status,814,14411849315,/g3t1_1,,success
Status,818,14434222577,/g3t1_2,,running
Status,819,14434863473,/g3t1_2,,success
Status,820,14444261172,/g3t1_3,,running
Status,821,14444309597,/g3t1_3,,success
Status,822,14462289390,/g3t1_1,,running
Status,823,14462412596,/g3t1_1,,success
Status,824,14474813731,/g4t1,,fail
Status,825,14484744544,/g3t1_2,,running
Status,826,14485747901,/g3t1_2,,success
Status,827,14494457217,/g3t1_3,,running
Status,828,14494892350,/g3t1_3,,success
Status,829,14512387417,/g3t1_1,,running
Status,830,14513394253,/g3t1_1,,success
Status,831,14535283420,/g3t1_2,,running
Status,832,14535575886,/g3t1_2,,success
Status,833,14544856626,/g3t1_3,,running
Status,834,14544925551,/g3t1_3,,success
Status,835,14562238935,/g3t1_1,,running
Status,836,14562306527,/g3t1_1,,success
Status,837,14574780687,/g4t1,,fail
Status,838,14585258561,/g3t1_2,,running
Status,839,14585733900,/g3t1_2,,success
Status,840,14594621848,/g3t1_3,,running
Status,841,14594894721,/g3t1_3,,success
Status,842,14612180461,/g3t1_1,,running
Status,843,14612223101,/g3t1_1,,success
Status,847,14635290353,/g3t1_2,,running
Status,848,14635356307,/g3t1_2,,success
Status,849,14644350291,/g3t1_3,,running
Status,850,14644566751,/g3t1_3,,success
Status,851,14662522060,/g3t1_1,,running
Status,852,14662806002,/g3t1_1,,success
Status,853,14675476411,/g4t1,,fail
Status,854,14685169543,/g3t1_2,,running
Status,855,14685479308,/g3t1_2,,success
Status,856,14694850645,/g3t1_3,,running
Status,857,14694912150,/g3t1_3,,success
Status,858,14713038037,/g3t1_1,,running
Status,859,14713782231,/g3t1_1,,success
Status,860,14735232647,/g3t1_2,,running
Status,861,14735581338,/g3t1_2,,success
Status,862,14745340246,/g3t1_3,,running
Status,863,14745429798,/g3t1_3,,success
Status,864,14762908558,/g3t1_1,,running
Status,865,14762968621,/g3t1_1,,fail
Status,866,14775533063,/g4t1,,fail
Status,867,14785263927,/g3t1_2,,running
Status,868,14785565241,/g3t1_2,,success
Status,869,14795543695,/g3t1_3,,running
Status,870,14796051852,/g3t1_3,,success
Status,871,14812892211,/g3t1_1,,running
Status,872,14813143752,/g3t1_1,,success
Status,876,14835168545,/g3t1_2,,running
Status,877,14835560859,/g3t1_2,,success
Status,878,14845341627,/g3t1_3,,running
Status,879,14845550306,/g3t1_3,,success
Status,880,14863238684,/g3t1_1,,running
Status,881,14863469157,/g3t1_1,,success
Status,882,14875813479,/g4t1,,fail
Status,883,14885675721,/g3t1_2,,running
Status,884,14885726108,/g3t1_2,,success
Status,885,14895398778,/g3t1_3,,running
Status,886,14895456151,/g3t1_3,,success
Status,887,14912595161,/g3t1_1,,running
Status,888,14912750917,/g3t1_1,,fail
Status,889,14935241952,/g3t1_2,,running
Status,890,14935297545,/g3t1_2,,success
Status,891,14945988265,/g3t1_3,,running
Status,892,14946047812,/g3t1_3,,success
Status,893,14963535565,/g3t1_1,,running
Status,894,14963715598,/g3t1_1,,success
Status,895,14975142306,/g4t1,,fail
Status,896,14985313208,/g3t1_2,,running
Status,897,14985335885,/g3t1_2,,success
Status,898,14995795283,/g3t1_3,,running
Status,899,14995838265,/g3t1_3,,success
Status,900,15013571545,/g3t1_1,,running
Status,901,15013896739,/g3t1_1,,success
Status,905,15035282700,/g3t1_2,,running
Status,906,15035451457,/g3t1_2,,success
Status,907,15045386716,/g3t1_3,,running
Status,908,15045522779,/g3t1_3,,success
Status,909,15063513798,/g3t1_1,,running
Status,910,15063544544,/g3t1_1,,fail
Status,911,15075382436,/g4t1,,fail
Status,912,15085587186,/g3t1_2,,running
Status,913,15085847598,/g3t1_2,,success
Status,914,15096057901,/g3t1_3,,running
Status,915,15096406058,/g3t1_3,,success
Status,916,15113462558,/g3t1_1,,running
Status,917,15113892836,/g3t1_1,,success
Status,918,15135853518,/g3t1_2,,running
Status,919,15136255411,/g3t1_2,,success
Status,920,15145903495,/g3t1_3,,running
Status,921,15146268020,/g3t1_3,,success
Status,922,15164151853,/g3t1_1,,running
Status,923,15164214493,/g3t1_1,,fail
Status,924,15175986345,/g4t1,,fail
Status,925,15186470241,/g3t1_2,,running
Status,926,15186524602,/g3t1_2,,success
Status,927,15196262875,/g3t1_3,,running
Status,928,15197063800,/g3t1_3,,success
Status,929,15213895522,/g3t1_1,,running
Status,930,15214129272,/g3t1_1,,fail
Status,934,15236038369,/g3t1_2,,running
Status,935,15236443294,/g3t1_2,,success
Status,936,15246154617,/g3t1_3,,running
Status,937,15246549893,/g3t1_3,,success
Status,938,15263995300,/g3t1_1,,running
Status,939,15264567108,/g3t1_1,,success
Status,940,15276113990,/g4t1,,fail
Status,941,15286304478,/g3t1_2,,running
Status,942,15286678569,/g3t1_2,,success
Status,943,15296421694,/g3t1_3,,running
Status,944,15296667029,/g3t1_3,,success
Status,945,15314108539,/g3t1_1,,running
Status,946,15314166166,/g3t1_1,,success
Status,947,15336640782,/g3t1_2,,running
Status,948,15336843571,/g3t1_2,,success
Status,949,15346307848,/g3t1_3,,running
Status,950,15346619512,/g3t1_3,,success
Status,951,15364193824,/g3t1_1,,running
Status,952,15364471051,/g3t1_1,,success
Status,953,15376161744,/g4t1,,fail
Status,954,15386443201,/g3t1_2,,running
Status,955,15386915404,/g3t1_2,,success
Status,956,15396539356,/g3t1_3,,running
Status,957,15396804401,/g3t1_3,,success
Status,958,15414275644,/g3t1_1,,running
Status,959,15414324761,/g3t1_1,,success
Status,963,15436461128,/g3t1_2,,running
Status,964,15436761687,/g3t1_2,,success
Status,965,15446517207,/g3t1_3,,running
Status,966,15446700593,/g3t1_3,,success
Status,967,15464534007,/g3t1_1,,running
Status,968,15464877505,/g3t1_1,,success
Status,969,15476262342,/g4t1,,fail
Status,970,15487273804,/g3t1_2,,running
Status,971,15487350624,/g3t1_2,,success
Status,972,15496814535,/g3t1_3,,running
Status,973,15497160774,/g3t1_3,,success
Status,974,15514917960,/g3t1_1,,running
Status,975,15515010548,/g3t1_1,,success
Status,976,15537007528,/g3t1_2,,running
Status,977,15537064403,/g3t1_2,,success
Status,978,15546769466,/g3t1_3,,running
Status,979,15547041899,/g3t1_3,,success
Status,980,15564711745,/g3t1_1,,running
Status,981,15564766625,/g3t1_1,,success
Status,982,15576335164,/g4t1,,fail
Status,983,15587041648,/g3t1_2,,running
Status,984,15587269889,/g3t1_2,,success
Status,985,15596772279,/g3t1_3,,running
Status,986,15597024809,/g3t1_3,,success
Status,987,15615115163,/g3t1_1,,running
Status,988,15615711729,/g3t1_1,,success
Status,992,15637357173,/g3t1_2,,running
Status,993,15637666888,/g3t1_2,,success
Status,994,15647333415,/g3t1_3,,running
Status,995,15647883968,/g3t1_3,,success
Status,996,15665211582,/g3t1_1,,running
Status,997,15665303741,/g3t1_1,,fail
Status,998,15676848197,/g4t1,,fail
Status,999,15687527820,/g3t1_2,,running
Status,1000,15687965884,/g3t1_2,,success
Status,1001,15697462568,/g3t1_3,,running
Status,1002,15698014820,/g3t1_3,,success
Status,1003,15715178784,/g3t1_1,,running
Status,1004,15715587909,/g3t1_1,,success
Status,1005,15737700685,/g3t1_2,,running
Status,1006,15738007317,/g3t1_2,,success
Status,1007,15747511157,/g3t1_3,,running
Status,1008,15747933989,/g3t1_3,,success
Status,1009,15765068065,/g3t1_1,,running
Status,1010,15765668873,/g3t1_1,,success
Status,1011,15776904102,/g4t1,,fail
Status,1012,15787739599,/g3t1_2,,running
Status,1013,15788375748,/g3t1_2,,success
Status,1014,15797754199,/g3t1_3,,running
Status,1015,15798178627,/g3t1_3,,success
Status,1016,15815423243,/g3t1_1,,running
Status,1017,15815911416,/g3t1_1,,success
Status,1021,15837898838,/g3t1_2,,running
Status,1022,15838319032,/g3t1_2,,success
Status,1023,15847931604,/g3t1_3,,running
Status,1024,15848022477,/g3t1_3,,success
Status,1025,15865541321,/g3t1_1,,running
Status,1026,15865872527,/g3t1_1,,success
Status,1027,15877069795,/g4t1,,fail
Status,1028,15888055563,/g3t1_2,,running
Status,1029,15888337520,/g3t1_2,,success
Status,1030,15898017462,/g3t1_3,,running
Status,1031,15898351870,/g3t1_3,,success
Status,1032,15915743202,/g3t1_1,,running
Status,1033,15916350394,/g3t1_1,,success
Status,1034,15938078356,/g3t1_2,,running
Status,1035,15938318418,/g3t1_2,,success
Status,1036,15948252783,/g3t1_3,,running
Status,1037,15948521451,/g3t1_3,,success
Status,1038,15965391858,/g3t1_1,,running
Status,1039,15965617683,/g3t1_1,,success
Status,1040,15976639210,/g4t1,,fail
Status,1041,15987897264,/g3t1_2,,running
Status,1042,15988073564,/g3t1_2,,success
Status,1043,15998099260,/g3t1_3,,running
Status,1044,15998387772,/g3t1_3,,success
Status,1045,16015625458,/g3t1_1,,running
Status,1046,16015826980,/g3t1_1,,success
Status,1050,16037928663,/g3t1_2,,running
Status,1051,16038249458,/g3t1_2,,success
Status,1052,16048081471,/g3t1_3,,running
Status,1053,16048179015,/g3t1_3,,success
Status,1054,16065692324,/g3t1_1,,running
Status,1055,16065914305,/g3t1_1,,success
Status,1056,16076835207,/g4t1,,fail
Status,1057,16088056303,/g3t1_2,,running
Status,1058,16088209219,/g3t1_2,,success
Status,1059,16098752900,/g3t1_3,,running
Status,1060,16098856236,/g3t1_3,,success
Status,1061,16116289873,/g3t1_1,,running
Status,1062,16116438811,/g3t1_1,,success
Status,1063,16138675937,/g3t1_2,,running
Status,1064,16138822423,/g3t1_2,,success
Status,1065,16148710482,/g3t1_3,,running
Status,1066,16149059510,/g3t1_3,,success
Status,1067,16166360520,/g3t1_1,,running
Status,1068,16166672234,/g3t1_1,,success
Status,1069,16177159209,/g4t1,,fail
Status,1070,16188891650,/g3t1_2,,running
Status,1071,16188972241,/g3t1_2,,success
Status,1072,16198813637,/g3t1_3,,running
Status,1073,16198888332,/g3t1_3,,success
Status,1074,16216575687,/g3t1_1,,running
Status,1075,16216645011,/g3t1_1,,fail
Status,1079,16239359401,/g3t1_2,,running
Status,1080,16239431969,/g3t1_2,,success
Status,1081,16249346100,/g3t1_3,,running
Status,1082,16249418830,/g3t1_3,,success
Status,1083,16266252399,/g3t1_1,,running
Status,1084,16266497038,/g3t1_1,,success
Status,1085,16277069631,/g4t1,,fail
Status,1086,16288748488,/g3t1_2,,running
Status,1087,16289058168,/g3t1_2,,success
Status,1088,16298671416,/g3t1_3,,running
Status,1089,16299041748,/g3t1_3,,success
Status,1090,16316719024,/g3t1_1,,running
Status,1091,16316943743,/g3t1_1,,success
Status,1092,16339258951,/g3t1_2,,running
Status,1093,16339699793,/g3t1_2,,success
Status,1094,16349272075,/g3t1_3,,running
Status,1095,16349778773,/g3t1_3,,success
Status,1096,16366900612,/g3t1_1,,running
Status,1097,16366964754,/g3t1_1,,fail
Status,1098,16377510291,/g4t1,,fail
Status,1099,16389598344,/g3t1_2,,running
Status,1100,16389893685,/g3t1_2,,success
Status,1101,16399071493,/g3t1_3,,running
Status,1102,16399844601,/g3t1_3,,success
Status,1103,16417051825,/g3t1_1,,running
Status,1104,16417465133,/g3t1_1,,success
Status,1108,16439428306,/g3t1_2,,running
Status,1109,16439855450,/g3t1_2,,success
Status,1110,16448917749,/g3t1_3,,running
Status,1111,16449004441,/g3t1_3,,success
Status,1112,16466629135,/g3t1_1,,running
Status,1113,16466652904,/g3t1_1,,success
Status,1114,16477640439,/g4t1,,fail
Status,1115,16489557423,/g3t1_2,,running
Status,1116,16490155674,/g3t1_2,,success
Status,1117,16499604578,/g3t1_3,,running
Status,1118,16499913056,/g3t1_3,,success
Status,1119,16517386653,/g3t1_1,,running
Status,1120,16517743985,/g3t1_1,,success
Status,1121,16539693772,/g3t1_2,,running
Status,1122,16540234005,/g3t1_2,,success
Status,1123,16549551159,/g3t1_3,,running
Status,1124,16549657949,/g3t1_3,,success
Status,1125,16566947372,/g3t1_1,,running
Status,1126,16567128649,/g3t1_1,,success
Status,1127,16577489019,/g4t1,,fail
Status,1128,16589312152,/g3t1_2,,running
Status,1129,16589478589,/g3t1_2,,success
Status,1130,16599354932,/g3t1_3,,running
Status,1131,16599477571,/g3t1_3,,success
Status,1132,16617412166,/g3t1_1,,running
Status,1133,16617479802,/g3t1_1,,success
Status,1137,16639843601,/g3t1_2,,running
Status,1138,16640215365,/g3t1_2,,success
Status,1139,16650057239,/g3t1_3,,running
Status,1140,16650277970,/g3t1_3,,success
Status,1141,16667292137,/g3t1_1,,running
Status,1142,16667571578,/g3t1_1,,success
Status,1143,16677056492,/g4t1,,fail
Status,1144,16689402213,/g3t1_2,,running
Status,1145,16689516230,/g3t1_2,,success
Status,1146,16699325930,/g3t1_3,,running
Status,1147,16699561639,/g3t1_3,,success
Status,1148,16717225829,/g3t1_1,,running
Status,1149,16717500009,/g3t1_1,,success
Status,1150,16740173707,/g3t1_2,,running
Status,1151,16740288814,/g3t1_2,,success
Status,1152,16749926502,/g3t1_3,,running
Status,1153,16750225772,/g3t1_3,,success
Status,1154,16768115035,/g3t1_1,,running
Status,1155,16768230361,/g3t1_1,,success
Status,1156,16777797936,/g4t1,,fail
Status,1157,16790213574,/g3t1_2,,running
Status,1158,16790837507,/g3t1_2,,success
Status,1159,16800428489,/g3t1_3,,running
Status,1160,16800499736,/g3t1_3,,success
Status,1161,16818127291,/g3t1_1,,running
Status,1162,16818264824,/g3t1_1,,success
Status,1166,16840339426,/g3t1_2,,running
Status,1167,16840854184,/g3t1_2,,success
Status,1168,16850420712,/g3t1_3,,running
Status,1169,16851234771,/g3t1_3,,success
Status,1170,16868053187,/g3t1_1,,running
Status,1171,16868523633,/g3t1_1,,success
Status,1172,16878017881,/g4t1,,fail
Status,1173,16890425669,/g3t1_2,,running
Status,1174,16891400771,/g3t1_2,,success
Status,1175,16900507586,/g3t1_3,,running
Status,1176,16900819657,/g3t1_3,,success
Status,1177,16918152531,/g3t1_1,,running
Status,1178,16918532815,/g3t1_1,,success
Status,1179,16940586886,/g3t1_2,,running
Status,1180,16941004642,/g3t1_2,,success
Status,1181,16950684107,/g3t1_3,,running
Status,1182,16950756639,/g3t1_3,,success
Status,1183,16968433444,/g3t1_1,,running
Status,1184,16969357198,/g3t1_1,,success
Status,1185,16978042110,/g4t1,,fail
Status,1186,16990734228,/g3t1_2,,running
Status,1187,16991209149,/g3t1_2,,success
Status,1188,17001065190,/g3t1_3,,running
Status,1189,17001152257,/g3t1_3,,success
Status,1190,17018295717,/g3t1_1,,running
Status,1191,17018686187,/g3t1_1,,success
Status,1195,17040764281,/g3t1_2,,running
Status,1196,17041272628,/g3t1_2,,success
Status,1197,17050713646,/g3t1_3,,running
Status,1198,17051135147,/g3t1_3,,success
Status,1199,17068194193,/g3t1_1,,running
Status,1200,17068562145,/g3t1_1,,success
Status,1201,17077644414,/g4t1,,fail
Status,1202,17090561809,/g3t1_2,,running
Status,1203,17090861008,/g3t1_2,,success
Status,1204,17100451062,/g3t1_3,,running
Status,1205,17100813496,/g3t1_3,,success
Status,1206,17118215471,/g3t1_1,,running
Status,1207,17118550308,/g3t1_1,,success
Status,1208,17141090489,/g3t1_2,,running
Status,1209,17141465575,/g3t1_2,,success
Status,1210,17151350287,/g3t1_3,,running
Status,1211,17151476676,/g3t1_3,,success
Status,1212,17168658542,/g3t1_1,,running
Status,1213,17169131849,/g3t1_1,,success
Status,1214,17177896619,/g4t1,,fail
Status,1215,17190886620,/g3t1_2,,running
Status,1216,17190951127,/g3t1_2,,success
Status,1217,17200624764,/g3t1_3,,running
Status,1218,17200652320,/g3t1_3,,success
Status,1219,17218134757,/g3t1_1,,running
Status,1220,17218224069,/g3t1_1,,success
Status,1224,17241281101,/g3t1_2,,running
Status,1225,17241787549,/g3t1_2,,success
Status,1226,17251217250,/g3t1_3,,running
Status,1227,17251626799,/g3t1_3,,success
Status,1228,17269078088,/g3t1_1,,running
Status,1229,17269217879,/g3t1_1,,success
Status,1230,17278072979,/g4t1,,fail
Status,1231,17291932308,/g3t1_2,,running
Status,1232,17292033505,/g3t1_2,,success
Status,1233,17301145344,/g3t1_3,,running
Status,1234,17301187731,/g3t1_3,,success
Status,1235,17318787001,/g3t1_1,,running
Status,1236,17318830091,/g3t1_1,,fail
Status,1237,17341340589,/g3t1_2,,running
Status,1238,17341388147,/g3t1_2,,success
Status,1239,17351693929,/g3t1_3,,running
Status,1240,17352145751,/g3t1_3,,success
Status,1241,17369491544,/g3t1_1,,running
Status,1242,17369570129,/g3t1_1,,success
Status,1243,17378629933,/g4t1,,fail
Status,1244,17391738041,/g3t1_2,,running
Status,1245,17391987893,/g3t1_2,,success
Status,1246,17401729888,/g3t1_3,,running
Status,1247,17402364932,/g3t1_3,,success
Status,1248,17419539913,/g3t1_1,,running
Status,1249,17419630426,/g3t1_1,,success
Status,1253,17441821916,/g3t1_2,,running
Status,1254,17442396701,/g3t1_2,,success
Status,1255,17451966106,/g3t1_3,,running
Status,1256,17452386347,/g3t1_3,,success
Status,1257,17469520715,/g3t1_1,,running
Status,1258,17469967686,/g3t1_1,,success
Status,1259,17478687616,/g4t1,,fail
Status,1260,17491914590,/g3t1_2,,running
Status,1261,17492479297,/g3t1_2,,success
Status,1262,17501425427,/g3t1_3,,running
Status,1263,17501692664,/g3t1_3,,success
Status,1264,17518911389,/g3t1_1,,running
Status,1265,17518941758,/g3t1_1,,success
Status,1266,17541586853,/g3t1_2,,running
Status,1267,17541680447,/g3t1_2,,success
Status,1268,17551243498,/g3t1_3,,running
Status,1269,17551341811,/g3t1_3,,success
Status,1270,17569095233,/g3t1_1,,running
Status,1271,17569120607,/g3t1_1,,success
Status,1272,17577867009,/g4t1,,fail
Status,1273,17592156147,/g3t1_2,,running
Status,1274,17592758788,/g3t1_2,,success
Status,1275,17602059120,/g3t1_3,,running
Status,1276,17602393534,/g3t1_3,,success
Status,1277,17619758451,/g3t1_1,,running
Status,1278,17620213039,/g3t1_1,,success
Status,1282,17642232313,/g3t1_2,,running
Status,1283,17642727154,/g3t1_2,,fail
Status,1284,17652000554,/g3t1_3,,running
Status,1285,17652431792,/g3t1_3,,success
Status,1286,17670167149,/g3t1_1,,running
Status,1287,17670265909,/g3t1_1,,success
Status,1288,17678262742,/g4t1,,fail
Status,1289,17691737877,/g3t1_2,,running
Status,1290,17691911245,/g3t1_2,,success
Status,1291,17701525281,/g3t1_3,,running
Status,1292,17701679704,/g3t1_3,,success
Status,1293,17719442829,/g3t1_1,,running
Status,1294,17719496665,/g3t1_1,,success
Status,1295,17741782289,/g3t1_2,,running
Status,1296,17741910228,/g3t1_2,,success
Status,1297,17751713332,/g3t1_3,,running
Status,1298,17751817524,/g3t1_3,,success
Status,1299,17769398283,/g3t1_1,,running
Status,1300,17769523323,/g3t1_1,,success
Status,1301,17778098027,/g4t1,,fail
Status,1302,17792092465,/g3t1_2,,running
Status,1303,17792126291,/g3t1_2,,success
Status,1304,17801890123,/g3t1_3,,running
Status,1305,17802145225,/g3t1_3,,success
Status,1306,17819891120,/g3t1_1,,running
Status,1307,17820069750,/g3t1_1,,success
Status,1311,17842196917,/g3t1_2,,running
Status,1312,17842414858,/g3t1_2,,success
Status,1313,17852199026,/g3t1_3,,running
Status,1314,17852403438,/g3t1_3,,success
Status,1315,17870128264,/g3t1_1,,running
Status,1316,17870305962,/g3t1_1,,success
Status,1317,17878927496,/g4t1,,fail
Status,1318,17892687105,/g3t1_2,,running
Status,1319,17893158018,/g3t1_2,,success
Status,1320,17902850251,/g3t1_3,,running
Status,1321,17903569607,/g3t1_3,,success
Status,1322,17919819592,/g3t1_1,,running
Status,1323,17919914658,/g3t1_1,,success
Status,1324,17942204430,/g3t1_2,,running
Status,1325,17942238150,/g3t1_2,,success
Status,1326,17952192145,/g3t1_3,,running
Status,1327,17952361079,/g3t1_3,,success
Status,1328,17969955232,/g3t1_1,,running
Status,1329,17969982163,/g3t1_1,,success
Status,1330,17978385910,/g4t1,,fail
Status,1331,17992964837,/g3t1_2,,running
Status,1332,17993017510,/g3t1_2,,success
Status,1333,18002220002,/g3t1_3,,running
Status,1334,18002347733,/g3t1_3,,success
Status,1335,18019990185,/g3t1_1,,running
Status,1336,18020098734,/g3t1_1,,success
Status,1340,18042960566,/g3t1_2,,running
Status,1341,18043126835,/g3t1_2,,success
Status,1342,18052507571,/g3t1_3,,running
Status,1343,18052652615,/g3t1_3,,success
Status,1344,18070124115,/g3t1_1,,running
Status,1345,18070213915,/g3t1_1,,success
Status,1346,18078760001,/g4t1,,fail
Status,1347,18093062843,/g3t1_2,,running
Status,1348,18093484114,/g3t1_2,,success
Status,1349,18103175296,/g3t1_3,,running
Status,1350,18103822422,/g3t1_3,,success
Status,1351,18120632426,/g3t1_1,,running
Status,1352,18120940609,/g3t1_1,,success
Status,1353,18143107439,/g3t1_2,,running
Status,1354,18143800249,/g3t1_2,,success
Status,1355,18153250631,/g3t1_3,,running
Status,1356,18153617558,/g3t1_3,,success
Status,1357,18170789006,/g3t1_1,,running
Status,1358,18171485700,/g3t1_1,,success
Status,1359,18179391371,/g4t1,,fail
Status,1360,18193535097,/g3t1_2,,running
Status,1361,18193821265,/g3t1_2,,success
Status,1362,18203446337,/g3t1_3,,running
Status,1363,18204181800,/g3t1_3,,success
Status,1364,18221174555,/g3t1_1,,running
Status,1365,18221280610,/g3t1_1,,success
Status,1369,18243731383,/g3t1_2,,running
Status,1370,18244016350,/g3t1_2,,success
Status,1371,18253661127,/g3t1_3,,running
Status,1372,18254064891,/g3t1_3,,success
Status,1373,18271116414,/g3t1_1,,running
Status,1374,18271584641,/g3t1_1,,success
Status,1375,18279436718,/g4t1,,fail
Status,1376,18293514733,/g3t1_2,,running
Status,1377,18293892702,/g3t1_2,,success
Status,1378,18303718053,/g3t1_3,,running
Status,1379,18304468795,/g3t1_3,,success
Status,1380,18321231717,/g3t1_1,,running
Status,1381,18321477204,/g3t1_1,,success
Status,1382,18343690927,/g3t1_2,,running
Status,1383,18344452529,/g3t1_2,,success
Status,1384,18353825999,/g3t1_3,,running
Status,1385,18354579610,/g3t1_3,,success
Status,1386,18371410708,/g3t1_1,,running
Status,1387,18371822927,/g3t1_1,,success
Status,1388,18379699097,/g4t1,,fail
Status,1389,18393972643,/g3t1_2,,running
Status,1390,18394067789,/g3t1_2,,success
Status,1391,18403846146,/g3t1_3,,running
Status,1392,18404325310,/g3t1_3,,success
Status,1393,18421500749,/g3t1_1,,running
Status,1394,18421596455,/g3t1_1,,success
Status,1398,18444189883,/g3t1_2,,running
Status,1399,18444257907,/g3t1_2,,success
Status,1400,18454251348,/g3t1_3,,running
Status,1401,18454823105,/g3t1_3,,success
Status,1402,18471755469,/g3t1_1,,running
Status,1403,18472053773,/g3t1_1,,success
Status,1404,18479683790,/g4t1,,fail
Status,1405,18494040948,/g3t1_2,,running
Status,1406,18494497370,/g3t1_2,,success
Status,1407,18503735907,/g3t1_3,,running
Status,1408,18503835074,/g3t1_3,,success
Status,1409,18521124676,/g3t1_1,,running
Status,1410,18521156035,/g3t1_1,,success
Status,1411,18543482384,/g3t1_2,,running
Status,1412,18543716527,/g3t1_2,,success
Status,1413,18553688671,/g3t1_3,,running
Status,1414,18553718884,/g3t1_3,,success
Status,1415,18571939205,/g3t1_1,,running
Status,1416,18572350595,/g3t1_1,,success
Status,1417,18579955062,/g4t1,,fail
Status,1418,18594277109,/g3t1_2,,running
Status,1419,18594632315,/g3t1_2,,success
Status,1420,18604405336,/g3t1_3,,running
Status,1421,18604963288,/g3t1_3,,success
Status,1422,18621654303,/g3t1_1,,running
Status,1423,18621699471,/g3t1_1,,success
Status,1427,18644050040,/g3t1_2,,running
Status,1428,18644290769,/g3t1_2,,success
Status,1429,18654039539,/g3t1_3,,running
Status,1430,18654075958,/g3t1_3,,success
Status,1431,18671424816,/g3t1_1,,running
Status,1432,18671448206,/g3t1_1,,success
Status,1433,18679141937,/g4t1,,fail
Status,1434,18693852123,/g3t1_2,,running
Status,1435,18693880755,/g3t1_2,,success
Status,1436,18704062300,/g3t1_3,,running
Status,1437,18704089732,/g3t1_3,,success
Status,1438,18721488993,/g3t1_1,,running
Status,1439,18721513814,/g3t1_1,,success
Status,1440,18743974215,/g3t1_2,,running
Status,1441,18744000344,/g3t1_2,,success
Status,1442,18754153657,/g3t1_3,,running
Status,1443,18754244435,/g3t1_3,,success
Status,1444,18771507628,/g3t1_1,,running
Status,1445,18771559640,/g3t1_1,,success
Status,1446,18779850207,/g4t1,,fail
Status,1447,18794089058,/g3t1_2,,running
Status,1448,18794200288,/g3t1_2,,success
Status,1449,18804294558,/g3t1_3,,running
Status,1450,18804335792,/g3t1_3,,success
Status,1451,18821522447,/g3t1_1,,running
Status,1452,18821590270,/g3t1_1,,success
Status,1456,18844344302,/g3t1_2,,running
Status,1457,18844716944,/g3t1_2,,success
Status,1458,18854689792,/g3t1_3,,running
Status,1459,18855112006,/g3t1_3,,success
Status,1460,18872636277,/g3t1_1,,running
Status,1461,18873296293,/g3t1_1,,success
Status,1462,18879927980,/g4t1,,fail
Status,1463,18894647103,/g3t1_2,,running
Status,1464,18895227144,/g3t1_2,,success
Status,1465,18904380198,/g3t1_3,,running
Status,1466,18904408201,/g3t1_3,,success
Status,1467,18922260673,/g3t1_1,,running
Status,1468,18922319932,/g3t1_1,,fail
Status,1469,18944657673,/g3t1_2,,running
Status,1470,18944897065,/g3t1_2,,success
Status,1471,18955460384,/g3t1_3,,running
Status,1472,18956329002,/g3t1_3,,success
Status,1473,18972275324,/g3t1_1,,running
Status,1474,18972515955,/g3t1_1,,success
Status,1475,18980217551,/g4t1,,fail
Status,1476,18994881358,/g3t1_2,,running
Status,1477,18995051762,/g3t1_2,,success
Status,1478,19004926159,/g3t1_3,,running
Status,1479,19005339508,/g3t1_3,,success
Status,1480,19022319080,/g3t1_1,,running
Status,1481,19022377510,/g3t1_1,,fail
Status,1485,19045461073,/g3t1_2,,running
Status,1486,19045620013,/g3t1_2,,success
Status,1487,19055096361,/g3t1_3,,running
Status,1488,19055617089,/g3t1_3,,success
Status,1489,19072506192,/g3t1_1,,running
Status,1490,19072859603,/g3t1_1,,success
Status,1491,19080723865,/g4t1,,fail
Status,1492,19095131812,/g3t1_2,,running
Status,1493,19095589911,/g3t1_2,,success
Status,1494,19105227177,/g3t1_3,,running
Status,1495,19105283254,/g3t1_3,,success
Status,1496,19122637963,/g3t1_1,,running
Status,1497,19122693824,/g3t1_1,,success
Status,1498,19145576277,/g3t1_2,,running
Status,1499,19146319954,/g3t1_2,,success
Status,1500,19155548132,/g3t1_3,,running
Status,1501,19156000966,/g3t1_3,,success
Status,1502,19172908387,/g3t1_1,,running
Status,1503,19172978176,/g3t1_1,,fail
Status,1504,19180435290,/g4t1,,fail
Status,1505,19195053251,/g3t1_2,,running
Status,1506,19195174104,/g3t1_2,,success
Status,1507,19204983098,/g3t1_3,,running
Status,1508,19205008147,/g3t1_3,,success
Status,1509,19222464627,/g3t1_1,,running
Status,1510,19222486912,/g3t1_1,,success
Status,1514,19246107345,/g3t1_2,,running
Status,1515,19246202843,/g3t1_2,,success
Status,1516,19255764021,/g3t1_3,,running
Status,1517,19256207154,/g3t1_3,,success
Status,1518,19273487080,/g3t1_1,,running
Status,1519,19273556768,/g3t1_1,,success
Status,1520,19280551096,/g4t1,,fail
Status,1521,19296107388,/g3t1_2,,running
Status,1522,19296793818,/g3t1_2,,success
Status,1523,19305622734,/g3t1_3,,running
Status,1524,19305833841,/g3t1_3,,success
Status,1525,19322864860,/g3t1_1,,running
Status,1526,19322906265,/g3t1_1,,success
Status,1527,19345575599,/g3t1_2,,running
Status,1528,19345764275,/g3t1_2,,success
Status,1529,19355598887,/g3t1_3,,running
Status,1530,19355791769,/g3t1_3,,success
Status,1531,19373042114,/g3t1_1,,running
Status,1532,19373094270,/g3t1_1,,fail
Status,1533,19380268003,/g4t1,,fail
Status,1534,19396170056,/g3t1_2,,running
Status,1535,19396586992,/g3t1_2,,success
Status,1536,19405826562,/g3t1_3,,running
Status,1537,19406063881,/g3t1_3,,success
Status,1538,19423309334,/g3t1_1,,running
Status,1539,19424154400,/g3t1_1,,success
Status,1543,19446294622,/g3t1_2,,running
Status,1544,19446664931,/g3t1_2,,success
Status,1545,19456036923,/g3t1_3,,running
Status,1546,19456419364,/g3t1_3,,success
Status,1547,19473396551,/g3t1_1,,running
Status,1548,19473872615,/g3t1_1,,success
Status,1549,19480724998,/g4t1,,fail
Status,1550,19496514990,/g3t1_2,,running
Status,1551,19496990887,/g3t1_2,,success
Status,1552,19506101154,/g3t1_3,,running
Status,1553,19506304151,/g3t1_3,,success
Status,1554,19523690897,/g3t1_1,,running
Status,1555,19523932399,/g3t1_1,,fail
Status,1556,19546454165,/g3t1_2,,running
Status,1557,19546698269,/g3t1_2,,success
Status,1558,19556222405,/g3t1_3,,running
Status,1559,19556760669,/g3t1_3,,success
Status,1560,19574107570,/g3t1_1,,running
Status,1561,19574177501,/g3t1_1,,success
Status,1562,19581156767,/g4t1,,fail
Status,1563,19596765430,/g3t1_2,,running
Status,1564,19596993011,/g3t1_2,,success
Status,1565,19606537873,/g3t1_3,,running
Status,1566,19606976474,/g3t1_3,,success
Status,1567,19623625791,/g3t1_1,,running
Status,1568,19623972361,/g3t1_1,,success
Status,1572,19646526879,/g3t1_2,,running
Status,1573,19646745913,/g3t1_2,,success
Status,1574,19656258335,/g3t1_3,,running
Status,1575,19656437930,/g3t1_3,,success
Status,1576,19673786082,/g3t1_1,,running
Status,1577,19673943399,/g3t1_1,,success
Status,1578,19680691861,/g4t1,,fail
Status,1579,19696610383,/g3t1_2,,running
Status,1580,19696987817,/g3t1_2,,success
Status,1581,19706508318,/g3t1_3,,running
Status,1582,19707149863,/g3t1_3,,success
Status,1583,19724213248,/g3t1_1,,running
Status,1584,19724284784,/g3t1_1,,success
Status,1585,19747076982,/g3t1_2,,running
Status,1586,19747470042,/g3t1_2,,success
Status,1587,19756918230,/g3t1_3,,running
Status,1588,19757004027,/g3t1_3,,success
Status,1589,19774302602,/g3t1_1,,running
Status,1590,19774599781,/g3t1_1,,success
Status,1591,19781155939,/g4t1,,fail
Status,1592,19797107349,/g3t1_2,,running
Status,1593,19797148371,/g3t1_2,,success
Status,1594,19806591208,/g3t1_3,,running
Status,1595,19806643018,/g3t1_3,,success
Status,1596,19824457400,/g3t1_1,,running
Status,1597,19824915813,/g3t1_1,,success
Status,1601,19847691256,/g3t1_2,,running
Status,1602,19848266612,/g3t1_2,,success
Status,1603,19857048853,/g3t1_3,,running
Status,1604,19857712481,/g3t1_3,,success
Status,1605,19874509968,/g3t1_1,,running
Status,1606,19874834724,/g3t1_1,,success
Status,1607,19881245001,/g4t1,,fail
Status,1608,19897755599,/g3t1_2,,running
Status,1609,19898109172,/g3t1_2,,success
Status,1610,19907060455,/g3t1_3,,running
Status,1611,19907707480,/g3t1_3,,success
Status,1612,19924572878,/g3t1_1,,running
Status,1613,19924988625,/g3t1_1,,success
Status,1614,19947787743,/g3t1_2,,running
Status,1615,19948408847,/g3t1_2,,success
Status,1616,19957386398,/g3t1_3,,running
Status,1617,19957811600,/g3t1_3,,success
Status,1618,19974757119,/g3t1_1,,running
Status,1619,19974840108,/g3t1_1,,success
Status,1620,19981369308,/g4t1,,fail
Status,1621,19998145979,/g3t1_2,,running
Status,1622,19998228520,/g3t1_2,,success
Status,1623,20007724696,/g3t1_3,,running
Status,1624,20007834971,/g3t1_3,,success
Status,1625,20024946674,/g3t1_1,,running
Status,1626,20025017106,/g3t1_1,,fail
Status,1630,20047380732,/g3t1_2,,running
Status,1631,20047409826,/g3t1_2,,success
Status,1632,20057060115,/g3t1_3,,running
Status,1633,20057082978,/g3t1_3,,success
Status,1634,20074475987,/g3t1_1,,running
Status,1635,20074498991,/g3t1_1,,success
Status,1636,20080670968,/g4t1,,fail
Status,1637,20097497760,/g3t1_2,,running
Status,1638,20097521312,/g3t1_2,,success
Status,1639,20107162625,/g3t1_3,,running
Status,1640,20107300645,/g3t1_3,,success
Status,1641,20124610309,/g3t1_1,,running
Status,1642,20124687965,/g3t1_1,,success
Status,1643,20148360213,/g3t1_2,,running
Status,1644,20149308019,/g3t1_2,,success
Status,1645,20157821247,/g3t1_3,,running
Status,1646,20158308521,/g3t1_3,,success
Status,1647,20175381618,/g3t1_1,,running
Status,1648,20175841891,/g3t1_1,,success
Status,1649,20181419194,/g4t1,,fail
Status,1650,20198568887,/g3t1_2,,running
Status,1651,20198668709,/g3t1_2,,success
Status,1652,20207914656,/g3t1_3,,running
Status,1653,20208485392,/g3t1_3,,success
Status,1654,20225484802,/g3t1_1,,running
Status,1655,20225772691,/g3t1_1,,success
Status,1659,20248900797,/g3t1_2,,running
Status,1660,20249109007,/g3t1_2,,success
Status,1661,20257917103,/g3t1_3,,running
Status,1662,20258323767,/g3t1_3,,success
Status,1663,20275583473,/g3t1_1,,running
Status,1664,20276270870,/g3t1_1,,success
Status,1665,20281835434,/g4t1,,fail
Status,1666,20298512991,/g3t1_2,,running
Status,1667,20298929982,/g3t1_2,,success
Status,1668,20308329192,/g3t1_3,,running
Status,1669,20308467480,/g3t1_3,,success
Status,1670,20325694043,/g3t1_1,,running
Status,1671,20326137371,/g3t1_1,,success
Status,1672,20348775338,/g3t1_2,,running
Status,1673,20349276901,/g3t1_2,,success
Status,1674,20358268713,/g3t1_3,,running
Status,1675,20358700099,/g3t1_3,,success
Status,1676,20375904205,/g3t1_1,,running
Status,1677,20376521338,/g3t1_1,,success
Status,1678,20381983745,/g4t1,,fail
Status,1679,20399073231,/g3t1_2,,running
Status,1680,20399406899,/g3t1_2,,success
Status,1681,20408662511,/g3t1_3,,running
Status,1682,20408751646,/g3t1_3,,success
