
Status,2,2904774012,/g4t1,,init
Status,4,8201665177,/g3t1_1,,init
Status,5,8208293828,/g3t1_1,,init
Status,6,8208308796,/g3t1_1,,running
Status,7,8208734263,/g3t1_1,,success
Status,8,8258470209,/g3t1_1,,running
Status,9,8258584621,/g3t1_1,,success
Status,10,8308628993,/g3t1_1,,running
Status,11,8308696125,/g3t1_1,,success
Status,12,8319178922,/g3t1_2,,init
Status,14,8326785280,/g3t1_2,,init
Status,15,8326807498,/g3t1_2,,running
Status,16,8327307490,/g3t1_2,,success
Status,17,8358669582,/g3t1_1,,running
Status,18,8358785794,/g3t1_1,,success
Status,22,8376931196,/g3t1_2,,running
Status,23,8377013651,/g3t1_2,,success
Status,24,8408750107,/g3t1_1,,running
Status,25,8408768510,/g3t1_1,,success
Status,27,8419727812,/g3t1_3,,init
Status,28,8427035613,/g3t1_2,,running
Status,29,8427052515,/g3t1_2,,success
Status,30,8427507962,/g3t1_3,,init
Status,31,8427524432,/g3t1_3,,running
Status,32,8428068334,/g3t1_3,,success
Status,33,8458938258,/g3t1_1,,running
Status,34,8459046139,/g3t1_1,,success
Status,35,8477309932,/g3t1_2,,running
Status,36,8477416131,/g3t1_2,,success
Status,37,8477847650,/g3t1_3,,running
Status,38,8478056596,/g3t1_3,,success
Status,39,8509615213,/g3t1_1,,running
Status,40,8509934257,/g3t1_1,,success
Status,41,8527273377,/g4t1,,success
Status,42,8527962126,/g3t1_2,,running
Status,43,8528811462,/g3t1_3,,running
Status,44,8528870883,/g3t1_2,,success
Status,45,8529094701,/g3t1_3,,success
Status,46,8560059893,/g3t1_1,,running
Status,47,8560313990,/g3t1_1,,success
Status,51,8578175889,/g3t1_2,,running
Status,52,8578582386,/g3t1_3,,running
Status,53,8578662142,/g3t1_2,,success
Status,54,8579429403,/g3t1_3,,success
Status,55,8609956587,/g3t1_1,,running
Status,56,8610359988,/g3t1_1,,success
Status,57,8627593902,/g4t1,,success
Status,58,8628363761,/g3t1_2,,running
Status,59,8628693989,/g3t1_2,,success
Status,60,8628759321,/g3t1_3,,running
Status,61,8629334948,/g3t1_3,,success
Status,62,8660232445,/g3t1_1,,running
Status,63,8660302624,/g3t1_1,,success
Status,64,8678610635,/g3t1_2,,running
Status,65,8678706081,/g3t1_3,,running
Status,66,8678909683,/g3t1_2,,success
Status,67,8679390030,/g3t1_3,,success
Status,68,8709985120,/g3t1_1,,running
Status,69,8710449534,/g3t1_1,,success
Status,70,8727567116,/g4t1,,success
Status,71,8728639428,/g3t1_2,,running
Status,72,8729196847,/g3t1_3,,running
Status,73,8729805873,/g3t1_3,,success
Status,74,8729919251,/g3t1_2,,success
Status,75,8760329429,/g3t1_1,,running
Status,76,8760744881,/g3t1_1,,success
Status,80,8779148502,/g3t1_2,,running
Status,81,8779247751,/g3t1_2,,success
Status,82,8779289153,/g3t1_3,,running
Status,83,8779609567,/g3t1_3,,success
Status,84,8810364709,/g3t1_1,,running
Status,85,8810971463,/g3t1_1,,success
Status,86,8827752049,/g4t1,,success
Status,87,8829326309,/g3t1_2,,running
Status,88,8829515579,/g3t1_2,,success
Status,89,8829552177,/g3t1_3,,running
Status,90,8829625327,/g3t1_3,,success
Status,91,8860587216,/g3t1_1,,running
Status,92,8861120649,/g3t1_1,,success
Status,93,8879132045,/g3t1_2,,running
Status,94,8879325768,/g3t1_3,,running
Status,95,8879863575,/g3t1_2,,success
Status,96,8880192995,/g3t1_3,,success
Status,97,8910601946,/g3t1_1,,running
Status,98,8911038410,/g3t1_1,,success
Status,99,8928228606,/g4t1,,fail
Status,100,8929297141,/g3t1_2,,running
Status,101,8929926907,/g3t1_3,,running
Status,102,8929997704,/g3t1_3,,success
Status,103,8930112578,/g3t1_2,,success
Status,104,8960814859,/g3t1_1,,running
Status,105,8961169563,/g3t1_1,,success
Status,109,8979895156,/g3t1_2,,running
Status,110,8979983648,/g3t1_3,,running
Status,111,8980029435,/g3t1_2,,success
Status,112,8980265674,/g3t1_3,,success
Status,113,9011077882,/g3t1_1,,running
Status,114,9011148147,/g3t1_1,,success
Status,115,9028167987,/g4t1,,fail
Status,116,9029662038,/g3t1_2,,running
Status,117,9030140063,/g3t1_3,,running
Status,118,9030217634,/g3t1_2,,success
Status,119,9030633933,/g3t1_3,,success
Status,120,9061144896,/g3t1_1,,running
Status,121,9061455983,/g3t1_1,,success
Status,122,9079774041,/g3t1_2,,running
Status,123,9079954015,/g3t1_3,,running
Status,124,9080007790,/g3t1_2,,success
Status,125,9080473060,/g3t1_3,,success
Status,126,9111343369,/g3t1_1,,running
Status,127,9111914163,/g3t1_1,,success
Status,128,9128398301,/g4t1,,fail
Status,129,9129746016,/g3t1_2,,running
Status,130,9130076658,/g3t1_3,,running
Status,131,9130147518,/g3t1_2,,success
Status,132,9130562313,/g3t1_3,,success
Status,133,9161372295,/g3t1_1,,running
Status,134,9161710940,/g3t1_1,,success
Status,138,9180265329,/g3t1_2,,running
Status,139,9180351138,/g3t1_3,,running
Status,140,9180689802,/g3t1_2,,success
Status,141,9180761340,/g3t1_3,,success
Status,142,9211435281,/g3t1_1,,running
Status,143,9211998442,/g3t1_1,,success
Status,144,9228550297,/g4t1,,fail
Status,145,9229984294,/g3t1_2,,running
Status,146,9230318839,/g3t1_3,,running
Status,147,9230395024,/g3t1_2,,success
Status,148,9231390468,/g3t1_3,,success
Status,149,9261706376,/g3t1_1,,running
Status,150,9262170674,/g3t1_1,,success
Status,151,9280296865,/g3t1_2,,running
Status,152,9280382442,/g3t1_3,,running
Status,153,9280467309,/g3t1_2,,success
Status,154,9280949645,/g3t1_3,,success
Status,155,9311711959,/g3t1_1,,running
Status,156,9312074123,/g3t1_1,,success
Status,157,9328998165,/g4t1,,fail
Status,158,9330320583,/g3t1_2,,running
Status,159,9330397001,/g3t1_3,,running
Status,160,9331062173,/g3t1_2,,success
Status,161,9331368464,/g3t1_3,,success
Status,162,9361866374,/g3t1_1,,running
Status,163,9362204686,/g3t1_1,,success
Status,167,9380632843,/g3t1_2,,running
Status,168,9380709110,/g3t1_3,,running
Status,169,9380824275,/g3t1_2,,success
Status,170,9381598702,/g3t1_3,,success
Status,171,9412083444,/g3t1_1,,running
Status,172,9412514019,/g3t1_1,,success
Status,173,9428933159,/g4t1,,fail
Status,174,9430421101,/g3t1_2,,running
Status,175,9430566798,/g3t1_3,,running
Status,176,9431198612,/g3t1_2,,success
Status,177,9431270535,/g3t1_3,,success
Status,178,9462237474,/g3t1_1,,running
Status,179,9462530695,/g3t1_1,,success
Status,180,9481093444,/g3t1_2,,running
Status,181,9481185189,/g3t1_3,,running
Status,182,9481559258,/g3t1_3,,success
Status,183,9481646044,/g3t1_2,,success
Status,184,9512431843,/g3t1_1,,running
Status,185,9512772916,/g3t1_1,,success
Status,186,9529146291,/g4t1,,fail
Status,187,9530996253,/g3t1_2,,running
Status,188,9531103388,/g3t1_3,,running
Status,189,9531296546,/g3t1_2,,success
Status,190,9531540431,/g3t1_3,,success
Status,191,9562761416,/g3t1_1,,running
Status,192,9562850630,/g3t1_1,,success
Status,196,9580964970,/g3t1_2,,running
Status,197,9581262389,/g3t1_3,,running
Status,198,9581915478,/g3t1_2,,success
Status,199,9582307128,/g3t1_3,,success
Status,200,9612901444,/g3t1_1,,running
Status,201,9613162792,/g3t1_1,,success
Status,202,9629218149,/g4t1,,fail
Status,203,9630969908,/g3t1_2,,running
Status,204,9631126926,/g3t1_3,,running
Status,205,9631682459,/g3t1_2,,success
Status,206,9631754104,/g3t1_3,,success
Status,207,9663081259,/g3t1_1,,running
Status,208,9663590029,/g3t1_1,,success
Status,209,9681574035,/g3t1_2,,running
Status,210,9681713688,/g3t1_2,,success
Status,211,9681763273,/g3t1_3,,running
Status,212,9681958995,/g3t1_3,,success
Status,213,9712515891,/g3t1_1,,running
Status,214,9712848016,/g3t1_1,,success
Status,215,9728867645,/g4t1,,fail
Status,216,9731045987,/g3t1_2,,running
Status,217,9731092790,/g3t1_3,,running
Status,218,9731138461,/g3t1_2,,success
Status,219,9731375813,/g3t1_3,,success
Status,220,9762673226,/g3t1_1,,running
Status,224,9763150540,/g3t1_1,,success
Status,225,9781248640,/g3t1_2,,running
Status,226,9781335993,/g3t1_3,,running
Status,227,9781609752,/g3t1_3,,success
Status,228,9781788150,/g3t1_2,,success
Status,229,9813208404,/g3t1_1,,running
Status,230,9813571189,/g3t1_1,,success
Status,231,9829398943,/g4t1,,fail
Status,232,9831657433,/g3t1_2,,running
Status,233,9831747233,/g3t1_3,,running
Status,234,9831893898,/g3t1_2,,success
Status,235,9831924420,/g3t1_3,,success
Status,236,9863282409,/g3t1_1,,running
Status,237,9863908856,/g3t1_1,,success
Status,238,9882314174,/g3t1_2,,running
Status,239,9882382525,/g3t1_3,,running
Status,240,9882407518,/g3t1_3,,success
Status,241,9882431685,/g3t1_2,,success
Status,242,9913324320,/g3t1_1,,running
Status,243,9913770249,/g3t1_1,,success
Status,244,9929462649,/g4t1,,fail
Status,245,9931645298,/g3t1_2,,running
Status,246,9931976236,/g3t1_3,,running
Status,247,9932506428,/g3t1_2,,success
Status,248,9932612274,/g3t1_3,,success
Status,251,9963481546,/g3t1_1,,running
Status,253,9964190266,/g3t1_1,,success
Status,254,9982626673,/g3t1_2,,running
Status,255,9982712077,/g3t1_3,,running
Status,256,9982812784,/g3t1_3,,success
Status,257,9983151108,/g3t1_2,,success
Status,258,10013825751,/g3t1_1,,running
Status,259,10014172336,/g3t1_1,,success
Status,260,10029558225,/g4t1,,fail
Status,261,10032103151,/g3t1_2,,running
Status,262,10032186128,/g3t1_3,,running
Status,263,10032546476,/g3t1_3,,success
Status,264,10032615691,/g3t1_2,,success
Status,265,10064049119,/g3t1_1,,running
Status,266,10064121315,/g3t1_1,,success
Status,267,10082840034,/g3t1_2,,running
Status,268,10082910968,/g3t1_3,,running
Status,269,10082936547,/g3t1_3,,success
Status,270,10082962988,/g3t1_2,,success
Status,271,10114086313,/g3t1_1,,running
Status,272,10114743012,/g3t1_1,,success
Status,273,10129709084,/g4t1,,fail
Status,274,10132251892,/g3t1_2,,running
Status,275,10132412720,/g3t1_3,,running
Status,276,10132781516,/g3t1_2,,success
Status,277,10132907457,/g3t1_3,,success
Status,281,10164691439,/g3t1_1,,running
Status,282,10164747228,/g3t1_1,,success
Status,283,10182824088,/g3t1_3,,running
Status,284,10182912606,/g3t1_2,,running
Status,285,10183316036,/g3t1_3,,success
Status,286,10183400973,/g3t1_2,,success
Status,287,10214320894,/g3t1_1,,running
Status,288,10214585377,/g3t1_1,,success
Status,289,10229834203,/g4t1,,fail
Status,290,10232649044,/g3t1_2,,running
Status,291,10232769935,/g3t1_3,,running
Status,292,10233606513,/g3t1_3,,success
Status,293,10233687361,/g3t1_2,,success
Status,294,10264439675,/g3t1_1,,running
Status,295,10265085797,/g3t1_1,,success
Status,296,10283296671,/g3t1_3,,running
Status,297,10283391426,/g3t1_2,,running
Status,298,10283902685,/g3t1_3,,success
Status,299,10284051396,/g3t1_2,,success
Status,300,10314666157,/g3t1_1,,running
Status,301,10314882619,/g3t1_1,,success
Status,302,10329895484,/g4t1,,fail
Status,303,10333168480,/g3t1_3,,running
Status,304,10333290749,/g3t1_2,,running
Status,305,10333338098,/g3t1_3,,success
Status,306,10333404311,/g3t1_2,,success
Status,310,10364613433,/g3t1_1,,running
Status,311,10365082018,/g3t1_1,,success
Status,312,10383513170,/g3t1_2,,running
Status,313,10383595734,/g3t1_3,,running
Status,314,10383719140,/g3t1_3,,fail
Status,315,10383955458,/g3t1_2,,success
Status,316,10414983615,/g3t1_1,,running
Status,317,10415629296,/g3t1_1,,success
Status,318,10430073701,/g4t1,,fail
Status,319,10433057597,/g3t1_2,,running
Status,320,10433501121,/g3t1_3,,running
Status,321,10433571653,/g3t1_2,,success
Status,322,10433686548,/g3t1_3,,success
Status,323,10464893748,/g3t1_1,,running
Status,324,10465173759,/g3t1_1,,success
Status,325,10483557831,/g3t1_3,,running
Status,326,10483647543,/g3t1_2,,running
Status,327,10483688533,/g3t1_3,,success
Status,328,10484161572,/g3t1_2,,success
Status,329,10515065960,/g3t1_1,,running
Status,330,10516249097,/g3t1_1,,success
Status,331,10530277671,/g4t1,,fail
Status,332,10533372647,/g3t1_3,,running
Status,333,10533496892,/g3t1_2,,running
Status,334,10533757599,/g3t1_2,,success
Status,335,10533891395,/g3t1_3,,success
Status,339,10565871271,/g3t1_1,,running
Status,340,10565964042,/g3t1_1,,success
Status,341,10583417216,/g3t1_3,,running
Status,342,10583485182,/g3t1_2,,running
Status,343,10583734017,/g3t1_3,,success
Status,344,10583794064,/g3t1_2,,success
Status,345,10615058914,/g3t1_1,,running
Status,346,10615374260,/g3t1_1,,success
Status,347,10630230751,/g4t1,,fail
Status,348,10633729262,/g3t1_2,,running
Status,349,10633833396,/g3t1_3,,running
Status,350,10634723967,/g3t1_2,,success
Status,351,10634789518,/g3t1_3,,success
Status,352,10665537868,/g3t1_1,,running
Status,353,10665962752,/g3t1_1,,success
Status,354,10684262855,/g3t1_2,,running
Status,355,10684387525,/g3t1_3,,running
Status,356,10685019244,/g3t1_2,,success
Status,357,10685089218,/g3t1_3,,success
Status,358,10715611549,/g3t1_1,,running
Status,359,10716069328,/g3t1_1,,success
Status,360,10730630190,/g4t1,,fail
Status,361,10734128120,/g3t1_2,,running
Status,362,10734313804,/g3t1_3,,running
Status,363,10734692331,/g3t1_3,,success
Status,364,10734764975,/g3t1_2,,success
Status,368,10765611395,/g3t1_1,,running
Status,369,10766052255,/g3t1_1,,success
Status,370,10784683024,/g3t1_3,,running
Status,371,10784829872,/g3t1_3,,success
Status,372,10785210837,/g3t1_2,,running
Status,373,10785267728,/g3t1_2,,success
Status,374,10816052687,/g3t1_1,,running
Status,375,10816452774,/g3t1_1,,success
Status,376,10830718070,/g4t1,,fail
Status,377,10834314762,/g3t1_3,,running
Status,378,10834401069,/g3t1_2,,running
Status,379,10835171056,/g3t1_2,,success
Status,380,10835252746,/g3t1_3,,success
Status,381,10866159953,/g3t1_1,,running
Status,382,10866469329,/g3t1_1,,success
Status,383,10885062063,/g3t1_3,,running
Status,384,10885162605,/g3t1_2,,running
Status,385,10885761652,/g3t1_3,,success
Status,386,10885979584,/g3t1_2,,success
Status,387,10916572179,/g3t1_1,,running
Status,388,10916835378,/g3t1_1,,success
Status,389,10930803572,/g4t1,,fail
Status,390,10934668206,/g3t1_2,,running
Status,391,10934788192,/g3t1_3,,running
Status,392,10935270989,/g3t1_3,,success
Status,393,10935351331,/g3t1_2,,success
Status,397,10966218428,/g3t1_1,,running
Status,398,10966939109,/g3t1_1,,success
Status,399,10985284740,/g3t1_2,,running
Status,400,10985454430,/g3t1_3,,running
Status,401,10985527295,/g3t1_2,,success
Status,402,10985555590,/g3t1_3,,success
Status,403,11016562392,/g3t1_1,,running
Status,404,11017275391,/g3t1_1,,success
Status,405,11030869664,/g4t1,,fail
Status,406,11035020224,/g3t1_3,,running
Status,407,11035166119,/g3t1_2,,running
Status,408,11035548699,/g3t1_3,,success
Status,409,11035607041,/g3t1_2,,success
Status,410,11066608016,/g3t1_1,,running
Status,411,11066899644,/g3t1_1,,success
Status,412,11085438844,/g3t1_3,,running
Status,413,11085542395,/g3t1_2,,running
Status,414,11086003300,/g3t1_3,,success
Status,415,11086255617,/g3t1_2,,success
Status,416,11117086892,/g3t1_1,,running
Status,417,11117503572,/g3t1_1,,success
Status,418,11130959724,/g4t1,,fail
Status,419,11135238431,/g3t1_3,,running
Status,420,11135346795,/g3t1_2,,running
Status,421,11135796294,/g3t1_3,,success
Status,422,11135978227,/g3t1_2,,success
Status,426,11166971371,/g3t1_1,,running
Status,427,11167414037,/g3t1_1,,success
Status,428,11185788039,/g3t1_2,,running
Status,429,11185924061,/g3t1_3,,running
Status,430,11185993465,/g3t1_3,,fail
Status,431,11186053680,/g3t1_2,,success
Status,432,11217130554,/g3t1_1,,running
Status,433,11217811877,/g3t1_1,,success
Status,434,11231121009,/g4t1,,fail
Status,435,11235635242,/g3t1_2,,running
Status,436,11235702682,/g3t1_3,,running
Status,437,11236014957,/g3t1_2,,success
Status,438,11236071550,/g3t1_3,,success
Status,439,11267403879,/g3t1_1,,running
Status,440,11267468565,/g3t1_1,,success
Status,441,11285926316,/g3t1_2,,running
Status,442,11285995133,/g3t1_3,,running
Status,443,11286183327,/g3t1_2,,success
Status,444,11286253143,/g3t1_3,,success
Status,445,11317498333,/g3t1_1,,running
Status,446,11318078890,/g3t1_1,,success
Status,447,11331314763,/g4t1,,fail
Status,448,11336566709,/g3t1_3,,running
Status,449,11336639334,/g3t1_2,,running
Status,450,11336665223,/g3t1_3,,success
Status,451,11336692186,/g3t1_2,,success
Status,455,11367421676,/g3t1_1,,running
Status,456,11367876344,/g3t1_1,,fail
Status,457,11386509451,/g3t1_3,,running
Status,458,11386577801,/g3t1_2,,running
Status,459,11386603992,/g3t1_3,,success
Status,460,11386630972,/g3t1_2,,success
Status,461,11417614877,/g3t1_1,,running
Status,462,11417901613,/g3t1_1,,success
Status,463,11431318702,/g4t1,,fail
Status,464,11436245513,/g3t1_2,,running
Status,465,11436314294,/g3t1_3,,running
Status,466,11436606876,/g3t1_3,,success
Status,467,11436691551,/g3t1_2,,success
Status,468,11467976508,/g3t1_1,,running
Status,469,11468051406,/g3t1_1,,success
Status,470,11486512751,/g3t1_3,,running
Status,471,11486607686,/g3t1_2,,running
Status,472,11487116358,/g3t1_2,,success
Status,473,11487271328,/g3t1_3,,success
Status,474,11518077204,/g3t1_1,,running
Status,475,11518427986,/g3t1_1,,fail
Status,476,11531395975,/g4t1,,fail
Status,477,11536563114,/g3t1_2,,running
Status,478,11536626514,/g3t1_3,,running
Status,479,11537015705,/g3t1_2,,success
Status,480,11537086226,/g3t1_3,,success
Status,484,11568005552,/g3t1_1,,running
Status,485,11568425693,/g3t1_1,,success
Status,486,11587198842,/g3t1_2,,running
Status,487,11587272223,/g3t1_3,,running
Status,488,11587296124,/g3t1_2,,success
Status,489,11587323844,/g3t1_3,,success
Status,490,11617967828,/g3t1_1,,running
Status,491,11618113108,/g3t1_1,,success
Status,492,11631087781,/g4t1,,fail
Status,493,11636528389,/g3t1_2,,running
Status,494,11636594493,/g3t1_3,,running
Status,495,11636916616,/g3t1_2,,success
Status,496,11636960719,/g3t1_3,,success
Status,497,11668461384,/g3t1_1,,running
Status,498,11668951008,/g3t1_1,,success
Status,499,11686639332,/g3t1_2,,running
Status,500,11686746519,/g3t1_3,,running
Status,501,11687184099,/g3t1_2,,success
Status,502,11687395565,/g3t1_3,,success
Status,503,11718550777,/g3t1_1,,running
Status,504,11718622196,/g3t1_1,,fail
Status,505,11731608661,/g4t1,,fail
Status,506,11736951549,/g3t1_2,,running
Status,507,11737039109,/g3t1_3,,running
Status,508,11737546700,/g3t1_3,,success
Status,509,11737645032,/g3t1_2,,success
Status,513,11768986062,/g3t1_1,,running
Status,514,11769073402,/g3t1_1,,success
Status,515,11786951109,/g3t1_2,,running
Status,516,11787052137,/g3t1_3,,running
Status,517,11787659153,/g3t1_2,,success
Status,518,11787904192,/g3t1_3,,success
Status,519,11818642120,/g3t1_1,,running
Status,520,11819203824,/g3t1_1,,success
Status,521,11831907971,/g4t1,,fail
Status,522,11837182921,/g3t1_2,,running
Status,523,11837247733,/g3t1_3,,running
Status,524,11837359448,/g3t1_2,,success
Status,525,11837778080,/g3t1_3,,success
Status,526,11869033405,/g3t1_1,,running
Status,527,11869445651,/g3t1_1,,success
Status,528,11887577056,/g3t1_2,,running
Status,529,11887741429,/g3t1_3,,running
Status,530,11887778434,/g3t1_2,,success
Status,531,11887936195,/g3t1_3,,success
Status,532,11918900683,/g3t1_1,,running
Status,533,11919457917,/g3t1_1,,success
Status,534,11931836046,/g4t1,,fail
Status,535,11937262404,/g3t1_2,,running
Status,536,11937337522,/g3t1_3,,running
Status,537,11937457085,/g3t1_2,,success
Status,538,11937950551,/g3t1_3,,success
Status,542,11969073090,/g3t1_1,,running
Status,543,11969376380,/g3t1_1,,success
Status,544,11987541958,/g3t1_2,,running
Status,545,11987649317,/g3t1_3,,running
Status,546,11988222440,/g3t1_2,,success
Status,547,11988375321,/g3t1_3,,success
Status,548,12019299524,/g3t1_1,,running
Status,549,12019558878,/g3t1_1,,success
Status,550,12031949613,/g4t1,,fail
Status,551,12037447083,/g3t1_2,,running
Status,552,12037582276,/g3t1_3,,running
Status,553,12038233224,/g3t1_3,,success
Status,554,12038324873,/g3t1_2,,success
Status,555,12069475617,/g3t1_1,,running
Status,556,12070269220,/g3t1_1,,success
Status,557,12087911176,/g3t1_3,,running
Status,558,12087998632,/g3t1_2,,running
Status,559,12088303439,/g3t1_2,,success
Status,560,12088582575,/g3t1_3,,success
Status,561,12119453769,/g3t1_1,,running
Status,562,12120234704,/g3t1_1,,success
Status,563,12132110667,/g4t1,,fail
Status,564,12137660980,/g3t1_2,,running
Status,565,12137984554,/g3t1_3,,running
Status,566,12138432717,/g3t1_2,,success
Status,567,12138572949,/g3t1_3,,success
Status,571,12169514045,/g3t1_1,,running
Status,572,12170005314,/g3t1_1,,success
Status,573,12188015554,/g3t1_2,,running
Status,574,12188437421,/g3t1_3,,running
Status,575,12188862306,/g3t1_3,,success
Status,576,12188988873,/g3t1_2,,success
Status,577,12219895747,/g3t1_1,,running
Status,578,12220008345,/g3t1_1,,success
Status,579,12232094214,/g4t1,,fail
Status,580,12238394526,/g3t1_2,,running
Status,581,12238499339,/g3t1_3,,running
Status,582,12238580559,/g3t1_3,,success
Status,583,12238603809,/g3t1_2,,success
Status,584,12269800281,/g3t1_1,,running
Status,585,12270516913,/g3t1_1,,success
Status,586,12288770273,/g3t1_2,,running
Status,587,12288860159,/g3t1_3,,running
Status,588,12288959407,/g3t1_3,,success
Status,589,12288999366,/g3t1_2,,success
Status,590,12320068588,/g3t1_1,,running
Status,591,12320135352,/g3t1_1,,fail
Status,592,12332238619,/g4t1,,fail
Status,593,12338303510,/g3t1_2,,running
Status,594,12338379766,/g3t1_2,,success
Status,595,12338422376,/g3t1_3,,running
Status,596,12339174921,/g3t1_3,,success
Status,600,12370390718,/g3t1_1,,running
Status,601,12370489966,/g3t1_1,,success
Status,602,12388524177,/g3t1_2,,running
Status,603,12388621067,/g3t1_3,,running
Status,604,12388669009,/g3t1_2,,success
Status,605,12389022368,/g3t1_3,,success
Status,606,12420394887,/g3t1_1,,running
Status,607,12420881870,/g3t1_1,,fail
Status,608,12432353725,/g4t1,,fail
Status,609,12438721372,/g3t1_2,,running
Status,610,12439091228,/g3t1_3,,running
Status,611,12439144156,/g3t1_2,,success
Status,612,12439272947,/g3t1_3,,success
Status,613,12470460590,/g3t1_1,,running
Status,614,12470529721,/g3t1_1,,success
Status,615,12488893154,/g3t1_2,,running
Status,616,12488985633,/g3t1_3,,running
Status,617,12489364911,/g3t1_3,,success
Status,618,12489432875,/g3t1_2,,success
Status,619,12521017962,/g3t1_1,,running
Status,620,12521244178,/g3t1_1,,success
Status,621,12532407182,/g4t1,,fail
Status,622,12538924049,/g3t1_2,,running
Status,623,12539391000,/g3t1_3,,running
Status,624,12539474357,/g3t1_2,,success
Status,625,12540337295,/g3t1_3,,success
Status,629,12570806250,/g3t1_1,,running
Status,630,12571463318,/g3t1_1,,success
Status,631,12589329015,/g3t1_2,,running
Status,632,12589502364,/g3t1_3,,running
Status,633,12589924415,/g3t1_2,,success
Status,634,12590007189,/g3t1_3,,success
Status,635,12621067857,/g3t1_1,,running
Status,636,12621705778,/g3t1_1,,success
Status,637,12632516020,/g4t1,,fail
Status,638,12639028566,/g3t1_2,,running
Status,639,12639754728,/g3t1_3,,running
Status,640,12640019165,/g3t1_2,,success
Status,641,12640095739,/g3t1_3,,success
Status,642,12671244509,/g3t1_1,,running
Status,643,12671337034,/g3t1_1,,success
Status,644,12689048646,/g3t1_2,,running
Status,645,12689550193,/g3t1_3,,running
Status,646,12689746700,/g3t1_2,,success
Status,647,12690093572,/g3t1_3,,success
Status,648,12721316680,/g3t1_1,,running
Status,649,12721502128,/g3t1_1,,success
Status,650,12732746438,/g4t1,,fail
Status,651,12739557927,/g3t1_2,,running
Status,652,12739628171,/g3t1_2,,success
Status,653,12739662385,/g3t1_3,,running
Status,654,12740668288,/g3t1_3,,success
Status,658,12771159502,/g3t1_1,,running
Status,659,12771628707,/g3t1_1,,success
Status,660,12790083900,/g3t1_2,,running
Status,661,12790169381,/g3t1_3,,running
Status,662,12790353556,/g3t1_2,,success
Status,663,12790462113,/g3t1_3,,success
Status,664,12821329236,/g3t1_1,,running
Status,665,12821631957,/g3t1_1,,success
Status,666,12832928714,/g4t1,,fail
Status,667,12839648771,/g3t1_2,,running
Status,668,12839985234,/g3t1_3,,running
Status,669,12840416613,/g3t1_2,,success
Status,670,12840850757,/g3t1_3,,success
Status,671,12871471145,/g3t1_1,,running
Status,672,12871947434,/g3t1_1,,success
Status,673,12889605673,/g3t1_2,,running
Status,674,12890111549,/g3t1_3,,running
Status,675,12890205193,/g3t1_2,,success
Status,676,12890422413,/g3t1_3,,success
Status,677,12921344453,/g3t1_1,,running
Status,678,12921812888,/g3t1_1,,success
Status,679,12933150242,/g4t1,,fail
Status,680,12940090211,/g3t1_2,,running
Status,681,12940197742,/g3t1_3,,running
Status,682,12940707578,/g3t1_2,,success
Status,683,12940949583,/g3t1_3,,success
Status,687,12971751832,/g3t1_1,,running
Status,688,12972260350,/g3t1_1,,success
Status,689,12990120928,/g3t1_2,,running
Status,690,12990448009,/g3t1_3,,running
Status,691,12990525573,/g3t1_2,,success
Status,692,12990898962,/g3t1_3,,success
Status,693,13022028318,/g3t1_1,,running
Status,694,13022424036,/g3t1_1,,success
Status,695,13033033048,/g4t1,,fail
Status,696,13039927511,/g3t1_2,,running
Status,697,13040309204,/g3t1_3,,running
Status,698,13040933295,/g3t1_3,,success
Status,699,13041009983,/g3t1_2,,success
Status,700,13071951965,/g3t1_1,,running
Status,701,13072300730,/g3t1_1,,success
Status,702,13090209723,/g3t1_2,,running
Status,703,13090387128,/g3t1_3,,running
Status,704,13090596236,/g3t1_2,,success
Status,705,13090985259,/g3t1_3,,success
Status,706,13122175361,/g3t1_1,,running
Status,707,13122605409,/g3t1_1,,success
Status,708,13133204523,/g4t1,,fail
Status,709,13140561602,/g3t1_2,,running
Status,710,13141211055,/g3t1_3,,running
Status,711,13141286879,/g3t1_2,,success
Status,712,13141326518,/g3t1_3,,success
Status,716,13172622817,/g3t1_1,,running
Status,717,13172723169,/g3t1_1,,fail
Status,718,13190686759,/g3t1_2,,running
Status,719,13190776112,/g3t1_3,,running
Status,720,13190940828,/g3t1_2,,success
Status,721,13190993710,/g3t1_3,,success
Status,722,13222330232,/g3t1_1,,running
Status,723,13222641593,/g3t1_1,,success
Status,724,13233316209,/g4t1,,fail
Status,725,13240779508,/g3t1_2,,running
Status,726,13240908997,/g3t1_3,,running
Status,727,13241038620,/g3t1_2,,success
Status,728,13241382378,/g3t1_3,,success
Status,729,13272372006,/g3t1_1,,running
Status,730,13272425149,/g3t1_1,,fail
Status,731,13290354895,/g3t1_2,,running
Status,732,13290858219,/g3t1_3,,running
Status,733,13290930745,/g3t1_2,,success
Status,734,13290996218,/g3t1_3,,success
Status,735,13322552471,/g3t1_1,,running
Status,736,13323046554,/g3t1_1,,success
Status,737,13333362137,/g4t1,,fail
Status,738,13341169182,/g3t1_2,,running
Status,739,13341256328,/g3t1_3,,running
Status,740,13341844287,/g3t1_3,,success
Status,741,13341919639,/g3t1_2,,success
Status,745,13373015906,/g3t1_1,,running
Status,746,13373514299,/g3t1_1,,success
Status,747,13391365077,/g3t1_2,,running
Status,748,13392057176,/g3t1_3,,running
Status,749,13392128872,/g3t1_2,,success
Status,750,13392866037,/g3t1_3,,success
Status,751,13422845130,/g3t1_1,,running
Status,752,13423172919,/g3t1_1,,success
Status,753,13433615772,/g4t1,,fail
Status,754,13441205903,/g3t1_2,,running
Status,755,13441317016,/g3t1_3,,running
Status,756,13441743994,/g3t1_2,,success
Status,757,13442483871,/g3t1_3,,success
Status,758,13473010257,/g3t1_1,,running
Status,759,13473356190,/g3t1_1,,success
Status,760,13491598873,/g3t1_2,,running
Status,761,13491728664,/g3t1_3,,running
Status,762,13492308915,/g3t1_3,,success
Status,763,13492383171,/g3t1_2,,success
Status,764,13523185334,/g3t1_1,,running
Status,765,13523259868,/g3t1_1,,success
Status,766,13533812955,/g4t1,,fail
Status,767,13541237889,/g3t1_2,,running
Status,768,13541353884,/g3t1_3,,running
Status,769,13542618634,/g3t1_2,,success
Status,770,13542699919,/g3t1_3,,success
Status,774,13572857189,/g3t1_1,,running
Status,775,13572899522,/g3t1_1,,success
Status,776,13590965291,/g3t1_2,,running
Status,777,13591221459,/g3t1_3,,running
Status,778,13591253450,/g3t1_2,,success
Status,779,13591298528,/g3t1_3,,success
Status,780,13623414998,/g3t1_1,,running
Status,781,13623532414,/g3t1_1,,success
Status,782,13633731749,/g4t1,,fail
Status,783,13641817832,/g3t1_2,,running
Status,784,13641920303,/g3t1_3,,running
Status,785,13642591340,/g3t1_2,,success
Status,786,13642668780,/g3t1_3,,success
Status,787,13673613684,/g3t1_1,,running
Status,788,13673892889,/g3t1_1,,success
Status,789,13691743688,/g3t1_2,,running
Status,790,13691877448,/g3t1_3,,running
Status,791,13692064465,/g3t1_2,,success
Status,792,13692870387,/g3t1_3,,success
Status,793,13723440215,/g3t1_1,,running
Status,794,13723974110,/g3t1_1,,success
Status,795,13733990836,/g4t1,,fail
Status,796,13742188263,/g3t1_2,,running
Status,797,13742369813,/g3t1_3,,running
Status,798,13742435112,/g3t1_2,,success
Status,799,13742798031,/g3t1_3,,success
Status,803,13773897091,/g3t1_1,,running
Status,804,13774316041,/g3t1_1,,success
Status,805,13792693344,/g3t1_2,,running
Status,806,13792753021,/g3t1_3,,running
Status,807,13792791657,/g3t1_2,,success
Status,808,13792883826,/g3t1_3,,success
Status,809,13823747767,/g3t1_1,,running
Status,810,13824676256,/g3t1_1,,success
Status,811,13833919798,/g4t1,,fail
Status,812,13842370354,/g3t1_2,,running
Status,813,13842509524,/g3t1_3,,running
Status,814,13842903762,/g3t1_2,,success
Status,815,13842978849,/g3t1_3,,success
Status,816,13874287283,/g3t1_1,,running
Status,817,13874448610,/g3t1_1,,success
Status,818,13892731951,/g3t1_2,,running
Status,819,13892792817,/g3t1_3,,running
Status,820,13892876941,/g3t1_2,,success
Status,821,13892908828,/g3t1_3,,success
Status,822,13924276116,/g3t1_1,,running
Status,823,13924343888,/g3t1_1,,success
Status,824,13934266736,/g4t1,,fail
Status,825,13942443887,/g3t1_2,,running
Status,826,13942947363,/g3t1_3,,running
Status,827,13943012203,/g3t1_2,,success
Status,828,13943037229,/g3t1_3,,success
Status,832,13974554867,/g3t1_1,,running
Status,833,13974801861,/g3t1_1,,fail
Status,834,13992793971,/g3t1_2,,running
Status,835,13992889587,/g3t1_3,,running
Status,836,13993296025,/g3t1_2,,success
Status,837,13993361790,/g3t1_3,,success
Status,838,14024439765,/g3t1_1,,running
Status,839,14024866775,/g3t1_1,,success
Status,840,14034261885,/g4t1,,fail
Status,841,14042698453,/g3t1_2,,running
Status,842,14042815820,/g3t1_3,,running
Status,843,14043682132,/g3t1_2,,success
Status,844,14043796756,/g3t1_3,,success
Status,845,14074830257,/g3t1_1,,running
Status,846,14075352326,/g3t1_1,,success
Status,847,14092743288,/g3t1_2,,running
Status,848,14092851812,/g3t1_3,,running
Status,849,14093436978,/g3t1_3,,success
Status,850,14093504879,/g3t1_2,,success
Status,851,14124664555,/g3t1_1,,running
Status,852,14124968219,/g3t1_1,,success
Status,853,14134663672,/g4t1,,fail
Status,854,14142969375,/g3t1_2,,running
Status,855,14143072025,/g3t1_3,,running
Status,856,14143633812,/g3t1_2,,success
Status,857,14143708406,/g3t1_3,,success
Status,861,14175169266,/g3t1_1,,running
Status,862,14175603564,/g3t1_1,,success
Status,863,14193244197,/g3t1_2,,running
Status,864,14193317154,/g3t1_3,,running
Status,865,14193674931,/g3t1_2,,success
Status,866,14193739485,/g3t1_3,,success
Status,867,14224985813,/g3t1_1,,running
Status,868,14225479132,/g3t1_1,,success
Status,869,14234666361,/g4t1,,fail
Status,870,14243621716,/g3t1_2,,running
Status,871,14243720652,/g3t1_3,,running
Status,872,14243788735,/g3t1_2,,success
Status,873,14243879050,/g3t1_3,,success
Status,874,14275266303,/g3t1_1,,running
Status,875,14275345886,/g3t1_1,,fail
Status,876,14293894642,/g3t1_2,,running
Status,877,14293966065,/g3t1_3,,running
Status,878,14293992344,/g3t1_2,,success
Status,879,14294017136,/g3t1_3,,success
Status,880,14325288892,/g3t1_1,,running
Status,881,14325357961,/g3t1_1,,success
Status,882,14335019371,/g4t1,,fail
Status,883,14343422286,/g3t1_2,,running
Status,884,14343510827,/g3t1_3,,running
Status,885,14344036615,/g3t1_2,,success
Status,886,14344101939,/g3t1_3,,success
Status,890,14375905931,/g3t1_1,,running
Status,891,14376011472,/g3t1_1,,success
Status,892,14393380132,/g3t1_2,,running
Status,893,14393791041,/g3t1_2,,success
Status,894,14393850280,/g3t1_3,,running
Status,895,14393869593,/g3t1_3,,success
Status,896,14424924997,/g3t1_1,,running
Status,897,14425062100,/g3t1_1,,success
Status,898,14434066234,/g4t1,,fail
Status,899,14442928029,/g3t1_2,,running
Status,900,14443057976,/g3t1_2,,success
Status,901,14443423945,/g3t1_3,,running
Status,902,14443448129,/g3t1_3,,success
Status,903,14474853653,/g3t1_1,,running
Status,904,14474898206,/g3t1_1,,success
Status,905,14493014553,/g3t1_2,,running
Status,906,14493107713,/g3t1_3,,running
Status,907,14493145535,/g3t1_2,,success
Status,908,14493218076,/g3t1_3,,success
Status,909,14525053769,/g3t1_1,,running
Status,910,14525082050,/g3t1_1,,success
Status,911,14534174787,/g4t1,,fail
Status,912,14543208488,/g3t1_2,,running
Status,913,14543238308,/g3t1_3,,running
Status,914,14543469570,/g3t1_2,,success
Status,915,14543490276,/g3t1_3,,success
Status,919,14575496358,/g3t1_1,,running
Status,920,14575741403,/g3t1_1,,success
Status,921,14594883194,/g3t1_2,,running
Status,922,14594991472,/g3t1_2,,success
Status,923,14595219489,/g3t1_3,,running
Status,924,14595485150,/g3t1_3,,success
Status,925,14626167426,/g3t1_1,,running
Status,926,14626403598,/g3t1_1,,fail
Status,927,14635073210,/g4t1,,fail
Status,928,14644119287,/g3t1_2,,running
Status,929,14644181769,/g3t1_3,,running
Status,930,14644233490,/g3t1_2,,success
Status,931,14644447679,/g3t1_3,,success
Status,932,14675339400,/g3t1_1,,running
Status,933,14675370608,/g3t1_1,,success
Status,934,14693668968,/g3t1_3,,running
Status,935,14693699147,/g3t1_2,,running
Status,936,14693741513,/g3t1_3,,success
Status,937,14693757146,/g3t1_2,,success
Status,938,14725366781,/g3t1_1,,running
Status,939,14725394588,/g3t1_1,,success
Status,940,14734390508,/g4t1,,fail
Status,941,14743682323,/g3t1_2,,running
Status,942,14743706815,/g3t1_3,,running
Status,943,14743730105,/g3t1_2,,success
Status,944,14743736973,/g3t1_3,,success
Status,948,14775450495,/g3t1_1,,running
Status,949,14775470211,/g3t1_1,,success
Status,950,14793758036,/g3t1_2,,running
Status,951,14793842578,/g3t1_3,,running
Status,952,14793855837,/g3t1_3,,success
Status,953,14793885763,/g3t1_2,,success
Status,954,14825549434,/g3t1_1,,running
Status,955,14825570105,/g3t1_1,,success
Status,956,14834486856,/g4t1,,fail
Status,957,14843975619,/g3t1_2,,running
Status,958,14843995661,/g3t1_3,,running
Status,959,14844074682,/g3t1_2,,success
Status,960,14844090123,/g3t1_3,,success
Status,961,14875546738,/g3t1_1,,running
Status,962,14875565188,/g3t1_1,,success
Status,963,14893907818,/g3t1_2,,running
Status,964,14893936001,/g3t1_2,,success
Status,965,14893957632,/g3t1_3,,running
Status,966,14894042366,/g3t1_3,,success
Status,967,14925848773,/g3t1_1,,running
Status,968,14925873183,/g3t1_1,,fail
Status,969,14934683639,/g4t1,,fail
Status,970,14944557454,/g3t1_2,,running
Status,971,14944620333,/g3t1_3,,running
Status,972,14944684056,/g3t1_2,,success
Status,973,14944701119,/g3t1_3,,success
Status,977,14976558776,/g3t1_1,,running
Status,978,14976934286,/g3t1_1,,success
Status,979,14995795203,/g3t1_2,,running
Status,980,14995909176,/g3t1_3,,running
Status,981,14996105135,/g3t1_3,,success
Status,982,14996149098,/g3t1_2,,success
Status,983,15026488743,/g3t1_1,,running
Status,984,15027019780,/g3t1_1,,success
Status,985,15035513618,/g4t1,,fail
Status,986,15045221964,/g3t1_2,,running
Status,987,15045301589,/g3t1_3,,running
Status,988,15045393818,/g3t1_2,,success
Status,989,15045681432,/g3t1_3,,success
Status,990,15076765403,/g3t1_1,,running
Status,991,15076995140,/g3t1_1,,success
Status,992,15095235506,/g3t1_2,,running
Status,993,15095598187,/g3t1_3,,running
Status,994,15095658067,/g3t1_2,,success
Status,995,15095700361,/g3t1_3,,success
Status,996,15126920882,/g3t1_1,,running
Status,997,15126997291,/g3t1_1,,fail
Status,998,15135487898,/g4t1,,fail
Status,999,15145765177,/g3t1_2,,running
Status,1000,15145868635,/g3t1_3,,running
Status,1001,15145914439,/g3t1_2,,success
Status,1002,15146386023,/g3t1_3,,success
Status,1006,15176992845,/g3t1_1,,running
Status,1007,15177410780,/g3t1_1,,success
Status,1008,15195992477,/g3t1_2,,running
Status,1009,15196197888,/g3t1_3,,running
Status,1010,15196250929,/g3t1_2,,success
Status,1011,15196292798,/g3t1_3,,success
Status,1012,15226626971,/g3t1_1,,running
Status,1013,15226671192,/g3t1_1,,success
Status,1014,15234929425,/g4t1,,fail
Status,1015,15244977666,/g3t1_3,,running
Status,1016,15245007801,/g3t1_2,,running
Status,1017,15245047026,/g3t1_3,,success
Status,1018,15245060298,/g3t1_2,,success
Status,1019,15277278839,/g3t1_1,,running
Status,1020,15277592970,/g3t1_1,,success
Status,1021,15296218000,/g3t1_2,,running
Status,1022,15296284322,/g3t1_3,,running
Status,1023,15296310644,/g3t1_2,,success
Status,1024,15296334340,/g3t1_3,,success
Status,1025,15327571798,/g3t1_1,,running
Status,1026,15327653577,/g3t1_1,,success
Status,1027,15335967266,/g4t1,,fail
Status,1028,15345822588,/g3t1_3,,running
Status,1029,15345910357,/g3t1_2,,running
Status,1030,15346186826,/g3t1_3,,success
Status,1031,15346273361,/g3t1_2,,success
Status,1035,15377314666,/g3t1_1,,running
Status,1036,15377789919,/g3t1_1,,success
Status,1037,15396246059,/g3t1_2,,running
Status,1038,15396327261,/g3t1_3,,running
Status,1039,15396681526,/g3t1_3,,success
Status,1040,15396760762,/g3t1_2,,success
Status,1041,15427441025,/g3t1_1,,running
Status,1042,15427754443,/g3t1_1,,success
Status,1043,15436075981,/g4t1,,fail
Status,1044,15446060359,/g3t1_2,,running
Status,1045,15446145786,/g3t1_3,,running
Status,1046,15446572725,/g3t1_2,,success
Status,1047,15446639838,/g3t1_3,,success
Status,1048,15477558338,/g3t1_1,,running
Status,1049,15477632447,/g3t1_1,,success
Status,1050,15496375216,/g3t1_2,,running
Status,1051,15496459770,/g3t1_3,,running
Status,1052,15496962941,/g3t1_3,,success
Status,1053,15497052695,/g3t1_2,,success
Status,1054,15527692961,/g3t1_1,,running
Status,1055,15527862288,/g3t1_1,,success
Status,1056,15535943823,/g4t1,,fail
Status,1057,15546315423,/g3t1_3,,running
Status,1058,15546373177,/g3t1_2,,running
Status,1059,15546541562,/g3t1_3,,success
Status,1060,15546856167,/g3t1_2,,success
Status,1064,15577890434,/g3t1_1,,running
Status,1065,15578338316,/g3t1_1,,success
Status,1066,15596881550,/g3t1_2,,running
Status,1067,15596950896,/g3t1_3,,running
Status,1068,15596989139,/g3t1_2,,success
Status,1069,15597080376,/g3t1_3,,success
Status,1070,15627907397,/g3t1_1,,running
Status,1071,15628288920,/g3t1_1,,success
Status,1072,15636102382,/g4t1,,fail
Status,1073,15646587126,/g3t1_3,,running
Status,1074,15646675613,/g3t1_2,,running
Status,1075,15647081365,/g3t1_2,,success
Status,1076,15647146340,/g3t1_3,,success
Status,1077,15677947940,/g3t1_1,,running
Status,1078,15678297391,/g3t1_1,,success
Status,1079,15696914249,/g3t1_3,,running
Status,1080,15697005489,/g3t1_2,,running
Status,1081,15697055119,/g3t1_3,,success
Status,1082,15697357267,/g3t1_2,,success
Status,1083,15728146121,/g3t1_1,,running
Status,1084,15728467832,/g3t1_1,,success
Status,1085,15736335917,/g4t1,,fail
Status,1086,15747105982,/g3t1_3,,running
Status,1087,15747190947,/g3t1_2,,running
Status,1088,15747226873,/g3t1_2,,success
Status,1089,15747497646,/g3t1_3,,success
Status,1093,15778229677,/g3t1_1,,running
Status,1094,15778465251,/g3t1_1,,fail
Status,1095,15797269283,/g3t1_2,,running
Status,1096,15797773461,/g3t1_3,,running
Status,1097,15797913372,/g3t1_2,,success
Status,1098,15797990005,/g3t1_3,,success
Status,1099,15828806222,/g3t1_1,,running
Status,1100,15829125482,/g3t1_1,,fail
Status,1101,15836368646,/g4t1,,fail
Status,1102,15847273318,/g3t1_3,,running
Status,1103,15847358466,/g3t1_2,,running
Status,1104,15847747227,/g3t1_3,,success
Status,1105,15847900410,/g3t1_2,,success
Status,1106,15878617523,/g3t1_1,,running
Status,1107,15878684863,/g3t1_1,,success
Status,1108,15897436075,/g3t1_2,,running
Status,1109,15897537963,/g3t1_3,,running
Status,1110,15897961528,/g3t1_3,,success
Status,1111,15897996092,/g3t1_2,,success
Status,1112,15928663357,/g3t1_1,,running
Status,1113,15929035213,/g3t1_1,,success
Status,1114,15936539840,/g4t1,,fail
Status,1115,15947504924,/g3t1_2,,running
Status,1116,15947634760,/g3t1_3,,running
Status,1117,15948073369,/g3t1_3,,success
Status,1118,15948166815,/g3t1_2,,success
Status,1122,15978802370,/g3t1_1,,running
Status,1123,15979220483,/g3t1_1,,success
Status,1124,15997732310,/g3t1_2,,running
Status,1125,15997813064,/g3t1_3,,running
Status,1126,15998148557,/g3t1_2,,success
Status,1127,15998207206,/g3t1_3,,success
Status,1128,16029412006,/g3t1_1,,running
Status,1129,16029863279,/g3t1_1,,success
Status,1130,16036718426,/g4t1,,fail
Status,1131,16047632171,/g3t1_3,,running
Status,1132,16047776462,/g3t1_2,,running
Status,1133,16048427211,/g3t1_2,,success
Status,1134,16048510120,/g3t1_3,,success
Status,1135,16079344657,/g3t1_1,,running
Status,1136,16079422061,/g3t1_1,,success
Status,1137,16097936450,/g3t1_3,,running
Status,1138,16098056707,/g3t1_2,,running
Status,1139,16098438309,/g3t1_2,,success
Status,1140,16098638348,/g3t1_3,,success
Status,1141,16129324212,/g3t1_1,,running
Status,1142,16129396462,/g3t1_1,,fail
Status,1143,16136728594,/g4t1,,fail
Status,1144,16148096540,/g3t1_2,,running
Status,1145,16148165004,/g3t1_3,,running
Status,1146,16148451805,/g3t1_3,,success
Status,1147,16148505218,/g3t1_2,,success
Status,1151,16179340662,/g3t1_1,,running
Status,1152,16179892774,/g3t1_1,,success
Status,1153,16198144683,/g3t1_2,,running
Status,1154,16198224633,/g3t1_3,,running
Status,1155,16198719882,/g3t1_2,,success
Status,1156,16198785924,/g3t1_3,,success
Status,1157,16229563311,/g3t1_1,,running
Status,1158,16229655716,/g3t1_1,,fail
Status,1159,16236935238,/g4t1,,fail
Status,1160,16248243106,/g3t1_2,,running
Status,1161,16248637516,/g3t1_3,,running
Status,1162,16248703955,/g3t1_3,,success
Status,1163,16248729755,/g3t1_2,,success
Status,1164,16279621841,/g3t1_1,,running
Status,1165,16279960047,/g3t1_1,,success
Status,1166,16298600929,/g3t1_2,,running
Status,1167,16298692080,/g3t1_3,,running
Status,1168,16299007098,/g3t1_3,,success
Status,1169,16299133240,/g3t1_2,,success
Status,1170,16329934669,/g3t1_1,,running
Status,1171,16330406643,/g3t1_1,,success
Status,1172,16337037830,/g4t1,,fail
Status,1173,16348491357,/g3t1_2,,running
Status,1174,16348562815,/g3t1_3,,running
Status,1175,16349117007,/g3t1_3,,success
Status,1176,16349188764,/g3t1_2,,success
Status,1180,16380067904,/g3t1_1,,running
Status,1181,16380630315,/g3t1_1,,success
Status,1182,16398679464,/g3t1_2,,running
Status,1183,16399120009,/g3t1_3,,running
Status,1184,16399203773,/g3t1_3,,success
Status,1185,16399297859,/g3t1_2,,success
Status,1186,16430373723,/g3t1_1,,running
Status,1187,16430672887,/g3t1_1,,success
Status,1188,16437120119,/g4t1,,fail
Status,1189,16449676649,/g3t1_2,,running
Status,1190,16449847826,/g3t1_3,,running
Status,1191,16449891867,/g3t1_2,,success
Status,1192,16449938904,/g3t1_3,,success
Status,1193,16480261993,/g3t1_1,,running
Status,1194,16480727671,/g3t1_1,,success
Status,1195,16499026407,/g3t1_2,,running
Status,1196,16499106511,/g3t1_3,,running
Status,1197,16499610961,/g3t1_2,,success
Status,1198,16499698715,/g3t1_3,,success
Status,1199,16530374179,/g3t1_1,,running
Status,1200,16530877702,/g3t1_1,,success
Status,1201,16537214478,/g4t1,,fail
Status,1202,16549335431,/g3t1_2,,running
Status,1203,16549428907,/g3t1_3,,running
Status,1204,16549509668,/g3t1_2,,success
Status,1205,16549599577,/g3t1_3,,success
Status,1209,16580793876,/g3t1_1,,running
Status,1210,16580866939,/g3t1_1,,success
Status,1211,16599328750,/g3t1_3,,running
Status,1212,16599775402,/g3t1_2,,running
Status,1213,16599885171,/g3t1_2,,success
Status,1214,16599972044,/g3t1_3,,success
Status,1215,16630635783,/g3t1_1,,running
Status,1216,16630977671,/g3t1_1,,success
Status,1217,16637402955,/g4t1,,fail
Status,1218,16649953919,/g3t1_3,,running
Status,1219,16650023156,/g3t1_3,,success
Status,1220,16650047806,/g3t1_2,,running
Status,1221,16650074059,/g3t1_2,,success
Status,1222,16680749203,/g3t1_1,,running
Status,1223,16681206123,/g3t1_1,,success
Status,1224,16700195198,/g3t1_2,,running
Status,1225,16700255092,/g3t1_3,,running
Status,1226,16700281004,/g3t1_2,,success
Status,1227,16700364836,/g3t1_3,,success
Status,1228,16730838761,/g3t1_1,,running
Status,1229,16730999977,/g3t1_1,,fail
Status,1230,16737421232,/g4t1,,fail
Status,1231,16749625343,/g3t1_2,,running
Status,1232,16749712808,/g3t1_3,,running
Status,1233,16750166369,/g3t1_2,,success
Status,1234,16750212069,/g3t1_3,,success
Status,1238,16781089336,/g3t1_1,,running
Status,1239,16781465151,/g3t1_1,,success
Status,1240,16799992304,/g3t1_2,,running
Status,1241,16800084387,/g3t1_3,,running
Status,1242,16800309310,/g3t1_3,,success
Status,1243,16800361797,/g3t1_2,,success
Status,1244,16831342855,/g3t1_1,,running
Status,1245,16831431896,/g3t1_1,,success
Status,1246,16837538230,/g4t1,,fail
Status,1247,16850242003,/g3t1_2,,running
Status,1248,16850361949,/g3t1_3,,running
Status,1249,16850713953,/g3t1_3,,success
Status,1250,16850763290,/g3t1_2,,success
Status,1251,16881283032,/g3t1_1,,running
Status,1252,16881798854,/g3t1_1,,success
Status,1253,16900351562,/g3t1_2,,running
Status,1254,16900494235,/g3t1_3,,running
Status,1255,16900691984,/g3t1_3,,success
Status,1256,16901038266,/g3t1_2,,success
Status,1257,16931558410,/g3t1_1,,running
Status,1258,16932118908,/g3t1_1,,success
Status,1259,16937733108,/g4t1,,fail
Status,1260,16950631068,/g3t1_3,,running
Status,1261,16950788260,/g3t1_2,,running
Status,1262,16950850904,/g3t1_3,,success
Status,1263,16951155163,/g3t1_2,,success
Status,1267,16981677551,/g3t1_1,,running
Status,1268,16981987727,/g3t1_1,,success
Status,1269,17000523099,/g3t1_3,,running
Status,1270,17000613937,/g3t1_2,,running
Status,1271,17000800025,/g3t1_2,,success
Status,1272,17001022095,/g3t1_3,,success
Status,1273,17031924919,/g3t1_1,,running
Status,1274,17032218292,/g3t1_1,,success
Status,1275,17037899832,/g4t1,,fail
Status,1276,17050864039,/g3t1_3,,running
Status,1277,17051085674,/g3t1_2,,running
Status,1278,17051483593,/g3t1_2,,success
Status,1279,17051572341,/g3t1_3,,success
Status,1280,17081956136,/g3t1_1,,running
Status,1281,17082029944,/g3t1_1,,success
Status,1282,17100920503,/g3t1_3,,running
Status,1283,17101014301,/g3t1_2,,running
Status,1284,17101277453,/g3t1_2,,success
Status,1285,17101344032,/g3t1_3,,success
Status,1286,17132226474,/g3t1_1,,running
Status,1287,17132627283,/g3t1_1,,success
Status,1288,17138028900,/g4t1,,fail
Status,1289,17151044714,/g3t1_3,,running
Status,1290,17151143232,/g3t1_2,,running
Status,1291,17151504416,/g3t1_3,,success
Status,1292,17151596514,/g3t1_2,,success
Status,1296,17182300619,/g3t1_1,,running
Status,1297,17182370947,/g3t1_1,,fail
Status,1298,17201066494,/g3t1_2,,running
Status,1299,17201147009,/g3t1_3,,running
Status,1300,17201464102,/g3t1_2,,fail
Status,1301,17201867508,/g3t1_3,,success
Status,1302,17232529972,/g3t1_1,,running
Status,1303,17232868657,/g3t1_1,,success
Status,1304,17237984486,/g4t1,,fail
Status,1305,17251457162,/g3t1_2,,running
Status,1306,17251529795,/g3t1_3,,running
Status,1307,17251705727,/g3t1_3,,success
Status,1308,17251746165,/g3t1_2,,success
Status,1309,17282495363,/g3t1_1,,running
Status,1310,17283116900,/g3t1_1,,success
Status,1311,17301295027,/g3t1_2,,running
Status,1312,17301414036,/g3t1_3,,running
Status,1313,17301771489,/g3t1_3,,success
Status,1314,17301850556,/g3t1_2,,success
Status,1315,17332792013,/g3t1_1,,running
Status,1316,17333350228,/g3t1_1,,success
Status,1317,17338377036,/g4t1,,fail
Status,1318,17351739540,/g3t1_3,,running
Status,1319,17351980243,/g3t1_2,,running
Status,1320,17352010921,/g3t1_2,,success
Status,1321,17352034414,/g3t1_3,,success
Status,1325,17382745818,/g3t1_1,,running
Status,1326,17383103191,/g3t1_1,,success
Status,1327,17401813601,/g3t1_2,,running
Status,1328,17401887210,/g3t1_3,,running
Status,1329,17402292237,/g3t1_3,,success
Status,1330,17402377545,/g3t1_2,,success
Status,1331,17432992097,/g3t1_1,,running
Status,1332,17433939156,/g3t1_1,,success
Status,1333,17438401725,/g4t1,,fail
Status,1334,17451750499,/g3t1_2,,running
Status,1335,17451926144,/g3t1_3,,running
Status,1336,17452269380,/g3t1_2,,success
Status,1337,17452356049,/g3t1_3,,success
Status,1338,17483203485,/g3t1_1,,running
Status,1339,17483563914,/g3t1_1,,success
Status,1340,17502030891,/g3t1_3,,running
Status,1341,17502122061,/g3t1_2,,running
Status,1342,17502278402,/g3t1_2,,success
Status,1343,17502311647,/g3t1_3,,success
Status,1344,17533183675,/g3t1_1,,running
Status,1345,17533579302,/g3t1_1,,success
Status,1346,17538545284,/g4t1,,fail
Status,1347,17552070066,/g3t1_2,,running
Status,1348,17552172061,/g3t1_3,,running
Status,1349,17552755039,/g3t1_3,,success
Status,1350,17552944268,/g3t1_2,,success
Status,1354,17583366268,/g3t1_1,,running
Status,1355,17583720677,/g3t1_1,,success
Status,1356,17602500727,/g3t1_2,,running
Status,1357,17602608840,/g3t1_3,,running
Status,1358,17602792803,/g3t1_2,,success
Status,1359,17602820996,/g3t1_3,,success
Status,1360,17632884225,/g3t1_1,,running
Status,1361,17632911475,/g3t1_1,,success
Status,1362,17637812703,/g4t1,,fail
Status,1363,17651463410,/g3t1_2,,running
Status,1364,17651485596,/g3t1_2,,success
Status,1365,17651501695,/g3t1_3,,running
Status,1366,17651595778,/g3t1_3,,success
Status,1367,17682940947,/g3t1_1,,running
Status,1368,17682966714,/g3t1_1,,success
Status,1369,17701617819,/g3t1_3,,running
Status,1370,17701649468,/g3t1_2,,running
Status,1371,17701821692,/g3t1_2,,success
Status,1372,17701843841,/g3t1_3,,success
Status,1373,17733647954,/g3t1_1,,running
Status,1374,17734001457,/g3t1_1,,success
Status,1375,17738429157,/g4t1,,fail
Status,1376,17752503410,/g3t1_2,,running
Status,1377,17752602473,/g3t1_3,,running
Status,1378,17753082351,/g3t1_2,,success
Status,1379,17753170927,/g3t1_3,,success
Status,1383,17783685940,/g3t1_1,,running
Status,1384,17784180499,/g3t1_1,,fail
Status,1385,17803028914,/g3t1_3,,running
Status,1386,17803129167,/g3t1_2,,running
Status,1387,17803309605,/g3t1_3,,success
Status,1388,17803357418,/g3t1_2,,success
Status,1389,17833760115,/g3t1_1,,running
Status,1390,17834178861,/g3t1_1,,success
Status,1391,17838716879,/g4t1,,fail
Status,1392,17852997569,/g3t1_3,,running
Status,1393,17853369147,/g3t1_2,,running
Status,1394,17853459454,/g3t1_3,,success
Status,1395,17853736863,/g3t1_2,,success
Status,1396,17883984527,/g3t1_1,,running
Status,1397,17884282132,/g3t1_1,,success
Status,1398,17902423132,/g3t1_2,,running
Status,1399,17902469338,/g3t1_3,,running
Status,1400,17902481737,/g3t1_3,,success
Status,1401,17902619805,/g3t1_2,,success
Status,1402,17934018552,/g3t1_1,,running
Status,1403,17934094297,/g3t1_1,,fail
Status,1404,17938804482,/g4t1,,fail
Status,1405,17953337261,/g3t1_3,,running
Status,1406,17953393803,/g3t1_2,,running
Status,1407,17953422177,/g3t1_2,,success
Status,1408,17953451025,/g3t1_3,,success
Status,1412,17984089977,/g3t1_1,,running
Status,1413,17984548754,/g3t1_1,,success
Status,1414,18003321273,/g3t1_2,,running
Status,1415,18003426845,/g3t1_3,,running
Status,1416,18004081125,/g3t1_3,,success
Status,1417,18004596858,/g3t1_2,,success
Status,1418,18034227404,/g3t1_1,,running
Status,1419,18034603554,/g3t1_1,,success
Status,1420,18039122125,/g4t1,,fail
Status,1421,18053456739,/g3t1_3,,running
Status,1422,18053604294,/g3t1_2,,running
Status,1423,18053643253,/g3t1_3,,success
Status,1424,18053994336,/g3t1_2,,success
Status,1425,18084422489,/g3t1_1,,running
Status,1426,18084804138,/g3t1_1,,success
Status,1427,18103602586,/g3t1_3,,running
Status,1428,18103715966,/g3t1_2,,running
Status,1429,18104278318,/g3t1_2,,success
Status,1430,18104451923,/g3t1_3,,success
Status,1431,18134521906,/g3t1_1,,running
Status,1432,18135063932,/g3t1_1,,success
Status,1433,18139070519,/g4t1,,fail
Status,1434,18153511895,/g3t1_3,,running
Status,1435,18153615649,/g3t1_2,,running
Status,1436,18154161328,/g3t1_2,,success
Status,1437,18154298810,/g3t1_3,,success
Status,1441,18184679183,/g3t1_1,,running
Status,1442,18185051119,/g3t1_1,,success
Status,1443,18204256723,/g3t1_3,,running
Status,1444,18204402358,/g3t1_2,,running
Status,1445,18204446044,/g3t1_3,,success
Status,1446,18204493764,/g3t1_2,,success
Status,1447,18234754261,/g3t1_1,,running
Status,1448,18235203561,/g3t1_1,,success
Status,1449,18239331792,/g4t1,,fail
Status,1450,18254047430,/g3t1_3,,running
Status,1451,18254227671,/g3t1_2,,running
Status,1452,18254874442,/g3t1_3,,success
Status,1453,18254961117,/g3t1_2,,success
Status,1454,18284992067,/g3t1_1,,running
Status,1455,18285059351,/g3t1_1,,fail
Status,1456,18304053469,/g3t1_3,,running
Status,1457,18304158790,/g3t1_2,,running
Status,1458,18304707626,/g3t1_3,,success
Status,1459,18305080238,/g3t1_2,,success
Status,1460,18335220428,/g3t1_1,,running
Status,1461,18335466366,/g3t1_1,,success
Status,1462,18339393041,/g4t1,,fail
Status,1463,18354372094,/g3t1_3,,running
Status,1464,18354504755,/g3t1_2,,running
Status,1465,18354542642,/g3t1_3,,success
Status,1466,18355291869,/g3t1_2,,success
Status,1470,18385243487,/g3t1_1,,running
Status,1471,18385550182,/g3t1_1,,success
Status,1472,18404357919,/g3t1_3,,running
Status,1473,18404503304,/g3t1_2,,running
Status,1474,18404559840,/g3t1_2,,success
Status,1475,18404760609,/g3t1_3,,success
Status,1476,18435287123,/g3t1_1,,running
Status,1477,18435732650,/g3t1_1,,success
Status,1478,18439330089,/g4t1,,fail
Status,1479,18454713694,/g3t1_3,,running
Status,1480,18454849065,/g3t1_2,,running
Status,1481,18455169849,/g3t1_3,,success
Status,1482,18455220910,/g3t1_2,,success
Status,1483,18485568840,/g3t1_1,,running
Status,1484,18485661934,/g3t1_1,,fail
Status,1485,18504637100,/g3t1_3,,running
Status,1486,18504734074,/g3t1_2,,running
Status,1487,18504855757,/g3t1_3,,success
Status,1488,18504920215,/g3t1_2,,success
Status,1489,18534998057,/g3t1_1,,running
Status,1490,18535040384,/g3t1_1,,fail
Status,1491,18538901270,/g4t1,,fail
Status,1492,18553776505,/g3t1_3,,running
Status,1493,18553828254,/g3t1_2,,running
Status,1494,18553880055,/g3t1_3,,success
Status,1495,18553995282,/g3t1_2,,success
Status,1499,18585217102,/g3t1_1,,running
Status,1500,18585391274,/g3t1_1,,success
Status,1501,18604775422,/g3t1_3,,running
Status,1502,18604911441,/g3t1_2,,running
Status,1503,18605408190,/g3t1_3,,success
Status,1504,18605541028,/g3t1_2,,success
Status,1505,18635669377,/g3t1_1,,running
Status,1506,18636151475,/g3t1_1,,success
Status,1507,18639713257,/g4t1,,fail
Status,1508,18655024557,/g3t1_3,,running
Status,1509,18655129590,/g3t1_2,,running
Status,1510,18655192028,/g3t1_2,,success
Status,1511,18656106941,/g3t1_3,,success
Status,1512,18685906174,/g3t1_1,,running
Status,1513,18686333460,/g3t1_1,,success
Status,1514,18705027974,/g3t1_3,,running
Status,1515,18705496259,/g3t1_2,,running
Status,1516,18705561345,/g3t1_3,,fail
Status,1517,18705587421,/g3t1_2,,success
Status,1518,18736002403,/g3t1_1,,running
Status,1519,18736715323,/g3t1_1,,success
Status,1520,18739566723,/g4t1,,fail
Status,1521,18755941818,/g3t1_3,,running
Status,1522,18756188426,/g3t1_2,,running
Status,1523,18756233984,/g3t1_3,,success
Status,1524,18756338871,/g3t1_2,,success
Status,1528,18786148240,/g3t1_1,,running
Status,1529,18786221411,/g3t1_1,,fail
Status,1530,18805008728,/g3t1_3,,running
Status,1531,18805107270,/g3t1_2,,running
Status,1532,18805517512,/g3t1_2,,success
Status,1533,18806214036,/g3t1_3,,success
Status,1534,18836353177,/g3t1_1,,running
Status,1535,18836592803,/g3t1_1,,success
Status,1536,18839788639,/g4t1,,fail
Status,1537,18855341123,/g3t1_3,,running
Status,1538,18855464096,/g3t1_2,,running
Status,1539,18856371274,/g3t1_3,,success
Status,1540,18856444293,/g3t1_2,,success
Status,1541,18886484964,/g3t1_1,,running
Status,1542,18886578470,/g3t1_1,,success
Status,1543,18905414354,/g3t1_3,,running
Status,1544,18905491973,/g3t1_2,,running
Status,1545,18905955936,/g3t1_3,,success
Status,1546,18906022559,/g3t1_2,,success
Status,1547,18936622328,/g3t1_1,,running
Status,1548,18937128926,/g3t1_1,,success
Status,1549,18940075650,/g4t1,,fail
Status,1550,18956075188,/g3t1_3,,running
Status,1551,18956144115,/g3t1_2,,running
Status,1552,18956212740,/g3t1_3,,success
Status,1553,18956236074,/g3t1_2,,success
Status,1557,18986807564,/g3t1_1,,running
Status,1558,18986921108,/g3t1_1,,success
Status,1559,19005715362,/g3t1_3,,running
Status,1560,19005813618,/g3t1_2,,running
Status,1561,19006358243,/g3t1_3,,success
Status,1562,19006893588,/g3t1_2,,success
Status,1563,19036919855,/g3t1_1,,running
Status,1564,19037151153,/g3t1_1,,fail
Status,1565,19040062211,/g4t1,,fail
Status,1566,19056184085,/g3t1_3,,running
Status,1567,19056290609,/g3t1_2,,running
Status,1568,19056590148,/g3t1_3,,success
Status,1569,19056673226,/g3t1_2,,success
Status,1570,19086837461,/g3t1_1,,running
Status,1571,19086916039,/g3t1_1,,fail
Status,1572,19105709486,/g3t1_3,,running
Status,1573,19106050370,/g3t1_2,,running
Status,1574,19106367522,/g3t1_2,,success
Status,1575,19106455688,/g3t1_3,,success
Status,1576,19136944316,/g3t1_1,,running
Status,1577,19137010958,/g3t1_1,,fail
Status,1578,19140173720,/g4t1,,fail
Status,1579,19156442238,/g3t1_2,,running
Status,1580,19156555596,/g3t1_3,,running
Status,1581,19156600436,/g3t1_3,,success
Status,1582,19156935286,/g3t1_2,,success
Status,1586,19187232234,/g3t1_1,,running
Status,1587,19187571095,/g3t1_1,,success
Status,1588,19206454046,/g3t1_2,,running
Status,1589,19206545936,/g3t1_3,,running
Status,1590,19206898988,/g3t1_3,,success
Status,1591,19206964649,/g3t1_2,,success
Status,1592,19237368695,/g3t1_1,,running
Status,1593,19237438490,/g3t1_1,,success
Status,1594,19240272059,/g4t1,,fail
Status,1595,19256577780,/g3t1_3,,running
Status,1596,19256737449,/g3t1_2,,running
Status,1597,19256943240,/g3t1_3,,success
Status,1598,19257424804,/g3t1_2,,success
Status,1599,19287340109,/g3t1_1,,running
Status,1600,19287500529,/g3t1_1,,success
Status,1601,19306488869,/g3t1_3,,running
Status,1602,19306599627,/g3t1_2,,running
Status,1603,19306709859,/g3t1_2,,success
Status,1604,19307123664,/g3t1_3,,success
Status,1605,19337413839,/g3t1_1,,running
Status,1606,19337841706,/g3t1_1,,success
Status,1607,19340366630,/g4t1,,fail
Status,1608,19356845458,/g3t1_3,,running
Status,1609,19356961756,/g3t1_2,,running
Status,1610,19357480217,/g3t1_2,,success
Status,1611,19357546298,/g3t1_3,,success
Status,1615,19387594878,/g3t1_1,,running
Status,1616,19388067056,/g3t1_1,,success
Status,1617,19406748699,/g3t1_3,,running
Status,1618,19406879361,/g3t1_2,,running
Status,1619,19407078101,/g3t1_3,,success
Status,1620,19407404239,/g3t1_2,,success
Status,1621,19437617620,/g3t1_1,,running
Status,1622,19438077657,/g3t1_1,,success
Status,1623,19440380599,/g4t1,,fail
Status,1624,19457527496,/g3t1_3,,running
Status,1625,19457613940,/g3t1_2,,running
Status,1626,19457790891,/g3t1_3,,success
Status,1627,19457843427,/g3t1_2,,success
Status,1628,19488296565,/g3t1_1,,running
Status,1629,19488613579,/g3t1_1,,success
Status,1630,19507035400,/g3t1_2,,running
Status,1631,19507125356,/g3t1_3,,running
Status,1632,19507516658,/g3t1_3,,success
Status,1633,19507587319,/g3t1_2,,success
Status,1634,19537916690,/g3t1_1,,running
Status,1635,19538376420,/g3t1_1,,success
Status,1636,19540486495,/g4t1,,fail
Status,1637,19557335536,/g3t1_2,,running
Status,1638,19557457703,/g3t1_3,,running
Status,1639,19557936076,/g3t1_3,,success
Status,1640,19558024806,/g3t1_2,,success
Status,1644,19588094628,/g3t1_1,,running
Status,1645,19588696824,/g3t1_1,,success
Status,1646,19608135981,/g3t1_2,,running
Status,1647,19608203417,/g3t1_3,,running
Status,1648,19608227778,/g3t1_2,,success
Status,1649,19608251796,/g3t1_3,,success
Status,1650,19638079430,/g3t1_1,,running
Status,1651,19638739572,/g3t1_1,,success
Status,1652,19640799736,/g4t1,,fail
Status,1653,19657637123,/g3t1_2,,running
Status,1654,19657724203,/g3t1_3,,running
Status,1655,19658009611,/g3t1_3,,success
Status,1656,19658066182,/g3t1_2,,success
Status,1657,19688428994,/g3t1_1,,running
Status,1658,19688931490,/g3t1_1,,success
Status,1659,19707552725,/g3t1_2,,running
Status,1660,19707652266,/g3t1_3,,running
Status,1661,19708195182,/g3t1_3,,success
Status,1662,19708261454,/g3t1_2,,success
Status,1663,19738333644,/g3t1_1,,running
Status,1664,19738849246,/g3t1_1,,success
Status,1665,19740875272,/g4t1,,fail
Status,1666,19757882459,/g3t1_3,,running
Status,1667,19757962741,/g3t1_2,,running
Status,1668,19758103819,/g3t1_3,,success
Status,1669,19758291205,/g3t1_2,,success
Status,1673,19788638670,/g3t1_1,,running
Status,1674,19789189446,/g3t1_1,,success
Status,1675,19807904535,/g3t1_3,,running
Status,1676,19807994425,/g3t1_2,,running
Status,1677,19808579083,/g3t1_3,,success
Status,1678,19808706132,/g3t1_2,,success
Status,1679,19838577019,/g3t1_1,,running
Status,1680,19838666252,/g3t1_1,,fail
Status,1681,19840887293,/g4t1,,fail
Status,1682,19858186406,/g3t1_3,,running
Status,1683,19858289279,/g3t1_2,,running
Status,1684,19858870312,/g3t1_3,,success
Status,1685,19858943941,/g3t1_2,,success
Status,1686,19888964548,/g3t1_1,,running
Status,1687,19889429172,/g3t1_1,,success
