
Status,2,3598992598,/g4t1,,init
Status,3,8515473084,/g3t1_1,,init
Status,5,8526545153,/g3t1_1,,init
Status,6,8526567383,/g3t1_1,,running
Status,7,8527178737,/g3t1_1,,success
Status,8,8576723641,/g3t1_1,,running
Status,9,8576750465,/g3t1_1,,success
Status,10,8626756502,/g3t1_1,,running
Status,11,8626846365,/g3t1_1,,success
Status,12,8676831793,/g3t1_1,,running
Status,13,8676941802,/g3t1_1,,success
Status,15,8714624732,/g3t1_2,,init
Status,16,8726137602,/g3t1_2,,init
Status,17,8726161770,/g3t1_2,,running
Status,18,8726803336,/g3t1_1,,running
Status,19,8726825150,/g3t1_2,,success
Status,20,8727074946,/g3t1_1,,success
Status,21,8776258653,/g3t1_2,,running
Status,22,8776381113,/g3t1_2,,success
Status,23,8776845777,/g3t1_1,,running
Status,24,8776945553,/g3t1_1,,success
Status,26,8815281594,/g3t1_3,,init
Status,27,8826057536,/g3t1_3,,init
Status,28,8826087067,/g3t1_3,,running
Status,29,8826222959,/g3t1_2,,running
Status,30,8826443444,/g3t1_2,,success
Status,31,8827059667,/g3t1_3,,success
Status,32,8827080620,/g3t1_1,,running
Status,33,8827102663,/g3t1_1,,success
Status,34,8876364895,/g3t1_3,,running
Status,35,8876584562,/g3t1_2,,running
Status,36,8876645722,/g3t1_3,,success
Status,37,8876896063,/g3t1_2,,success
Status,38,8877076321,/g3t1_1,,running
Status,39,8877311352,/g3t1_1,,success
Status,40,8919932327,/g4t1,,success
Status,41,8927454253,/g3t1_3,,running
Status,42,8927559742,/g3t1_2,,running
Status,43,8928553278,/g3t1_3,,success
Status,44,8928627083,/g3t1_1,,running
Status,45,8929189870,/g3t1_1,,success
Status,46,8929246498,/g3t1_2,,success
Status,50,8977311653,/g3t1_3,,running
Status,51,8977611836,/g3t1_2,,running
Status,52,8977988498,/g3t1_3,,success
Status,53,8978472724,/g3t1_1,,running
Status,54,8978852638,/g3t1_1,,success
Status,55,8979190345,/g3t1_2,,success
Status,56,9020049334,/g4t1,,success
Status,57,9027230266,/g3t1_3,,running
Status,58,9028467177,/g3t1_2,,running
Status,59,9028525568,/g3t1_3,,success
Status,60,9028550534,/g3t1_2,,success
Status,61,9028650060,/g3t1_1,,running
Status,62,9028677831,/g3t1_1,,success
Status,63,9077756541,/g3t1_3,,running
Status,64,9077858985,/g3t1_2,,running
Status,65,9078399436,/g3t1_1,,running
Status,66,9078461645,/g3t1_2,,success
Status,67,9078497160,/g3t1_3,,success
Status,68,9078702146,/g3t1_1,,success
Status,69,9120288261,/g4t1,,success
Status,70,9127944572,/g3t1_3,,running
Status,71,9128033771,/g3t1_2,,running
Status,72,9128452499,/g3t1_3,,success
Status,73,9128535417,/g3t1_2,,fail
Status,74,9128629684,/g3t1_1,,running
Status,75,9129055233,/g3t1_1,,success
Status,79,9178095802,/g3t1_3,,running
Status,80,9178169906,/g3t1_2,,running
Status,81,9178215181,/g3t1_3,,success
Status,82,9178376037,/g3t1_1,,running
Status,83,9178971809,/g3t1_1,,success
Status,84,9179050396,/g3t1_2,,success
Status,85,9220264820,/g4t1,,fail
Status,86,9228115984,/g3t1_3,,running
Status,87,9228331161,/g3t1_2,,running
Status,88,9228465510,/g3t1_2,,success
Status,89,9228999809,/g3t1_3,,success
Status,90,9229117661,/g3t1_1,,running
Status,91,9229159869,/g3t1_1,,success
Status,92,9278541849,/g3t1_3,,running
Status,93,9278619891,/g3t1_2,,running
Status,94,9278818843,/g3t1_1,,running
Status,95,9278937915,/g3t1_3,,success
Status,96,9278976723,/g3t1_2,,success
Status,97,9279559826,/g3t1_1,,success
Status,98,9320672975,/g4t1,,fail
Status,99,9328583300,/g3t1_2,,running
Status,100,9328641964,/g3t1_3,,running
Status,101,9328807756,/g3t1_2,,success
Status,102,9328859142,/g3t1_1,,running
Status,103,9329249417,/g3t1_3,,success
Status,104,9329314142,/g3t1_1,,success
Status,108,9378081297,/g3t1_2,,running
Status,109,9378134797,/g3t1_3,,running
Status,110,9378234179,/g3t1_2,,success
Status,111,9379064898,/g3t1_3,,success
Status,112,9379113119,/g3t1_1,,running
Status,113,9379158114,/g3t1_1,,success
Status,114,9420081135,/g4t1,,fail
Status,115,9428151276,/g3t1_2,,running
Status,116,9428219276,/g3t1_3,,running
Status,117,9428250844,/g3t1_2,,success
Status,118,9428556625,/g3t1_3,,success
Status,119,9428611144,/g3t1_1,,running
Status,120,9429141615,/g3t1_1,,success
Status,121,9478748610,/g3t1_2,,running
Status,122,9478811755,/g3t1_3,,running
Status,123,9479458834,/g3t1_1,,running
Status,124,9479513281,/g3t1_3,,success
Status,125,9479534931,/g3t1_2,,success
Status,126,9479556209,/g3t1_1,,success
Status,127,9520646464,/g4t1,,fail
Status,128,9528640012,/g3t1_2,,running
Status,129,9529222776,/g3t1_3,,running
Status,130,9530337794,/g3t1_1,,running
Status,131,9530402899,/g3t1_2,,success
Status,132,9530570016,/g3t1_3,,success
Status,133,9530602641,/g3t1_1,,success
Status,137,9578829091,/g3t1_2,,running
Status,138,9578981430,/g3t1_3,,running
Status,139,9579029652,/g3t1_2,,success
Status,140,9579471759,/g3t1_1,,running
Status,141,9579612225,/g3t1_3,,success
Status,142,9580325057,/g3t1_1,,success
Status,143,9621242071,/g4t1,,fail
Status,144,9629664317,/g3t1_2,,running
Status,145,9629821736,/g3t1_3,,running
Status,146,9629851778,/g3t1_3,,success
Status,147,9629877898,/g3t1_2,,success
Status,148,9629899619,/g3t1_1,,running
Status,149,9629944006,/g3t1_1,,success
Status,150,9679353016,/g3t1_2,,running
Status,151,9679494245,/g3t1_3,,running
Status,152,9679525725,/g3t1_2,,success
Status,153,9679906479,/g3t1_3,,success
Status,154,9679971936,/g3t1_1,,running
Status,155,9680634662,/g3t1_1,,success
Status,156,9721187257,/g4t1,,fail
Status,157,9729162688,/g3t1_2,,running
Status,158,9729453972,/g3t1_2,,fail
Status,159,9729527264,/g3t1_3,,running
Status,160,9729714694,/g3t1_1,,running
Status,161,9729769317,/g3t1_3,,success
Status,162,9730252693,/g3t1_1,,success
Status,166,9779513369,/g3t1_2,,running
Status,167,9779665573,/g3t1_3,,running
Status,168,9779777359,/g3t1_2,,success
Status,169,9779910004,/g3t1_1,,running
Status,170,9779934338,/g3t1_3,,success
Status,171,9780952525,/g3t1_1,,success
Status,172,9821458032,/g4t1,,fail
Status,173,9829402677,/g3t1_2,,running
Status,174,9829521773,/g3t1_3,,running
Status,175,9829617429,/g3t1_2,,success
Status,176,9830330855,/g3t1_1,,running
Status,177,9830384913,/g3t1_3,,success
Status,178,9830516147,/g3t1_1,,success
Status,179,9879913663,/g3t1_2,,running
Status,180,9880262707,/g3t1_3,,running
Status,181,9880321909,/g3t1_2,,success
Status,182,9880358055,/g3t1_1,,running
Status,183,9880389633,/g3t1_3,,success
Status,184,9881372340,/g3t1_1,,success
Status,185,9920880986,/g4t1,,fail
Status,186,9929059388,/g3t1_2,,running
Status,187,9929369275,/g3t1_3,,running
Status,188,9929633808,/g3t1_2,,success
Status,189,9929662436,/g3t1_3,,success
Status,190,9929679754,/g3t1_1,,running
Status,191,9930296227,/g3t1_1,,success
Status,195,9979307533,/g3t1_2,,running
Status,196,9979371617,/g3t1_2,,success
Status,197,9979671395,/g3t1_3,,running
Status,198,9979800641,/g3t1_3,,success
Status,199,9979832665,/g3t1_1,,running
Status,200,9980202784,/g3t1_1,,success
Status,201,10020935048,/g4t1,,fail
Status,202,10029233589,/g3t1_2,,running
Status,203,10029501259,/g3t1_3,,running
Status,204,10029548617,/g3t1_2,,success
Status,205,10030159535,/g3t1_1,,running
Status,206,10030211491,/g3t1_3,,success
Status,207,10030268328,/g3t1_1,,success
Status,208,10080645018,/g3t1_2,,running
Status,209,10080816806,/g3t1_3,,running
Status,210,10080862129,/g3t1_2,,success
Status,211,10080897291,/g3t1_1,,running
Status,212,10080934137,/g3t1_1,,success
Status,213,10081236811,/g3t1_3,,success
Status,214,10121636636,/g4t1,,fail
Status,215,10130792844,/g3t1_2,,running
Status,216,10130923862,/g3t1_3,,running
Status,217,10130967112,/g3t1_2,,success
Status,218,10131024290,/g3t1_1,,running
Status,219,10131058768,/g3t1_3,,success
Status,220,10131791398,/g3t1_1,,success
Status,224,10179847993,/g3t1_2,,running
Status,225,10179932775,/g3t1_3,,running
Status,226,10180248345,/g3t1_2,,success
Status,227,10180431932,/g3t1_3,,success
Status,228,10180466685,/g3t1_1,,running
Status,229,10181302498,/g3t1_1,,success
Status,230,10221491676,/g4t1,,fail
Status,231,10230080087,/g3t1_2,,running
Status,232,10230242311,/g3t1_3,,running
Status,233,10230410002,/g3t1_2,,success
Status,234,10230924303,/g3t1_3,,success
Status,235,10231282485,/g3t1_1,,running
Status,236,10231344275,/g3t1_1,,success
Status,237,10280719937,/g3t1_2,,running
Status,238,10280790411,/g3t1_3,,running
Status,239,10281164735,/g3t1_1,,running
Status,240,10281227273,/g3t1_2,,success
Status,241,10281327267,/g3t1_3,,success
Status,242,10281599317,/g3t1_1,,success
Status,243,10321604904,/g4t1,,fail
Status,244,10330392919,/g3t1_2,,running
Status,245,10330482659,/g3t1_3,,running
Status,246,10331208084,/g3t1_2,,success
Status,247,10331329544,/g3t1_1,,running
Status,248,10331767492,/g3t1_3,,success
Status,249,10331902785,/g3t1_1,,success
Status,253,10380929408,/g3t1_2,,running
Status,254,10381011938,/g3t1_3,,running
Status,255,10381056397,/g3t1_2,,success
Status,256,10381552851,/g3t1_1,,running
Status,257,10381603150,/g3t1_3,,success
Status,258,10381699733,/g3t1_1,,success
Status,259,10421773090,/g4t1,,fail
Status,260,10430899250,/g3t1_2,,running
Status,261,10430983186,/g3t1_3,,running
Status,262,10431020994,/g3t1_2,,success
Status,263,10431553876,/g3t1_1,,running
Status,264,10431620025,/g3t1_3,,success
Status,265,10432076403,/g3t1_1,,success
Status,266,10480736779,/g3t1_2,,running
Status,267,10480811397,/g3t1_3,,running
Status,268,10481570486,/g3t1_3,,success
Status,269,10481641122,/g3t1_1,,running
Status,270,10481721331,/g3t1_2,,success
Status,271,10481984076,/g3t1_1,,success
Status,272,10522053146,/g4t1,,fail
Status,273,10530928038,/g3t1_2,,running
Status,274,10531012606,/g3t1_3,,running
Status,275,10531567311,/g3t1_2,,success
Status,276,10531971604,/g3t1_1,,running
Status,277,10532026711,/g3t1_3,,success
Status,278,10532216361,/g3t1_1,,success
Status,282,10581124031,/g3t1_2,,running
Status,283,10581217172,/g3t1_3,,running
Status,284,10581861591,/g3t1_2,,success
Status,285,10582547950,/g3t1_1,,running
Status,286,10582626451,/g3t1_3,,success
Status,287,10582702659,/g3t1_1,,success
Status,288,10621718885,/g4t1,,fail
Status,289,10632210982,/g3t1_2,,running
Status,290,10632284796,/g3t1_3,,running
Status,291,10632335489,/g3t1_3,,success
Status,292,10632426430,/g3t1_1,,running
Status,293,10632454544,/g3t1_2,,success
Status,294,10632484878,/g3t1_1,,success
Status,295,10680868711,/g3t1_2,,running
Status,296,10680905548,/g3t1_2,,success
Status,297,10681173313,/g3t1_3,,running
Status,298,10681605066,/g3t1_3,,success
Status,299,10681623766,/g3t1_1,,running
Status,300,10681633368,/g3t1_1,,success
Status,301,10722094817,/g4t1,,fail
Status,302,10731453169,/g3t1_2,,running
Status,303,10732064394,/g3t1_3,,running
Status,304,10732168492,/g3t1_2,,success
Status,305,10732286121,/g3t1_1,,running
Status,306,10732326743,/g3t1_3,,success
Status,307,10732729249,/g3t1_1,,success
Status,311,10781357970,/g3t1_2,,running
Status,312,10782039252,/g3t1_3,,running
Status,313,10782098415,/g3t1_1,,running
Status,314,10782210934,/g3t1_2,,success
Status,315,10782861629,/g3t1_1,,success
Status,316,10782938462,/g3t1_3,,success
Status,317,10822101729,/g4t1,,fail
Status,318,10831913194,/g3t1_2,,running
Status,319,10832034914,/g3t1_3,,running
Status,320,10832763720,/g3t1_1,,running
Status,321,10832833791,/g3t1_2,,success
Status,322,10832961856,/g3t1_3,,success
Status,323,10833424199,/g3t1_1,,success
Status,324,10880923625,/g3t1_2,,running
Status,325,10880950443,/g3t1_2,,success
Status,326,10881133911,/g3t1_3,,running
Status,327,10881262289,/g3t1_3,,success
Status,328,10881618484,/g3t1_1,,running
Status,329,10881780972,/g3t1_1,,success
Status,330,10921431939,/g4t1,,fail
Status,331,10932092089,/g3t1_2,,running
Status,332,10932610687,/g3t1_3,,running
Status,333,10933020535,/g3t1_3,,success
Status,334,10933416850,/g3t1_1,,running
Status,335,10933514310,/g3t1_1,,success
Status,336,10934213301,/g3t1_2,,success
Status,340,10982327394,/g3t1_2,,running
Status,341,10982460212,/g3t1_3,,running
Status,342,10982572307,/g3t1_2,,success
Status,343,10983309196,/g3t1_1,,running
Status,344,10983411544,/g3t1_3,,success
Status,345,10983530015,/g3t1_1,,success
Status,346,11022551056,/g4t1,,fail
Status,347,11031464883,/g3t1_2,,running
Status,348,11031752742,/g3t1_2,,success
Status,349,11031841059,/g3t1_3,,running
Status,350,11032090919,/g3t1_3,,success
Status,351,11032418468,/g3t1_1,,running
Status,352,11032481141,/g3t1_1,,success
Status,353,11081678945,/g3t1_2,,running
Status,354,11081807189,/g3t1_3,,running
Status,355,11081944362,/g3t1_2,,success
Status,356,11082520860,/g3t1_3,,success
Status,357,11082564792,/g3t1_1,,running
Status,358,11082659435,/g3t1_1,,success
Status,359,11122593167,/g4t1,,fail
Status,360,11132437130,/g3t1_2,,running
Status,361,11132524857,/g3t1_3,,running
Status,362,11132949795,/g3t1_1,,running
Status,363,11133600810,/g3t1_1,,success
Status,364,11133790003,/g3t1_2,,success
Status,365,11133850578,/g3t1_3,,success
Status,369,11181871957,/g3t1_2,,running
Status,370,11181918389,/g3t1_3,,running
Status,371,11181982604,/g3t1_2,,success
Status,372,11182454412,/g3t1_3,,success
Status,373,11182662511,/g3t1_1,,running
Status,374,11182696046,/g3t1_1,,success
Status,375,11222589708,/g4t1,,fail
Status,376,11232284678,/g3t1_2,,running
Status,377,11232355108,/g3t1_3,,running
Status,378,11233132820,/g3t1_2,,success
Status,379,11233193955,/g3t1_3,,success
Status,380,11233214307,/g3t1_1,,running
Status,381,11233495572,/g3t1_1,,success
Status,382,11282548999,/g3t1_2,,running
Status,383,11282633824,/g3t1_3,,running
Status,384,11282944700,/g3t1_2,,success
Status,385,11282983867,/g3t1_3,,success
Status,386,11283182483,/g3t1_1,,running
Status,387,11283850029,/g3t1_1,,success
Status,388,11323470035,/g4t1,,fail
Status,389,11333621583,/g3t1_2,,running
Status,390,11333865385,/g3t1_3,,running
Status,391,11333961537,/g3t1_3,,success
Status,392,11334775187,/g3t1_1,,running
Status,393,11334827725,/g3t1_2,,success
Status,394,11334869181,/g3t1_1,,success
Status,398,11383288238,/g3t1_2,,running
Status,399,11383392018,/g3t1_3,,running
Status,400,11383488697,/g3t1_2,,success
Status,401,11383533626,/g3t1_3,,success
Status,402,11383773377,/g3t1_1,,running
Status,403,11384185828,/g3t1_1,,success
Status,404,11422620580,/g4t1,,fail
Status,405,11432681075,/g3t1_2,,running
Status,406,11432723802,/g3t1_3,,running
Status,407,11432794259,/g3t1_2,,success
Status,408,11433202930,/g3t1_3,,success
Status,409,11433504614,/g3t1_1,,running
Status,410,11433969300,/g3t1_1,,success
Status,411,11483371740,/g3t1_2,,running
Status,412,11483458352,/g3t1_3,,running
Status,413,11483608962,/g3t1_3,,success
Status,414,11484108391,/g3t1_2,,success
Status,415,11484184730,/g3t1_1,,running
Status,416,11485088984,/g3t1_1,,success
Status,417,11522349976,/g4t1,,fail
Status,418,11532570977,/g3t1_2,,running
Status,419,11532612519,/g3t1_3,,running
Status,420,11532654759,/g3t1_2,,success
Status,421,11532666953,/g3t1_3,,success
Status,422,11533286013,/g3t1_1,,running
Status,423,11533527498,/g3t1_1,,fail
Status,427,11583044069,/g3t1_2,,running
Status,428,11583105796,/g3t1_3,,running
Status,429,11583554855,/g3t1_2,,success
Status,430,11583641044,/g3t1_3,,success
Status,431,11583669834,/g3t1_1,,running
Status,432,11584075438,/g3t1_1,,success
Status,433,11623204237,/g4t1,,fail
Status,434,11633274557,/g3t1_2,,running
Status,435,11633361428,/g3t1_3,,running
Status,436,11633823242,/g3t1_2,,success
Status,437,11633955500,/g3t1_3,,success
Status,438,11634678339,/g3t1_1,,running
Status,439,11634989057,/g3t1_1,,success
Status,440,11683459004,/g3t1_2,,running
Status,441,11683554652,/g3t1_3,,running
Status,442,11685035571,/g3t1_2,,success
Status,443,11685096899,/g3t1_3,,success
Status,444,11685176638,/g3t1_1,,running
Status,445,11685212048,/g3t1_1,,success
Status,446,11722575570,/g4t1,,fail
Status,447,11732984557,/g3t1_2,,running
Status,448,11733009094,/g3t1_3,,running
Status,449,11733107347,/g3t1_2,,success
Status,450,11733119549,/g3t1_3,,success
Status,451,11733648937,/g3t1_1,,running
Status,452,11733862746,/g3t1_1,,success
Status,456,11783515302,/g3t1_2,,running
Status,457,11783577858,/g3t1_3,,running
Status,458,11783977749,/g3t1_2,,success
Status,459,11784415327,/g3t1_1,,running
Status,460,11784493194,/g3t1_3,,success
Status,461,11784720787,/g3t1_1,,success
Status,462,11823549327,/g4t1,,fail
Status,463,11833904382,/g3t1_2,,running
Status,464,11834142670,/g3t1_3,,running
Status,465,11834199881,/g3t1_2,,success
Status,466,11834437911,/g3t1_3,,success
Status,467,11835462473,/g3t1_1,,running
Status,468,11835578518,/g3t1_1,,success
Status,469,11884020000,/g3t1_2,,running
Status,470,11884155219,/g3t1_3,,running
Status,471,11885213905,/g3t1_2,,success
Status,472,11885321013,/g3t1_1,,running
Status,473,11885486719,/g3t1_3,,success
Status,474,11885558992,/g3t1_1,,success
Status,475,11923324428,/g4t1,,fail
Status,476,11934193007,/g3t1_2,,running
Status,477,11935150673,/g3t1_3,,running
Status,478,11935319327,/g3t1_2,,success
Status,479,11935549908,/g3t1_3,,success
Status,480,11935944279,/g3t1_1,,running
Status,481,11936139934,/g3t1_1,,success
Status,485,11984050804,/g3t1_2,,running
Status,486,11984153045,/g3t1_3,,running
Status,487,11984499168,/g3t1_2,,success
Status,488,11985359799,/g3t1_1,,running
Status,489,11985434607,/g3t1_3,,success
Status,490,11985701180,/g3t1_1,,success
Status,491,12023760080,/g4t1,,fail
Status,492,12034279742,/g3t1_2,,running
Status,493,12035376420,/g3t1_2,,success
Status,494,12035484034,/g3t1_3,,running
Status,495,12035535159,/g3t1_3,,success
Status,496,12036005121,/g3t1_1,,running
Status,497,12036048818,/g3t1_1,,success
Status,498,12084653375,/g3t1_2,,running
Status,499,12084794945,/g3t1_3,,running
Status,500,12084938456,/g3t1_2,,success
Status,501,12085387176,/g3t1_3,,success
Status,502,12085603424,/g3t1_1,,running
Status,503,12085999130,/g3t1_1,,success
Status,504,12123881504,/g4t1,,fail
Status,505,12134469026,/g3t1_2,,running
Status,506,12134688656,/g3t1_3,,running
Status,507,12135441426,/g3t1_2,,success
Status,508,12135918678,/g3t1_3,,success
Status,509,12136086206,/g3t1_1,,running
Status,510,12136433385,/g3t1_1,,success
Status,514,12184609627,/g3t1_2,,running
Status,515,12184687510,/g3t1_3,,running
Status,516,12184771703,/g3t1_2,,success
Status,517,12185395465,/g3t1_3,,success
Status,518,12185437177,/g3t1_1,,running
Status,519,12185493547,/g3t1_1,,success
Status,520,12224310734,/g4t1,,fail
Status,521,12234914029,/g3t1_2,,running
Status,522,12235047300,/g3t1_3,,running
Status,523,12235747621,/g3t1_2,,success
Status,524,12235813972,/g3t1_3,,success
Status,525,12235911389,/g3t1_1,,running
Status,526,12236307912,/g3t1_1,,success
Status,527,12285062797,/g3t1_2,,running
Status,528,12285678285,/g3t1_3,,running
Status,529,12285752556,/g3t1_2,,success
Status,530,12285912587,/g3t1_3,,success
Status,531,12285947200,/g3t1_1,,running
Status,532,12286567360,/g3t1_1,,success
Status,533,12324901320,/g4t1,,fail
Status,534,12335049832,/g3t1_2,,running
Status,535,12335400076,/g3t1_3,,running
Status,536,12335863425,/g3t1_2,,success
Status,537,12335944243,/g3t1_3,,success
Status,538,12336508358,/g3t1_1,,running
Status,539,12336760786,/g3t1_1,,success
Status,543,12385574012,/g3t1_2,,running
Status,544,12385759680,/g3t1_3,,running
Status,545,12385801952,/g3t1_3,,success
Status,546,12385902671,/g3t1_2,,success
Status,547,12386012595,/g3t1_1,,running
Status,548,12386817116,/g3t1_1,,success
Status,549,12424366552,/g4t1,,fail
Status,550,12435610493,/g3t1_2,,running
Status,551,12435798464,/g3t1_3,,running
Status,552,12435945095,/g3t1_3,,success
Status,553,12436476560,/g3t1_2,,success
Status,554,12436611850,/g3t1_1,,running
Status,555,12437307604,/g3t1_1,,success
Status,556,12485584152,/g3t1_2,,running
Status,557,12485699133,/g3t1_3,,running
Status,558,12486175581,/g3t1_2,,success
Status,559,12486221157,/g3t1_3,,success
Status,560,12486419150,/g3t1_1,,running
Status,561,12487302894,/g3t1_1,,success
Status,562,12524449477,/g4t1,,fail
Status,563,12535935564,/g3t1_3,,running
Status,564,12536171374,/g3t1_2,,running
Status,565,12536362426,/g3t1_2,,success
Status,566,12536484180,/g3t1_1,,running
Status,567,12536632431,/g3t1_3,,success
Status,568,12538187605,/g3t1_1,,success
Status,572,12585250387,/g3t1_2,,running
Status,573,12585279793,/g3t1_3,,running
Status,574,12585317352,/g3t1_2,,success
Status,575,12585329501,/g3t1_3,,success
Status,576,12585885887,/g3t1_1,,running
Status,577,12585986304,/g3t1_1,,success
Status,578,12623669908,/g4t1,,fail
Status,579,12635402326,/g3t1_2,,running
Status,580,12635424237,/g3t1_3,,running
Status,581,12635432413,/g3t1_2,,success
Status,582,12635440407,/g3t1_3,,success
Status,583,12635999621,/g3t1_1,,running
Status,584,12636375428,/g3t1_1,,success
Status,585,12686083200,/g3t1_3,,running
Status,586,12686173947,/g3t1_2,,running
Status,587,12686261530,/g3t1_2,,success
Status,588,12686298251,/g3t1_3,,success
Status,589,12686759625,/g3t1_1,,running
Status,590,12687128513,/g3t1_1,,success
Status,591,12724985295,/g4t1,,fail
Status,592,12736410370,/g3t1_2,,running
Status,593,12736543346,/g3t1_3,,running
Status,594,12736974528,/g3t1_2,,success
Status,595,12737183130,/g3t1_1,,running
Status,596,12737246505,/g3t1_3,,success
Status,597,12738218423,/g3t1_1,,success
Status,601,12786158240,/g3t1_2,,running
Status,602,12786241410,/g3t1_3,,running
Status,603,12786724656,/g3t1_2,,success
Status,604,12787362751,/g3t1_3,,success
Status,605,12787448096,/g3t1_1,,running
Status,606,12787538688,/g3t1_1,,success
Status,607,12824901001,/g4t1,,fail
Status,608,12837193248,/g3t1_2,,running
Status,609,12837301034,/g3t1_3,,running
Status,610,12837423327,/g3t1_3,,success
Status,611,12837466829,/g3t1_2,,success
Status,612,12837929450,/g3t1_1,,running
Status,613,12838043365,/g3t1_1,,success
Status,614,12886625445,/g3t1_2,,running
Status,615,12886743181,/g3t1_3,,running
Status,616,12887246730,/g3t1_3,,success
Status,617,12887325393,/g3t1_2,,success
Status,618,12887369576,/g3t1_1,,running
Status,619,12888230736,/g3t1_1,,success
Status,620,12924275410,/g4t1,,fail
Status,621,12937000121,/g3t1_3,,running
Status,622,12937131181,/g3t1_2,,running
Status,623,12937174007,/g3t1_2,,success
Status,624,12937275610,/g3t1_3,,success
Status,625,12937444425,/g3t1_1,,running
Status,626,12937707123,/g3t1_1,,fail
Status,630,12987000269,/g3t1_3,,running
Status,631,12987105858,/g3t1_2,,running
Status,632,12987138215,/g3t1_2,,success
Status,633,12987172370,/g3t1_3,,success
Status,634,12988021211,/g3t1_1,,running
Status,635,12988265587,/g3t1_1,,success
Status,636,13025009942,/g4t1,,fail
Status,637,13037368131,/g3t1_2,,running
Status,638,13037502317,/g3t1_3,,running
Status,639,13037808951,/g3t1_3,,success
Status,640,13037957527,/g3t1_2,,success
Status,641,13038009261,/g3t1_1,,running
Status,642,13038461308,/g3t1_1,,success
Status,643,13087466204,/g3t1_3,,running
Status,644,13088441090,/g3t1_2,,running
Status,645,13088514424,/g3t1_3,,success
Status,646,13088552691,/g3t1_2,,success
Status,647,13088765406,/g3t1_1,,running
Status,648,13088800573,/g3t1_1,,success
Status,649,13125133625,/g4t1,,fail
Status,650,13137261096,/g3t1_3,,running
Status,651,13137350744,/g3t1_2,,running
Status,652,13137983822,/g3t1_3,,success
Status,653,13138063848,/g3t1_2,,success
Status,654,13138100624,/g3t1_1,,running
Status,655,13138880854,/g3t1_1,,success
Status,659,13186881128,/g3t1_2,,running
Status,660,13186905607,/g3t1_3,,running
Status,661,13186913605,/g3t1_2,,success
Status,662,13186921001,/g3t1_3,,success
Status,663,13187655061,/g3t1_1,,running
Status,664,13187821499,/g3t1_1,,success
Status,665,13225279499,/g4t1,,fail
Status,666,13238065660,/g3t1_2,,running
Status,667,13238190678,/g3t1_3,,running
Status,668,13238881994,/g3t1_2,,success
Status,669,13238954005,/g3t1_3,,success
Status,670,13238989155,/g3t1_1,,running
Status,671,13239027501,/g3t1_1,,success
Status,672,13287597973,/g3t1_2,,running
Status,673,13287743466,/g3t1_3,,running
Status,674,13288318633,/g3t1_2,,success
Status,675,13288396360,/g3t1_1,,running
Status,676,13289114608,/g3t1_3,,success
Status,677,13289168275,/g3t1_1,,fail
Status,678,13325382215,/g4t1,,fail
Status,679,13338258783,/g3t1_2,,running
Status,680,13338375873,/g3t1_3,,running
Status,681,13338921517,/g3t1_2,,success
Status,682,13338978271,/g3t1_3,,success
Status,683,13339075060,/g3t1_1,,running
Status,684,13339513893,/g3t1_1,,success
Status,688,13388248811,/g3t1_2,,running
Status,689,13388363101,/g3t1_3,,running
Status,690,13388503922,/g3t1_2,,success
Status,691,13388544478,/g3t1_3,,success
Status,692,13388575966,/g3t1_1,,running
Status,693,13389408977,/g3t1_1,,success
Status,694,13425408713,/g4t1,,fail
Status,695,13438229616,/g3t1_3,,running
Status,696,13438399305,/g3t1_2,,running
Status,697,13438771033,/g3t1_2,,success
Status,698,13439165547,/g3t1_1,,running
Status,699,13439290921,/g3t1_3,,success
Status,700,13439606441,/g3t1_1,,success
Status,701,13488300106,/g3t1_2,,running
Status,702,13488594314,/g3t1_3,,running
Status,703,13488802028,/g3t1_2,,success
Status,704,13488950691,/g3t1_1,,running
Status,705,13489045762,/g3t1_3,,success
Status,706,13489400852,/g3t1_1,,success
Status,707,13526662309,/g4t1,,fail
Status,708,13538706257,/g3t1_2,,running
Status,709,13539032936,/g3t1_3,,running
Status,710,13539088528,/g3t1_3,,success
Status,711,13539126243,/g3t1_2,,success
Status,712,13539227694,/g3t1_1,,running
Status,713,13539609413,/g3t1_1,,success
Status,717,13588627783,/g3t1_2,,running
Status,718,13588722835,/g3t1_3,,running
Status,719,13589342109,/g3t1_3,,success
Status,720,13589421489,/g3t1_2,,success
Status,721,13589516573,/g3t1_1,,running
Status,722,13589871659,/g3t1_1,,success
Status,723,13624989151,/g4t1,,fail
Status,724,13638069980,/g3t1_2,,running
Status,725,13638322552,/g3t1_3,,running
Status,726,13638374966,/g3t1_2,,success
Status,727,13638433185,/g3t1_3,,success
Status,728,13638880041,/g3t1_1,,running
Status,729,13638918341,/g3t1_1,,fail
Status,730,13688632936,/g3t1_2,,running
Status,731,13688726673,/g3t1_3,,running
Status,732,13689325622,/g3t1_2,,success
Status,733,13689409915,/g3t1_3,,success
Status,734,13689527738,/g3t1_1,,running
Status,735,13689847426,/g3t1_1,,success
Status,736,13725792119,/g4t1,,fail
Status,737,13739053501,/g3t1_2,,running
Status,738,13739132578,/g3t1_3,,running
Status,739,13739195010,/g3t1_2,,success
Status,740,13739309365,/g3t1_3,,success
Status,741,13739343553,/g3t1_1,,running
Status,742,13739856089,/g3t1_1,,success
Status,746,13789609241,/g3t1_2,,running
Status,747,13789729334,/g3t1_3,,running
Status,748,13789805038,/g3t1_2,,success
Status,749,13789828138,/g3t1_3,,success
Status,750,13789849601,/g3t1_1,,running
Status,751,13789872587,/g3t1_1,,fail
Status,752,13825870844,/g4t1,,fail
Status,753,13839207870,/g3t1_3,,running
Status,754,13839918454,/g3t1_2,,running
Status,755,13840029569,/g3t1_3,,success
Status,756,13840192606,/g3t1_1,,running
Status,757,13840226739,/g3t1_2,,success
Status,758,13840248939,/g3t1_1,,success
Status,759,13889219422,/g3t1_2,,running
Status,760,13889317480,/g3t1_3,,running
Status,761,13889919622,/g3t1_2,,success
Status,762,13889983669,/g3t1_1,,running
Status,763,13890017581,/g3t1_3,,success
Status,764,13890114141,/g3t1_1,,success
Status,765,13926020849,/g4t1,,fail
Status,766,13939742398,/g3t1_2,,running
Status,767,13939843142,/g3t1_3,,running
Status,768,13939886684,/g3t1_2,,success
Status,769,13940033341,/g3t1_3,,success
Status,770,13940570782,/g3t1_1,,running
Status,771,13940641924,/g3t1_1,,success
Status,775,13989357544,/g3t1_2,,running
Status,776,13989480600,/g3t1_3,,running
Status,777,13990272660,/g3t1_2,,success
Status,778,13990364653,/g3t1_3,,success
Status,779,13990462957,/g3t1_1,,running
Status,780,13990856870,/g3t1_1,,success
Status,781,14025734661,/g4t1,,fail
Status,782,14039304029,/g3t1_3,,running
Status,783,14039374596,/g3t1_2,,running
Status,784,14039887983,/g3t1_3,,success
Status,785,14039943505,/g3t1_2,,success
Status,786,14039969770,/g3t1_1,,running
Status,787,14040834714,/g3t1_1,,success
Status,788,14089660804,/g3t1_2,,running
Status,789,14089743259,/g3t1_3,,running
Status,790,14089784555,/g3t1_2,,success
Status,791,14090181413,/g3t1_3,,success
Status,792,14090766283,/g3t1_1,,running
Status,793,14091185351,/g3t1_1,,success
Status,794,14125964847,/g4t1,,fail
Status,795,14139880404,/g3t1_2,,running
Status,796,14140363884,/g3t1_3,,running
Status,797,14141009737,/g3t1_1,,running
Status,798,14141124339,/g3t1_2,,success
Status,799,14141162155,/g3t1_3,,success
Status,800,14141419073,/g3t1_1,,success
Status,804,14189227610,/g3t1_2,,running
Status,805,14189306759,/g3t1_3,,running
Status,806,14189342587,/g3t1_2,,success
Status,807,14189503432,/g3t1_3,,success
Status,808,14190145840,/g3t1_1,,running
Status,809,14190334167,/g3t1_1,,success
Status,810,14225764957,/g4t1,,fail
Status,811,14239485654,/g3t1_2,,running
Status,812,14239844743,/g3t1_3,,running
Status,813,14239882463,/g3t1_2,,success
Status,814,14239901575,/g3t1_3,,success
Status,815,14240414875,/g3t1_1,,running
Status,816,14240589483,/g3t1_1,,success
Status,817,14290338799,/g3t1_2,,running
Status,818,14290470751,/g3t1_3,,running
Status,819,14290902862,/g3t1_2,,success
Status,820,14291766296,/g3t1_1,,running
Status,821,14291836126,/g3t1_3,,success
Status,822,14292000135,/g3t1_1,,success
Status,823,14326623612,/g4t1,,fail
Status,824,14340308381,/g3t1_2,,running
Status,825,14341491160,/g3t1_3,,running
Status,826,14341544888,/g3t1_2,,success
Status,827,14341572497,/g3t1_3,,success
Status,828,14341644181,/g3t1_1,,running
Status,829,14341667081,/g3t1_1,,fail
Status,833,14390685069,/g3t1_2,,running
Status,834,14390758611,/g3t1_3,,running
Status,835,14390941404,/g3t1_2,,success
Status,836,14391293019,/g3t1_3,,success
Status,837,14391807594,/g3t1_1,,running
Status,838,14392580979,/g3t1_1,,success
Status,839,14426708691,/g4t1,,fail
Status,840,14440819722,/g3t1_2,,running
Status,841,14440931019,/g3t1_3,,running
Status,842,14441042399,/g3t1_3,,success
Status,843,14441825575,/g3t1_2,,success
Status,844,14441889658,/g3t1_1,,running
Status,845,14442361507,/g3t1_1,,success
Status,846,14491318108,/g3t1_2,,running
Status,847,14491399625,/g3t1_3,,running
Status,848,14491524234,/g3t1_3,,success
Status,849,14492473374,/g3t1_2,,success
Status,850,14492542462,/g3t1_1,,running
Status,851,14492634165,/g3t1_1,,success
Status,852,14526859937,/g4t1,,fail
Status,853,14541452376,/g3t1_2,,running
Status,854,14541975832,/g3t1_3,,running
Status,855,14542051077,/g3t1_3,,success
Status,856,14542564075,/g3t1_2,,success
Status,857,14542670749,/g3t1_1,,running
Status,858,14542707190,/g3t1_1,,success
Status,862,14591493141,/g3t1_2,,running
Status,863,14591580516,/g3t1_3,,running
Status,864,14592339997,/g3t1_2,,success
Status,865,14592456668,/g3t1_1,,running
Status,866,14592501146,/g3t1_1,,success
Status,867,14592537827,/g3t1_3,,success
Status,868,14626992118,/g4t1,,fail
Status,869,14641719405,/g3t1_3,,running
Status,870,14641940404,/g3t1_2,,running
Status,871,14642168573,/g3t1_2,,success
Status,872,14642217585,/g3t1_1,,running
Status,873,14642248924,/g3t1_3,,success
Status,874,14642712138,/g3t1_1,,success
Status,875,14691390884,/g3t1_2,,running
Status,876,14691459484,/g3t1_3,,running
Status,877,14692482142,/g3t1_2,,success
Status,878,14692569694,/g3t1_3,,success
Status,879,14692676445,/g3t1_1,,running
Status,880,14693218701,/g3t1_1,,success
Status,881,14726970452,/g4t1,,fail
Status,882,14741726620,/g3t1_2,,running
Status,883,14741818188,/g3t1_3,,running
Status,884,14742071776,/g3t1_2,,success
Status,885,14742220790,/g3t1_3,,success
Status,886,14742552875,/g3t1_1,,running
Status,887,14743028170,/g3t1_1,,success
Status,891,14791944340,/g3t1_3,,running
Status,892,14792046408,/g3t1_2,,running
Status,893,14792399500,/g3t1_3,,success
Status,894,14792515510,/g3t1_2,,success
Status,895,14792556840,/g3t1_1,,running
Status,896,14793090803,/g3t1_1,,success
Status,897,14827170796,/g4t1,,fail
Status,898,14841770872,/g3t1_2,,running
Status,899,14841885594,/g3t1_3,,running
Status,900,14842771142,/g3t1_3,,success
Status,901,14842850965,/g3t1_1,,running
Status,902,14842998707,/g3t1_2,,success
Status,903,14843481874,/g3t1_1,,success
Status,904,14892346165,/g3t1_3,,running
Status,905,14892438790,/g3t1_2,,running
Status,906,14892581404,/g3t1_3,,success
Status,907,14893078800,/g3t1_2,,success
Status,908,14893538756,/g3t1_1,,running
Status,909,14893628006,/g3t1_1,,success
Status,910,14927218973,/g4t1,,fail
Status,911,14942125706,/g3t1_2,,running
Status,912,14942339212,/g3t1_3,,running
Status,913,14942984856,/g3t1_3,,success
Status,914,14943053977,/g3t1_2,,success
Status,915,14943173486,/g3t1_1,,running
Status,916,14943538126,/g3t1_1,,success
Status,920,14992356879,/g3t1_3,,running
Status,921,14992481109,/g3t1_2,,running
Status,922,14992996737,/g3t1_3,,success
Status,923,14993186610,/g3t1_2,,success
Status,924,14993238629,/g3t1_1,,running
Status,925,14993751306,/g3t1_1,,success
Status,926,15027263972,/g4t1,,fail
Status,927,15042530835,/g3t1_3,,running
Status,928,15042630292,/g3t1_2,,running
Status,929,15042768585,/g3t1_2,,fail
Status,930,15043077262,/g3t1_3,,success
Status,931,15043141170,/g3t1_1,,running
Status,932,15043579599,/g3t1_1,,success
Status,933,15092639057,/g3t1_2,,running
Status,934,15093034333,/g3t1_3,,running
Status,935,15093523189,/g3t1_1,,running
Status,936,15093597173,/g3t1_3,,success
Status,937,15093632610,/g3t1_2,,success
Status,938,15094734083,/g3t1_1,,success
Status,939,15127399403,/g4t1,,fail
Status,940,15143068384,/g3t1_2,,running
Status,941,15143430252,/g3t1_3,,running
Status,942,15143478770,/g3t1_1,,running
Status,943,15144038716,/g3t1_3,,success
Status,944,15144204599,/g3t1_1,,success
Status,945,15144687791,/g3t1_2,,success
Status,949,15193057528,/g3t1_3,,running
Status,950,15193160482,/g3t1_2,,running
Status,951,15193743633,/g3t1_3,,success
Status,952,15193822040,/g3t1_1,,running
Status,953,15193901631,/g3t1_2,,success
Status,954,15194357706,/g3t1_1,,fail
Status,955,15227526197,/g4t1,,fail
Status,956,15243276972,/g3t1_2,,running
Status,957,15243394714,/g3t1_3,,running
Status,958,15243520767,/g3t1_3,,success
Status,959,15243676825,/g3t1_2,,success
Status,960,15243772395,/g3t1_1,,running
Status,961,15244020695,/g3t1_1,,fail
Status,962,15293088200,/g3t1_2,,running
Status,963,15293182087,/g3t1_3,,running
Status,964,15293684465,/g3t1_3,,success
Status,965,15293754128,/g3t1_1,,running
Status,966,15293886944,/g3t1_2,,success
Status,967,15294357762,/g3t1_1,,success
Status,968,15327319394,/g4t1,,fail
Status,969,15344098026,/g3t1_3,,running
Status,970,15344216855,/g3t1_3,,success
Status,971,15344285558,/g3t1_2,,running
Status,972,15344308627,/g3t1_2,,success
Status,973,15344331127,/g3t1_1,,running
Status,974,15344818830,/g3t1_1,,success
Status,978,15393377538,/g3t1_2,,running
Status,979,15393540597,/g3t1_3,,running
Status,980,15394319877,/g3t1_2,,success
Status,981,15394425008,/g3t1_1,,running
Status,982,15394464574,/g3t1_3,,success
Status,983,15394752177,/g3t1_1,,success
Status,984,15427581412,/g4t1,,fail
Status,985,15444113579,/g3t1_3,,running
Status,986,15444256965,/g3t1_2,,running
Status,987,15444287126,/g3t1_2,,success
Status,988,15444338601,/g3t1_3,,success
Status,989,15444724846,/g3t1_1,,running
Status,990,15445454529,/g3t1_1,,success
Status,991,15494010485,/g3t1_3,,running
Status,992,15494104557,/g3t1_2,,running
Status,993,15494402553,/g3t1_1,,running
Status,994,15494501587,/g3t1_3,,success
Status,995,15494625340,/g3t1_2,,success
Status,996,15494655173,/g3t1_1,,success
Status,997,15527831784,/g4t1,,fail
Status,998,15544721085,/g3t1_3,,running
Status,999,15544785519,/g3t1_2,,running
Status,1000,15544809508,/g3t1_3,,success
Status,1001,15544831527,/g3t1_2,,success
Status,1002,15544854485,/g3t1_1,,running
Status,1003,15545035037,/g3t1_1,,fail
Status,1007,15594072672,/g3t1_2,,running
Status,1008,15595262792,/g3t1_3,,running
Status,1009,15595314513,/g3t1_3,,success
Status,1010,15595390026,/g3t1_1,,running
Status,1011,15595416869,/g3t1_1,,success
Status,1012,15595447150,/g3t1_2,,success
Status,1013,15627905564,/g4t1,,fail
Status,1014,15644888672,/g3t1_2,,running
Status,1015,15644950443,/g3t1_3,,running
Status,1016,15645035260,/g3t1_2,,success
Status,1017,15645065470,/g3t1_1,,running
Status,1018,15645092686,/g3t1_1,,fail
Status,1019,15645393368,/g3t1_3,,success
Status,1020,15694604880,/g3t1_2,,running
Status,1021,15694799485,/g3t1_3,,running
Status,1022,15695159423,/g3t1_2,,success
Status,1023,15695203419,/g3t1_3,,success
Status,1024,15695316224,/g3t1_1,,running
Status,1025,15695510793,/g3t1_1,,fail
Status,1026,15728028280,/g4t1,,fail
Status,1027,15744582782,/g3t1_2,,running
Status,1028,15744686463,/g3t1_3,,running
Status,1029,15744731191,/g3t1_3,,success
Status,1030,15745142851,/g3t1_1,,running
Status,1031,15745310615,/g3t1_2,,success
Status,1032,15745761038,/g3t1_1,,success
Status,1036,15794921829,/g3t1_2,,running
Status,1037,15795011162,/g3t1_3,,running
Status,1038,15795382582,/g3t1_2,,success
Status,1039,15795507343,/g3t1_1,,running
Status,1040,15795924197,/g3t1_1,,success
Status,1041,15795986938,/g3t1_3,,success
Status,1042,15827318002,/g4t1,,fail
Status,1043,15843978536,/g3t1_2,,running
Status,1044,15844012905,/g3t1_3,,running
Status,1045,15844091273,/g3t1_3,,success
Status,1046,15844111019,/g3t1_2,,success
Status,1047,15844609250,/g3t1_1,,running
Status,1048,15844627094,/g3t1_1,,success
Status,1049,15895310073,/g3t1_3,,running
Status,1050,15895433625,/g3t1_2,,running
Status,1051,15895481279,/g3t1_1,,running
Status,1052,15896073597,/g3t1_3,,success
Status,1053,15896208528,/g3t1_1,,success
Status,1054,15896412391,/g3t1_2,,success
Status,1055,15928007810,/g4t1,,fail
Status,1056,15944863232,/g3t1_3,,running
Status,1057,15944985873,/g3t1_2,,running
Status,1058,15945455933,/g3t1_2,,success
Status,1059,15945590476,/g3t1_1,,running
Status,1060,15946125416,/g3t1_3,,success
Status,1061,15946579520,/g3t1_1,,success
Status,1065,15995352652,/g3t1_2,,running
Status,1066,15995898457,/g3t1_3,,running
Status,1067,15995992311,/g3t1_3,,success
Status,1068,15996252882,/g3t1_1,,running
Status,1069,15996336884,/g3t1_1,,success
Status,1070,15996375247,/g3t1_2,,success
Status,1071,16028449545,/g4t1,,fail
Status,1072,16045284706,/g3t1_2,,running
Status,1073,16045374152,/g3t1_3,,running
Status,1074,16045414938,/g3t1_2,,success
Status,1075,16045923906,/g3t1_3,,success
Status,1076,16046004810,/g3t1_1,,running
Status,1077,16046434737,/g3t1_1,,success
Status,1078,16094637993,/g3t1_2,,running
Status,1079,16094722456,/g3t1_3,,running
Status,1080,16094935378,/g3t1_2,,success
Status,1081,16094994287,/g3t1_3,,success
Status,1082,16095328374,/g3t1_1,,running
Status,1083,16095583942,/g3t1_1,,success
Status,1084,16127883454,/g4t1,,fail
Status,1085,16145001980,/g3t1_2,,running
Status,1086,16145065796,/g3t1_3,,running
Status,1087,16145350871,/g3t1_2,,success
Status,1088,16145406229,/g3t1_3,,success
Status,1089,16145432340,/g3t1_1,,running
Status,1090,16145831182,/g3t1_1,,success
Status,1094,16195683775,/g3t1_3,,running
Status,1095,16195853417,/g3t1_2,,running
Status,1096,16195891039,/g3t1_2,,success
Status,1097,16195923637,/g3t1_3,,success
Status,1098,16196134180,/g3t1_1,,running
Status,1099,16196418045,/g3t1_1,,fail
Status,1100,16228218879,/g4t1,,fail
Status,1101,16245667154,/g3t1_2,,running
Status,1102,16245773362,/g3t1_3,,running
Status,1103,16246419295,/g3t1_2,,fail
Status,1104,16246803404,/g3t1_3,,success
Status,1105,16246859020,/g3t1_1,,running
Status,1106,16246986200,/g3t1_1,,success
Status,1107,16295888274,/g3t1_3,,running
Status,1108,16296018575,/g3t1_2,,running
Status,1109,16296752398,/g3t1_3,,success
Status,1110,16296835353,/g3t1_1,,running
Status,1111,16297371823,/g3t1_2,,success
Status,1112,16297736328,/g3t1_1,,success
Status,1113,16328867968,/g4t1,,fail
Status,1114,16346105144,/g3t1_3,,running
Status,1115,16346196494,/g3t1_2,,running
Status,1116,16346720352,/g3t1_2,,success
Status,1117,16346851104,/g3t1_3,,success
Status,1118,16347210796,/g3t1_1,,running
Status,1119,16347324393,/g3t1_1,,success
Status,1123,16395869204,/g3t1_3,,running
Status,1124,16395939666,/g3t1_2,,running
Status,1125,16396678479,/g3t1_2,,success
Status,1126,16396813327,/g3t1_3,,success
Status,1127,16396844476,/g3t1_1,,running
Status,1128,16397327117,/g3t1_1,,success
Status,1129,16429013124,/g4t1,,fail
Status,1130,16445585293,/g3t1_2,,running
Status,1131,16445627268,/g3t1_3,,running
Status,1132,16445641790,/g3t1_2,,success
Status,1133,16445663838,/g3t1_3,,success
Status,1134,16446421624,/g3t1_1,,running
Status,1135,16446960562,/g3t1_1,,success
Status,1136,16495642620,/g3t1_2,,running
Status,1137,16495671298,/g3t1_3,,running
Status,1138,16495747924,/g3t1_2,,success
Status,1139,16495771767,/g3t1_3,,success
Status,1140,16496303477,/g3t1_1,,running
Status,1141,16496336014,/g3t1_1,,fail
Status,1142,16528593291,/g4t1,,fail
Status,1143,16546470679,/g3t1_2,,running
Status,1144,16546570074,/g3t1_3,,running
Status,1145,16547121712,/g3t1_2,,success
Status,1146,16548037363,/g3t1_3,,success
Status,1147,16548149472,/g3t1_1,,running
Status,1148,16548279590,/g3t1_1,,success
Status,1152,16596500723,/g3t1_3,,running
Status,1153,16596647333,/g3t1_2,,running
Status,1154,16597525117,/g3t1_3,,success
Status,1155,16597594238,/g3t1_2,,success
Status,1156,16597683315,/g3t1_1,,running
Status,1157,16597721139,/g3t1_1,,success
Status,1158,16629121183,/g4t1,,fail
Status,1159,16647126746,/g3t1_2,,running
Status,1160,16647203250,/g3t1_3,,running
Status,1161,16647248557,/g3t1_3,,success
Status,1162,16647434196,/g3t1_1,,running
Status,1163,16647471346,/g3t1_2,,success
Status,1164,16648467322,/g3t1_1,,success
Status,1165,16696819556,/g3t1_3,,running
Status,1166,16696992980,/g3t1_2,,running
Status,1167,16697352804,/g3t1_2,,success
Status,1168,16697423771,/g3t1_3,,success
Status,1169,16697467088,/g3t1_1,,running
Status,1170,16697930230,/g3t1_1,,success
Status,1171,16729141335,/g4t1,,fail
Status,1172,16747045860,/g3t1_3,,running
Status,1173,16747139893,/g3t1_2,,running
Status,1174,16747818726,/g3t1_3,,success
Status,1175,16747921590,/g3t1_2,,success
Status,1176,16748022109,/g3t1_1,,running
Status,1177,16748940412,/g3t1_1,,success
Status,1181,16796840332,/g3t1_3,,running
Status,1182,16796927571,/g3t1_2,,running
Status,1183,16797633671,/g3t1_3,,success
Status,1184,16797853631,/g3t1_1,,running
Status,1185,16797901877,/g3t1_2,,success
Status,1186,16798268838,/g3t1_1,,fail
Status,1187,16829296053,/g4t1,,fail
Status,1188,16847091725,/g3t1_3,,running
Status,1189,16848443685,/g3t1_2,,running
Status,1190,16848564320,/g3t1_2,,success
Status,1191,16848602669,/g3t1_3,,success
Status,1192,16848998277,/g3t1_1,,running
Status,1193,16849480758,/g3t1_1,,success
Status,1194,16896749433,/g3t1_3,,running
Status,1195,16896797107,/g3t1_3,,success
Status,1196,16896856412,/g3t1_2,,running
Status,1197,16897125462,/g3t1_2,,success
Status,1198,16897768958,/g3t1_1,,running
Status,1199,16897820218,/g3t1_1,,fail
Status,1200,16928892364,/g4t1,,fail
Status,1201,16946407998,/g3t1_3,,running
Status,1202,16946576149,/g3t1_2,,running
Status,1203,16946607500,/g3t1_3,,success
Status,1204,16946640601,/g3t1_2,,success
Status,1205,16948173759,/g3t1_1,,running
Status,1206,16948199633,/g3t1_1,,success
Status,1210,16996469751,/g3t1_3,,running
Status,1211,16996509316,/g3t1_2,,running
Status,1212,16996654486,/g3t1_2,,success
Status,1213,16996686156,/g3t1_3,,success
Status,1214,16997399762,/g3t1_1,,running
Status,1215,16997546167,/g3t1_1,,success
Status,1216,17028627576,/g4t1,,fail
Status,1217,17046545873,/g3t1_3,,running
Status,1218,17046592325,/g3t1_2,,running
Status,1219,17046961901,/g3t1_3,,success
Status,1220,17047141933,/g3t1_2,,success
Status,1221,17048002819,/g3t1_1,,running
Status,1222,17048048831,/g3t1_1,,success
Status,1223,17096683119,/g3t1_3,,running
Status,1224,17096716793,/g3t1_2,,running
Status,1225,17096730592,/g3t1_2,,success
Status,1226,17096742784,/g3t1_3,,success
Status,1227,17097924986,/g3t1_1,,running
Status,1228,17098568251,/g3t1_1,,success
Status,1229,17128807083,/g4t1,,fail
Status,1230,17146769503,/g3t1_3,,running
Status,1231,17146816672,/g3t1_2,,running
Status,1232,17146826430,/g3t1_3,,success
Status,1233,17147107740,/g3t1_2,,success
Status,1234,17148075918,/g3t1_1,,running
Status,1235,17148188223,/g3t1_1,,success
Status,1239,17196884962,/g3t1_3,,running
Status,1240,17196912298,/g3t1_2,,running
Status,1241,17196932524,/g3t1_2,,success
Status,1242,17196945964,/g3t1_3,,success
Status,1243,17198368363,/g3t1_1,,running
Status,1244,17198405809,/g3t1_1,,success
Status,1245,17228926197,/g4t1,,fail
Status,1246,17246903924,/g3t1_3,,running
Status,1247,17246936413,/g3t1_2,,running
Status,1248,17246986974,/g3t1_2,,fail
Status,1249,17247001075,/g3t1_3,,success
Status,1250,17248137136,/g3t1_1,,running
Status,1251,17248280420,/g3t1_1,,success
Status,1252,17297005190,/g3t1_3,,running
Status,1253,17297043787,/g3t1_2,,running
Status,1254,17297184901,/g3t1_2,,success
Status,1255,17297266325,/g3t1_3,,success
Status,1256,17297992087,/g3t1_1,,running
Status,1257,17298105777,/g3t1_1,,fail
Status,1258,17329025886,/g4t1,,fail
Status,1259,17347089613,/g3t1_3,,running
Status,1260,17347128890,/g3t1_2,,running
Status,1261,17347169908,/g3t1_3,,success
Status,1262,17347500365,/g3t1_2,,success
Status,1263,17348285939,/g3t1_1,,running
Status,1264,17348639466,/g3t1_1,,success
Status,1268,17397334172,/g3t1_3,,running
Status,1269,17397392725,/g3t1_2,,running
Status,1270,17397491491,/g3t1_2,,success
Status,1271,17398056076,/g3t1_3,,success
Status,1272,17398443760,/g3t1_1,,running
Status,1273,17398466713,/g3t1_1,,fail
Status,1274,17429120293,/g4t1,,fail
Status,1275,17447533097,/g3t1_2,,running
Status,1276,17447608268,/g3t1_3,,running
Status,1277,17447630676,/g3t1_3,,success
Status,1278,17447646698,/g3t1_2,,success
Status,1279,17448385672,/g3t1_1,,running
Status,1280,17448558706,/g3t1_1,,success
Status,1281,17497333954,/g3t1_3,,running
Status,1282,17497397388,/g3t1_3,,success
Status,1283,17497855196,/g3t1_2,,running
Status,1284,17497874258,/g3t1_2,,success
Status,1285,17498595435,/g3t1_1,,running
Status,1286,17498692110,/g3t1_1,,success
Status,1287,17529103799,/g4t1,,fail
Status,1288,17547563961,/g3t1_3,,running
Status,1289,17547623904,/g3t1_2,,running
Status,1290,17547657033,/g3t1_3,,success
Status,1291,17547749207,/g3t1_2,,success
Status,1292,17548471891,/g3t1_1,,running
Status,1293,17548526428,/g3t1_1,,success
Status,1297,17597839067,/g3t1_3,,running
Status,1298,17597902721,/g3t1_2,,running
Status,1299,17598562775,/g3t1_2,,success
Status,1300,17598603776,/g3t1_3,,success
Status,1301,17598725894,/g3t1_1,,running
Status,1302,17598845588,/g3t1_1,,success
Status,1303,17629945392,/g4t1,,fail
Status,1304,17648829701,/g3t1_3,,running
Status,1305,17648916749,/g3t1_2,,running
Status,1306,17649079666,/g3t1_3,,success
Status,1307,17649117417,/g3t1_2,,success
Status,1308,17649154952,/g3t1_1,,running
Status,1309,17650313906,/g3t1_1,,success
Status,1310,17698367280,/g3t1_3,,running
Status,1311,17698504965,/g3t1_2,,running
Status,1312,17699904258,/g3t1_2,,success
Status,1313,17700042170,/g3t1_3,,success
Status,1314,17700101487,/g3t1_1,,running
Status,1315,17700679837,/g3t1_1,,success
Status,1316,17730207451,/g4t1,,fail
Status,1317,17748603770,/g3t1_3,,running
Status,1318,17748707194,/g3t1_2,,running
Status,1319,17749790497,/g3t1_2,,success
Status,1320,17749875967,/g3t1_3,,success
Status,1321,17750256761,/g3t1_1,,running
Status,1322,17750396490,/g3t1_1,,success
Status,1326,17798014445,/g3t1_3,,running
Status,1327,17798063837,/g3t1_2,,running
Status,1328,17798269631,/g3t1_3,,success
Status,1329,17798294145,/g3t1_2,,success
Status,1330,17799100808,/g3t1_1,,running
Status,1331,17799188210,/g3t1_1,,success
Status,1332,17829584587,/g4t1,,fail
Status,1333,17847870450,/g3t1_3,,running
Status,1334,17847907075,/g3t1_2,,running
Status,1335,17848187525,/g3t1_3,,success
Status,1336,17848243983,/g3t1_2,,success
Status,1337,17849284818,/g3t1_1,,running
Status,1338,17849428904,/g3t1_1,,fail
Status,1339,17898811534,/g3t1_3,,running
Status,1340,17898894762,/g3t1_2,,running
Status,1341,17898931709,/g3t1_2,,success
Status,1342,17900211714,/g3t1_3,,success
Status,1343,17900300294,/g3t1_1,,running
Status,1344,17900823654,/g3t1_1,,success
Status,1345,17930474172,/g4t1,,fail
Status,1346,17949014779,/g3t1_3,,running
Status,1347,17949117666,/g3t1_2,,running
Status,1348,17949419225,/g3t1_3,,success
Status,1349,17949609789,/g3t1_2,,success
Status,1350,17950689539,/g3t1_1,,running
Status,1351,17950807085,/g3t1_1,,fail
Status,1355,17999005107,/g3t1_3,,running
Status,1356,17999049250,/g3t1_2,,running
Status,1357,17999078023,/g3t1_2,,success
Status,1358,17999091226,/g3t1_3,,success
Status,1359,17999441035,/g3t1_1,,running
Status,1360,17999555003,/g3t1_1,,fail
Status,1361,18029775831,/g4t1,,fail
Status,1362,18048451211,/g3t1_3,,running
Status,1363,18048489267,/g3t1_2,,running
Status,1364,18048731785,/g3t1_2,,success
Status,1365,18048756076,/g3t1_3,,success
Status,1366,18049483049,/g3t1_1,,running
Status,1367,18049749072,/g3t1_1,,success
Status,1368,18099199306,/g3t1_3,,running
Status,1369,18099298352,/g3t1_2,,running
Status,1370,18099819189,/g3t1_3,,success
Status,1371,18099936278,/g3t1_2,,success
Status,1372,18100166461,/g3t1_1,,running
Status,1373,18100894259,/g3t1_1,,success
Status,1374,18130610883,/g4t1,,fail
Status,1375,18149293975,/g3t1_3,,running
Status,1376,18149376437,/g3t1_2,,running
Status,1377,18150575322,/g3t1_3,,success
Status,1378,18150652010,/g3t1_2,,success
Status,1379,18150880959,/g3t1_1,,running
Status,1380,18151218927,/g3t1_1,,fail
Status,1384,18200227451,/g3t1_3,,running
Status,1385,18200409242,/g3t1_2,,running
Status,1386,18200456062,/g3t1_3,,success
Status,1387,18200532662,/g3t1_2,,success
Status,1388,18200841399,/g3t1_1,,running
Status,1389,18201562953,/g3t1_1,,success
Status,1390,18230913988,/g4t1,,fail
Status,1391,18249450250,/g3t1_3,,running
Status,1392,18249520532,/g3t1_2,,running
Status,1393,18249596172,/g3t1_2,,success
Status,1394,18249610092,/g3t1_3,,success
Status,1395,18250824698,/g3t1_1,,running
Status,1396,18250868411,/g3t1_1,,success
Status,1397,18299555535,/g3t1_3,,running
Status,1398,18299652191,/g3t1_2,,running
Status,1399,18300390188,/g3t1_2,,success
Status,1400,18300452756,/g3t1_3,,success
Status,1401,18301358853,/g3t1_1,,running
Status,1402,18301466605,/g3t1_1,,success
Status,1403,18331135852,/g4t1,,fail
Status,1404,18349479541,/g3t1_3,,running
Status,1405,18349618425,/g3t1_2,,running
Status,1406,18350289386,/g3t1_3,,success
Status,1407,18350457523,/g3t1_2,,success
Status,1408,18351307668,/g3t1_1,,running
Status,1409,18351383970,/g3t1_1,,success
Status,1413,18399516321,/g3t1_3,,running
Status,1414,18399572226,/g3t1_2,,running
Status,1415,18399622691,/g3t1_3,,success
Status,1416,18400490259,/g3t1_2,,success
Status,1417,18400741162,/g3t1_1,,running
Status,1418,18401010628,/g3t1_1,,success
Status,1419,18430406154,/g4t1,,fail
Status,1420,18449243856,/g3t1_3,,running
Status,1421,18449281035,/g3t1_2,,running
Status,1422,18449295268,/g3t1_3,,success
Status,1423,18449396346,/g3t1_2,,success
Status,1424,18450479351,/g3t1_1,,running
Status,1425,18450639021,/g3t1_1,,fail
Status,1426,18499148688,/g3t1_3,,running
Status,1427,18499178863,/g3t1_2,,running
Status,1428,18499193601,/g3t1_3,,success
Status,1429,18499337215,/g3t1_2,,success
Status,1430,18500484267,/g3t1_1,,running
Status,1431,18500667263,/g3t1_1,,success
Status,1432,18530584920,/g4t1,,fail
Status,1433,18549922952,/g3t1_3,,running
Status,1434,18549973629,/g3t1_3,,success
Status,1435,18549985983,/g3t1_2,,running
Status,1436,18550130154,/g3t1_2,,success
Status,1437,18550787493,/g3t1_1,,running
Status,1438,18550977184,/g3t1_1,,success
Status,1442,18599758913,/g3t1_3,,running
Status,1443,18599784748,/g3t1_3,,success
Status,1444,18599812501,/g3t1_2,,running
Status,1445,18599823043,/g3t1_2,,success
Status,1446,18600743639,/g3t1_1,,running
Status,1447,18600855781,/g3t1_1,,success
Status,1448,18630486826,/g4t1,,fail
Status,1449,18649411953,/g3t1_3,,running
Status,1450,18649566625,/g3t1_2,,running
Status,1451,18649648026,/g3t1_3,,success
Status,1452,18649742615,/g3t1_2,,success
Status,1453,18650727400,/g3t1_1,,running
Status,1454,18650859021,/g3t1_1,,success
Status,1455,18699738026,/g3t1_3,,running
Status,1456,18699972730,/g3t1_2,,running
Status,1457,18700003191,/g3t1_3,,success
Status,1458,18700152723,/g3t1_2,,success
Status,1459,18700945680,/g3t1_1,,running
Status,1460,18701160110,/g3t1_1,,success
Status,1461,18731349859,/g4t1,,fail
Status,1462,18750599054,/g3t1_3,,running
Status,1463,18750724529,/g3t1_3,,success
Status,1464,18750765032,/g3t1_2,,running
Status,1465,18751457762,/g3t1_2,,success
Status,1466,18751909170,/g3t1_1,,running
Status,1467,18751974502,/g3t1_1,,fail
Status,1471,18799988090,/g3t1_3,,running
Status,1472,18800027655,/g3t1_2,,running
Status,1473,18800042192,/g3t1_3,,success
Status,1474,18800243774,/g3t1_2,,success
Status,1475,18801078645,/g3t1_1,,running
Status,1476,18801353445,/g3t1_1,,success
Status,1477,18831487171,/g4t1,,fail
Status,1478,18850083715,/g3t1_3,,running
Status,1479,18850530807,/g3t1_2,,running
Status,1480,18850599504,/g3t1_3,,success
Status,1481,18850653307,/g3t1_2,,success
Status,1482,18851220564,/g3t1_1,,running
Status,1483,18851360866,/g3t1_1,,fail
Status,1484,18900890331,/g3t1_3,,running
Status,1485,18900956135,/g3t1_2,,running
Status,1486,18900984370,/g3t1_3,,success
Status,1487,18901152228,/g3t1_2,,success
Status,1488,18901902468,/g3t1_1,,running
Status,1489,18902379242,/g3t1_1,,success
Status,1490,18931879600,/g4t1,,fail
Status,1491,18951045667,/g3t1_3,,running
Status,1492,18951129538,/g3t1_2,,running
Status,1493,18951534269,/g3t1_3,,success
Status,1494,18951852981,/g3t1_2,,success
Status,1495,18953338741,/g3t1_1,,running
Status,1496,18953428149,/g3t1_1,,success
Status,1500,19000194588,/g3t1_3,,running
Status,1501,19000220376,/g3t1_3,,success
Status,1502,19000251990,/g3t1_2,,running
Status,1503,19000441765,/g3t1_2,,success
Status,1504,19001419244,/g3t1_1,,running
Status,1505,19001439461,/g3t1_1,,fail
Status,1506,19031021705,/g4t1,,fail
Status,1507,19050243888,/g3t1_3,,running
Status,1508,19050277930,/g3t1_2,,running
Status,1509,19050415842,/g3t1_3,,success
Status,1510,19050703930,/g3t1_2,,success
Status,1511,19051440448,/g3t1_1,,running
Status,1512,19051663980,/g3t1_1,,fail
Status,1513,19100681688,/g3t1_3,,running
Status,1514,19100736024,/g3t1_2,,running
Status,1515,19100841338,/g3t1_3,,success
Status,1516,19100871151,/g3t1_2,,success
Status,1517,19101616625,/g3t1_1,,running
Status,1518,19102203231,/g3t1_1,,success
Status,1519,19131307821,/g4t1,,fail
Status,1520,19150772922,/g3t1_3,,running
Status,1521,19150833752,/g3t1_2,,running
Status,1522,19151121972,/g3t1_3,,success
Status,1523,19151182842,/g3t1_2,,success
Status,1524,19152045737,/g3t1_1,,running
Status,1525,19152342702,/g3t1_1,,success
Status,1529,19200905682,/g3t1_3,,running
Status,1530,19200950088,/g3t1_2,,running
Status,1531,19201210897,/g3t1_2,,success
Status,1532,19201246903,/g3t1_3,,success
Status,1533,19201914432,/g3t1_1,,running
Status,1534,19202098612,/g3t1_1,,fail
Status,1535,19231510732,/g4t1,,fail
Status,1536,19250933663,/g3t1_2,,running
Status,1537,19251284761,/g3t1_3,,running
Status,1538,19251340898,/g3t1_3,,success
Status,1539,19251402864,/g3t1_2,,success
Status,1540,19252124035,/g3t1_1,,running
Status,1541,19252227017,/g3t1_1,,fail
Status,1542,19301557476,/g3t1_2,,running
Status,1543,19301616266,/g3t1_3,,running
Status,1544,19301697457,/g3t1_3,,success
Status,1545,19301713734,/g3t1_2,,success
Status,1546,19302226903,/g3t1_1,,running
Status,1547,19302814470,/g3t1_1,,success
Status,1548,19331680080,/g4t1,,fail
Status,1549,19351186865,/g3t1_2,,running
Status,1550,19351218596,/g3t1_3,,running
Status,1551,19351236135,/g3t1_3,,success
Status,1552,19351542164,/g3t1_2,,success
Status,1553,19352577094,/g3t1_1,,running
Status,1554,19352868212,/g3t1_1,,success
Status,1558,19402064745,/g3t1_2,,running
Status,1559,19402152250,/g3t1_3,,running
Status,1560,19402188520,/g3t1_3,,success
Status,1561,19402220805,/g3t1_2,,success
Status,1562,19402498007,/g3t1_1,,running
Status,1563,19402829782,/g3t1_1,,fail
Status,1564,19432100294,/g4t1,,fail
Status,1565,19452325341,/g3t1_2,,running
Status,1566,19452426099,/g3t1_3,,running
Status,1567,19452920453,/g3t1_3,,success
Status,1568,19453003165,/g3t1_2,,success
Status,1569,19453582549,/g3t1_1,,running
Status,1570,19454016530,/g3t1_1,,success
Status,1571,19501891513,/g3t1_2,,running
Status,1572,19502004556,/g3t1_3,,running
Status,1573,19502139773,/g3t1_2,,success
Status,1574,19502273473,/g3t1_3,,success
Status,1575,19502921125,/g3t1_1,,running
Status,1576,19503314127,/g3t1_1,,fail
Status,1577,19532214673,/g4t1,,fail
Status,1578,19552747742,/g3t1_2,,running
Status,1579,19552855629,/g3t1_3,,running
Status,1580,19552899024,/g3t1_2,,success
Status,1581,19553008585,/g3t1_1,,running
Status,1582,19553492919,/g3t1_3,,success
Status,1583,19553602106,/g3t1_1,,success
Status,1587,19601904412,/g3t1_2,,running
Status,1588,19601939492,/g3t1_3,,running
Status,1589,19601988261,/g3t1_3,,success
Status,1590,19601998879,/g3t1_2,,success
Status,1591,19602583122,/g3t1_1,,running
Status,1592,19602854575,/g3t1_1,,success
Status,1593,19631670743,/g4t1,,fail
Status,1594,19652133716,/g3t1_2,,running
Status,1595,19652178151,/g3t1_3,,running
Status,1596,19652223992,/g3t1_3,,success
Status,1597,19652237175,/g3t1_2,,success
Status,1598,19652759626,/g3t1_1,,running
Status,1599,19653151969,/g3t1_1,,success
Status,1600,19702689670,/g3t1_2,,running
Status,1601,19703381846,/g3t1_3,,running
Status,1602,19703459080,/g3t1_3,,success
Status,1603,19703500051,/g3t1_2,,success
Status,1604,19703535234,/g3t1_1,,running
Status,1605,19703662514,/g3t1_1,,success
Status,1606,19732755003,/g4t1,,fail
Status,1607,19753111529,/g3t1_2,,running
Status,1608,19753224296,/g3t1_3,,running
Status,1609,19753264933,/g3t1_2,,success
Status,1610,19753459818,/g3t1_1,,running
Status,1611,19753840413,/g3t1_3,,success
Status,1612,19753927363,/g3t1_1,,success
Status,1616,19802287221,/g3t1_2,,running
Status,1617,19802339658,/g3t1_3,,running
Status,1618,19802694748,/g3t1_2,,success
Status,1619,19803017202,/g3t1_3,,success
Status,1620,19803317144,/g3t1_1,,running
Status,1621,19803560064,/g3t1_1,,success
Status,1622,19832298506,/g4t1,,fail
Status,1623,19853019706,/g3t1_3,,running
Status,1624,19853096877,/g3t1_2,,running
Status,1625,19853216433,/g3t1_3,,success
Status,1626,19853240147,/g3t1_2,,success
Status,1627,19853378717,/g3t1_1,,running
Status,1628,19853880763,/g3t1_1,,success
Status,1629,19903102901,/g3t1_3,,running
Status,1630,19903173851,/g3t1_2,,running
Status,1631,19903271635,/g3t1_3,,success
Status,1632,19903419267,/g3t1_2,,success
Status,1633,19903471529,/g3t1_1,,running
Status,1634,19903883834,/g3t1_1,,success
Status,1635,19932674071,/g4t1,,fail
Status,1636,19953044985,/g3t1_2,,running
Status,1637,19953439561,/g3t1_3,,running
Status,1638,19953501417,/g3t1_3,,success
Status,1639,19953644910,/g3t1_1,,running
Status,1640,19954013124,/g3t1_2,,success
Status,1641,19954554723,/g3t1_1,,success
Status,1645,20003504151,/g3t1_3,,running
Status,1646,20003977121,/g3t1_2,,running
Status,1647,20004036267,/g3t1_2,,success
Status,1648,20004076190,/g3t1_3,,success
Status,1649,20004209831,/g3t1_1,,running
Status,1650,20004553950,/g3t1_1,,fail
Status,1651,20032791007,/g4t1,,fail
Status,1652,20053728247,/g3t1_2,,running
Status,1653,20053843389,/g3t1_3,,running
Status,1654,20054182174,/g3t1_2,,success
Status,1655,20054295262,/g3t1_3,,success
Status,1656,20054805567,/g3t1_1,,running
Status,1657,20054928197,/g3t1_1,,success
Status,1658,20102906678,/g3t1_2,,running
Status,1659,20102954302,/g3t1_3,,running
Status,1660,20103135829,/g3t1_2,,success
Status,1661,20103171261,/g3t1_3,,success
Status,1662,20103646399,/g3t1_1,,running
Status,1663,20103815593,/g3t1_1,,fail
Status,1664,20132547910,/g4t1,,fail
Status,1665,20153136222,/g3t1_2,,running
Status,1666,20153180568,/g3t1_3,,running
Status,1667,20153244835,/g3t1_2,,success
Status,1668,20153273902,/g3t1_3,,success
Status,1669,20153869756,/g3t1_1,,running
Status,1670,20154016979,/g3t1_1,,success
Status,1674,20203512386,/g3t1_2,,running
Status,1675,20203575890,/g3t1_3,,running
Status,1676,20204413929,/g3t1_3,,success
Status,1677,20204462610,/g3t1_2,,success
Status,1678,20204481384,/g3t1_1,,running
Status,1679,20204500730,/g3t1_1,,fail
Status,1680,20233123837,/g4t1,,fail
Status,1681,20254516432,/g3t1_2,,running
Status,1682,20254606906,/g3t1_3,,running
Status,1683,20254688789,/g3t1_2,,success
