
Status,1,3523719797,/g4t1,,init
Status,3,8638089062,/g3t1_1,,init
Status,5,8645936600,/g3t1_1,,init
Status,6,8645953364,/g3t1_1,,running
Status,7,8646491759,/g3t1_1,,success
Status,8,8746113784,/g3t1_1,,running
Status,9,8746247147,/g3t1_1,,success
Status,11,8823933759,/g3t1_2,,init
Status,12,8830630920,/g3t1_2,,init
Status,13,8830642807,/g3t1_2,,running
Status,14,8831072117,/g3t1_2,,success
Status,15,8846428671,/g3t1_1,,running
Status,16,8846496446,/g3t1_1,,success
Status,18,8924425568,/g3t1_3,,init
Status,19,8930791065,/g3t1_2,,running
Status,20,8930807745,/g3t1_2,,success
Status,21,8931356821,/g3t1_3,,init
Status,22,8931366369,/g3t1_3,,running
Status,23,8931772493,/g3t1_3,,success
Status,24,8946539101,/g3t1_1,,running
Status,25,8946652742,/g3t1_1,,success
Status,26,8966626350,/g4t1,,success
Status,27,9031788922,/g3t1_2,,running
Status,28,9032059591,/g3t1_3,,running
Status,29,9032310648,/g3t1_2,,success
Status,30,9032793611,/g3t1_3,,success
Status,31,9047213948,/g3t1_1,,running
Status,32,9047763313,/g3t1_1,,success
Status,33,9068321313,/g4t1,,success
Status,34,9088048173,/g4t1,,success
Status,35,9132071004,/g3t1_2,,running
Status,36,9132171771,/g3t1_3,,running
Status,37,9132332712,/g3t1_2,,success
Status,38,9132725316,/g3t1_3,,success
Status,39,9147330805,/g3t1_1,,running
Status,40,9147724944,/g3t1_1,,success
Status,41,9148116417,/g4t1,,success
Status,42,9168218736,/g4t1,,success
Status,43,9188615904,/g4t1,,success
Status,44,9208922569,/g4t1,,success
Status,45,9232214037,/g3t1_2,,running
Status,46,9232551859,/g3t1_3,,running
Status,47,9232616570,/g3t1_2,,success
Status,48,9232900199,/g3t1_3,,success
Status,49,9247819832,/g3t1_1,,running
Status,50,9248083245,/g3t1_1,,success
Status,51,9248767233,/g4t1,,success
Status,52,9269047091,/g4t1,,success
Status,53,9289205703,/g4t1,,success
Status,54,9309467945,/g4t1,,success
Status,55,9329377954,/g4t1,,success
Status,56,9331889300,/g3t1_2,,running
Status,57,9332422446,/g3t1_3,,running
Status,58,9332524363,/g3t1_2,,success
Status,59,9333348312,/g3t1_3,,success
Status,60,9347844367,/g3t1_1,,running
Status,61,9348247009,/g3t1_1,,success
Status,62,9349609970,/g4t1,,fail
Status,63,9369776118,/g4t1,,success
Status,64,9389830285,/g4t1,,success
Status,65,9409966813,/g4t1,,success
Status,66,9430203833,/g4t1,,success
Status,67,9432306147,/g3t1_2,,running
Status,68,9432692105,/g3t1_2,,success
Status,69,9432736436,/g3t1_3,,running
Status,70,9433184054,/g3t1_3,,success
Status,71,9448140347,/g3t1_1,,running
Status,72,9448553118,/g3t1_1,,success
Status,73,9450327165,/g4t1,,fail
Status,74,9469819450,/g4t1,,success
Status,75,9489812243,/g4t1,,success
Status,76,9510292159,/g4t1,,success
Status,77,9530937258,/g4t1,,success
Status,78,9532213983,/g3t1_2,,running
Status,79,9532812684,/g3t1_3,,running
Status,80,9532887524,/g3t1_2,,success
Status,81,9533212101,/g3t1_3,,success
Status,82,9548297433,/g3t1_1,,running
Status,83,9548835106,/g3t1_1,,success
Status,84,9550551784,/g4t1,,fail
Status,85,9571162373,/g4t1,,success
Status,86,9591104489,/g4t1,,success
Status,87,9611392724,/g4t1,,success
Status,88,9631465888,/g4t1,,success
Status,89,9632643877,/g3t1_2,,running
Status,90,9633407664,/g3t1_3,,running
Status,91,9633791532,/g3t1_2,,success
Status,92,9634056980,/g3t1_3,,success
Status,93,9648118373,/g3t1_1,,running
Status,94,9648499060,/g3t1_1,,success
Status,95,9651253572,/g4t1,,fail
Status,96,9671701804,/g4t1,,success
Status,97,9691864358,/g4t1,,success
Status,98,9712187659,/g4t1,,success
Status,99,9732010369,/g4t1,,success
Status,100,9733033895,/g3t1_2,,running
Status,101,9733104206,/g3t1_3,,running
Status,102,9733345357,/g3t1_2,,success
Status,103,9733420435,/g3t1_3,,success
Status,104,9748261245,/g3t1_1,,running
Status,105,9748802553,/g3t1_1,,success
Status,106,9752068453,/g4t1,,fail
Status,107,9772300133,/g4t1,,success
Status,108,9792462861,/g4t1,,success
Status,109,9812501351,/g4t1,,success
Status,110,9833058728,/g4t1,,success
Status,111,9833127036,/g3t1_2,,running
Status,112,9833146469,/g3t1_3,,running
Status,113,9833169737,/g3t1_2,,success
Status,114,9833883261,/g3t1_3,,success
Status,115,9848403375,/g3t1_1,,running
Status,116,9848830862,/g3t1_1,,success
Status,117,9852332410,/g4t1,,fail
Status,118,9872846154,/g4t1,,success
Status,119,9892921274,/g4t1,,success
Status,120,9913124800,/g4t1,,success
Status,121,9933217781,/g3t1_2,,running
Status,122,9933278791,/g4t1,,success
Status,123,9933310345,/g3t1_3,,running
Status,124,9933344176,/g3t1_3,,success
Status,125,9933389688,/g3t1_2,,success
Status,126,9948304253,/g3t1_1,,running
Status,127,9948345373,/g3t1_1,,success
Status,128,9952686464,/g4t1,,fail
Status,129,9972643113,/g4t1,,success
Status,130,9992765887,/g4t1,,success
Status,131,10013006079,/g4t1,,success
Status,132,10032207922,/g3t1_2,,running
Status,133,10032412965,/g3t1_2,,success
Status,134,10032677238,/g3t1_3,,running
Status,135,10032723628,/g3t1_3,,success
Status,136,10032733410,/g4t1,,fail
Status,137,10048168651,/g3t1_1,,running
Status,138,10048194442,/g3t1_1,,success
Status,139,10052955225,/g4t1,,fail
Status,140,10073165306,/g4t1,,success
Status,141,10093765048,/g4t1,,success
Status,142,10113836015,/g4t1,,success
Status,143,10133011312,/g3t1_2,,running
Status,144,10133772019,/g3t1_2,,success
Status,145,10133892222,/g3t1_3,,running
Status,146,10134105967,/g3t1_3,,success
Status,147,10134160317,/g4t1,,fail
Status,148,10148813131,/g3t1_1,,running
Status,149,10149128113,/g3t1_1,,success
Status,150,10154936712,/g4t1,,fail
Status,151,10174304368,/g4t1,,success
Status,152,10194521220,/g4t1,,success
Status,153,10214198830,/g4t1,,success
Status,154,10232994453,/g3t1_2,,running
Status,155,10233036460,/g3t1_2,,success
Status,156,10233171356,/g3t1_3,,running
Status,157,10233195931,/g3t1_3,,success
Status,158,10234195484,/g4t1,,fail
Status,159,10248389296,/g3t1_1,,running
Status,160,10248520557,/g3t1_1,,success
Status,161,10254175199,/g4t1,,fail
Status,162,10274340689,/g4t1,,success
Status,163,10294430411,/g4t1,,success
Status,164,10314532914,/g4t1,,success
Status,165,10332536283,/g3t1_2,,running
Status,166,10332559277,/g3t1_2,,success
Status,167,10332922418,/g3t1_3,,running
Status,168,10332941209,/g3t1_3,,success
Status,169,10334532423,/g4t1,,fail
Status,170,10348577906,/g3t1_1,,running
Status,171,10348598377,/g3t1_1,,success
Status,172,10354727370,/g4t1,,fail
Status,173,10374640756,/g4t1,,success
Status,174,10394836675,/g4t1,,success
Status,175,10414962193,/g4t1,,success
Status,176,10432625637,/g3t1_2,,running
Status,177,10432645240,/g3t1_2,,success
Status,178,10433006115,/g3t1_3,,running
Status,179,10433112927,/g3t1_3,,success
Status,180,10434848381,/g4t1,,fail
Status,181,10448567503,/g3t1_1,,running
Status,182,10448712532,/g3t1_1,,success
Status,183,10455844462,/g4t1,,fail
Status,184,10475334829,/g4t1,,success
Status,185,10495410484,/g4t1,,success
Status,186,10515449513,/g4t1,,success
Status,187,10532749937,/g3t1_2,,running
Status,188,10532777234,/g3t1_2,,success
Status,189,10533110091,/g3t1_3,,running
Status,190,10533136395,/g3t1_3,,success
Status,191,10535848451,/g4t1,,fail
Status,192,10548729430,/g3t1_1,,running
Status,193,10548984711,/g3t1_1,,success
Status,194,10555579292,/g4t1,,fail
Status,195,10576090344,/g4t1,,success
Status,196,10595961701,/g4t1,,success
Status,197,10615950585,/g4t1,,success
Status,198,10632899116,/g3t1_2,,running
Status,199,10633301939,/g3t1_2,,success
Status,200,10633342006,/g3t1_3,,running
Status,201,10633760342,/g3t1_3,,success
Status,202,10636206288,/g4t1,,fail
Status,203,10648897217,/g3t1_1,,running
Status,204,10648924655,/g3t1_1,,success
Status,205,10656177730,/g4t1,,fail
Status,206,10676647033,/g4t1,,success
Status,207,10696456048,/g4t1,,success
Status,208,10716556906,/g4t1,,success
Status,209,10733058412,/g3t1_2,,running
Status,210,10733206328,/g3t1_2,,success
Status,211,10733424923,/g3t1_3,,running
Status,212,10733777590,/g3t1_3,,success
Status,213,10736713568,/g4t1,,fail
Status,214,10749141417,/g3t1_1,,running
Status,215,10749182820,/g3t1_1,,success
Status,216,10756879524,/g4t1,,fail
Status,217,10776953572,/g4t1,,success
Status,218,10796854665,/g4t1,,success
Status,219,10816933530,/g4t1,,success
Status,220,10833390264,/g3t1_2,,running
Status,221,10833968989,/g3t1_2,,success
Status,222,10834187883,/g3t1_3,,running
Status,223,10834226085,/g3t1_3,,success
Status,224,10837438208,/g4t1,,fail
Status,225,10849993857,/g3t1_1,,running
Status,226,10850409061,/g3t1_1,,success
Status,227,10857649428,/g4t1,,fail
Status,228,10877809410,/g4t1,,success
Status,229,10897883221,/g4t1,,success
Status,230,10918066165,/g4t1,,success
Status,231,10933419162,/g3t1_2,,running
Status,232,10933934965,/g3t1_2,,success
Status,233,10933987352,/g3t1_3,,running
Status,234,10935092225,/g3t1_3,,success
Status,235,10938297681,/g4t1,,fail
Status,236,10949733778,/g3t1_1,,running
Status,237,10949922444,/g3t1_1,,success
Status,238,10958533469,/g4t1,,fail
Status,239,10978173494,/g4t1,,success
Status,240,10998205146,/g4t1,,success
Status,241,11018604571,/g4t1,,success
Status,242,11033555941,/g3t1_2,,running
Status,243,11033958217,/g3t1_2,,success
Status,244,11034473932,/g3t1_3,,running
Status,245,11034522307,/g3t1_3,,success
Status,246,11038725264,/g4t1,,fail
Status,247,11050586402,/g3t1_1,,running
Status,248,11050887686,/g3t1_1,,success
Status,249,11059096233,/g4t1,,fail
Status,250,11079004445,/g4t1,,success
Status,251,11098691042,/g4t1,,success
Status,252,11119352788,/g4t1,,success
Status,253,11133333771,/g3t1_2,,running
Status,254,11133356004,/g3t1_2,,success
Status,255,11133899712,/g3t1_3,,running
Status,256,11133968934,/g3t1_3,,success
Status,257,11138990408,/g4t1,,fail
Status,258,11149456068,/g3t1_1,,running
Status,259,11149476367,/g3t1_1,,success
Status,260,11159615543,/g4t1,,fail
Status,261,11179264604,/g4t1,,success
Status,262,11199499391,/g4t1,,success
Status,263,11219984751,/g4t1,,success
Status,264,11234380670,/g3t1_2,,running
Status,265,11234807718,/g3t1_3,,running
Status,266,11234961181,/g3t1_2,,success
Status,267,11235483889,/g3t1_3,,success
Status,268,11239927769,/g4t1,,fail
Status,269,11249840752,/g3t1_1,,running
Status,270,11250161079,/g3t1_1,,success
Status,271,11259882335,/g4t1,,fail
Status,272,11280291350,/g4t1,,success
Status,273,11300266310,/g4t1,,success
Status,274,11320393176,/g4t1,,success
Status,275,11334444904,/g3t1_2,,running
Status,276,11334513909,/g3t1_2,,success
Status,277,11334531664,/g3t1_3,,running
Status,278,11334712231,/g3t1_3,,success
Status,279,11340053299,/g4t1,,fail
Status,280,11349674443,/g3t1_1,,running
Status,281,11349771346,/g3t1_1,,success
Status,282,11360465854,/g4t1,,fail
Status,283,11380340443,/g4t1,,success
Status,284,11400402566,/g4t1,,success
Status,285,11420514905,/g4t1,,success
Status,286,11434149027,/g3t1_2,,running
Status,287,11434230694,/g3t1_3,,running
Status,288,11434257631,/g3t1_2,,success
Status,289,11434438677,/g3t1_3,,success
Status,290,11440792662,/g4t1,,fail
Status,291,11449837519,/g3t1_1,,running
Status,292,11450019574,/g3t1_1,,success
Status,293,11460674199,/g4t1,,fail
Status,294,11481001139,/g4t1,,success
Status,295,11501559758,/g4t1,,success
Status,296,11521747224,/g4t1,,success
Status,297,11534508001,/g3t1_2,,running
Status,298,11534548202,/g3t1_3,,running
Status,299,11534582235,/g3t1_2,,success
Status,300,11534614841,/g3t1_3,,success
Status,301,11541102159,/g4t1,,fail
Status,302,11549742749,/g3t1_1,,running
Status,303,11549809185,/g3t1_1,,success
Status,304,11561239404,/g4t1,,fail
Status,305,11581411696,/g4t1,,success
Status,306,11601560113,/g4t1,,success
Status,307,11621901927,/g4t1,,success
Status,308,11635150915,/g3t1_2,,running
Status,309,11635226533,/g3t1_3,,running
Status,310,11635301419,/g3t1_2,,success
Status,311,11635550039,/g3t1_3,,success
Status,312,11642328203,/g4t1,,fail
Status,313,11650483643,/g3t1_1,,running
Status,314,11650807832,/g3t1_1,,success
Status,315,11662492248,/g4t1,,fail
Status,316,11682941016,/g4t1,,success
Status,317,11703133469,/g4t1,,success
Status,318,11723063361,/g4t1,,success
Status,319,11734631258,/g3t1_2,,running
Status,320,11735197536,/g3t1_3,,running
Status,321,11735254890,/g3t1_2,,success
Status,322,11735709694,/g3t1_3,,success
Status,323,11743134533,/g4t1,,fail
Status,324,11750631245,/g3t1_1,,running
Status,325,11751027696,/g3t1_1,,success
Status,326,11763217130,/g4t1,,fail
Status,327,11783437013,/g4t1,,success
Status,328,11802787872,/g4t1,,success
Status,329,11822900608,/g4t1,,success
Status,330,11834153667,/g3t1_2,,running
Status,331,11834174770,/g3t1_2,,success
Status,332,11834479199,/g3t1_3,,running
Status,333,11834611868,/g3t1_3,,success
Status,334,11843748204,/g4t1,,fail
Status,335,11850947230,/g3t1_1,,running
Status,336,11851006750,/g3t1_1,,success
Status,337,11864019756,/g4t1,,fail
Status,338,11884043121,/g4t1,,success
Status,339,11904133648,/g4t1,,success
Status,340,11924207236,/g4t1,,success
Status,341,11935043846,/g3t1_2,,running
Status,342,11935648330,/g3t1_3,,running
Status,343,11935944464,/g3t1_2,,success
Status,344,11935990105,/g3t1_3,,success
Status,345,11944311942,/g4t1,,fail
Status,346,11950738023,/g3t1_1,,running
Status,347,11951367906,/g3t1_1,,success
Status,348,11964424456,/g4t1,,fail
Status,349,11984573964,/g4t1,,success
Status,350,12004751509,/g4t1,,success
Status,351,12024188273,/g4t1,,success
Status,352,12034345014,/g3t1_2,,running
Status,353,12034485014,/g3t1_2,,success
Status,354,12034835563,/g3t1_3,,running
Status,355,12034852381,/g3t1_3,,success
Status,356,12045151608,/g4t1,,fail
Status,357,12050436228,/g3t1_1,,running
Status,358,12050602452,/g3t1_1,,success
Status,359,12064162985,/g4t1,,success
Status,360,12084307800,/g4t1,,success
Status,361,12104337276,/g4t1,,success
Status,362,12124494934,/g4t1,,success
Status,363,12134752995,/g3t1_2,,running
Status,364,12134836995,/g3t1_2,,success
Status,365,12135084437,/g3t1_3,,running
Status,366,12135208365,/g3t1_3,,success
Status,367,12145156071,/g4t1,,fail
Status,368,12151254461,/g3t1_1,,running
Status,369,12151548172,/g3t1_1,,success
Status,370,12164688656,/g4t1,,fail
Status,371,12184952365,/g4t1,,success
Status,372,12205655843,/g4t1,,success
Status,373,12225165938,/g4t1,,success
Status,374,12235295272,/g3t1_2,,running
Status,375,12235645013,/g3t1_3,,running
Status,376,12235674311,/g3t1_2,,success
Status,377,12235835584,/g3t1_3,,success
Status,378,12245264495,/g4t1,,fail
Status,379,12250648706,/g3t1_1,,running
Status,380,12250675696,/g3t1_1,,success
Status,381,12265834007,/g4t1,,success
Status,382,12285692137,/g4t1,,success
Status,383,12305614470,/g4t1,,success
Status,384,12326022120,/g4t1,,success
Status,385,12334738565,/g3t1_2,,running
Status,386,12334766866,/g3t1_2,,success
Status,387,12334944026,/g3t1_3,,running
Status,388,12335124550,/g3t1_3,,success
Status,389,12345739641,/g4t1,,fail
Status,390,12350551411,/g3t1_1,,running
Status,391,12350738125,/g3t1_1,,success
Status,392,12366075380,/g4t1,,fail
Status,393,12386274539,/g4t1,,success
Status,394,12405969954,/g4t1,,success
Status,395,12426295981,/g4t1,,success
Status,396,12434999934,/g3t1_2,,running
Status,397,12435286922,/g3t1_3,,running
Status,398,12435456013,/g3t1_2,,success
Status,399,12435482175,/g3t1_3,,success
Status,400,12446298064,/g4t1,,fail
Status,401,12450947938,/g3t1_1,,running
Status,402,12451048039,/g3t1_1,,success
Status,403,12466349946,/g4t1,,success
Status,404,12487029733,/g4t1,,success
Status,405,12506590893,/g4t1,,success
Status,406,12526565917,/g4t1,,success
Status,407,12534941168,/g3t1_2,,running
Status,408,12534970123,/g3t1_2,,success
Status,409,12535343302,/g3t1_3,,running
Status,410,12535371381,/g3t1_3,,success
Status,411,12546727122,/g4t1,,fail
Status,412,12550782222,/g3t1_1,,running
Status,413,12550942280,/g3t1_1,,success
Status,414,12566957222,/g4t1,,fail
Status,415,12587760971,/g4t1,,success
Status,416,12607892574,/g4t1,,success
Status,417,12627746831,/g4t1,,success
Status,418,12634958881,/g3t1_2,,running
Status,419,12635044582,/g3t1_2,,success
Status,420,12635371596,/g3t1_3,,running
Status,421,12635395480,/g3t1_3,,success
Status,422,12647459133,/g4t1,,fail
Status,423,12650795323,/g3t1_1,,running
Status,424,12650942126,/g3t1_1,,success
Status,425,12667526620,/g4t1,,success
Status,426,12687725190,/g4t1,,success
Status,427,12708395209,/g4t1,,success
Status,428,12728689225,/g4t1,,success
Status,429,12736600734,/g3t1_2,,running
Status,430,12736694827,/g3t1_3,,running
Status,431,12736749164,/g3t1_3,,success
Status,432,12736841424,/g3t1_2,,success
Status,433,12748742711,/g4t1,,fail
Status,434,12751873605,/g3t1_1,,running
Status,435,12752648866,/g3t1_1,,success
Status,436,12768842418,/g4t1,,fail
Status,437,12788174391,/g4t1,,success
Status,438,12808973486,/g4t1,,success
Status,439,12828784001,/g4t1,,success
Status,440,12835158506,/g3t1_2,,running
Status,441,12835641847,/g3t1_2,,success
Status,442,12835684712,/g3t1_3,,running
Status,443,12835698792,/g3t1_3,,success
Status,444,12848563022,/g4t1,,fail
Status,445,12851281355,/g3t1_1,,running
Status,446,12851307213,/g3t1_1,,success
Status,447,12868676502,/g4t1,,success
Status,448,12889081195,/g4t1,,success
Status,449,12909501408,/g4t1,,success
Status,450,12929572280,/g4t1,,success
Status,451,12935869209,/g3t1_2,,running
Status,452,12936347020,/g3t1_3,,running
Status,453,12936418724,/g3t1_2,,success
Status,454,12937858609,/g3t1_3,,success
Status,455,12949755280,/g4t1,,fail
Status,456,12951958860,/g3t1_1,,running
Status,457,12952080895,/g3t1_1,,success
Status,458,12969356488,/g4t1,,fail
Status,459,12989422615,/g4t1,,success
Status,460,13009592939,/g4t1,,success
Status,461,13030311025,/g4t1,,success
Status,462,13036335301,/g3t1_2,,running
Status,463,13036436801,/g3t1_3,,running
Status,464,13036509475,/g3t1_2,,success
Status,465,13036713384,/g3t1_3,,success
Status,466,13050232556,/g4t1,,fail
Status,467,13051787643,/g3t1_1,,running
Status,468,13052236793,/g3t1_1,,success
Status,469,13070450978,/g4t1,,success
Status,470,13090583032,/g4t1,,success
Status,471,13110906223,/g4t1,,success
Status,472,13130789003,/g4t1,,success
Status,473,13136024608,/g3t1_2,,running
Status,474,13136652275,/g3t1_3,,running
Status,475,13136727222,/g3t1_2,,success
Status,476,13137184721,/g3t1_3,,success
Status,477,13151011673,/g4t1,,fail
Status,478,13151920541,/g3t1_1,,running
Status,479,13152359725,/g3t1_1,,success
Status,480,13171001294,/g4t1,,fail
Status,481,13191356093,/g4t1,,success
Status,482,13211313828,/g4t1,,success
Status,483,13231345953,/g4t1,,success
Status,484,13236558326,/g3t1_2,,running
Status,485,13236629675,/g3t1_2,,success
Status,486,13236664584,/g3t1_3,,running
Status,487,13237392646,/g3t1_3,,success
Status,488,13251699454,/g4t1,,fail
Status,489,13251993006,/g3t1_1,,running
Status,490,13252690014,/g3t1_1,,success
Status,491,13271735808,/g4t1,,success
Status,492,13291979053,/g4t1,,success
Status,493,13312056798,/g4t1,,success
Status,494,13332188199,/g4t1,,success
Status,495,13336164387,/g3t1_2,,running
Status,496,13336428506,/g3t1_3,,running
Status,497,13336518673,/g3t1_2,,success
Status,498,13337006292,/g3t1_3,,success
Status,499,13352441832,/g4t1,,fail
Status,500,13352504967,/g3t1_1,,running
Status,501,13352708837,/g3t1_1,,success
Status,502,13372189952,/g4t1,,fail
Status,503,13392669420,/g4t1,,success
Status,504,13412476225,/g4t1,,success
Status,505,13432325264,/g4t1,,success
Status,506,13437081033,/g3t1_2,,running
Status,507,13438022243,/g3t1_3,,running
Status,508,13438090975,/g3t1_2,,success
Status,509,13438219642,/g3t1_3,,success
Status,510,13452385343,/g3t1_1,,running
Status,511,13452723054,/g3t1_1,,success
Status,512,13452769923,/g4t1,,fail
Status,513,13472502734,/g4t1,,success
Status,514,13492640285,/g4t1,,success
Status,515,13512799118,/g4t1,,success
Status,516,13533170531,/g4t1,,success
Status,517,13536441726,/g3t1_2,,running
Status,518,13536892253,/g3t1_3,,running
Status,519,13536961498,/g3t1_2,,success
Status,520,13537452943,/g3t1_3,,success
Status,521,13552509298,/g3t1_1,,running
Status,522,13553300301,/g3t1_1,,success
Status,523,13553357166,/g4t1,,fail
Status,524,13573532917,/g4t1,,fail
Status,525,13593590942,/g4t1,,success
Status,526,13613913862,/g4t1,,success
Status,527,13633622201,/g4t1,,success
Status,528,13637063219,/g3t1_2,,running
Status,529,13637197303,/g3t1_2,,success
Status,530,13637279474,/g3t1_3,,running
Status,531,13637450046,/g3t1_3,,success
Status,532,13652547103,/g3t1_1,,running
Status,533,13652987715,/g3t1_1,,success
Status,534,13653916628,/g4t1,,fail
Status,535,13674035135,/g4t1,,success
Status,536,13693957939,/g4t1,,success
Status,537,13714647437,/g4t1,,success
Status,538,13734532303,/g4t1,,success
Status,539,13737407717,/g3t1_2,,running
Status,540,13737536656,/g3t1_2,,success
Status,541,13737572097,/g3t1_3,,running
Status,542,13737601888,/g3t1_3,,success
Status,543,13752555289,/g3t1_1,,running
Status,544,13753055472,/g3t1_1,,success
Status,545,13754199389,/g4t1,,fail
Status,546,13774046580,/g4t1,,success
Status,547,13794224782,/g4t1,,success
Status,548,13814262500,/g4t1,,success
Status,549,13834450120,/g4t1,,success
Status,550,13836812560,/g3t1_2,,running
Status,551,13836882439,/g3t1_2,,success
Status,552,13836902027,/g3t1_3,,running
Status,553,13837157632,/g3t1_3,,success
Status,554,13852690725,/g3t1_1,,running
Status,555,13853125496,/g3t1_1,,success
Status,556,13854773499,/g4t1,,fail
Status,557,13875185673,/g4t1,,success
Status,558,13895208800,/g4t1,,success
Status,559,13915481390,/g4t1,,success
Status,560,13935520909,/g4t1,,success
Status,561,13936957865,/g3t1_2,,running
Status,562,13937356242,/g3t1_3,,running
Status,563,13937425133,/g3t1_2,,success
Status,564,13937900726,/g3t1_3,,success
Status,565,13953185543,/g3t1_1,,running
Status,566,13953974792,/g3t1_1,,success
Status,567,13955400874,/g4t1,,fail
Status,568,13975585500,/g4t1,,success
Status,569,13995557173,/g4t1,,success
Status,570,14016040013,/g4t1,,success
Status,571,14036118914,/g4t1,,success
Status,572,14037577957,/g3t1_2,,running
Status,573,14037662576,/g3t1_3,,running
Status,574,14037735249,/g3t1_2,,success
Status,575,14037920028,/g3t1_3,,success
Status,576,14052790016,/g3t1_1,,running
Status,577,14053089750,/g3t1_1,,success
Status,578,14056078944,/g4t1,,fail
Status,579,14076284854,/g4t1,,success
Status,580,14096544141,/g4t1,,success
Status,581,14116366607,/g4t1,,success
Status,582,14136557181,/g4t1,,success
Status,583,14137674260,/g3t1_2,,running
Status,584,14137841063,/g3t1_3,,running
Status,585,14138157680,/g3t1_3,,success
Status,586,14138260585,/g3t1_2,,success
Status,587,14153204874,/g3t1_1,,running
Status,588,14153719142,/g3t1_1,,success
Status,589,14156644054,/g4t1,,fail
Status,590,14176916428,/g4t1,,success
Status,591,14197202622,/g4t1,,success
Status,592,14217192177,/g4t1,,success
Status,593,14237679522,/g4t1,,success
Status,594,14237790461,/g3t1_2,,running
Status,595,14237831390,/g3t1_3,,running
Status,596,14237910693,/g3t1_2,,success
Status,597,14238461394,/g3t1_3,,success
Status,598,14253532096,/g3t1_1,,running
Status,599,14253931816,/g3t1_1,,success
Status,600,14257294605,/g4t1,,fail
Status,601,14277585216,/g4t1,,success
Status,602,14297709445,/g4t1,,success
Status,603,14318077970,/g4t1,,success
Status,604,14337989085,/g3t1_2,,running
Status,605,14338049548,/g3t1_3,,running
Status,606,14338081671,/g4t1,,success
Status,607,14338168014,/g3t1_2,,success
Status,608,14338397096,/g3t1_3,,success
Status,609,14353518809,/g3t1_1,,running
Status,610,14353586501,/g3t1_1,,success
Status,611,14357923360,/g4t1,,fail
Status,612,14378162347,/g4t1,,success
Status,613,14398515631,/g4t1,,success
Status,614,14418591915,/g4t1,,success
Status,615,14439288322,/g3t1_2,,running
Status,616,14439359638,/g3t1_2,,success
Status,617,14439446798,/g4t1,,success
Status,618,14439479630,/g3t1_3,,running
Status,619,14439510324,/g3t1_3,,success
Status,620,14453922230,/g3t1_1,,running
Status,621,14454008104,/g3t1_1,,success
Status,622,14458609593,/g4t1,,fail
Status,623,14479049051,/g4t1,,success
Status,624,14499212770,/g4t1,,success
Status,625,14519413482,/g4t1,,success
Status,626,14537811217,/g3t1_2,,running
Status,627,14538222922,/g3t1_3,,running
Status,628,14539035746,/g3t1_2,,success
Status,629,14539100064,/g3t1_3,,success
Status,630,14539134204,/g4t1,,fail
Status,631,14553661064,/g3t1_1,,running
Status,632,14553972935,/g3t1_1,,success
Status,633,14559232475,/g4t1,,fail
Status,634,14579931262,/g4t1,,success
Status,635,14599756800,/g4t1,,success
Status,636,14619902444,/g4t1,,success
Status,637,14638644038,/g3t1_2,,running
Status,638,14638883464,/g3t1_3,,running
Status,639,14638947547,/g3t1_2,,success
Status,640,14638971725,/g3t1_3,,success
Status,641,14639685072,/g4t1,,success
Status,642,14654023698,/g3t1_1,,running
Status,643,14654087399,/g3t1_1,,success
Status,644,14659736376,/g4t1,,fail
Status,645,14679916553,/g4t1,,success
Status,646,14700014864,/g4t1,,success
Status,647,14720241727,/g4t1,,success
Status,648,14738179017,/g3t1_2,,running
Status,649,14738405045,/g3t1_3,,running
Status,650,14738447289,/g3t1_2,,success
Status,651,14738643438,/g3t1_3,,success
Status,652,14740038419,/g4t1,,fail
Status,653,14753894839,/g3t1_1,,running
Status,654,14754441814,/g3t1_1,,success
Status,655,14760363208,/g4t1,,success
Status,656,14780886922,/g4t1,,success
Status,657,14800941508,/g4t1,,success
Status,658,14820985429,/g4t1,,success
Status,659,14838732239,/g3t1_2,,running
Status,660,14839064791,/g3t1_3,,running
Status,661,14839350712,/g3t1_3,,success
Status,662,14839405315,/g3t1_2,,success
Status,663,14840770253,/g4t1,,fail
Status,664,14854233975,/g3t1_1,,running
Status,665,14854517872,/g3t1_1,,success
Status,666,14861133330,/g4t1,,fail
Status,667,14881400857,/g4t1,,success
Status,668,14901573786,/g4t1,,success
Status,669,14921643296,/g4t1,,success
Status,670,14939097823,/g3t1_2,,running
Status,671,14939180214,/g3t1_3,,running
Status,672,14939589814,/g3t1_2,,success
Status,673,14939644424,/g3t1_3,,success
Status,674,14941381641,/g4t1,,fail
Status,675,14954270652,/g3t1_1,,running
Status,676,14954365824,/g3t1_1,,success
Status,677,14961573947,/g4t1,,success
Status,678,14981986556,/g4t1,,success
Status,679,15002143741,/g4t1,,success
Status,680,15022345246,/g4t1,,success
Status,681,15038918451,/g3t1_2,,running
Status,682,15039031790,/g3t1_3,,running
Status,683,15039692845,/g3t1_3,,success
Status,684,15039757970,/g3t1_2,,success
Status,685,15042290578,/g4t1,,fail
Status,686,15054350220,/g3t1_1,,running
Status,687,15054727492,/g3t1_1,,success
Status,688,15062512765,/g4t1,,fail
Status,689,15082928213,/g4t1,,success
Status,690,15103132421,/g4t1,,success
Status,691,15123197411,/g4t1,,success
Status,692,15139079249,/g3t1_2,,running
Status,693,15139151672,/g3t1_3,,running
Status,694,15139771422,/g3t1_2,,success
Status,695,15139839673,/g3t1_3,,success
Status,696,15142730595,/g4t1,,fail
Status,697,15154483762,/g3t1_1,,running
Status,698,15154786082,/g3t1_1,,success
Status,699,15163234941,/g4t1,,success
Status,700,15183128993,/g4t1,,success
Status,701,15203470280,/g4t1,,success
Status,702,15223461604,/g4t1,,success
Status,703,15239443556,/g3t1_2,,running
Status,704,15239524826,/g3t1_3,,running
Status,705,15239839268,/g3t1_2,,success
Status,706,15239912648,/g3t1_3,,success
Status,707,15243426898,/g4t1,,fail
Status,708,15254474163,/g3t1_1,,running
Status,709,15254896290,/g3t1_1,,success
Status,710,15263599123,/g4t1,,fail
Status,711,15283927916,/g4t1,,success
Status,712,15304102711,/g4t1,,success
Status,713,15324204572,/g4t1,,success
Status,714,15339493014,/g3t1_2,,running
Status,715,15339573828,/g3t1_3,,running
Status,716,15340004928,/g3t1_2,,success
Status,717,15340060257,/g3t1_3,,success
Status,718,15344104022,/g4t1,,fail
Status,719,15354693658,/g3t1_1,,running
Status,720,15355132682,/g3t1_1,,success
Status,721,15364429379,/g4t1,,success
Status,722,15384566248,/g4t1,,success
Status,723,15404645588,/g4t1,,success
Status,724,15424783237,/g4t1,,success
Status,725,15440015798,/g3t1_2,,running
Status,726,15440074571,/g3t1_3,,running
Status,727,15440173609,/g3t1_3,,success
Status,728,15440192030,/g3t1_2,,success
Status,729,15444773893,/g4t1,,fail
Status,730,15455431862,/g3t1_1,,running
Status,731,15455515018,/g3t1_1,,success
Status,732,15465360276,/g4t1,,fail
Status,733,15485281009,/g4t1,,success
Status,734,15505274339,/g4t1,,success
Status,735,15525361481,/g4t1,,success
Status,736,15539625842,/g3t1_2,,running
Status,737,15539820542,/g3t1_3,,running
Status,738,15540346208,/g3t1_3,,success
Status,739,15540657269,/g3t1_2,,success
Status,740,15545197362,/g4t1,,fail
Status,741,15554998388,/g3t1_1,,running
Status,742,15555368955,/g3t1_1,,success
Status,743,15565677984,/g4t1,,success
Status,744,15585758045,/g4t1,,success
Status,745,15606004052,/g4t1,,success
Status,746,15626027897,/g4t1,,success
Status,747,15638889559,/g3t1_2,,running
Status,748,15638919217,/g3t1_3,,running
Status,749,15639003334,/g3t1_2,,success
Status,750,15639035138,/g3t1_3,,success
Status,751,15645532734,/g4t1,,fail
Status,752,15654946807,/g3t1_1,,running
Status,753,15655382596,/g3t1_1,,success
Status,754,15665634211,/g4t1,,fail
Status,755,15685941214,/g4t1,,success
Status,756,15706247691,/g4t1,,success
Status,757,15726416847,/g4t1,,success
Status,758,15739103009,/g3t1_2,,running
Status,759,15739127044,/g3t1_3,,running
Status,760,15739317396,/g3t1_2,,success
Status,761,15739422155,/g3t1_3,,success
Status,762,15746158302,/g4t1,,fail
Status,763,15754702932,/g3t1_1,,running
Status,764,15754733206,/g3t1_1,,success
Status,765,15766325321,/g4t1,,success
Status,766,15786571505,/g4t1,,success
Status,767,15806477439,/g4t1,,success
Status,768,15826694522,/g4t1,,success
Status,769,15839064220,/g3t1_2,,running
Status,770,15839112980,/g3t1_3,,running
Status,771,15839125197,/g3t1_2,,success
Status,772,15839338313,/g3t1_3,,success
Status,773,15846524647,/g4t1,,fail
Status,774,15855175042,/g3t1_1,,running
Status,775,15855221523,/g3t1_1,,success
Status,776,15866560520,/g4t1,,fail
Status,777,15887471226,/g4t1,,success
Status,778,15907252297,/g4t1,,success
Status,779,15926984975,/g4t1,,success
Status,780,15939444350,/g3t1_2,,running
Status,781,15939558462,/g3t1_3,,running
Status,782,15939632232,/g3t1_3,,success
Status,783,15940015493,/g3t1_2,,success
Status,784,15947477827,/g4t1,,fail
Status,785,15955823330,/g3t1_1,,running
Status,786,15955869402,/g3t1_1,,success
Status,787,15967502890,/g4t1,,success
Status,788,15987558859,/g4t1,,success
Status,789,16007781215,/g4t1,,success
Status,790,16028249819,/g4t1,,success
Status,791,16039673514,/g3t1_2,,running
Status,792,16039764934,/g3t1_3,,running
Status,793,16039930934,/g3t1_2,,success
Status,794,16040168729,/g3t1_3,,success
Status,795,16048135671,/g4t1,,fail
Status,796,16056108193,/g3t1_1,,running
Status,797,16056417651,/g3t1_1,,success
Status,798,16068312917,/g4t1,,fail
Status,799,16088518991,/g4t1,,success
Status,800,16108550819,/g4t1,,success
Status,801,16128478104,/g4t1,,success
Status,802,16140662669,/g3t1_3,,running
Status,803,16140746913,/g3t1_2,,running
Status,804,16140776435,/g3t1_2,,success
Status,805,16141059990,/g3t1_3,,success
Status,806,16148917951,/g4t1,,fail
Status,807,16155875525,/g3t1_1,,running
Status,808,16157252759,/g3t1_1,,success
Status,809,16168913768,/g4t1,,success
Status,810,16189258534,/g4t1,,success
Status,811,16208887695,/g4t1,,success
Status,812,16229461331,/g4t1,,success
Status,813,16240201488,/g3t1_2,,running
Status,814,16240310016,/g3t1_3,,running
Status,815,16240564450,/g3t1_2,,success
Status,816,16240644385,/g3t1_3,,success
Status,817,16249425087,/g4t1,,fail
Status,818,16255825109,/g3t1_1,,running
Status,819,16256178609,/g3t1_1,,success
Status,820,16269601979,/g4t1,,fail
Status,821,16289734836,/g4t1,,success
Status,822,16310052228,/g4t1,,success
Status,823,16329859073,/g4t1,,success
Status,824,16340154376,/g3t1_2,,running
Status,825,16340196859,/g3t1_3,,running
Status,826,16340253383,/g3t1_2,,success
Status,827,16340270392,/g3t1_3,,success
Status,828,16350033797,/g4t1,,fail
Status,829,16355732788,/g3t1_1,,running
Status,830,16356160611,/g3t1_1,,success
Status,831,16369844427,/g4t1,,success
Status,832,16390194015,/g4t1,,success
Status,833,16410345199,/g4t1,,success
Status,834,16430718241,/g4t1,,success
Status,835,16440427630,/g3t1_2,,running
Status,836,16440503053,/g3t1_3,,running
Status,837,16440523038,/g3t1_3,,success
Status,838,16440534923,/g3t1_2,,success
Status,839,16450165745,/g4t1,,fail
Status,840,16455692837,/g3t1_1,,running
Status,841,16455808571,/g3t1_1,,success
Status,842,16470227887,/g4t1,,fail
Status,843,16490453593,/g4t1,,success
Status,844,16510720103,/g4t1,,success
Status,845,16531416390,/g4t1,,success
Status,846,16541024426,/g3t1_2,,running
Status,847,16541087527,/g3t1_3,,running
Status,848,16541173339,/g3t1_2,,success
Status,849,16541192366,/g3t1_3,,success
Status,850,16551210777,/g4t1,,fail
Status,851,16556039157,/g3t1_1,,running
Status,852,16556361652,/g3t1_1,,success
Status,853,16571406787,/g4t1,,success
Status,854,16591607004,/g4t1,,success
Status,855,16611849217,/g4t1,,success
Status,856,16632603629,/g4t1,,success
Status,857,16640686234,/g3t1_2,,running
Status,858,16640804337,/g3t1_3,,running
Status,859,16640835721,/g3t1_2,,success
Status,860,16640989188,/g3t1_3,,success
Status,861,16651786339,/g4t1,,fail
Status,862,16656180642,/g3t1_1,,running
Status,863,16656934643,/g3t1_1,,success
Status,864,16672055031,/g4t1,,fail
Status,865,16692127711,/g4t1,,success
Status,866,16712261179,/g4t1,,success
Status,867,16732415700,/g4t1,,success
Status,868,16740717040,/g3t1_2,,running
Status,869,16740775528,/g3t1_3,,running
Status,870,16741004137,/g3t1_3,,success
Status,871,16741117854,/g3t1_2,,success
Status,872,16752211960,/g4t1,,fail
Status,873,16756704617,/g3t1_1,,running
Status,874,16756777034,/g3t1_1,,success
Status,875,16772493192,/g4t1,,success
Status,876,16792577572,/g4t1,,success
Status,877,16812836495,/g4t1,,success
Status,878,16832853331,/g4t1,,success
Status,879,16841052470,/g3t1_2,,running
Status,880,16841113910,/g3t1_3,,running
Status,881,16841198591,/g3t1_2,,success
Status,882,16841220148,/g3t1_3,,success
Status,883,16853038484,/g4t1,,fail
Status,884,16856423967,/g3t1_1,,running
Status,885,16856737482,/g3t1_1,,success
Status,886,16873169253,/g4t1,,fail
Status,887,16893532742,/g4t1,,success
Status,888,16913496171,/g4t1,,success
Status,889,16933852612,/g4t1,,success
Status,890,16941185232,/g3t1_2,,running
Status,891,16941294863,/g3t1_3,,running
Status,892,16941723901,/g3t1_2,,success
Status,893,16941788502,/g3t1_3,,success
Status,894,16953538836,/g4t1,,fail
Status,895,16956552753,/g3t1_1,,running
Status,896,16956946464,/g3t1_1,,success
Status,897,16974146954,/g4t1,,success
Status,898,16993982945,/g4t1,,success
Status,899,17014183321,/g4t1,,success
Status,900,17034157095,/g4t1,,success
Status,901,17041026080,/g3t1_2,,running
Status,902,17041116283,/g3t1_3,,running
Status,903,17041682296,/g3t1_2,,success
Status,904,17041749363,/g3t1_3,,success
Status,905,17054357337,/g4t1,,fail
Status,906,17056701964,/g3t1_1,,running
Status,907,17057039483,/g3t1_1,,success
Status,908,17074291874,/g4t1,,fail
Status,909,17094616738,/g4t1,,success
Status,910,17114728080,/g4t1,,success
Status,911,17134581181,/g4t1,,success
Status,912,17141211099,/g3t1_2,,running
Status,913,17141556866,/g3t1_3,,running
Status,914,17141624316,/g3t1_2,,success
Status,915,17141661203,/g3t1_3,,success
Status,916,17154894123,/g4t1,,fail
Status,917,17156675967,/g3t1_1,,running
Status,918,17157217826,/g3t1_1,,success
Status,919,17175240213,/g4t1,,success
Status,920,17195296703,/g4t1,,success
Status,921,17215421981,/g4t1,,success
Status,922,17235190774,/g4t1,,success
Status,923,17241367476,/g3t1_3,,running
Status,924,17241651010,/g3t1_3,,success
Status,925,17241714139,/g3t1_2,,running
Status,926,17241750061,/g3t1_2,,success
Status,927,17255470879,/g4t1,,fail
Status,928,17256833405,/g3t1_1,,running
Status,929,17257118639,/g3t1_1,,success
Status,930,17275714952,/g4t1,,fail
Status,931,17295042939,/g4t1,,success
Status,932,17315024238,/g4t1,,success
Status,933,17335081437,/g4t1,,success
Status,934,17341213250,/g3t1_3,,running
Status,935,17341250230,/g3t1_2,,running
Status,936,17341365327,/g3t1_3,,success
Status,937,17341403980,/g3t1_2,,success
Status,938,17355169693,/g4t1,,fail
Status,939,17356579598,/g3t1_1,,running
Status,940,17356691421,/g3t1_1,,success
Status,941,17375358939,/g4t1,,success
Status,942,17395548928,/g4t1,,success
Status,943,17415549137,/g4t1,,success
Status,944,17435966643,/g4t1,,success
Status,945,17440963641,/g3t1_3,,running
Status,946,17440992045,/g3t1_2,,running
Status,947,17441005095,/g3t1_3,,success
Status,948,17441079313,/g3t1_2,,success
Status,949,17455824263,/g4t1,,fail
Status,950,17456996439,/g3t1_1,,running
Status,951,17457033407,/g3t1_1,,success
Status,952,17476284290,/g4t1,,fail
Status,953,17496390571,/g4t1,,success
Status,954,17515965169,/g4t1,,success
Status,955,17536068260,/g4t1,,success
Status,956,17541050903,/g3t1_3,,running
Status,957,17541089373,/g3t1_2,,running
Status,958,17541256933,/g3t1_3,,success
Status,959,17541291247,/g3t1_2,,success
Status,960,17556613597,/g4t1,,fail
Status,961,17556770717,/g3t1_1,,running
Status,962,17557032038,/g3t1_1,,success
Status,963,17576418652,/g4t1,,success
Status,964,17597097849,/g4t1,,success
Status,965,17617329147,/g4t1,,success
Status,966,17637101908,/g4t1,,success
Status,967,17641824660,/g3t1_3,,running
Status,968,17641913972,/g3t1_2,,running
Status,969,17642262387,/g3t1_2,,success
Status,970,17642291332,/g3t1_3,,success
Status,971,17657230857,/g3t1_1,,running
Status,972,17657277987,/g4t1,,fail
Status,973,17657313359,/g3t1_1,,success
Status,974,17677153668,/g4t1,,fail
Status,975,17697692242,/g4t1,,success
Status,976,17717543616,/g4t1,,success
Status,977,17737929504,/g4t1,,success
Status,978,17742158355,/g3t1_3,,running
Status,979,17742287787,/g3t1_2,,running
Status,980,17742597484,/g3t1_3,,success
Status,981,17742662918,/g3t1_2,,success
Status,982,17757483217,/g3t1_1,,running
Status,983,17757855523,/g3t1_1,,success
Status,984,17757954595,/g4t1,,fail
Status,985,17778171027,/g4t1,,success
Status,986,17798358642,/g4t1,,success
Status,987,17818488508,/g4t1,,success
Status,988,17838584702,/g4t1,,success
Status,989,17841813058,/g3t1_3,,running
Status,990,17841872241,/g3t1_2,,running
Status,991,17842190385,/g3t1_3,,success
Status,992,17842890949,/g3t1_2,,success
Status,993,17857586551,/g3t1_1,,running
Status,994,17858129424,/g3t1_1,,success
Status,995,17858483582,/g4t1,,fail
Status,996,17878642081,/g4t1,,success
Status,997,17899013525,/g4t1,,success
Status,998,17920059302,/g4t1,,success
Status,999,17939234138,/g4t1,,success
Status,1000,17942211391,/g3t1_3,,running
Status,1001,17942260683,/g3t1_2,,running
Status,1002,17942732763,/g3t1_2,,success
Status,1003,17942902579,/g3t1_3,,success
Status,1004,17957636072,/g3t1_1,,running
Status,1005,17957693996,/g3t1_1,,success
Status,1006,17958518821,/g4t1,,fail
Status,1007,17978788023,/g4t1,,success
Status,1008,17998709397,/g4t1,,success
Status,1009,18019570188,/g4t1,,success
Status,1010,18039628062,/g4t1,,success
Status,1011,18041983099,/g3t1_3,,running
Status,1012,18042094345,/g3t1_2,,running
Status,1013,18042618973,/g3t1_2,,success
Status,1014,18043179037,/g3t1_3,,success
Status,1015,18057841088,/g3t1_1,,running
Status,1016,18058371837,/g3t1_1,,success
Status,1017,18059693474,/g4t1,,fail
Status,1018,18079903920,/g4t1,,success
Status,1019,18100245923,/g4t1,,success
Status,1020,18120265341,/g4t1,,success
Status,1021,18140398799,/g4t1,,success
Status,1022,18142467778,/g3t1_3,,running
Status,1023,18142529222,/g3t1_2,,running
Status,1024,18142784636,/g3t1_2,,success
Status,1025,18142903260,/g3t1_3,,success
Status,1026,18158642291,/g3t1_1,,running
Status,1027,18158725651,/g3t1_1,,success
Status,1028,18160519612,/g4t1,,fail
Status,1029,18180853018,/g4t1,,success
Status,1030,18200473443,/g4t1,,success
Status,1031,18220882970,/g4t1,,success
Status,1032,18240913816,/g4t1,,success
Status,1033,18242928243,/g3t1_3,,running
Status,1034,18243034585,/g3t1_2,,running
Status,1035,18243069012,/g3t1_3,,success
Status,1036,18243262439,/g3t1_2,,success
Status,1037,18258116939,/g3t1_1,,running
Status,1038,18258722096,/g3t1_1,,success
Status,1039,18260935322,/g4t1,,fail
Status,1040,18281259067,/g4t1,,success
Status,1041,18301409497,/g4t1,,success
Status,1042,18321493358,/g4t1,,success
Status,1043,18341679960,/g4t1,,success
Status,1044,18343721292,/g3t1_3,,running
Status,1045,18343797535,/g3t1_3,,success
Status,1046,18343873727,/g3t1_2,,running
Status,1047,18343893687,/g3t1_2,,success
Status,1048,18358450073,/g3t1_1,,running
Status,1049,18359023448,/g3t1_1,,success
Status,1050,18361517438,/g4t1,,fail
Status,1051,18381928824,/g4t1,,success
Status,1052,18402077199,/g4t1,,success
Status,1053,18422192695,/g4t1,,success
Status,1054,18443372374,/g4t1,,success
Status,1055,18443441702,/g3t1_3,,running
Status,1056,18443567732,/g3t1_2,,running
Status,1057,18443594404,/g3t1_2,,success
Status,1058,18443608232,/g3t1_3,,success
Status,1059,18458799141,/g3t1_1,,running
Status,1060,18459161669,/g3t1_1,,success
Status,1061,18462560323,/g4t1,,fail
Status,1062,18482535096,/g4t1,,success
Status,1063,18502636124,/g4t1,,success
Status,1064,18522763513,/g4t1,,success
Status,1065,18543076517,/g3t1_3,,running
Status,1066,18543157768,/g3t1_2,,running
Status,1067,18543396884,/g4t1,,success
Status,1068,18543457612,/g3t1_3,,success
Status,1069,18544006324,/g3t1_2,,success
Status,1070,18558448646,/g3t1_1,,running
Status,1071,18558698754,/g3t1_1,,success
Status,1072,18563062682,/g4t1,,fail
Status,1073,18583423837,/g4t1,,success
Status,1074,18603546500,/g4t1,,success
Status,1075,18623376346,/g4t1,,success
Status,1076,18643186566,/g3t1_3,,running
Status,1077,18643328724,/g3t1_3,,success
Status,1078,18643361249,/g3t1_2,,running
Status,1079,18643536053,/g4t1,,success
Status,1080,18643585499,/g3t1_2,,success
Status,1081,18658514381,/g3t1_1,,running
Status,1082,18659186895,/g3t1_1,,success
Status,1083,18663664318,/g4t1,,fail
Status,1084,18684069948,/g4t1,,success
Status,1085,18704249662,/g4t1,,success
Status,1086,18724035974,/g4t1,,success
Status,1087,18743632890,/g3t1_3,,running
Status,1088,18743716072,/g3t1_2,,running
Status,1089,18743818304,/g3t1_3,,success
Status,1090,18744096499,/g3t1_2,,success
Status,1091,18744154231,/g4t1,,success
Status,1092,18758696054,/g3t1_1,,running
Status,1093,18759353076,/g3t1_1,,success
Status,1094,18764145359,/g4t1,,fail
Status,1095,18784357303,/g4t1,,success
Status,1096,18804490984,/g4t1,,success
Status,1097,18824644894,/g4t1,,success
Status,1098,18843480651,/g3t1_3,,running
Status,1099,18843603198,/g3t1_2,,running
Status,1100,18844320936,/g3t1_3,,success
Status,1101,18844821393,/g4t1,,success
Status,1102,18844891702,/g3t1_2,,success
Status,1103,18859062553,/g3t1_1,,running
Status,1104,18859211383,/g3t1_1,,success
Status,1105,18864943563,/g4t1,,fail
Status,1106,18885165772,/g4t1,,success
Status,1107,18905095511,/g4t1,,success
Status,1108,18925406393,/g4t1,,success
Status,1109,18942718431,/g3t1_3,,running
Status,1110,18942984259,/g3t1_2,,running
Status,1111,18943012347,/g3t1_3,,success
Status,1112,18943179950,/g3t1_2,,success
Status,1113,18944543139,/g4t1,,fail
Status,1114,18958500930,/g3t1_1,,running
Status,1115,18958702955,/g3t1_1,,success
Status,1116,18964618561,/g4t1,,success
Status,1117,18985572397,/g4t1,,success
Status,1118,19005685799,/g4t1,,success
Status,1119,19025976143,/g4t1,,success
Status,1120,19043291618,/g3t1_3,,running
Status,1121,19044029449,/g3t1_2,,running
Status,1122,19044075648,/g3t1_3,,success
Status,1123,19044365290,/g3t1_2,,success
Status,1124,19045553880,/g4t1,,fail
Status,1125,19059170775,/g3t1_1,,running
Status,1126,19059504438,/g3t1_1,,success
Status,1127,19066010633,/g4t1,,fail
Status,1128,19086168471,/g4t1,,success
Status,1129,19106275560,/g4t1,,success
Status,1130,19126377729,/g4t1,,success
Status,1131,19143568251,/g3t1_3,,running
Status,1132,19143848830,/g3t1_3,,success
Status,1133,19144140992,/g3t1_2,,running
Status,1134,19145018304,/g3t1_2,,success
Status,1135,19146159720,/g4t1,,fail
Status,1136,19159257018,/g3t1_1,,running
Status,1137,19159892664,/g3t1_1,,success
Status,1138,19167002199,/g4t1,,success
Status,1139,19186598549,/g4t1,,success
Status,1140,19206866290,/g4t1,,success
Status,1141,19227293849,/g4t1,,success
Status,1142,19243865197,/g3t1_3,,running
Status,1143,19244265727,/g3t1_3,,success
Status,1144,19244523781,/g3t1_2,,running
Status,1145,19245281924,/g3t1_2,,success
Status,1146,19246930292,/g4t1,,fail
Status,1147,19259674674,/g3t1_1,,running
Status,1148,19260444393,/g3t1_1,,success
Status,1149,19267379899,/g4t1,,fail
Status,1150,19287478618,/g4t1,,success
Status,1151,19307652081,/g4t1,,success
Status,1152,19327951271,/g4t1,,success
Status,1153,19343880496,/g3t1_3,,running
Status,1154,19344263352,/g3t1_3,,success
Status,1155,19344453336,/g3t1_2,,running
Status,1156,19344988852,/g3t1_2,,success
Status,1157,19347563782,/g4t1,,fail
Status,1158,19359511072,/g3t1_1,,running
Status,1159,19360173144,/g3t1_1,,success
Status,1160,19367923611,/g4t1,,success
Status,1161,19388105234,/g4t1,,success
Status,1162,19408309682,/g4t1,,success
Status,1163,19428338877,/g4t1,,success
Status,1164,19443927262,/g3t1_3,,running
Status,1165,19444377333,/g3t1_3,,success
Status,1166,19444644748,/g3t1_2,,running
Status,1167,19445301866,/g3t1_2,,success
Status,1168,19448324025,/g4t1,,fail
Status,1169,19459700460,/g3t1_1,,running
Status,1170,19460083980,/g3t1_1,,success
Status,1171,19468776768,/g4t1,,fail
Status,1172,19488592713,/g4t1,,success
Status,1173,19508759344,/g4t1,,success
Status,1174,19528142790,/g4t1,,success
Status,1175,19543978241,/g3t1_3,,running
Status,1176,19544042458,/g3t1_3,,success
Status,1177,19544353260,/g3t1_2,,running
Status,1178,19544620445,/g3t1_2,,success
Status,1179,19548123451,/g4t1,,fail
Status,1180,19559814536,/g3t1_1,,running
Status,1181,19559852990,/g3t1_1,,success
Status,1182,19568353990,/g4t1,,success
Status,1183,19588969338,/g4t1,,success
Status,1184,19608865187,/g4t1,,success
Status,1185,19628573157,/g4t1,,success
Status,1186,19643832508,/g3t1_3,,running
Status,1187,19644013840,/g3t1_3,,success
Status,1188,19644417403,/g3t1_2,,running
Status,1189,19644516679,/g3t1_2,,success
Status,1190,19648690698,/g4t1,,fail
Status,1191,19659232130,/g3t1_1,,running
Status,1192,19659318641,/g3t1_1,,success
Status,1193,19668791367,/g4t1,,fail
Status,1194,19688905504,/g4t1,,success
Status,1195,19709024942,/g4t1,,success
Status,1196,19729109508,/g4t1,,success
Status,1197,19743526667,/g3t1_3,,running
Status,1198,19743651944,/g3t1_3,,success
Status,1199,19744252290,/g3t1_2,,running
Status,1200,19744324139,/g3t1_2,,success
Status,1201,19749048892,/g4t1,,fail
Status,1202,19759435209,/g3t1_1,,running
Status,1203,19759453578,/g3t1_1,,success
Status,1204,19769227965,/g4t1,,success
Status,1205,19789248430,/g4t1,,success
Status,1206,19809434282,/g4t1,,success
Status,1207,19829568879,/g4t1,,success
Status,1208,19843672092,/g3t1_3,,running
Status,1209,19843781350,/g3t1_3,,success
Status,1210,19844338526,/g3t1_2,,running
Status,1211,19844480448,/g3t1_2,,success
Status,1212,19849569394,/g4t1,,fail
Status,1213,19859904495,/g3t1_1,,running
Status,1214,19859951899,/g3t1_1,,success
Status,1215,19869763467,/g4t1,,fail
Status,1216,19890312332,/g4t1,,success
Status,1217,19909964609,/g4t1,,success
Status,1218,19930028035,/g4t1,,success
Status,1219,19943815089,/g3t1_3,,running
Status,1220,19943832656,/g3t1_3,,success
Status,1221,19944420274,/g3t1_2,,running
Status,1222,19944433130,/g3t1_2,,success
Status,1223,19949928200,/g4t1,,fail
Status,1224,19959522195,/g3t1_1,,running
Status,1225,19959613859,/g3t1_1,,success
Status,1226,19970109405,/g4t1,,success
Status,1227,19990290012,/g4t1,,success
Status,1228,20010442022,/g4t1,,success
Status,1229,20030709885,/g4t1,,success
Status,1230,20043870546,/g3t1_3,,running
Status,1231,20044099751,/g3t1_3,,success
Status,1232,20044515615,/g3t1_2,,running
Status,1233,20044707475,/g3t1_2,,success
Status,1234,20050538983,/g4t1,,fail
Status,1235,20060056793,/g3t1_1,,running
Status,1236,20060359779,/g3t1_1,,success
Status,1237,20071560788,/g4t1,,fail
Status,1238,20091727447,/g4t1,,success
Status,1239,20111868573,/g4t1,,success
Status,1240,20132070957,/g4t1,,success
Status,1241,20144630113,/g3t1_3,,running
Status,1242,20145140575,/g3t1_3,,success
Status,1243,20145208200,/g3t1_2,,running
Status,1244,20145657942,/g3t1_2,,success
Status,1245,20151993128,/g4t1,,fail
Status,1246,20160268097,/g3t1_1,,running
Status,1247,20160665009,/g3t1_1,,success
Status,1248,20171885450,/g4t1,,success
Status,1249,20192468366,/g4t1,,success
Status,1250,20212488064,/g4t1,,success
Status,1251,20232107164,/g4t1,,success
Status,1252,20244705106,/g3t1_3,,running
Status,1253,20245275908,/g3t1_2,,running
Status,1254,20245332037,/g3t1_3,,success
Status,1255,20245535578,/g3t1_2,,success
Status,1256,20252211738,/g4t1,,fail
Status,1257,20260049563,/g3t1_1,,running
Status,1258,20260243563,/g3t1_1,,success
Status,1259,20272470479,/g4t1,,fail
Status,1260,20292559783,/g4t1,,success
Status,1261,20312635636,/g4t1,,success
Status,1262,20333020569,/g4t1,,success
Status,1263,20345159912,/g3t1_3,,running
Status,1264,20345845396,/g3t1_3,,success
Status,1265,20346056508,/g3t1_2,,running
Status,1266,20347752495,/g3t1_2,,success
Status,1267,20353301325,/g4t1,,fail
Status,1268,20360639947,/g3t1_1,,running
Status,1269,20360940925,/g3t1_1,,success
Status,1270,20373475709,/g4t1,,success
Status,1271,20393470870,/g4t1,,success
Status,1272,20413503575,/g4t1,,success
Status,1273,20433354022,/g4t1,,success
Status,1274,20445047702,/g3t1_3,,running
Status,1275,20445167607,/g3t1_3,,success
Status,1276,20445529729,/g3t1_2,,running
Status,1277,20445812939,/g3t1_2,,success
Status,1278,20453098156,/g4t1,,fail
Status,1279,20460165428,/g3t1_1,,running
Status,1280,20460196956,/g3t1_1,,success
Status,1281,20473509746,/g4t1,,fail
Status,1282,20494126366,/g4t1,,success
Status,1283,20514363526,/g4t1,,success
Status,1284,20534483813,/g4t1,,success
Status,1285,20545403971,/g3t1_3,,running
Status,1286,20545520952,/g3t1_3,,success
Status,1287,20545924037,/g3t1_2,,running
Status,1288,20546938315,/g3t1_2,,success
Status,1289,20554622246,/g4t1,,fail
Status,1290,20560782396,/g3t1_1,,running
Status,1291,20561153409,/g3t1_1,,success
Status,1292,20574691675,/g4t1,,success
Status,1293,20594273757,/g4t1,,success
Status,1294,20614287862,/g4t1,,success
Status,1295,20634371268,/g4t1,,success
Status,1296,20644603080,/g3t1_3,,running
Status,1297,20644734898,/g3t1_3,,success
Status,1298,20645374068,/g3t1_2,,running
Status,1299,20645495666,/g3t1_2,,success
Status,1300,20654414909,/g4t1,,fail
Status,1301,20660331775,/g3t1_1,,running
Status,1302,20660491763,/g3t1_1,,success
Status,1303,20675307428,/g4t1,,fail
Status,1304,20695554497,/g4t1,,success
Status,1305,20715543738,/g4t1,,success
Status,1306,20735776676,/g4t1,,success
Status,1307,20745493023,/g3t1_3,,running
Status,1308,20745571795,/g3t1_3,,success
Status,1309,20746176766,/g3t1_2,,running
Status,1310,20746429838,/g3t1_2,,success
Status,1311,20755790145,/g4t1,,fail
Status,1312,20761223104,/g3t1_1,,running
Status,1313,20761588770,/g3t1_1,,success
Status,1314,20775966135,/g4t1,,success
Status,1315,20796181422,/g4t1,,success
Status,1316,20816192089,/g4t1,,success
Status,1317,20836309158,/g4t1,,success
Status,1318,20845435054,/g3t1_3,,running
Status,1319,20846081071,/g3t1_3,,success
Status,1320,20846155254,/g3t1_2,,running
Status,1321,20846892304,/g3t1_2,,success
Status,1322,20856147353,/g4t1,,fail
Status,1323,20861396719,/g3t1_1,,running
Status,1324,20861728464,/g3t1_1,,success
Status,1325,20876469238,/g4t1,,fail
Status,1326,20896726869,/g4t1,,success
Status,1327,20916172266,/g4t1,,success
Status,1328,20936090964,/g4t1,,success
Status,1329,20944954668,/g3t1_3,,running
Status,1330,20944979899,/g3t1_3,,success
Status,1331,20945797312,/g3t1_2,,running
Status,1332,20945886351,/g3t1_2,,success
Status,1333,20956279259,/g4t1,,fail
Status,1334,20960857374,/g3t1_1,,running
Status,1335,20960946937,/g3t1_1,,success
Status,1336,20976478015,/g4t1,,success
Status,1337,20996613244,/g4t1,,success
Status,1338,21016859328,/g4t1,,success
Status,1339,21037331338,/g4t1,,success
Status,1340,21045461031,/g3t1_3,,running
Status,1341,21045734926,/g3t1_3,,success
Status,1342,21046151224,/g3t1_2,,running
Status,1343,21046700384,/g3t1_2,,success
Status,1344,21057590366,/g4t1,,fail
Status,1345,21061608711,/g3t1_1,,running
Status,1346,21062021007,/g3t1_1,,success
Status,1347,21077800632,/g4t1,,fail
Status,1348,21097709815,/g4t1,,success
Status,1349,21118544329,/g4t1,,success
Status,1350,21137970963,/g4t1,,success
Status,1351,21145978959,/g3t1_3,,running
Status,1352,21146056406,/g3t1_3,,success
Status,1353,21146388047,/g3t1_2,,running
Status,1354,21146618179,/g3t1_2,,success
Status,1355,21158224699,/g4t1,,fail
Status,1356,21161866248,/g3t1_1,,running
Status,1357,21161944876,/g3t1_1,,success
Status,1358,21178442456,/g4t1,,success
Status,1359,21198546394,/g4t1,,success
Status,1360,21218665522,/g4t1,,success
Status,1361,21238239010,/g4t1,,success
Status,1362,21245392869,/g3t1_3,,running
Status,1363,21245417393,/g3t1_3,,success
Status,1364,21245972543,/g3t1_2,,running
Status,1365,21246109474,/g3t1_2,,success
Status,1366,21258645022,/g4t1,,fail
Status,1367,21261228598,/g3t1_1,,running
Status,1368,21261354807,/g3t1_1,,success
Status,1369,21278301393,/g4t1,,fail
Status,1370,21298711411,/g4t1,,success
Status,1371,21319274230,/g4t1,,success
Status,1372,21339443689,/g4t1,,success
Status,1373,21345978599,/g3t1_3,,running
Status,1374,21346704151,/g3t1_2,,running
Status,1375,21346787381,/g3t1_3,,success
Status,1376,21347141795,/g3t1_2,,success
Status,1377,21359499452,/g4t1,,fail
Status,1378,21361565245,/g3t1_1,,running
Status,1379,21361985539,/g3t1_1,,success
Status,1380,21379604791,/g4t1,,success
Status,1381,21399784719,/g4t1,,success
Status,1382,21419950001,/g4t1,,success
Status,1383,21439330285,/g4t1,,success
Status,1384,21445812744,/g3t1_3,,running
Status,1385,21445836823,/g3t1_3,,success
Status,1386,21446197256,/g3t1_2,,running
Status,1387,21446359077,/g3t1_2,,success
Status,1388,21459385390,/g4t1,,fail
Status,1389,21461517669,/g3t1_1,,running
Status,1390,21461571092,/g3t1_1,,success
Status,1391,21479591353,/g4t1,,fail
Status,1392,21499748108,/g4t1,,success
Status,1393,21519958448,/g4t1,,success
Status,1394,21540379826,/g4t1,,success
Status,1395,21546163055,/g3t1_3,,running
Status,1396,21546805985,/g3t1_3,,success
Status,1397,21546925247,/g3t1_2,,running
Status,1398,21547365789,/g3t1_2,,success
Status,1399,21560630729,/g4t1,,fail
Status,1400,21562401567,/g3t1_1,,running
Status,1401,21562451717,/g3t1_1,,success
Status,1402,21580532866,/g4t1,,success
Status,1403,21600631274,/g4t1,,success
Status,1404,21620824629,/g4t1,,success
Status,1405,21640854492,/g4t1,,success
Status,1406,21646549924,/g3t1_3,,running
Status,1407,21646931633,/g3t1_2,,running
Status,1408,21647025394,/g3t1_3,,success
Status,1409,21647567736,/g3t1_2,,success
Status,1410,21661080821,/g4t1,,fail
Status,1411,21662262944,/g3t1_1,,running
Status,1412,21663737575,/g3t1_1,,success
Status,1413,21681010284,/g4t1,,fail
Status,1414,21701239807,/g4t1,,success
Status,1415,21721302828,/g4t1,,success
Status,1416,21741514808,/g4t1,,success
Status,1417,21746557803,/g3t1_3,,running
Status,1418,21746895249,/g3t1_2,,running
Status,1419,21746958213,/g3t1_3,,success
Status,1420,21747499681,/g3t1_2,,success
Status,1421,21761598395,/g4t1,,fail
Status,1422,21762316482,/g3t1_1,,running
Status,1423,21762667708,/g3t1_1,,success
Status,1424,21781676693,/g4t1,,success
Status,1425,21801911029,/g4t1,,success
Status,1426,21822042466,/g4t1,,success
Status,1427,21842062390,/g4t1,,success
Status,1428,21847334480,/g3t1_3,,running
Status,1429,21847415014,/g3t1_2,,running
Status,1430,21847479862,/g3t1_3,,success
Status,1431,21847501213,/g3t1_2,,success
Status,1432,21862273938,/g4t1,,fail
Status,1433,21862421347,/g3t1_1,,running
Status,1434,21863432870,/g3t1_1,,success
Status,1435,21882373869,/g4t1,,fail
Status,1436,21902511984,/g4t1,,success
Status,1437,21922610071,/g4t1,,success
Status,1438,21943124079,/g4t1,,success
Status,1439,21946968401,/g3t1_3,,running
Status,1440,21947675910,/g3t1_2,,running
Status,1441,21947747915,/g3t1_3,,success
Status,1442,21948237771,/g3t1_2,,success
Status,1443,21962635803,/g3t1_1,,running
Status,1444,21962689450,/g4t1,,fail
Status,1445,21962753522,/g3t1_1,,success
Status,1446,21982282754,/g4t1,,success
Status,1447,22002319563,/g4t1,,success
Status,1448,22022402349,/g4t1,,success
Status,1449,22043274440,/g4t1,,success
Status,1450,22046982074,/g3t1_3,,running
Status,1451,22047307539,/g3t1_3,,success
Status,1452,22047370437,/g3t1_2,,running
Status,1453,22047741006,/g3t1_2,,success
Status,1454,22062801597,/g3t1_1,,running
Status,1455,22063221286,/g3t1_1,,success
Status,1456,22063441393,/g4t1,,fail
Status,1457,22083530910,/g4t1,,fail
Status,1458,22103658942,/g4t1,,success
Status,1459,22123963329,/g4t1,,success
Status,1460,22143955893,/g4t1,,success
Status,1461,22147752672,/g3t1_3,,running
Status,1462,22147882269,/g3t1_2,,running
Status,1463,22147925058,/g3t1_3,,success
Status,1464,22148031013,/g3t1_2,,success
Status,1465,22163105004,/g3t1_1,,running
Status,1466,22163492321,/g3t1_1,,success
Status,1467,22163861557,/g4t1,,fail
Status,1468,22183662811,/g4t1,,success
Status,1469,22204145365,/g4t1,,success
Status,1470,22224420059,/g4t1,,success
Status,1471,22244296977,/g4t1,,success
Status,1472,22246736381,/g3t1_3,,running
Status,1473,22247173290,/g3t1_3,,success
Status,1474,22247217340,/g3t1_2,,running
Status,1475,22247534298,/g3t1_2,,success
Status,1476,22262779434,/g3t1_1,,running
Status,1477,22263365325,/g3t1_1,,success
Status,1478,22264132971,/g4t1,,fail
Status,1479,22284308601,/g4t1,,success
Status,1480,22304463578,/g4t1,,success
Status,1481,22324990745,/g4t1,,success
Status,1482,22345154422,/g4t1,,success
Status,1483,22347219802,/g3t1_3,,running
Status,1484,22347707605,/g3t1_3,,success
Status,1485,22347771004,/g3t1_2,,running
Status,1486,22348350354,/g3t1_2,,success
Status,1487,22363854082,/g3t1_1,,running
Status,1488,22363923692,/g3t1_1,,success
Status,1489,22365695203,/g4t1,,fail
Status,1490,22385218820,/g4t1,,success
Status,1491,22405380723,/g4t1,,success
Status,1492,22425691176,/g4t1,,success
Status,1493,22445688814,/g4t1,,success
Status,1494,22447391166,/g3t1_3,,running
Status,1495,22447885267,/g3t1_2,,running
Status,1496,22447950046,/g3t1_3,,success
Status,1497,22448639072,/g3t1_2,,success
Status,1498,22464002569,/g3t1_1,,running
Status,1499,22464556269,/g3t1_1,,success
Status,1500,22465868908,/g4t1,,fail
Status,1501,22485946724,/g4t1,,success
Status,1502,22506064086,/g4t1,,success
Status,1503,22526371437,/g4t1,,success
Status,1504,22546227956,/g4t1,,success
Status,1505,22547391718,/g3t1_3,,running
Status,1506,22548042663,/g3t1_3,,success
Status,1507,22548112263,/g3t1_2,,running
Status,1508,22548810988,/g3t1_2,,success
Status,1509,22563730586,/g3t1_1,,running
Status,1510,22564283947,/g3t1_1,,success
Status,1511,22566308079,/g4t1,,fail
Status,1512,22586506600,/g4t1,,success
Status,1513,22606675766,/g4t1,,success
Status,1514,22626793448,/g4t1,,success
Status,1515,22647323531,/g4t1,,success
Status,1516,22648789349,/g3t1_3,,running
Status,1517,22648881184,/g3t1_2,,running
Status,1518,22649005249,/g3t1_3,,success
Status,1519,22649325130,/g3t1_2,,success
Status,1520,22663250585,/g3t1_1,,running
Status,1521,22663459649,/g3t1_1,,success
Status,1522,22666197329,/g4t1,,fail
Status,1523,22686538126,/g4t1,,success
Status,1524,22706951504,/g4t1,,success
Status,1525,22727018853,/g4t1,,success
Status,1526,22746903712,/g4t1,,success
Status,1527,22747273512,/g3t1_3,,running
Status,1528,22747776404,/g3t1_3,,success
Status,1529,22747829668,/g3t1_2,,running
Status,1530,22748275493,/g3t1_2,,success
Status,1531,22763111551,/g3t1_1,,running
Status,1532,22763334828,/g3t1_1,,success
Status,1533,22766754343,/g4t1,,fail
Status,1534,22786998216,/g4t1,,success
Status,1535,22807632630,/g4t1,,success
Status,1536,22827571170,/g4t1,,success
Status,1537,22847294738,/g3t1_3,,running
Status,1538,22847325548,/g3t1_3,,success
Status,1539,22847339704,/g4t1,,success
Status,1540,22847806227,/g3t1_2,,running
Status,1541,22847916764,/g3t1_2,,success
Status,1542,22863372052,/g3t1_1,,running
Status,1543,22863398321,/g3t1_1,,success
Status,1544,22867382075,/g4t1,,fail
Status,1545,22887403546,/g4t1,,success
