
Status,2,3447160142,/g4t1,,init
Status,3,8563779911,/g3t1_2,,init
Status,6,8564138163,/g3t1_1,,init
Status,7,8575304730,/g3t1_1,,init
Status,8,8575323106,/g3t1_1,,running
Status,9,8575424437,/g3t1_2,,init
Status,10,8575437479,/g3t1_2,,running
Status,11,8575940935,/g3t1_1,,success
Status,12,8576067543,/g3t1_2,,success
Status,13,8625514873,/g3t1_1,,running
Status,14,8625535258,/g3t1_2,,running
Status,15,8625563395,/g3t1_1,,success
Status,16,8625640783,/g3t1_2,,success
Status,17,8675597396,/g3t1_1,,running
Status,18,8675615438,/g3t1_2,,running
Status,19,8675635250,/g3t1_1,,success
Status,20,8675680386,/g3t1_2,,success
Status,21,8725857002,/g3t1_1,,running
Status,22,8725903300,/g3t1_2,,running
Status,23,8725908609,/g3t1_1,,success
Status,24,8725914394,/g3t1_2,,success
Status,26,8764794510,/g3t1_3,,init
Status,27,8772374377,/g3t1_3,,init
Status,28,8772403840,/g3t1_3,,running
Status,29,8772919878,/g3t1_3,,success
Status,30,8775724067,/g3t1_1,,running
Status,31,8775738932,/g3t1_2,,running
Status,32,8775890718,/g3t1_1,,success
Status,33,8775910987,/g3t1_2,,success
Status,34,8822618082,/g3t1_3,,running
Status,35,8822771485,/g3t1_3,,success
Status,36,8825909210,/g3t1_1,,running
Status,37,8825989307,/g3t1_2,,running
Status,38,8826025499,/g3t1_1,,success
Status,39,8826119198,/g3t1_2,,success
Status,40,8873229532,/g3t1_3,,running
Status,41,8873559523,/g3t1_3,,success
Status,42,8876552282,/g3t1_1,,running
Status,43,8876680552,/g3t1_2,,running
Status,44,8877314906,/g3t1_2,,success
Status,45,8877428872,/g3t1_1,,success
Status,46,8922968765,/g3t1_3,,running
Status,47,8923095447,/g3t1_3,,success
Status,48,8926274607,/g3t1_1,,running
Status,49,8926309782,/g3t1_2,,running
Status,50,8926490072,/g3t1_1,,success
Status,51,8926517208,/g3t1_2,,success
Status,52,8965575153,/g4t1,,success
Status,53,8973373004,/g3t1_3,,running
Status,54,8973653477,/g3t1_3,,success
Status,55,8976722106,/g3t1_2,,running
Status,56,8976802138,/g3t1_1,,running
Status,57,8977122806,/g3t1_1,,success
Status,58,8977193429,/g3t1_2,,success
Status,59,9024013946,/g3t1_3,,running
Status,60,9024562280,/g3t1_3,,success
Status,61,9026955987,/g3t1_2,,running
Status,62,9027034358,/g3t1_1,,running
Status,63,9027550976,/g3t1_2,,success
Status,64,9027715504,/g3t1_1,,success
Status,65,9065792633,/g4t1,,success
Status,66,9073584895,/g3t1_3,,running
Status,67,9073925206,/g3t1_3,,success
Status,68,9077355102,/g3t1_2,,running
Status,69,9077486606,/g3t1_1,,running
Status,70,9077513121,/g3t1_2,,success
Status,71,9077554411,/g3t1_1,,success
Status,72,9124088573,/g3t1_3,,running
Status,73,9124693005,/g3t1_3,,success
Status,74,9127342609,/g3t1_2,,running
Status,75,9127427501,/g3t1_1,,running
Status,76,9127626754,/g3t1_2,,success
Status,77,9127670899,/g3t1_1,,success
Status,78,9165716109,/g4t1,,success
Status,79,9173926795,/g3t1_3,,running
Status,80,9174475506,/g3t1_3,,success
Status,81,9177517480,/g3t1_2,,running
Status,82,9177601361,/g3t1_1,,running
Status,83,9178198281,/g3t1_2,,success
Status,84,9178259877,/g3t1_1,,success
Status,85,9224301308,/g3t1_3,,running
Status,86,9224521591,/g3t1_3,,success
Status,87,9227559392,/g3t1_2,,running
Status,88,9227648196,/g3t1_1,,running
Status,89,9227980790,/g3t1_1,,success
Status,90,9228119848,/g3t1_2,,success
Status,91,9265971339,/g4t1,,fail
Status,92,9274322009,/g3t1_3,,running
Status,93,9274826718,/g3t1_3,,success
Status,94,9277570981,/g3t1_2,,running
Status,95,9277652475,/g3t1_1,,running
Status,96,9278057509,/g3t1_2,,success
Status,97,9278140352,/g3t1_1,,success
Status,98,9324799151,/g3t1_3,,running
Status,99,9325066665,/g3t1_3,,success
Status,100,9327668715,/g3t1_2,,running
Status,101,9327764382,/g3t1_1,,running
Status,102,9328182301,/g3t1_2,,success
Status,103,9328251443,/g3t1_1,,success
Status,104,9366233224,/g4t1,,fail
Status,105,9374546614,/g3t1_3,,running
Status,106,9374735027,/g3t1_3,,success
Status,107,9378031202,/g3t1_2,,running
Status,108,9378124653,/g3t1_1,,running
Status,109,9378503175,/g3t1_1,,success
Status,110,9378635425,/g3t1_2,,success
Status,111,9424897634,/g3t1_3,,running
Status,112,9425215308,/g3t1_3,,success
Status,113,9427672801,/g3t1_2,,running
Status,114,9428172669,/g3t1_1,,running
Status,115,9428278985,/g3t1_1,,success
Status,116,9428326064,/g3t1_2,,success
Status,117,9466471962,/g4t1,,fail
Status,118,9474953231,/g3t1_3,,running
Status,119,9475591728,/g3t1_3,,success
Status,120,9478327286,/g3t1_2,,running
Status,121,9478389508,/g3t1_1,,running
Status,122,9478436426,/g3t1_1,,success
Status,123,9478633371,/g3t1_2,,success
Status,124,9525177442,/g3t1_3,,running
Status,125,9525339223,/g3t1_3,,success
Status,126,9528208038,/g3t1_2,,running
Status,127,9528294636,/g3t1_1,,running
Status,128,9528810432,/g3t1_2,,success
Status,129,9529198408,/g3t1_1,,success
Status,130,9566809639,/g4t1,,fail
Status,131,9575347072,/g3t1_3,,running
Status,132,9576279138,/g3t1_3,,success
Status,133,9578087038,/g3t1_2,,running
Status,134,9578229771,/g3t1_1,,running
Status,135,9578338899,/g3t1_2,,success
Status,136,9578693881,/g3t1_1,,success
Status,137,9625656069,/g3t1_3,,running
Status,138,9625942090,/g3t1_3,,success
Status,139,9628295617,/g3t1_2,,running
Status,140,9628378407,/g3t1_1,,running
Status,141,9628795550,/g3t1_2,,success
Status,142,9628870134,/g3t1_1,,success
Status,143,9666691947,/g4t1,,fail
Status,144,9675878176,/g3t1_3,,running
Status,145,9676327903,/g3t1_3,,success
Status,146,9678743790,/g3t1_2,,running
Status,147,9678854770,/g3t1_1,,running
Status,148,9678937798,/g3t1_2,,success
Status,149,9678971850,/g3t1_1,,success
Status,150,9726185587,/g3t1_3,,running
Status,151,9726270865,/g3t1_3,,success
Status,152,9728572686,/g3t1_2,,running
Status,153,9728721199,/g3t1_1,,running
Status,154,9728851359,/g3t1_2,,success
Status,155,9729323325,/g3t1_1,,success
Status,156,9766801568,/g4t1,,fail
Status,157,9776149059,/g3t1_3,,running
Status,158,9776471743,/g3t1_3,,success
Status,159,9779057952,/g3t1_2,,running
Status,160,9779116059,/g3t1_1,,running
Status,161,9779206050,/g3t1_2,,success
Status,162,9779599889,/g3t1_1,,success
Status,163,9826406549,/g3t1_3,,running
Status,164,9826912446,/g3t1_3,,success
Status,165,9828640520,/g3t1_2,,running
Status,166,9828740470,/g3t1_1,,running
Status,167,9829280861,/g3t1_2,,success
Status,168,9829360445,/g3t1_1,,success
Status,169,9867063733,/g4t1,,fail
Status,170,9876541005,/g3t1_3,,running
Status,171,9876936966,/g3t1_3,,success
Status,172,9878870209,/g3t1_2,,running
Status,173,9879354202,/g3t1_1,,running
Status,174,9879469724,/g3t1_2,,success
Status,175,9880052663,/g3t1_1,,success
Status,176,9926898243,/g3t1_3,,running
Status,177,9927274770,/g3t1_3,,success
Status,178,9929009278,/g3t1_2,,running
Status,179,9929127217,/g3t1_1,,running
Status,180,9929531552,/g3t1_2,,success
Status,181,9929618935,/g3t1_1,,success
Status,182,9967103432,/g4t1,,fail
Status,183,9976841334,/g3t1_3,,running
Status,184,9977235822,/g3t1_3,,success
Status,185,9979436057,/g3t1_2,,running
Status,186,9979556496,/g3t1_1,,running
Status,187,9979602886,/g3t1_1,,success
Status,188,9979681633,/g3t1_2,,success
Status,189,10027360718,/g3t1_3,,running
Status,190,10027858230,/g3t1_3,,success
Status,191,10029091957,/g3t1_2,,running
Status,192,10029178249,/g3t1_1,,running
Status,193,10029561593,/g3t1_1,,success
Status,194,10029633020,/g3t1_2,,success
Status,195,10067327449,/g4t1,,fail
Status,196,10077220854,/g3t1_3,,running
Status,197,10077704229,/g3t1_3,,success
Status,198,10079251489,/g3t1_2,,running
Status,199,10079374886,/g3t1_1,,running
Status,200,10079743328,/g3t1_2,,success
Status,201,10079832856,/g3t1_1,,success
Status,202,10127462281,/g3t1_3,,running
Status,203,10127985779,/g3t1_3,,success
Status,204,10129255836,/g3t1_2,,running
Status,205,10129392133,/g3t1_1,,running
Status,206,10129819479,/g3t1_2,,success
Status,207,10129894224,/g3t1_1,,success
Status,208,10167482907,/g4t1,,fail
Status,209,10177855867,/g3t1_3,,running
Status,210,10178089141,/g3t1_3,,success
Status,211,10180122509,/g3t1_2,,running
Status,212,10180178371,/g3t1_2,,success
Status,213,10180242419,/g3t1_1,,running
Status,214,10180278643,/g3t1_1,,success
Status,215,10227817152,/g3t1_3,,running
Status,216,10228289283,/g3t1_3,,success
Status,217,10229858157,/g3t1_2,,running
Status,218,10229921028,/g3t1_1,,running
Status,219,10229989333,/g3t1_2,,success
Status,220,10230108794,/g3t1_1,,success
Status,221,10267606540,/g4t1,,fail
Status,222,10277899531,/g3t1_3,,running
Status,223,10278358463,/g3t1_3,,success
Status,224,10279563581,/g3t1_2,,running
Status,225,10280034293,/g3t1_1,,running
Status,226,10280414414,/g3t1_2,,success
Status,227,10280490497,/g3t1_1,,success
Status,228,10328199590,/g3t1_3,,running
Status,229,10328356041,/g3t1_3,,success
Status,230,10330029220,/g3t1_2,,running
Status,231,10330094391,/g3t1_1,,running
Status,232,10330129429,/g3t1_2,,success
Status,233,10330155518,/g3t1_1,,success
Status,234,10367699987,/g4t1,,fail
Status,235,10378249222,/g3t1_3,,running
Status,236,10378672696,/g3t1_3,,success
Status,237,10379850487,/g3t1_2,,running
Status,238,10379925694,/g3t1_1,,running
Status,239,10380114754,/g3t1_2,,success
Status,240,10380150249,/g3t1_1,,success
Status,241,10428504179,/g3t1_3,,running
Status,242,10428942368,/g3t1_3,,success
Status,243,10429910303,/g3t1_2,,running
Status,244,10430542989,/g3t1_2,,success
Status,245,10430661095,/g3t1_1,,running
Status,246,10430739452,/g3t1_1,,success
Status,247,10467720692,/g4t1,,fail
Status,248,10478681513,/g3t1_3,,running
Status,249,10479320462,/g3t1_3,,success
Status,250,10480238824,/g3t1_2,,running
Status,251,10480305395,/g3t1_1,,running
Status,252,10480409736,/g3t1_2,,success
Status,253,10480539408,/g3t1_1,,success
Status,254,10529054711,/g3t1_3,,running
Status,255,10529281547,/g3t1_3,,success
Status,256,10530373743,/g3t1_2,,running
Status,257,10531172312,/g3t1_1,,running
Status,258,10531232833,/g3t1_2,,success
Status,259,10531286071,/g3t1_1,,success
Status,260,10567992265,/g4t1,,fail
Status,261,10578975658,/g3t1_3,,running
Status,262,10579416611,/g3t1_3,,success
Status,263,10580640900,/g3t1_2,,running
Status,264,10580712795,/g3t1_1,,running
Status,265,10580759626,/g3t1_2,,success
Status,266,10581442125,/g3t1_1,,success
Status,267,10629077037,/g3t1_3,,running
Status,268,10629509746,/g3t1_3,,success
Status,269,10630486194,/g3t1_2,,running
Status,270,10631170212,/g3t1_1,,running
Status,271,10631281665,/g3t1_2,,success
Status,272,10631569006,/g3t1_1,,success
Status,273,10668036047,/g4t1,,fail
Status,274,10679111178,/g3t1_3,,running
Status,275,10679598340,/g3t1_3,,success
Status,276,10680773989,/g3t1_2,,running
Status,277,10680851239,/g3t1_1,,running
Status,278,10681435713,/g3t1_1,,success
Status,279,10681548315,/g3t1_2,,success
Status,280,10729362974,/g3t1_3,,running
Status,281,10730007385,/g3t1_3,,success
Status,282,10730700064,/g3t1_2,,running
Status,283,10731279260,/g3t1_1,,running
Status,284,10731343082,/g3t1_2,,success
Status,285,10731434604,/g3t1_1,,success
Status,286,10768122548,/g4t1,,fail
Status,287,10779597818,/g3t1_3,,running
Status,288,10779882336,/g3t1_3,,success
Status,289,10780566319,/g3t1_2,,running
Status,290,10781726860,/g3t1_2,,success
Status,291,10781787036,/g3t1_1,,running
Status,292,10781812233,/g3t1_1,,success
Status,293,10829715636,/g3t1_3,,running
Status,294,10830123250,/g3t1_3,,success
Status,295,10831759622,/g3t1_2,,running
Status,296,10831831431,/g3t1_1,,running
Status,297,10831871714,/g3t1_1,,success
Status,298,10831903835,/g3t1_2,,success
Status,299,10868165577,/g4t1,,fail
Status,300,10879665853,/g3t1_3,,running
Status,301,10880381680,/g3t1_3,,success
Status,302,10881198231,/g3t1_2,,running
Status,303,10881929447,/g3t1_1,,running
Status,304,10882013683,/g3t1_2,,success
Status,305,10882175725,/g3t1_1,,success
Status,306,10929962993,/g3t1_3,,running
Status,307,10930830461,/g3t1_3,,success
Status,308,10931728500,/g3t1_2,,running
Status,309,10931793412,/g3t1_1,,running
Status,310,10931955159,/g3t1_2,,success
Status,311,10932579745,/g3t1_1,,success
Status,312,10968349081,/g4t1,,fail
Status,313,10980165354,/g3t1_3,,running
Status,314,10980877138,/g3t1_3,,success
Status,315,10981351864,/g3t1_2,,running
Status,316,10981476474,/g3t1_1,,running
Status,317,10982172655,/g3t1_2,,success
Status,318,10982314163,/g3t1_1,,success
Status,319,11030825014,/g3t1_3,,running
Status,320,11030945719,/g3t1_3,,success
Status,321,11031081319,/g3t1_2,,running
Status,322,11031580779,/g3t1_1,,running
Status,323,11031669580,/g3t1_2,,success
Status,324,11032076453,/g3t1_1,,success
Status,325,11068460357,/g4t1,,fail
Status,326,11080431869,/g3t1_3,,running
Status,327,11080524441,/g3t1_3,,success
Status,328,11081809530,/g3t1_2,,running
Status,329,11082050864,/g3t1_1,,running
Status,330,11082145793,/g3t1_2,,success
Status,331,11082433344,/g3t1_1,,success
Status,332,11130352845,/g3t1_3,,running
Status,333,11130556720,/g3t1_3,,success
Status,334,11131080731,/g3t1_2,,running
Status,335,11131116382,/g3t1_2,,success
Status,336,11131318108,/g3t1_1,,running
Status,337,11131635900,/g3t1_1,,success
Status,338,11168690465,/g4t1,,fail
Status,339,11180892568,/g3t1_3,,running
Status,340,11181330797,/g3t1_3,,success
Status,341,11181406682,/g3t1_2,,running
Status,342,11182291115,/g3t1_1,,running
Status,343,11182544053,/g3t1_1,,success
Status,344,11182946806,/g3t1_2,,success
Status,345,11231229614,/g3t1_3,,running
Status,346,11231747051,/g3t1_3,,success
Status,347,11232471233,/g3t1_2,,running
Status,348,11232516241,/g3t1_1,,running
Status,349,11232555877,/g3t1_2,,success
Status,350,11232621970,/g3t1_1,,success
Status,351,11268913042,/g4t1,,fail
Status,352,11281150407,/g3t1_3,,running
Status,353,11281636973,/g3t1_3,,success
Status,354,11281743703,/g3t1_2,,running
Status,355,11282520937,/g3t1_1,,running
Status,356,11282674295,/g3t1_2,,success
Status,357,11282778348,/g3t1_1,,success
Status,358,11331446319,/g3t1_3,,running
Status,359,11332155485,/g3t1_2,,running
Status,360,11332221007,/g3t1_3,,success
Status,361,11332367549,/g3t1_2,,success
Status,362,11332408673,/g3t1_1,,running
Status,363,11333162118,/g3t1_1,,success
Status,364,11368941650,/g4t1,,fail
Status,365,11381894720,/g3t1_3,,running
Status,366,11382020763,/g3t1_3,,success
Status,367,11382067027,/g3t1_2,,running
Status,368,11382696322,/g3t1_1,,running
Status,369,11383238722,/g3t1_1,,success
Status,370,11383349781,/g3t1_2,,success
Status,371,11431842328,/g3t1_3,,running
Status,372,11432358260,/g3t1_2,,running
Status,373,11433034017,/g3t1_1,,running
Status,374,11433155970,/g3t1_2,,success
Status,375,11433514888,/g3t1_1,,success
Status,376,11433565789,/g3t1_3,,success
Status,377,11469183923,/g4t1,,fail
Status,378,11482652332,/g3t1_3,,running
Status,379,11482769230,/g3t1_2,,running
Status,380,11482963189,/g3t1_3,,success
Status,381,11483012991,/g3t1_1,,running
Status,382,11483157055,/g3t1_2,,success
Status,383,11483660714,/g3t1_1,,success
Status,384,11532434493,/g3t1_3,,running
Status,385,11532546548,/g3t1_2,,running
Status,386,11532861394,/g3t1_3,,success
Status,387,11533032341,/g3t1_2,,success
Status,388,11533126711,/g3t1_1,,running
Status,389,11533431429,/g3t1_1,,success
Status,390,11569279013,/g4t1,,fail
Status,391,11582857461,/g3t1_3,,running
Status,392,11582951003,/g3t1_2,,running
Status,393,11583349875,/g3t1_3,,success
Status,394,11583444695,/g3t1_2,,success
Status,395,11583510695,/g3t1_1,,running
Status,396,11583806737,/g3t1_1,,success
Status,397,11632631673,/g3t1_3,,running
Status,398,11632759126,/g3t1_2,,running
Status,399,11633277512,/g3t1_2,,success
Status,400,11633357912,/g3t1_3,,success
Status,401,11633449547,/g3t1_1,,running
Status,402,11633828140,/g3t1_1,,success
Status,403,11669463672,/g4t1,,fail
Status,404,11683000354,/g3t1_3,,running
Status,405,11683134122,/g3t1_2,,running
Status,406,11683182556,/g3t1_3,,success
Status,407,11683576434,/g3t1_2,,success
Status,408,11683627703,/g3t1_1,,running
Status,409,11683961547,/g3t1_1,,success
Status,410,11732992936,/g3t1_3,,running
Status,411,11733156533,/g3t1_2,,running
Status,412,11733476316,/g3t1_3,,success
Status,413,11733678517,/g3t1_2,,success
Status,414,11733977961,/g3t1_1,,running
Status,415,11734048266,/g3t1_1,,success
Status,416,11769831173,/g4t1,,fail
Status,417,11783097817,/g3t1_3,,running
Status,418,11783227636,/g3t1_2,,running
Status,419,11783329610,/g3t1_3,,success
Status,420,11783986534,/g3t1_1,,running
Status,421,11784107630,/g3t1_2,,success
Status,422,11784248478,/g3t1_1,,success
Status,423,11833632526,/g3t1_3,,running
Status,424,11833773278,/g3t1_2,,running
Status,425,11833869825,/g3t1_3,,success
Status,426,11833912011,/g3t1_2,,success
Status,427,11834362202,/g3t1_1,,running
Status,428,11834654604,/g3t1_1,,success
Status,429,11869922020,/g4t1,,fail
Status,430,11883611587,/g3t1_3,,running
Status,431,11883754911,/g3t1_2,,running
Status,432,11884061797,/g3t1_3,,success
Status,433,11884141454,/g3t1_1,,running
Status,434,11884624462,/g3t1_1,,success
Status,435,11884689088,/g3t1_2,,success
Status,436,11933320276,/g3t1_3,,running
Status,437,11934345818,/g3t1_2,,running
Status,438,11934449906,/g3t1_3,,success
Status,439,11934492797,/g3t1_1,,running
Status,440,11935350401,/g3t1_1,,success
Status,441,11935434376,/g3t1_2,,success
Status,442,11970152475,/g4t1,,fail
Status,443,11983627349,/g3t1_3,,running
Status,444,11983814826,/g3t1_2,,running
Status,445,11983962742,/g3t1_3,,success
Status,446,11984004155,/g3t1_1,,running
Status,447,11984043868,/g3t1_2,,success
Status,448,11984442020,/g3t1_1,,success
Status,449,12033983984,/g3t1_3,,running
Status,450,12034386069,/g3t1_3,,success
Status,451,12034442023,/g3t1_2,,running
Status,452,12034475607,/g3t1_1,,running
Status,453,12034544842,/g3t1_2,,success
Status,454,12035027397,/g3t1_1,,success
Status,455,12070280688,/g4t1,,fail
Status,456,12083755161,/g3t1_3,,running
Status,457,12083839095,/g3t1_2,,running
Status,458,12084367606,/g3t1_3,,success
Status,459,12084472054,/g3t1_1,,running
Status,460,12084523262,/g3t1_2,,success
Status,461,12084917681,/g3t1_1,,success
Status,462,12133996589,/g3t1_3,,running
Status,463,12134065170,/g3t1_2,,running
Status,464,12134197002,/g3t1_3,,success
Status,465,12134644011,/g3t1_1,,running
Status,466,12135091107,/g3t1_2,,success
Status,467,12135154319,/g3t1_1,,success
Status,468,12170328075,/g4t1,,fail
Status,469,12184145594,/g3t1_3,,running
Status,470,12184291158,/g3t1_2,,running
Status,471,12184404121,/g3t1_3,,success
Status,472,12184445144,/g3t1_2,,success
Status,473,12184472162,/g3t1_1,,running
Status,474,12184918169,/g3t1_1,,success
Status,475,12234363132,/g3t1_3,,running
Status,476,12234443729,/g3t1_2,,running
Status,477,12234611425,/g3t1_3,,success
Status,478,12235239552,/g3t1_1,,running
Status,479,12235316912,/g3t1_2,,success
Status,480,12235447208,/g3t1_1,,success
Status,481,12270365797,/g4t1,,fail
Status,482,12284022711,/g3t1_3,,running
Status,483,12284689515,/g3t1_2,,running
Status,484,12284767881,/g3t1_3,,success
Status,485,12284806840,/g3t1_2,,success
Status,486,12285044382,/g3t1_1,,running
Status,487,12285356658,/g3t1_1,,success
Status,488,12334277870,/g3t1_3,,running
Status,489,12334671940,/g3t1_2,,running
Status,490,12334728947,/g3t1_3,,success
Status,491,12335168186,/g3t1_2,,success
Status,492,12335210469,/g3t1_1,,running
Status,493,12335833932,/g3t1_1,,success
Status,494,12370541078,/g4t1,,fail
Status,495,12384338458,/g3t1_3,,running
Status,496,12384639845,/g3t1_2,,running
Status,497,12385033020,/g3t1_3,,success
Status,498,12385154973,/g3t1_2,,success
Status,499,12385243221,/g3t1_1,,running
Status,500,12385686346,/g3t1_1,,success
Status,501,12434421859,/g3t1_3,,running
Status,502,12434921727,/g3t1_2,,running
Status,503,12434995857,/g3t1_3,,success
Status,504,12435337643,/g3t1_2,,success
Status,505,12435454435,/g3t1_1,,running
Status,506,12435708894,/g3t1_1,,success
Status,507,12470817906,/g4t1,,fail
Status,508,12484694357,/g3t1_3,,running
Status,509,12484814155,/g3t1_2,,running
Status,510,12485727278,/g3t1_1,,running
Status,511,12485804582,/g3t1_3,,success
Status,512,12485890796,/g3t1_2,,success
Status,513,12486341376,/g3t1_1,,success
Status,514,12534751429,/g3t1_3,,running
Status,515,12534919544,/g3t1_2,,running
Status,516,12535353375,/g3t1_3,,success
Status,517,12535459724,/g3t1_2,,success
Status,518,12535498359,/g3t1_1,,running
Status,519,12536162421,/g3t1_1,,success
Status,520,12570807355,/g4t1,,fail
Status,521,12585047446,/g3t1_3,,running
Status,522,12585158273,/g3t1_2,,running
Status,523,12585605604,/g3t1_3,,success
Status,524,12586058803,/g3t1_2,,success
Status,525,12586119653,/g3t1_1,,running
Status,526,12586166564,/g3t1_1,,success
Status,527,12635194580,/g3t1_3,,running
Status,528,12635277772,/g3t1_2,,running
Status,529,12635406123,/g3t1_3,,success
Status,530,12636119016,/g3t1_2,,success
Status,531,12636198360,/g3t1_1,,running
Status,532,12636703646,/g3t1_1,,success
Status,533,12670940744,/g4t1,,fail
Status,534,12685117726,/g3t1_3,,running
Status,535,12685255032,/g3t1_2,,running
Status,536,12685715907,/g3t1_3,,success
Status,537,12686555953,/g3t1_1,,running
Status,538,12686683137,/g3t1_2,,success
Status,539,12686786589,/g3t1_1,,success
Status,540,12735718554,/g3t1_3,,running
Status,541,12736257554,/g3t1_3,,success
Status,542,12736329069,/g3t1_2,,running
Status,543,12736463039,/g3t1_2,,success
Status,544,12736518026,/g3t1_1,,running
Status,545,12736742354,/g3t1_1,,success
Status,546,12771084678,/g4t1,,fail
Status,547,12785433798,/g3t1_3,,running
Status,548,12785563018,/g3t1_2,,running
Status,549,12786109000,/g3t1_3,,success
Status,550,12786188408,/g3t1_1,,running
Status,551,12786632972,/g3t1_2,,success
Status,552,12787658000,/g3t1_1,,success
Status,553,12836397662,/g3t1_3,,running
Status,554,12836474961,/g3t1_2,,running
Status,555,12836589920,/g3t1_3,,success
Status,556,12836626901,/g3t1_1,,running
Status,557,12836661618,/g3t1_2,,success
Status,558,12836687467,/g3t1_1,,success
Status,559,12871300708,/g4t1,,fail
Status,560,12885832593,/g3t1_3,,running
Status,561,12885922247,/g3t1_2,,running
Status,562,12886713888,/g3t1_2,,success
Status,563,12886839413,/g3t1_1,,running
Status,564,12886970657,/g3t1_3,,success
Status,565,12887012515,/g3t1_1,,success
Status,566,12935980920,/g3t1_3,,running
Status,567,12936081595,/g3t1_2,,running
Status,568,12936226715,/g3t1_3,,success
Status,569,12936693151,/g3t1_2,,success
Status,570,12936759075,/g3t1_1,,running
Status,571,12937112285,/g3t1_1,,success
Status,572,12971437820,/g4t1,,fail
Status,573,12986069966,/g3t1_3,,running
Status,574,12986159816,/g3t1_2,,running
Status,575,12986799155,/g3t1_3,,success
Status,576,12986872166,/g3t1_1,,running
Status,577,12986935348,/g3t1_2,,success
Status,578,12986978070,/g3t1_1,,success
Status,579,13036201183,/g3t1_3,,running
Status,580,13036676780,/g3t1_2,,running
Status,581,13036814479,/g3t1_1,,running
Status,582,13037377111,/g3t1_2,,success
Status,583,13037528404,/g3t1_1,,success
Status,584,13037651600,/g3t1_3,,success
Status,585,13071451377,/g4t1,,fail
Status,586,13086877518,/g3t1_3,,running
Status,587,13087021407,/g3t1_2,,running
Status,588,13087204788,/g3t1_3,,success
Status,589,13087305265,/g3t1_1,,running
Status,590,13087330785,/g3t1_2,,success
Status,591,13087742820,/g3t1_1,,success
Status,592,13136534836,/g3t1_3,,running
Status,593,13137194120,/g3t1_2,,running
Status,594,13137260691,/g3t1_3,,success
Status,595,13137296135,/g3t1_2,,success
Status,596,13137849799,/g3t1_1,,running
Status,597,13137961373,/g3t1_1,,success
Status,598,13171655576,/g4t1,,fail
Status,599,13187285552,/g3t1_3,,running
Status,600,13187366528,/g3t1_2,,running
Status,601,13187451053,/g3t1_3,,success
Status,602,13187483199,/g3t1_2,,success
Status,603,13187514478,/g3t1_1,,running
Status,604,13187925681,/g3t1_1,,success
Status,605,13236893637,/g3t1_3,,running
Status,606,13237138528,/g3t1_2,,running
Status,607,13237208509,/g3t1_3,,success
Status,608,13238016762,/g3t1_2,,success
Status,609,13238099617,/g3t1_1,,running
Status,610,13238428783,/g3t1_1,,success
Status,611,13271876661,/g4t1,,fail
Status,612,13286960073,/g3t1_3,,running
Status,613,13287070575,/g3t1_2,,running
Status,614,13287626610,/g3t1_2,,success
Status,615,13287799651,/g3t1_3,,success
Status,616,13287847619,/g3t1_1,,running
Status,617,13288312451,/g3t1_1,,success
Status,618,13336668086,/g3t1_3,,running
Status,619,13336697499,/g3t1_2,,running
Status,620,13336714858,/g3t1_2,,success
Status,621,13336726965,/g3t1_3,,success
Status,622,13337171014,/g3t1_1,,running
Status,623,13337313284,/g3t1_1,,success
Status,624,13371415326,/g4t1,,fail
Status,625,13387475040,/g3t1_3,,running
Status,626,13387555489,/g3t1_2,,running
Status,627,13388652999,/g3t1_1,,running
Status,628,13388712227,/g3t1_3,,success
Status,629,13388735708,/g3t1_2,,success
Status,630,13388763566,/g3t1_1,,success
Status,631,13437686022,/g3t1_2,,running
Status,632,13437781347,/g3t1_3,,running
Status,633,13438255436,/g3t1_2,,success
Status,634,13438391409,/g3t1_3,,success
Status,635,13438792997,/g3t1_1,,running
Status,636,13438974519,/g3t1_1,,success
Status,637,13471929239,/g4t1,,fail
Status,638,13488160260,/g3t1_3,,running
Status,639,13488257961,/g3t1_2,,running
Status,640,13488305378,/g3t1_1,,running
Status,641,13488366401,/g3t1_2,,success
Status,642,13488844904,/g3t1_1,,success
Status,643,13489079643,/g3t1_3,,success
Status,644,13538745048,/g3t1_3,,running
Status,645,13538807943,/g3t1_2,,running
Status,646,13538836299,/g3t1_1,,running
Status,647,13539002372,/g3t1_3,,success
Status,648,13539030876,/g3t1_2,,success
Status,649,13539051199,/g3t1_1,,success
Status,650,13572115425,/g4t1,,fail
Status,651,13588101941,/g3t1_3,,running
Status,652,13588226778,/g3t1_2,,running
Status,653,13589197741,/g3t1_2,,success
Status,654,13589242621,/g3t1_3,,success
Status,655,13589324275,/g3t1_1,,running
Status,656,13589347478,/g3t1_1,,success
Status,657,13638781310,/g3t1_3,,running
Status,658,13638837142,/g3t1_2,,running
Status,659,13638958126,/g3t1_1,,running
Status,660,13638984827,/g3t1_2,,success
Status,661,13639004710,/g3t1_1,,success
Status,662,13639296277,/g3t1_3,,success
Status,663,13672205656,/g4t1,,fail
Status,664,13688942796,/g3t1_3,,running
Status,665,13689037161,/g3t1_2,,running
Status,666,13689139808,/g3t1_1,,running
Status,667,13689179151,/g3t1_1,,success
Status,668,13689206441,/g3t1_2,,success
Status,669,13689278869,/g3t1_3,,success
Status,670,13739348299,/g3t1_1,,running
Status,671,13739407539,/g3t1_3,,running
Status,672,13739431571,/g3t1_2,,running
Status,673,13739454495,/g3t1_1,,success
Status,674,13739477565,/g3t1_2,,success
Status,675,13739503530,/g3t1_3,,success
Status,676,13772245424,/g4t1,,fail
Status,677,13789063526,/g3t1_3,,running
Status,678,13789139805,/g3t1_2,,running
Status,679,13789173747,/g3t1_1,,running
Status,680,13789266559,/g3t1_2,,success
Status,681,13789288958,/g3t1_1,,success
Status,682,13789311326,/g3t1_3,,success
Status,683,13839779176,/g3t1_3,,running
Status,684,13839907409,/g3t1_2,,running
Status,685,13839974071,/g3t1_1,,running
Status,686,13840060406,/g3t1_3,,success
Status,687,13840095372,/g3t1_2,,success
Status,688,13840412394,/g3t1_1,,success
Status,689,13872448438,/g4t1,,fail
Status,690,13889232341,/g3t1_3,,running
Status,691,13889396779,/g3t1_2,,running
Status,692,13889448013,/g3t1_1,,running
Status,693,13889487827,/g3t1_2,,success
Status,694,13889521967,/g3t1_1,,success
Status,695,13889555639,/g3t1_3,,success
Status,696,13939394917,/g3t1_1,,running
Status,697,13939477690,/g3t1_2,,running
Status,698,13939751228,/g3t1_3,,running
Status,699,13939789456,/g3t1_1,,success
Status,700,13940602761,/g3t1_3,,success
Status,701,13940719558,/g3t1_2,,success
Status,702,13972518362,/g4t1,,fail
Status,703,13990270271,/g3t1_3,,running
Status,704,13990336891,/g3t1_2,,running
Status,705,13990493939,/g3t1_1,,running
Status,706,13990521167,/g3t1_1,,success
Status,707,13990543717,/g3t1_3,,success
Status,708,13990563243,/g3t1_2,,success
Status,709,14040251545,/g3t1_3,,running
Status,710,14040411547,/g3t1_1,,running
Status,711,14040496552,/g3t1_2,,running
Status,712,14040568786,/g3t1_1,,success
Status,713,14040596630,/g3t1_3,,success
Status,714,14040914585,/g3t1_2,,success
Status,715,14072672865,/g4t1,,fail
Status,716,14089987409,/g3t1_3,,running
Status,717,14090061814,/g3t1_1,,running
Status,718,14090091463,/g3t1_2,,running
Status,719,14090195252,/g3t1_1,,success
Status,720,14090642338,/g3t1_2,,success
Status,721,14090728985,/g3t1_3,,success
Status,722,14139827262,/g3t1_2,,running
Status,723,14139953331,/g3t1_1,,running
Status,724,14140437507,/g3t1_2,,success
Status,725,14140544912,/g3t1_3,,running
Status,726,14140590912,/g3t1_3,,success
Status,727,14140696971,/g3t1_1,,success
Status,728,14172704014,/g4t1,,fail
Status,729,14190325463,/g3t1_2,,running
Status,730,14190407746,/g3t1_3,,running
Status,731,14190508314,/g3t1_1,,running
Status,732,14190532075,/g3t1_2,,success
Status,733,14190553586,/g3t1_1,,success
Status,734,14190962675,/g3t1_3,,success
Status,735,14240307684,/g3t1_2,,running
Status,736,14240403798,/g3t1_1,,running
Status,737,14240539443,/g3t1_3,,running
Status,738,14241107035,/g3t1_3,,success
Status,739,14241207561,/g3t1_2,,success
Status,740,14241337423,/g3t1_1,,success
Status,741,14272880946,/g4t1,,fail
Status,742,14290722900,/g3t1_2,,running
Status,743,14290815817,/g3t1_3,,running
Status,744,14290913887,/g3t1_1,,running
Status,745,14290949196,/g3t1_2,,success
Status,746,14290977191,/g3t1_3,,success
Status,747,14290999443,/g3t1_1,,success
Status,748,14340851898,/g3t1_2,,running
Status,749,14340935259,/g3t1_2,,success
Status,750,14340962039,/g3t1_3,,running
Status,751,14341021242,/g3t1_3,,success
Status,752,14341148334,/g3t1_1,,running
Status,753,14341209917,/g3t1_1,,success
Status,754,14372799927,/g4t1,,fail
Status,755,14390465809,/g3t1_2,,running
Status,756,14390637300,/g3t1_3,,running
Status,757,14390746769,/g3t1_1,,running
Status,758,14391107221,/g3t1_3,,success
Status,759,14391736883,/g3t1_2,,success
Status,760,14391797209,/g3t1_1,,success
Status,761,14441079874,/g3t1_2,,running
Status,762,14441188473,/g3t1_3,,running
Status,763,14441236877,/g3t1_1,,running
Status,764,14441626268,/g3t1_2,,success
Status,765,14441724691,/g3t1_3,,success
Status,766,14442030226,/g3t1_1,,success
Status,767,14473102518,/g4t1,,fail
Status,768,14491483782,/g3t1_2,,running
Status,769,14491686259,/g3t1_3,,running
Status,770,14491800204,/g3t1_1,,running
Status,771,14491874830,/g3t1_1,,success
Status,772,14491907997,/g3t1_2,,success
Status,773,14492031052,/g3t1_3,,success
Status,774,14540995815,/g3t1_2,,running
Status,775,14541090374,/g3t1_3,,running
Status,776,14541277950,/g3t1_1,,running
Status,777,14541660729,/g3t1_2,,success
Status,778,14541715008,/g3t1_3,,success
Status,779,14542034255,/g3t1_1,,success
Status,780,14573283390,/g4t1,,fail
Status,781,14591065464,/g3t1_2,,running
Status,782,14591170081,/g3t1_3,,running
Status,783,14591207936,/g3t1_1,,running
Status,784,14591642692,/g3t1_1,,success
Status,785,14591715394,/g3t1_2,,success
Status,786,14591756088,/g3t1_3,,success
Status,787,14641376741,/g3t1_2,,running
Status,788,14641521387,/g3t1_3,,running
Status,789,14641562523,/g3t1_1,,running
Status,790,14641773908,/g3t1_2,,success
Status,791,14641804611,/g3t1_3,,success
Status,792,14641827535,/g3t1_1,,success
Status,793,14673483170,/g4t1,,fail
Status,794,14691694117,/g3t1_1,,running
Status,795,14691779580,/g3t1_3,,running
Status,796,14691825971,/g3t1_2,,running
Status,797,14692027823,/g3t1_2,,success
Status,798,14692077873,/g3t1_1,,success
Status,799,14692484824,/g3t1_3,,success
Status,800,14741739780,/g3t1_1,,running
Status,801,14741896992,/g3t1_3,,running
Status,802,14742029425,/g3t1_2,,running
Status,803,14742060203,/g3t1_3,,success
Status,804,14742382007,/g3t1_2,,success
Status,805,14742444944,/g3t1_1,,success
Status,806,14773519486,/g4t1,,fail
Status,807,14792178291,/g3t1_3,,running
Status,808,14792243532,/g3t1_1,,running
Status,809,14792274466,/g3t1_2,,running
Status,810,14792301377,/g3t1_2,,success
Status,811,14792328179,/g3t1_1,,success
Status,812,14792442097,/g3t1_3,,success
Status,813,14841929958,/g3t1_2,,running
Status,814,14842028037,/g3t1_3,,running
Status,815,14842440231,/g3t1_1,,running
Status,816,14842501601,/g3t1_2,,success
Status,817,14842647277,/g3t1_3,,success
Status,818,14842681118,/g3t1_1,,success
Status,819,14873658088,/g4t1,,fail
Status,820,14892335411,/g3t1_2,,running
Status,821,14892428127,/g3t1_1,,running
Status,822,14892470768,/g3t1_3,,running
Status,823,14892502092,/g3t1_2,,success
Status,824,14892523861,/g3t1_3,,success
Status,825,14892976934,/g3t1_1,,success
Status,826,14942261877,/g3t1_1,,running
Status,827,14942352983,/g3t1_2,,running
Status,828,14942918119,/g3t1_3,,running
Status,829,14942993685,/g3t1_2,,success
Status,830,14943275464,/g3t1_1,,success
Status,831,14943333333,/g3t1_3,,success
Status,832,14973770301,/g4t1,,fail
Status,833,14992543982,/g3t1_3,,running
Status,834,14992650361,/g3t1_1,,running
Status,835,14992697661,/g3t1_2,,running
Status,836,14992739290,/g3t1_3,,success
Status,837,14993220998,/g3t1_1,,success
Status,838,14993483299,/g3t1_2,,success
Status,839,15042668178,/g3t1_1,,running
Status,840,15042828128,/g3t1_3,,running
Status,841,15042933225,/g3t1_2,,running
Status,842,15043324168,/g3t1_1,,success
Status,843,15043434793,/g3t1_2,,success
Status,844,15043613276,/g3t1_3,,success
Status,845,15073849148,/g4t1,,fail
Status,846,15093509939,/g3t1_1,,running
Status,847,15093576534,/g3t1_3,,running
Status,848,15093602277,/g3t1_2,,running
Status,849,15093626416,/g3t1_1,,success
Status,850,15093649799,/g3t1_3,,success
Status,851,15093935332,/g3t1_2,,success
Status,852,15143292404,/g3t1_3,,running
Status,853,15143347259,/g3t1_3,,success
Status,854,15143556310,/g3t1_2,,running
Status,855,15143606268,/g3t1_2,,success
Status,856,15143639464,/g3t1_1,,running
Status,857,15143672918,/g3t1_1,,success
Status,858,15173899878,/g4t1,,fail
Status,859,15193589938,/g3t1_3,,running
Status,860,15193683748,/g3t1_1,,running
Status,861,15193878289,/g3t1_2,,running
Status,862,15193906215,/g3t1_3,,success
Status,863,15193931050,/g3t1_1,,success
Status,864,15193990830,/g3t1_2,,success
Status,865,15243434338,/g3t1_3,,running
Status,866,15243595489,/g3t1_2,,running
Status,867,15244090006,/g3t1_1,,running
Status,868,15244406007,/g3t1_3,,success
Status,869,15244453049,/g3t1_1,,success
Status,870,15244533716,/g3t1_2,,success
Status,871,15274001868,/g4t1,,fail
Status,872,15293390591,/g3t1_1,,running
Status,873,15293568770,/g3t1_2,,running
Status,874,15293610729,/g3t1_3,,running
Status,875,15294125552,/g3t1_2,,success
Status,876,15294169726,/g3t1_3,,success
Status,877,15294353197,/g3t1_1,,success
Status,878,15343388665,/g3t1_3,,running
Status,879,15343482725,/g3t1_2,,running
Status,880,15343678940,/g3t1_1,,running
Status,881,15344157315,/g3t1_3,,success
Status,882,15344266445,/g3t1_2,,success
Status,883,15344706999,/g3t1_1,,success
Status,884,15374071110,/g4t1,,fail
Status,885,15393991135,/g3t1_3,,running
Status,886,15394066187,/g3t1_1,,running
Status,887,15394217350,/g3t1_2,,running
Status,888,15394241835,/g3t1_1,,success
Status,889,15394264497,/g3t1_2,,success
Status,890,15394697785,/g3t1_3,,success
Status,891,15443931462,/g3t1_3,,running
Status,892,15444022195,/g3t1_2,,running
Status,893,15444253509,/g3t1_1,,running
Status,894,15444397475,/g3t1_2,,success
Status,895,15444483569,/g3t1_3,,success
Status,896,15444593619,/g3t1_1,,success
Status,897,15474188568,/g4t1,,fail
Status,898,15494539629,/g3t1_3,,running
Status,899,15494837869,/g3t1_2,,running
Status,900,15494867419,/g3t1_1,,running
Status,901,15494883873,/g3t1_3,,success
Status,902,15495374929,/g3t1_2,,success
Status,903,15495562204,/g3t1_1,,success
Status,904,15544298604,/g3t1_3,,running
Status,905,15544466079,/g3t1_2,,running
Status,906,15544511399,/g3t1_1,,running
Status,907,15544595466,/g3t1_2,,success
Status,908,15544932798,/g3t1_1,,success
Status,909,15545102958,/g3t1_3,,success
Status,910,15574438255,/g4t1,,fail
Status,911,15594646963,/g3t1_1,,running
Status,912,15594731214,/g3t1_2,,running
Status,913,15594828517,/g3t1_3,,running
Status,914,15594875519,/g3t1_1,,success
Status,915,15594929121,/g3t1_3,,success
Status,916,15595383421,/g3t1_2,,success
Status,917,15644439479,/g3t1_1,,running
Status,918,15644577355,/g3t1_2,,running
Status,919,15644622825,/g3t1_3,,running
Status,920,15644915589,/g3t1_2,,success
Status,921,15645320460,/g3t1_1,,success
Status,922,15645392051,/g3t1_3,,success
Status,923,15674537133,/g4t1,,fail
Status,924,15695249181,/g3t1_1,,running
Status,925,15695340894,/g3t1_3,,running
Status,926,15695424574,/g3t1_2,,running
Status,927,15695461778,/g3t1_2,,success
Status,928,15695494456,/g3t1_1,,success
Status,929,15695528884,/g3t1_3,,success
Status,930,15745834548,/g3t1_3,,running
Status,931,15745941680,/g3t1_2,,running
Status,932,15746030045,/g3t1_1,,running
Status,933,15746070242,/g3t1_1,,success
Status,934,15746109806,/g3t1_2,,success
Status,935,15746148879,/g3t1_3,,success
Status,936,15774563400,/g4t1,,fail
Status,937,15795205734,/g3t1_1,,running
Status,938,15795285329,/g3t1_3,,running
Status,939,15795313601,/g3t1_2,,running
Status,940,15795340150,/g3t1_3,,success
Status,941,15795504252,/g3t1_1,,success
Status,942,15795584723,/g3t1_2,,success
Status,943,15845338797,/g3t1_3,,running
Status,944,15845763281,/g3t1_2,,running
Status,945,15845842424,/g3t1_1,,running
Status,946,15845884653,/g3t1_1,,success
Status,947,15845919627,/g3t1_3,,success
Status,948,15845954718,/g3t1_2,,success
Status,949,15875169171,/g4t1,,fail
Status,950,15895395787,/g3t1_3,,running
Status,951,15895505846,/g3t1_2,,running
Status,952,15895625150,/g3t1_1,,running
Status,953,15895967872,/g3t1_3,,success
Status,954,15896037398,/g3t1_2,,success
Status,955,15896121716,/g3t1_1,,success
Status,956,15946047601,/g3t1_3,,running
Status,957,15946115856,/g3t1_2,,running
Status,958,15946161179,/g3t1_1,,running
Status,959,15946346210,/g3t1_2,,success
Status,960,15946385668,/g3t1_1,,success
Status,961,15946488910,/g3t1_3,,success
Status,962,15975013830,/g4t1,,fail
Status,963,15995634884,/g3t1_3,,running
Status,964,15995760906,/g3t1_1,,running
Status,965,15996235009,/g3t1_2,,running
Status,966,15996299617,/g3t1_2,,success
Status,967,15996399175,/g3t1_1,,success
Status,968,15996427034,/g3t1_3,,success
Status,969,16046238931,/g3t1_1,,running
Status,970,16046362415,/g3t1_3,,running
Status,971,16046433445,/g3t1_2,,running
Status,972,16046866833,/g3t1_1,,success
Status,973,16046944203,/g3t1_2,,success
Status,974,16047047719,/g3t1_3,,success
Status,975,16075152711,/g4t1,,fail
Status,976,16095733422,/g3t1_1,,running
Status,977,16095879823,/g3t1_2,,running
Status,978,16096007358,/g3t1_3,,running
Status,979,16096401582,/g3t1_2,,success
Status,980,16096485692,/g3t1_3,,success
Status,981,16097080040,/g3t1_1,,success
Status,982,16146288435,/g3t1_2,,running
Status,983,16146385936,/g3t1_3,,running
Status,984,16146562878,/g3t1_1,,running
Status,985,16146671771,/g3t1_3,,success
Status,986,16147246398,/g3t1_1,,success
Status,987,16147375623,/g3t1_2,,success
Status,988,16175541376,/g4t1,,fail
Status,989,16196224428,/g3t1_1,,running
Status,990,16196303496,/g3t1_2,,running
Status,991,16196343746,/g3t1_3,,running
Status,992,16196522718,/g3t1_1,,success
Status,993,16196558325,/g3t1_3,,success
Status,994,16196792006,/g3t1_2,,success
Status,995,16246627920,/g3t1_1,,running
Status,996,16246782166,/g3t1_2,,running
Status,997,16246887573,/g3t1_3,,running
Status,998,16247227098,/g3t1_3,,success
Status,999,16247292877,/g3t1_2,,success
Status,1000,16247497168,/g3t1_1,,success
Status,1001,16275661811,/g4t1,,fail
Status,1002,16296261346,/g3t1_3,,running
Status,1003,16296351729,/g3t1_2,,running
Status,1004,16296536325,/g3t1_1,,running
Status,1005,16296831776,/g3t1_3,,success
Status,1006,16296980743,/g3t1_2,,success
Status,1007,16297457325,/g3t1_1,,success
Status,1008,16346873962,/g3t1_3,,running
Status,1009,16346954091,/g3t1_1,,running
Status,1010,16347075754,/g3t1_2,,running
Status,1011,16347597094,/g3t1_1,,success
Status,1012,16347679157,/g3t1_2,,success
Status,1013,16347777624,/g3t1_3,,success
Status,1014,16375789781,/g4t1,,fail
Status,1015,16396637745,/g3t1_2,,running
Status,1016,16396716978,/g3t1_1,,running
Status,1017,16396772399,/g3t1_3,,running
Status,1018,16396811284,/g3t1_3,,success
Status,1019,16396846888,/g3t1_1,,success
Status,1020,16397644584,/g3t1_2,,success
Status,1021,16447253292,/g3t1_3,,running
Status,1022,16447344469,/g3t1_1,,running
Status,1023,16447451142,/g3t1_2,,running
Status,1024,16447485334,/g3t1_1,,success
Status,1025,16447983039,/g3t1_2,,success
Status,1026,16448068795,/g3t1_3,,success
Status,1027,16475848008,/g4t1,,fail
Status,1028,16497174702,/g3t1_3,,running
Status,1029,16497316303,/g3t1_2,,running
Status,1030,16497771166,/g3t1_1,,running
Status,1031,16497833621,/g3t1_3,,success
Status,1032,16497860954,/g3t1_1,,success
Status,1033,16497893388,/g3t1_2,,success
Status,1034,16547400819,/g3t1_3,,running
Status,1035,16547498660,/g3t1_2,,running
Status,1036,16547569759,/g3t1_1,,running
Status,1037,16547600128,/g3t1_2,,success
Status,1038,16547626839,/g3t1_3,,success
Status,1039,16547650664,/g3t1_1,,success
Status,1040,16575950402,/g4t1,,fail
Status,1041,16597743063,/g3t1_1,,running
Status,1042,16597810793,/g3t1_3,,running
Status,1043,16597834622,/g3t1_2,,running
Status,1044,16597857778,/g3t1_2,,success
Status,1045,16597881196,/g3t1_1,,success
Status,1046,16598158826,/g3t1_3,,success
Status,1047,16648132762,/g3t1_3,,running
Status,1048,16648249933,/g3t1_2,,running
Status,1049,16648297325,/g3t1_1,,running
Status,1050,16648334336,/g3t1_2,,success
Status,1051,16648414582,/g3t1_3,,success
Status,1052,16648856557,/g3t1_1,,success
Status,1053,16676191039,/g4t1,,fail
Status,1054,16697718886,/g3t1_1,,running
Status,1055,16697808137,/g3t1_3,,running
Status,1056,16697856334,/g3t1_2,,running
Status,1057,16698020388,/g3t1_1,,success
Status,1058,16698072674,/g3t1_3,,success
Status,1059,16698516456,/g3t1_2,,success
Status,1060,16748870659,/g3t1_3,,running
Status,1061,16748931211,/g3t1_2,,running
Status,1062,16748956032,/g3t1_1,,running
Status,1063,16748978307,/g3t1_2,,success
Status,1064,16749002182,/g3t1_3,,success
Status,1065,16749041068,/g3t1_1,,success
Status,1066,16776256420,/g4t1,,fail
Status,1067,16798467003,/g3t1_1,,running
Status,1068,16798670987,/g3t1_3,,running
Status,1069,16798724884,/g3t1_2,,running
Status,1070,16798763172,/g3t1_2,,success
Status,1071,16798797666,/g3t1_1,,success
Status,1072,16798901380,/g3t1_3,,success
Status,1073,16848662536,/g3t1_3,,running
Status,1074,16848770332,/g3t1_2,,running
Status,1075,16848833742,/g3t1_1,,running
Status,1076,16848925588,/g3t1_3,,success
Status,1077,16848963176,/g3t1_2,,success
Status,1078,16848991197,/g3t1_1,,success
Status,1079,16876467461,/g4t1,,fail
Status,1080,16899180654,/g3t1_1,,running
Status,1081,16899359637,/g3t1_3,,running
Status,1082,16899410071,/g3t1_3,,success
Status,1083,16899576518,/g3t1_2,,running
Status,1084,16899601256,/g3t1_2,,success
Status,1085,16899926586,/g3t1_1,,success
Status,1086,16948719040,/g3t1_2,,running
Status,1087,16948862650,/g3t1_3,,running
Status,1088,16948921487,/g3t1_1,,running
Status,1089,16949063071,/g3t1_3,,success
Status,1090,16949553481,/g3t1_2,,success
Status,1091,16949634787,/g3t1_1,,success
Status,1092,16976469752,/g4t1,,fail
Status,1093,16998803118,/g3t1_3,,running
Status,1094,16998973721,/g3t1_1,,running
Status,1095,16999155104,/g3t1_2,,running
Status,1096,16999306142,/g3t1_1,,success
Status,1097,16999442159,/g3t1_2,,success
Status,1098,16999864451,/g3t1_3,,success
Status,1099,17048843187,/g3t1_1,,running
Status,1100,17048933610,/g3t1_2,,running
Status,1101,17049079418,/g3t1_3,,running
Status,1102,17050146576,/g3t1_2,,success
Status,1103,17050215485,/g3t1_1,,success
Status,1104,17050255817,/g3t1_3,,success
Status,1105,17076530753,/g4t1,,fail
Status,1106,17099189574,/g3t1_1,,running
Status,1107,17099292011,/g3t1_2,,running
Status,1108,17099338588,/g3t1_3,,running
Status,1109,17099546557,/g3t1_2,,success
Status,1110,17099662796,/g3t1_1,,success
Status,1111,17100100351,/g3t1_3,,success
Status,1112,17149217636,/g3t1_1,,running
Status,1113,17149402800,/g3t1_3,,running
Status,1114,17149463872,/g3t1_2,,running
Status,1115,17150170458,/g3t1_2,,success
Status,1116,17150249943,/g3t1_3,,success
Status,1117,17150384807,/g3t1_1,,success
Status,1118,17176516306,/g4t1,,fail
Status,1119,17199712275,/g3t1_2,,running
Status,1120,17199886201,/g3t1_1,,running
Status,1121,17199941976,/g3t1_2,,success
Status,1122,17200130640,/g3t1_3,,running
Status,1123,17200168020,/g3t1_3,,success
Status,1124,17200204416,/g3t1_1,,success
Status,1125,17250020905,/g3t1_3,,running
Status,1126,17250094369,/g3t1_1,,running
Status,1127,17250266049,/g3t1_2,,running
Status,1128,17250332628,/g3t1_2,,success
Status,1129,17250355666,/g3t1_3,,success
Status,1130,17250375883,/g3t1_1,,success
Status,1131,17276731222,/g4t1,,fail
Status,1132,17300296716,/g3t1_1,,running
Status,1133,17300453442,/g3t1_1,,success
Status,1134,17300497210,/g3t1_3,,running
Status,1135,17300534568,/g3t1_2,,running
Status,1136,17300626171,/g3t1_2,,success
Status,1137,17300774919,/g3t1_3,,success
Status,1138,17350102937,/g3t1_2,,running
Status,1139,17350216930,/g3t1_1,,running
Status,1140,17350335287,/g3t1_3,,running
Status,1141,17350377111,/g3t1_2,,success
Status,1142,17351125967,/g3t1_3,,success
Status,1143,17351397787,/g3t1_1,,success
Status,1144,17377136723,/g4t1,,fail
Status,1145,17400156418,/g3t1_1,,running
Status,1146,17400228776,/g3t1_2,,running
Status,1147,17400400142,/g3t1_3,,running
Status,1148,17400437085,/g3t1_1,,success
Status,1149,17400460320,/g3t1_3,,success
Status,1150,17400692655,/g3t1_2,,success
Status,1151,17449865758,/g3t1_3,,running
Status,1152,17450617904,/g3t1_2,,running
Status,1153,17450909679,/g3t1_1,,running
Status,1154,17450950186,/g3t1_1,,success
Status,1155,17450978344,/g3t1_2,,success
Status,1156,17451001582,/g3t1_3,,success
Status,1157,17477092654,/g4t1,,fail
Status,1158,17500273618,/g3t1_3,,running
Status,1159,17500342444,/g3t1_2,,running
Status,1160,17500465874,/g3t1_2,,success
Status,1161,17500496321,/g3t1_3,,success
Status,1162,17500609693,/g3t1_1,,running
Status,1163,17501033569,/g3t1_1,,success
Status,1164,17550352732,/g3t1_3,,running
Status,1165,17550537370,/g3t1_2,,running
Status,1166,17551240210,/g3t1_1,,running
Status,1167,17551306409,/g3t1_3,,success
Status,1168,17551389077,/g3t1_2,,success
Status,1169,17551426363,/g3t1_1,,success
Status,1170,17577221511,/g4t1,,fail
Status,1171,17600181782,/g3t1_3,,running
Status,1172,17600593567,/g3t1_2,,running
Status,1173,17600665714,/g3t1_3,,success
Status,1174,17600902585,/g3t1_2,,success
Status,1175,17600944384,/g3t1_1,,running
Status,1176,17601671305,/g3t1_1,,success
Status,1177,17650903268,/g3t1_3,,running
Status,1178,17651014031,/g3t1_2,,running
Status,1179,17651139206,/g3t1_1,,running
Status,1180,17651647975,/g3t1_3,,success
Status,1181,17651789422,/g3t1_1,,success
Status,1182,17652023100,/g3t1_2,,success
Status,1183,17677271568,/g4t1,,fail
Status,1184,17700842923,/g3t1_3,,running
Status,1185,17701184628,/g3t1_2,,running
Status,1186,17701254253,/g3t1_1,,running
Status,1187,17701293550,/g3t1_3,,success
Status,1188,17701329723,/g3t1_2,,success
Status,1189,17701536887,/g3t1_1,,success
Status,1190,17750495922,/g3t1_3,,running
Status,1191,17750616426,/g3t1_2,,running
Status,1192,17751074035,/g3t1_2,,success
Status,1193,17751147975,/g3t1_1,,running
Status,1194,17751187458,/g3t1_3,,success
Status,1195,17752102560,/g3t1_1,,success
Status,1196,17777452317,/g4t1,,fail
Status,1197,17801080620,/g3t1_3,,running
Status,1198,17801160944,/g3t1_2,,running
Status,1199,17801338899,/g3t1_2,,success
Status,1200,17801384292,/g3t1_1,,running
Status,1201,17801478642,/g3t1_3,,success
Status,1202,17802376308,/g3t1_1,,success
Status,1203,17851507417,/g3t1_3,,running
Status,1204,17851597843,/g3t1_2,,running
Status,1205,17851946152,/g3t1_1,,running
Status,1206,17852406847,/g3t1_1,,success
Status,1207,17852499195,/g3t1_2,,success
Status,1208,17852605354,/g3t1_3,,success
Status,1209,17877428889,/g4t1,,fail
Status,1210,17901134917,/g3t1_3,,running
Status,1211,17901680309,/g3t1_2,,running
Status,1212,17901845819,/g3t1_1,,running
Status,1213,17902046504,/g3t1_3,,success
Status,1214,17902096265,/g3t1_1,,success
Status,1215,17902427708,/g3t1_2,,success
Status,1216,17951763771,/g3t1_3,,running
Status,1217,17951869725,/g3t1_2,,running
Status,1218,17951913488,/g3t1_1,,running
Status,1219,17951996651,/g3t1_2,,success
Status,1220,17952487345,/g3t1_3,,success
Status,1221,17952548379,/g3t1_1,,success
Status,1222,17977682961,/g4t1,,fail
Status,1223,18001551920,/g3t1_2,,running
Status,1224,18002032641,/g3t1_3,,running
Status,1225,18002078497,/g3t1_2,,success
Status,1226,18002103274,/g3t1_3,,success
Status,1227,18002214129,/g3t1_1,,running
Status,1228,18002250090,/g3t1_1,,success
Status,1229,18052055408,/g3t1_3,,running
Status,1230,18052210063,/g3t1_2,,running
Status,1231,18052444407,/g3t1_1,,running
Status,1232,18053149493,/g3t1_2,,success
Status,1233,18053195191,/g3t1_3,,success
Status,1234,18053224245,/g3t1_1,,success
Status,1235,18077828380,/g4t1,,fail
Status,1236,18102424636,/g3t1_3,,running
Status,1237,18102498582,/g3t1_2,,running
Status,1238,18102637575,/g3t1_2,,success
Status,1239,18102665600,/g3t1_3,,success
Status,1240,18102685616,/g3t1_1,,running
Status,1241,18102712166,/g3t1_1,,success
Status,1242,18152367989,/g3t1_2,,running
Status,1243,18152487933,/g3t1_3,,running
Status,1244,18152633484,/g3t1_3,,success
Status,1245,18152672016,/g3t1_1,,running
Status,1246,18153057424,/g3t1_2,,success
Status,1247,18153125290,/g3t1_1,,success
Status,1248,18178276805,/g4t1,,fail
Status,1249,18201801467,/g3t1_2,,running
Status,1250,18201945229,/g3t1_3,,running
Status,1251,18202840721,/g3t1_3,,success
Status,1252,18202900324,/g3t1_1,,running
Status,1253,18202992837,/g3t1_1,,success
Status,1254,18203017515,/g3t1_2,,success
Status,1255,18252710719,/g3t1_2,,running
Status,1256,18252978097,/g3t1_3,,running
Status,1257,18253109694,/g3t1_3,,success
Status,1258,18253231939,/g3t1_1,,running
Status,1259,18253588950,/g3t1_2,,success
Status,1260,18254180027,/g3t1_1,,success
Status,1261,18278159102,/g4t1,,fail
Status,1262,18302091911,/g3t1_2,,running
Status,1263,18302186195,/g3t1_3,,running
Status,1264,18303126718,/g3t1_2,,success
Status,1265,18303205831,/g3t1_3,,success
Status,1266,18303247280,/g3t1_1,,running
Status,1267,18303511135,/g3t1_1,,success
Status,1268,18352480061,/g3t1_2,,running
Status,1269,18352607307,/g3t1_3,,running
Status,1270,18353181880,/g3t1_2,,success
Status,1271,18353331346,/g3t1_3,,success
Status,1272,18353441584,/g3t1_1,,running
Status,1273,18353804616,/g3t1_1,,success
Status,1274,18378403987,/g4t1,,fail
Status,1275,18403042295,/g3t1_2,,running
Status,1276,18403148028,/g3t1_3,,running
Status,1277,18403321695,/g3t1_2,,success
Status,1278,18404085095,/g3t1_1,,running
Status,1279,18404202257,/g3t1_3,,success
Status,1280,18404278339,/g3t1_1,,success
Status,1281,18452918962,/g3t1_2,,running
Status,1282,18453026821,/g3t1_3,,running
Status,1283,18453232118,/g3t1_3,,success
Status,1284,18453283383,/g3t1_2,,success
Status,1285,18453412337,/g3t1_1,,running
Status,1286,18454042799,/g3t1_1,,success
Status,1287,18478687330,/g4t1,,fail
Status,1288,18502890072,/g3t1_2,,running
Status,1289,18503048680,/g3t1_3,,running
Status,1290,18503190657,/g3t1_2,,success
Status,1291,18503899262,/g3t1_3,,success
Status,1292,18503980382,/g3t1_1,,running
Status,1293,18504407418,/g3t1_1,,success
Status,1294,18553320905,/g3t1_3,,running
Status,1295,18553416418,/g3t1_2,,running
Status,1296,18553536028,/g3t1_3,,success
Status,1297,18553574852,/g3t1_2,,success
Status,1298,18553917573,/g3t1_1,,running
Status,1299,18554005490,/g3t1_1,,success
Status,1300,18578992108,/g4t1,,fail
Status,1301,18603284050,/g3t1_2,,running
Status,1302,18603368150,/g3t1_3,,running
Status,1303,18604202469,/g3t1_1,,running
Status,1304,18604354918,/g3t1_2,,success
Status,1305,18604401607,/g3t1_1,,success
Status,1306,18604856013,/g3t1_3,,success
Status,1307,18653227629,/g3t1_3,,running
Status,1308,18653394553,/g3t1_2,,running
Status,1309,18654320170,/g3t1_1,,running
Status,1310,18654640040,/g3t1_1,,success
Status,1311,18654676462,/g3t1_2,,success
Status,1312,18654701747,/g3t1_3,,success
Status,1313,18679237355,/g4t1,,fail
Status,1314,18703605547,/g3t1_2,,running
Status,1315,18703705856,/g3t1_3,,running
Status,1316,18704312688,/g3t1_1,,running
Status,1317,18704389972,/g3t1_2,,success
Status,1318,18705082178,/g3t1_1,,success
Status,1319,18705372358,/g3t1_3,,success
Status,1320,18753417130,/g3t1_2,,running
Status,1321,18753829094,/g3t1_3,,running
Status,1322,18754270368,/g3t1_2,,success
Status,1323,18754398966,/g3t1_1,,running
Status,1324,18754441734,/g3t1_3,,success
Status,1325,18755127454,/g3t1_1,,success
Status,1326,18779397997,/g4t1,,fail
Status,1327,18804173093,/g3t1_3,,running
Status,1328,18804361339,/g3t1_2,,running
Status,1329,18804429949,/g3t1_1,,running
Status,1330,18804529359,/g3t1_2,,success
Status,1331,18804852267,/g3t1_1,,success
Status,1332,18804945113,/g3t1_3,,success
Status,1333,18854135328,/g3t1_2,,running
Status,1334,18854550581,/g3t1_3,,running
Status,1335,18855392515,/g3t1_3,,success
Status,1336,18855443392,/g3t1_2,,success
Status,1337,18855468926,/g3t1_1,,running
Status,1338,18855494489,/g3t1_1,,success
Status,1339,18879391076,/g4t1,,fail
Status,1340,18903408134,/g3t1_2,,running
Status,1341,18903610124,/g3t1_3,,running
Status,1342,18903748719,/g3t1_3,,success
Status,1343,18903820285,/g3t1_2,,success
Status,1344,18904223255,/g3t1_1,,running
Status,1345,18904378102,/g3t1_1,,success
Status,1346,18953414684,/g3t1_3,,running
Status,1347,18953445357,/g3t1_2,,running
Status,1348,18953588967,/g3t1_2,,success
Status,1349,18953616187,/g3t1_3,,success
Status,1350,18953938525,/g3t1_1,,running
Status,1351,18954058855,/g3t1_1,,success
Status,1352,18978705951,/g4t1,,fail
Status,1353,19003495897,/g3t1_2,,running
Status,1354,19003543976,/g3t1_3,,running
Status,1355,19003576790,/g3t1_3,,success
Status,1356,19003591334,/g3t1_2,,success
Status,1357,19004124724,/g3t1_1,,running
Status,1358,19004317855,/g3t1_1,,success
Status,1359,19053755685,/g3t1_2,,running
Status,1360,19053779251,/g3t1_3,,running
Status,1361,19053877846,/g3t1_2,,success
Status,1362,19053892997,/g3t1_3,,success
Status,1363,19054268580,/g3t1_1,,running
Status,1364,19054381519,/g3t1_1,,success
Status,1365,19079550604,/g4t1,,fail
Status,1366,19104906103,/g3t1_2,,running
Status,1367,19104991098,/g3t1_3,,running
Status,1368,19105126614,/g3t1_1,,running
Status,1369,19105171603,/g3t1_2,,success
Status,1370,19105282145,/g3t1_3,,success
Status,1371,19105525887,/g3t1_1,,success
Status,1372,19155167240,/g3t1_2,,running
Status,1373,19155245923,/g3t1_3,,running
Status,1374,19155292409,/g3t1_3,,success
Status,1375,19155377598,/g3t1_2,,success
Status,1376,19155415396,/g3t1_1,,running
Status,1377,19156061731,/g3t1_1,,success
Status,1378,19179801122,/g4t1,,fail
Status,1379,19203998070,/g3t1_3,,running
Status,1380,19204027920,/g3t1_2,,running
Status,1381,19204071735,/g3t1_3,,success
Status,1382,19204086915,/g3t1_2,,success
Status,1383,19204818415,/g3t1_1,,running
Status,1384,19204926981,/g3t1_1,,success
Status,1385,19255321051,/g3t1_3,,running
Status,1386,19255409823,/g3t1_2,,running
Status,1387,19255831743,/g3t1_3,,success
Status,1388,19255903476,/g3t1_1,,running
Status,1389,19255943609,/g3t1_1,,success
Status,1390,19256027370,/g3t1_2,,success
Status,1391,19279790304,/g4t1,,fail
Status,1392,19305975059,/g3t1_3,,running
Status,1393,19306216917,/g3t1_3,,success
Status,1394,19306298992,/g3t1_2,,running
Status,1395,19306397462,/g3t1_2,,success
Status,1396,19306434901,/g3t1_1,,running
Status,1397,19306469997,/g3t1_1,,success
Status,1398,19354415582,/g3t1_3,,running
Status,1399,19354761073,/g3t1_2,,running
Status,1400,19354822668,/g3t1_2,,success
Status,1401,19355057425,/g3t1_3,,success
Status,1402,19355096907,/g3t1_1,,running
Status,1403,19355269683,/g3t1_1,,success
Status,1404,19379531591,/g4t1,,fail
Status,1405,19405305633,/g3t1_3,,running
Status,1406,19405460521,/g3t1_2,,running
Status,1407,19406339382,/g3t1_2,,success
Status,1408,19406421925,/g3t1_3,,success
Status,1409,19406970526,/g3t1_1,,running
Status,1410,19407040180,/g3t1_1,,success
Status,1411,19455405286,/g3t1_2,,running
Status,1412,19455496314,/g3t1_3,,running
Status,1413,19455991025,/g3t1_3,,success
Status,1414,19456478133,/g3t1_1,,running
Status,1415,19456540872,/g3t1_2,,success
Status,1416,19456630560,/g3t1_1,,success
Status,1417,19480104446,/g4t1,,fail
Status,1418,19505381933,/g3t1_3,,running
Status,1419,19505465687,/g3t1_2,,running
Status,1420,19505931935,/g3t1_3,,success
Status,1421,19506017066,/g3t1_1,,running
Status,1422,19506638819,/g3t1_2,,success
Status,1423,19506748193,/g3t1_1,,success
Status,1424,19555734481,/g3t1_3,,running
Status,1425,19555841724,/g3t1_2,,running
Status,1426,19556825764,/g3t1_3,,success
Status,1427,19556905489,/g3t1_2,,success
Status,1428,19557044604,/g3t1_1,,running
Status,1429,19557181440,/g3t1_1,,success
Status,1430,19580034815,/g4t1,,fail
Status,1431,19605692668,/g3t1_3,,running
Status,1432,19605797986,/g3t1_2,,running
Status,1433,19606070140,/g3t1_3,,success
Status,1434,19606896573,/g3t1_1,,running
Status,1435,19607015150,/g3t1_2,,success
Status,1436,19607099316,/g3t1_1,,success
Status,1437,19655787701,/g3t1_3,,running
Status,1438,19656038348,/g3t1_2,,running
Status,1439,19656330841,/g3t1_2,,success
Status,1440,19656402339,/g3t1_3,,success
Status,1441,19656440628,/g3t1_1,,running
Status,1442,19656956136,/g3t1_1,,success
Status,1443,19680218019,/g4t1,,fail
Status,1444,19706415519,/g3t1_3,,running
Status,1445,19706489396,/g3t1_2,,running
Status,1446,19706666984,/g3t1_2,,success
Status,1447,19706772086,/g3t1_3,,success
Status,1448,19706810252,/g3t1_1,,running
Status,1449,19707138837,/g3t1_1,,success
Status,1450,19755854724,/g3t1_3,,running
Status,1451,19756047902,/g3t1_2,,running
Status,1452,19756098292,/g3t1_3,,success
Status,1453,19756889446,/g3t1_1,,running
Status,1454,19757078868,/g3t1_2,,success
Status,1455,19757403891,/g3t1_1,,success
Status,1456,19780406151,/g4t1,,fail
Status,1457,19806127306,/g3t1_3,,running
Status,1458,19806275046,/g3t1_2,,running
Status,1459,19806846697,/g3t1_3,,success
Status,1460,19806996875,/g3t1_1,,running
Status,1461,19807073197,/g3t1_2,,success
Status,1462,19807615385,/g3t1_1,,success
Status,1463,19856323031,/g3t1_3,,running
Status,1464,19856426890,/g3t1_2,,running
Status,1465,19857094957,/g3t1_2,,success
Status,1466,19857230846,/g3t1_3,,success
Status,1467,19857421222,/g3t1_1,,running
Status,1468,19857481838,/g3t1_1,,success
Status,1469,19880548815,/g4t1,,fail
Status,1470,19906207265,/g3t1_3,,running
Status,1471,19906320377,/g3t1_2,,running
Status,1472,19907282489,/g3t1_3,,success
Status,1473,19907414485,/g3t1_2,,success
Status,1474,19907462126,/g3t1_1,,running
Status,1475,19908303426,/g3t1_1,,success
Status,1476,19956919028,/g3t1_3,,running
Status,1477,19957020654,/g3t1_2,,running
Status,1478,19957568597,/g3t1_3,,success
Status,1479,19957730072,/g3t1_2,,success
Status,1480,19957797014,/g3t1_1,,running
Status,1481,19957876475,/g3t1_1,,success
Status,1482,19980607478,/g4t1,,fail
Status,1483,20006678795,/g3t1_3,,running
Status,1484,20006762282,/g3t1_2,,running
Status,1485,20007304554,/g3t1_3,,success
Status,1486,20007352445,/g3t1_2,,success
Status,1487,20007649806,/g3t1_1,,running
Status,1488,20008624802,/g3t1_1,,success
Status,1489,20056958462,/g3t1_3,,running
Status,1490,20057058415,/g3t1_2,,running
Status,1491,20058090160,/g3t1_2,,success
Status,1492,20058194619,/g3t1_3,,success
Status,1493,20058234582,/g3t1_1,,running
Status,1494,20058299653,/g3t1_1,,success
Status,1495,20080774374,/g4t1,,fail
Status,1496,20106886522,/g3t1_3,,running
Status,1497,20107031421,/g3t1_2,,running
Status,1498,20107802899,/g3t1_2,,success
Status,1499,20107857746,/g3t1_3,,success
Status,1500,20107883450,/g3t1_1,,running
Status,1501,20108458030,/g3t1_1,,success
Status,1502,20157328547,/g3t1_3,,running
Status,1503,20157469768,/g3t1_2,,running
Status,1504,20157878314,/g3t1_3,,success
Status,1505,20158257801,/g3t1_2,,success
Status,1506,20158304512,/g3t1_1,,running
Status,1507,20158790643,/g3t1_1,,success
Status,1508,20181037536,/g4t1,,fail
Status,1509,20207502155,/g3t1_3,,running
Status,1510,20207608417,/g3t1_2,,running
Status,1511,20207765066,/g3t1_3,,success
Status,1512,20207805564,/g3t1_2,,success
