
Status,2,3527683573,/g4t1,,init
Status,4,8639634561,/g3t1_1,,init
Status,5,8646701135,/g3t1_1,,init
Status,6,8646719490,/g3t1_1,,running
Status,7,8647187063,/g3t1_1,,success
Status,8,8697028393,/g3t1_1,,running
Status,9,8697208427,/g3t1_1,,success
Status,10,8743113359,/g3t1_2,,init
Status,12,8746891542,/g3t1_1,,running
Status,13,8747027204,/g3t1_1,,success
Status,14,8750098839,/g3t1_2,,init
Status,15,8750112213,/g3t1_2,,running
Status,16,8750650256,/g3t1_2,,success
Status,17,8797106564,/g3t1_1,,running
Status,18,8797213551,/g3t1_1,,success
Status,19,8800304108,/g3t1_2,,running
Status,20,8800374434,/g3t1_2,,success
Status,22,8844590155,/g3t1_3,,init
Status,23,8847120516,/g3t1_1,,running
Status,24,8847152567,/g3t1_1,,success
Status,25,8850341126,/g3t1_2,,running
Status,26,8850474488,/g3t1_2,,success
Status,27,8853533937,/g3t1_3,,init
Status,28,8853548632,/g3t1_3,,running
Status,29,8854126384,/g3t1_3,,success
Status,30,8898129790,/g3t1_1,,running
Status,31,8898644967,/g3t1_1,,success
Status,32,8900994758,/g3t1_2,,running
Status,33,8901488012,/g3t1_2,,success
Status,34,8904412583,/g3t1_3,,running
Status,35,8905189470,/g3t1_3,,success
Status,36,8947891447,/g3t1_1,,running
Status,37,8948361565,/g3t1_1,,success
Status,38,8951149127,/g3t1_2,,running
Status,39,8951644670,/g3t1_2,,success
Status,40,8954384197,/g3t1_3,,running
Status,41,8954839561,/g3t1_3,,success
Status,42,8998350979,/g3t1_1,,running
Status,43,8998422098,/g3t1_1,,success
Status,44,9001255766,/g3t1_2,,running
Status,45,9001589361,/g3t1_2,,success
Status,46,9004602546,/g3t1_3,,running
Status,47,9005036108,/g3t1_3,,success
Status,48,9045177948,/g4t1,,success
Status,49,9048806517,/g3t1_1,,running
Status,50,9048909158,/g3t1_1,,success
Status,51,9051240363,/g3t1_2,,running
Status,52,9051820609,/g3t1_2,,success
Status,53,9054555843,/g3t1_3,,running
Status,54,9055204623,/g3t1_3,,success
Status,55,9098497063,/g3t1_1,,running
Status,56,9098959281,/g3t1_1,,success
Status,57,9101556110,/g3t1_2,,running
Status,58,9101709872,/g3t1_2,,success
Status,59,9104953251,/g3t1_3,,running
Status,60,9105289127,/g3t1_3,,success
Status,61,9144998488,/g4t1,,success
Status,62,9148560476,/g3t1_1,,running
Status,63,9149090788,/g3t1_1,,success
Status,64,9151784480,/g3t1_2,,running
Status,65,9151838231,/g3t1_2,,success
Status,66,9154956131,/g3t1_3,,running
Status,67,9155273740,/g3t1_3,,success
Status,68,9199060073,/g3t1_1,,running
Status,69,9199226723,/g3t1_1,,success
Status,70,9201701986,/g3t1_2,,running
Status,71,9202033776,/g3t1_2,,success
Status,72,9205031170,/g3t1_3,,running
Status,73,9205486693,/g3t1_3,,success
Status,74,9245090237,/g4t1,,success
Status,75,9248861402,/g3t1_1,,running
Status,76,9249261805,/g3t1_1,,success
Status,77,9251803771,/g3t1_2,,running
Status,78,9252277465,/g3t1_2,,success
Status,79,9255092003,/g3t1_3,,running
Status,80,9255448711,/g3t1_3,,success
Status,81,9299160578,/g3t1_1,,running
Status,82,9299547209,/g3t1_1,,success
Status,83,9301842211,/g3t1_2,,running
Status,84,9302404457,/g3t1_2,,success
Status,85,9305250705,/g3t1_3,,running
Status,86,9305595920,/g3t1_3,,success
Status,87,9345419285,/g4t1,,fail
Status,88,9349221459,/g3t1_1,,running
Status,89,9349637282,/g3t1_1,,success
Status,90,9352096901,/g3t1_2,,running
Status,91,9352464736,/g3t1_2,,success
Status,92,9355545119,/g3t1_3,,running
Status,93,9355821113,/g3t1_3,,success
Status,94,9399386456,/g3t1_1,,running
Status,95,9399823135,/g3t1_1,,success
Status,96,9402236353,/g3t1_2,,running
Status,97,9402702065,/g3t1_2,,success
Status,98,9405450067,/g3t1_3,,running
Status,99,9405943685,/g3t1_3,,success
Status,100,9445346518,/g4t1,,fail
Status,101,9449332850,/g3t1_1,,running
Status,102,9449903398,/g3t1_1,,success
Status,103,9452322821,/g3t1_2,,running
Status,104,9453029039,/g3t1_2,,success
Status,105,9455576754,/g3t1_3,,running
Status,106,9455934870,/g3t1_3,,success
Status,107,9499610296,/g3t1_1,,running
Status,108,9499902812,/g3t1_1,,success
Status,109,9502343076,/g3t1_2,,running
Status,110,9502951794,/g3t1_2,,success
Status,111,9505926886,/g3t1_3,,running
Status,112,9506270215,/g3t1_3,,success
Status,113,9545758669,/g4t1,,fail
Status,114,9549786718,/g3t1_1,,running
Status,115,9550073572,/g3t1_1,,success
Status,116,9552622602,/g3t1_2,,running
Status,117,9553024435,/g3t1_2,,success
Status,118,9555787648,/g3t1_3,,running
Status,119,9556259995,/g3t1_3,,success
Status,120,9600378281,/g3t1_1,,running
Status,121,9600482272,/g3t1_1,,success
Status,122,9602768145,/g3t1_2,,running
Status,123,9603041770,/g3t1_2,,success
Status,124,9606059416,/g3t1_3,,running
Status,125,9606739209,/g3t1_3,,success
Status,126,9645736668,/g4t1,,fail
Status,127,9650041392,/g3t1_1,,running
Status,128,9650294952,/g3t1_1,,success
Status,129,9652960037,/g3t1_2,,running
Status,130,9653375541,/g3t1_2,,success
Status,131,9656163802,/g3t1_3,,running
Status,132,9656872692,/g3t1_3,,success
Status,133,9700278936,/g3t1_1,,running
Status,134,9700572302,/g3t1_1,,success
Status,135,9702853271,/g3t1_2,,running
Status,136,9703284014,/g3t1_2,,success
Status,137,9706474027,/g3t1_3,,running
Status,138,9706896738,/g3t1_3,,success
Status,139,9745967251,/g4t1,,fail
Status,140,9750378452,/g3t1_1,,running
Status,141,9750991210,/g3t1_1,,success
Status,142,9753131526,/g3t1_2,,running
Status,143,9753566160,/g3t1_2,,success
Status,144,9756183028,/g3t1_3,,running
Status,145,9756832599,/g3t1_3,,success
Status,146,9800521539,/g3t1_1,,running
Status,147,9800837473,/g3t1_1,,success
Status,148,9803197900,/g3t1_2,,running
Status,149,9803431798,/g3t1_2,,success
Status,150,9806650746,/g3t1_3,,running
Status,151,9806714953,/g3t1_3,,success
Status,152,9845244960,/g4t1,,fail
Status,153,9849988688,/g3t1_1,,running
Status,154,9850187326,/g3t1_1,,success
Status,155,9852838032,/g3t1_2,,running
Status,156,9853065489,/g3t1_2,,success
Status,157,9856188575,/g3t1_3,,running
Status,158,9856340567,/g3t1_3,,success
Status,159,9900331471,/g3t1_1,,running
Status,160,9900484450,/g3t1_1,,success
Status,161,9903018384,/g3t1_2,,running
Status,162,9903175680,/g3t1_2,,success
Status,163,9906214171,/g3t1_3,,running
Status,164,9906453344,/g3t1_3,,success
Status,165,9945737314,/g4t1,,fail
Status,166,9950352104,/g3t1_1,,running
Status,167,9950390474,/g3t1_1,,success
Status,168,9953134036,/g3t1_2,,running
Status,169,9953284990,/g3t1_2,,success
Status,170,9956342994,/g3t1_3,,running
Status,171,9956632935,/g3t1_3,,success
Status,172,10001136283,/g3t1_1,,running
Status,173,10001566580,/g3t1_1,,success
Status,174,10003513006,/g3t1_2,,running
Status,175,10003861132,/g3t1_2,,success
Status,176,10006752996,/g3t1_3,,running
Status,177,10007164092,/g3t1_3,,success
Status,178,10046294059,/g4t1,,fail
Status,179,10051288024,/g3t1_1,,running
Status,180,10051547626,/g3t1_1,,success
Status,181,10053766697,/g3t1_2,,running
Status,182,10054206677,/g3t1_2,,success
Status,183,10057090624,/g3t1_3,,running
Status,184,10057484871,/g3t1_3,,success
Status,185,10101619229,/g3t1_1,,running
Status,186,10101715030,/g3t1_1,,success
Status,187,10103744942,/g3t1_2,,running
Status,188,10104168576,/g3t1_2,,success
Status,189,10107049197,/g3t1_3,,running
Status,190,10107386893,/g3t1_3,,success
Status,191,10146462419,/g4t1,,fail
Status,192,10151666029,/g3t1_1,,running
Status,193,10151733288,/g3t1_1,,success
Status,194,10153859314,/g3t1_2,,running
Status,195,10154372132,/g3t1_2,,success
Status,196,10157190822,/g3t1_3,,running
Status,197,10157643328,/g3t1_3,,success
Status,198,10201507783,/g3t1_1,,running
Status,199,10201996609,/g3t1_1,,success
Status,200,10204067023,/g3t1_2,,running
Status,201,10204406976,/g3t1_2,,success
Status,202,10207210595,/g3t1_3,,running
Status,203,10207566804,/g3t1_3,,success
Status,204,10246562497,/g4t1,,fail
Status,205,10251659624,/g3t1_1,,running
Status,206,10252271606,/g3t1_1,,success
Status,207,10254263567,/g3t1_2,,running
Status,208,10254600565,/g3t1_2,,success
Status,209,10257308756,/g3t1_3,,running
Status,210,10258148035,/g3t1_3,,success
Status,211,10301908786,/g3t1_1,,running
Status,212,10302378356,/g3t1_1,,success
Status,213,10304375351,/g3t1_2,,running
Status,214,10304800933,/g3t1_2,,success
Status,215,10307619260,/g3t1_3,,running
Status,216,10308362773,/g3t1_3,,success
Status,217,10346829995,/g4t1,,fail
Status,218,10351958714,/g3t1_1,,running
Status,219,10352361170,/g3t1_1,,success
Status,220,10354466703,/g3t1_2,,running
Status,221,10354781461,/g3t1_2,,success
Status,222,10357677583,/g3t1_3,,running
Status,223,10358110003,/g3t1_3,,success
Status,224,10402102981,/g3t1_1,,running
Status,225,10402678517,/g3t1_1,,success
Status,226,10404604442,/g3t1_2,,running
Status,227,10405192166,/g3t1_2,,success
Status,228,10407744769,/g3t1_3,,running
Status,229,10408295400,/g3t1_3,,success
Status,230,10446880124,/g4t1,,fail
Status,231,10452445850,/g3t1_1,,running
Status,232,10452497456,/g3t1_1,,success
Status,233,10454819893,/g3t1_2,,running
Status,234,10455266949,/g3t1_2,,success
Status,235,10458081327,/g3t1_3,,running
Status,236,10458376274,/g3t1_3,,success
Status,237,10502038918,/g3t1_1,,running
Status,238,10502082045,/g3t1_1,,success
Status,239,10504588698,/g3t1_2,,running
Status,240,10504632523,/g3t1_2,,success
Status,241,10507646476,/g3t1_3,,running
Status,242,10507877349,/g3t1_3,,success
Status,243,10546331328,/g4t1,,fail
Status,244,10552008629,/g3t1_1,,running
Status,245,10552207849,/g3t1_1,,success
Status,246,10554684172,/g3t1_2,,running
Status,247,10554978197,/g3t1_2,,success
Status,248,10557808600,/g3t1_3,,running
Status,249,10558077865,/g3t1_3,,success
Status,250,10602069717,/g3t1_1,,running
Status,251,10602216644,/g3t1_1,,success
Status,252,10604558230,/g3t1_2,,running
Status,253,10604719764,/g3t1_2,,success
Status,254,10607903655,/g3t1_3,,running
Status,255,10607952374,/g3t1_3,,success
Status,256,10647156871,/g4t1,,fail
Status,257,10652617183,/g3t1_1,,running
Status,258,10653099469,/g3t1_1,,success
Status,259,10655139604,/g3t1_2,,running
Status,260,10655598163,/g3t1_2,,success
Status,261,10658226867,/g3t1_3,,running
Status,262,10658650984,/g3t1_3,,success
Status,263,10702839065,/g3t1_1,,running
Status,264,10703175908,/g3t1_1,,success
Status,265,10705413444,/g3t1_2,,running
Status,266,10705766774,/g3t1_2,,success
Status,267,10708648409,/g3t1_3,,running
Status,268,10708998090,/g3t1_3,,success
Status,269,10746464009,/g4t1,,fail
Status,270,10752253055,/g3t1_1,,running
Status,271,10752419682,/g3t1_1,,success
Status,272,10755368831,/g3t1_2,,running
Status,273,10755433807,/g3t1_2,,success
Status,274,10758325934,/g3t1_3,,running
Status,275,10758371070,/g3t1_3,,success
Status,276,10802966515,/g3t1_1,,running
Status,277,10803333977,/g3t1_1,,success
Status,278,10805559701,/g3t1_2,,running
Status,279,10805994363,/g3t1_2,,success
Status,280,10808777720,/g3t1_3,,running
Status,281,10809089044,/g3t1_3,,success
Status,282,10846883467,/g4t1,,fail
Status,283,10853084921,/g3t1_1,,running
Status,284,10853319571,/g3t1_1,,success
Status,285,10855581198,/g3t1_2,,running
Status,286,10856066696,/g3t1_2,,success
Status,287,10858643090,/g3t1_3,,running
Status,288,10859571680,/g3t1_3,,success
Status,289,10903217030,/g3t1_1,,running
Status,290,10903516690,/g3t1_1,,success
Status,291,10905772243,/g3t1_2,,running
Status,292,10906216592,/g3t1_2,,success
Status,293,10908973040,/g3t1_3,,running
Status,294,10909489737,/g3t1_3,,success
Status,295,10946998491,/g4t1,,fail
Status,296,10952973490,/g3t1_1,,running
Status,297,10953189255,/g3t1_1,,success
Status,298,10955645807,/g3t1_2,,running
Status,299,10955861212,/g3t1_2,,success
Status,300,10958749499,/g3t1_3,,running
Status,301,10959017148,/g3t1_3,,success
Status,302,11003475174,/g3t1_1,,running
Status,303,11003837858,/g3t1_1,,success
Status,304,11005949806,/g3t1_2,,running
Status,305,11006623046,/g3t1_2,,success
Status,306,11009340434,/g3t1_3,,running
Status,307,11009588230,/g3t1_3,,success
Status,308,11047073695,/g4t1,,fail
Status,309,11053381760,/g3t1_1,,running
Status,310,11053812808,/g3t1_1,,success
Status,311,11056109630,/g3t1_2,,running
Status,312,11056653177,/g3t1_2,,success
Status,313,11059058166,/g3t1_3,,running
Status,314,11059582758,/g3t1_3,,success
Status,315,11103713602,/g3t1_1,,running
Status,316,11104228662,/g3t1_1,,success
Status,317,11106391797,/g3t1_2,,running
Status,318,11107112082,/g3t1_2,,success
Status,319,11109288653,/g3t1_3,,running
Status,320,11109947490,/g3t1_3,,success
Status,321,11147400874,/g4t1,,fail
Status,322,11153565462,/g3t1_1,,running
Status,323,11154163906,/g3t1_1,,success
Status,324,11156462246,/g3t1_2,,running
Status,325,11156841251,/g3t1_2,,success
Status,326,11159299588,/g3t1_3,,running
Status,327,11159958066,/g3t1_3,,success
Status,328,11204227702,/g3t1_1,,running
Status,329,11204569900,/g3t1_1,,success
Status,330,11206432250,/g3t1_2,,running
Status,331,11206746835,/g3t1_2,,success
Status,332,11209515133,/g3t1_3,,running
Status,333,11209870671,/g3t1_3,,success
Status,334,11247544203,/g4t1,,fail
Status,335,11254202842,/g3t1_1,,running
Status,336,11254586574,/g3t1_1,,success
Status,337,11256573702,/g3t1_2,,running
Status,338,11257065469,/g3t1_2,,success
Status,339,11259709334,/g3t1_3,,running
Status,340,11260358394,/g3t1_3,,success
Status,341,11304236332,/g3t1_1,,running
Status,342,11304619041,/g3t1_1,,success
Status,343,11306520228,/g3t1_2,,running
Status,344,11306937143,/g3t1_2,,success
Status,345,11309805107,/g3t1_3,,running
Status,346,11310184246,/g3t1_3,,success
Status,347,11347819108,/g4t1,,fail
Status,348,11354411903,/g3t1_1,,running
Status,349,11354672507,/g3t1_1,,success
Status,350,11356765415,/g3t1_2,,running
Status,351,11357145537,/g3t1_2,,success
Status,352,11359948632,/g3t1_3,,running
Status,353,11360387576,/g3t1_3,,success
Status,354,11404458007,/g3t1_1,,running
Status,355,11404793345,/g3t1_1,,success
Status,356,11406782158,/g3t1_2,,running
Status,357,11407388738,/g3t1_2,,success
Status,358,11410076324,/g3t1_3,,running
Status,359,11410470875,/g3t1_3,,success
Status,360,11448164622,/g4t1,,fail
Status,361,11454536671,/g3t1_1,,running
Status,362,11454627929,/g3t1_1,,success
Status,363,11456811804,/g3t1_2,,running
Status,364,11457189237,/g3t1_2,,success
Status,365,11460123162,/g3t1_3,,running
Status,366,11460712464,/g3t1_3,,success
Status,367,11504781639,/g3t1_1,,running
Status,368,11505076336,/g3t1_1,,success
Status,369,11506899946,/g3t1_2,,running
Status,370,11507219682,/g3t1_2,,success
Status,371,11510331610,/g3t1_3,,running
Status,372,11510849225,/g3t1_3,,success
Status,373,11547735316,/g4t1,,fail
Status,374,11554534925,/g3t1_1,,running
Status,375,11555150769,/g3t1_1,,success
Status,376,11556983329,/g3t1_2,,running
Status,377,11557331822,/g3t1_2,,success
Status,378,11560433249,/g3t1_3,,running
Status,379,11560914756,/g3t1_3,,success
Status,380,11605029978,/g3t1_1,,running
Status,381,11605525862,/g3t1_1,,success
Status,382,11607119944,/g3t1_2,,running
Status,383,11607231518,/g3t1_2,,success
Status,384,11610439325,/g3t1_3,,running
Status,385,11610949616,/g3t1_3,,success
Status,386,11648225738,/g4t1,,fail
Status,387,11655023980,/g3t1_1,,running
Status,388,11655572113,/g3t1_1,,success
Status,389,11657545229,/g3t1_2,,running
Status,390,11657650744,/g3t1_2,,success
Status,391,11660862860,/g3t1_3,,running
Status,392,11661255523,/g3t1_3,,success
Status,393,11705106870,/g3t1_1,,running
Status,394,11705601092,/g3t1_1,,success
Status,395,11707340015,/g3t1_2,,running
Status,396,11707690761,/g3t1_2,,success
Status,397,11710725634,/g3t1_3,,running
Status,398,11711093485,/g3t1_3,,success
Status,399,11748203058,/g4t1,,fail
Status,400,11755135591,/g3t1_1,,running
Status,401,11755556647,/g3t1_1,,success
Status,402,11757496269,/g3t1_2,,running
Status,403,11757780069,/g3t1_2,,success
Status,404,11760895531,/g3t1_3,,running
Status,405,11761344750,/g3t1_3,,success
Status,406,11805405354,/g3t1_1,,running
Status,407,11805805015,/g3t1_1,,success
Status,408,11807514124,/g3t1_2,,running
Status,409,11807933052,/g3t1_2,,success
Status,410,11811001039,/g3t1_3,,running
Status,411,11811659473,/g3t1_3,,success
Status,412,11848277096,/g4t1,,fail
Status,413,11855460434,/g3t1_1,,running
Status,414,11856203996,/g3t1_1,,success
Status,415,11857562925,/g3t1_2,,running
Status,416,11858107009,/g3t1_2,,success
Status,417,11861227557,/g3t1_3,,running
Status,418,11861753936,/g3t1_3,,success
Status,419,11905116588,/g3t1_1,,running
Status,420,11905284585,/g3t1_1,,success
Status,421,11907414244,/g3t1_2,,running
Status,422,11907455824,/g3t1_2,,success
Status,423,11910830836,/g3t1_3,,running
Status,424,11910869579,/g3t1_3,,success
Status,425,11947711639,/g4t1,,fail
Status,426,11955032084,/g3t1_1,,running
Status,427,11955154556,/g3t1_1,,success
Status,428,11957319112,/g3t1_2,,running
Status,429,11957425161,/g3t1_2,,success
Status,430,11961080674,/g3t1_3,,running
Status,431,11961107145,/g3t1_3,,success
Status,432,12005034994,/g3t1_1,,running
Status,433,12005230930,/g3t1_1,,success
Status,434,12007320923,/g3t1_2,,running
Status,435,12007583171,/g3t1_2,,success
Status,436,12011601205,/g3t1_3,,running
Status,437,12011657360,/g3t1_3,,success
Status,438,12048154201,/g4t1,,fail
Status,439,12055193477,/g3t1_1,,running
Status,440,12055337368,/g3t1_1,,success
Status,441,12057598283,/g3t1_2,,running
Status,442,12057881706,/g3t1_2,,success
Status,443,12061583928,/g3t1_3,,running
Status,444,12061791690,/g3t1_3,,success
Status,445,12105405207,/g3t1_1,,running
Status,446,12105538007,/g3t1_1,,success
Status,447,12107807041,/g3t1_2,,running
Status,448,12107845914,/g3t1_2,,success
Status,449,12111524522,/g3t1_3,,running
Status,450,12111634003,/g3t1_3,,success
Status,451,12148551819,/g4t1,,fail
Status,452,12155711679,/g3t1_1,,running
Status,453,12155952580,/g3t1_1,,success
Status,454,12158360246,/g3t1_2,,running
Status,455,12158432210,/g3t1_2,,success
Status,456,12161565121,/g3t1_3,,running
Status,457,12161967284,/g3t1_3,,success
Status,458,12205427208,/g3t1_1,,running
Status,459,12205580077,/g3t1_1,,success
Status,460,12207655924,/g3t1_2,,running
Status,461,12207780519,/g3t1_2,,success
Status,462,12211400742,/g3t1_3,,running
Status,463,12211420727,/g3t1_3,,success
Status,464,12248262702,/g4t1,,fail
Status,465,12255500852,/g3t1_1,,running
Status,466,12255612260,/g3t1_1,,success
Status,467,12257663353,/g3t1_2,,running
Status,468,12257857440,/g3t1_2,,success
Status,469,12261515387,/g3t1_3,,running
Status,470,12261538174,/g3t1_3,,success
Status,471,12305969485,/g3t1_1,,running
Status,472,12306331515,/g3t1_1,,success
Status,473,12307951605,/g3t1_2,,running
Status,474,12308485167,/g3t1_2,,success
Status,475,12311806949,/g3t1_3,,running
Status,476,12312107470,/g3t1_3,,success
Status,477,12348743419,/g4t1,,fail
Status,478,12356031930,/g3t1_1,,running
Status,479,12356389274,/g3t1_1,,success
Status,480,12358311078,/g3t1_2,,running
Status,481,12358362078,/g3t1_2,,success
Status,482,12362473968,/g3t1_3,,running
Status,483,12362836482,/g3t1_3,,success
Status,484,12406288017,/g3t1_1,,running
Status,485,12407218240,/g3t1_1,,success
Status,486,12408556776,/g3t1_2,,running
Status,487,12409039175,/g3t1_2,,success
Status,488,12412800634,/g3t1_3,,running
Status,489,12412918610,/g3t1_3,,success
Status,490,12449209149,/g4t1,,fail
Status,491,12456363531,/g3t1_1,,running
Status,492,12456949160,/g3t1_1,,success
Status,493,12458453744,/g3t1_2,,running
Status,494,12458856014,/g3t1_2,,success
Status,495,12462408753,/g3t1_3,,running
Status,496,12463005002,/g3t1_3,,success
Status,497,12506584989,/g3t1_1,,running
Status,498,12506822527,/g3t1_1,,success
Status,499,12508731009,/g3t1_2,,running
Status,500,12509113901,/g3t1_2,,success
Status,501,12512491525,/g3t1_3,,running
Status,502,12513097553,/g3t1_3,,success
Status,503,12549405676,/g4t1,,fail
Status,504,12556763569,/g3t1_1,,running
Status,505,12557222063,/g3t1_1,,success
Status,506,12558613738,/g3t1_2,,running
Status,507,12559098311,/g3t1_2,,success
Status,508,12562761884,/g3t1_3,,running
Status,509,12562987331,/g3t1_3,,success
Status,510,12606824668,/g3t1_1,,running
Status,511,12607429478,/g3t1_1,,success
Status,512,12608834541,/g3t1_2,,running
Status,513,12609258388,/g3t1_2,,success
Status,514,12612789378,/g3t1_3,,running
Status,515,12613105220,/g3t1_3,,success
Status,516,12649247511,/g4t1,,fail
Status,517,12656848755,/g3t1_1,,running
Status,518,12657236937,/g3t1_1,,success
Status,519,12658920145,/g3t1_2,,running
Status,520,12659255333,/g3t1_2,,success
Status,521,12663169755,/g3t1_3,,running
Status,522,12663239142,/g3t1_3,,success
Status,523,12707154270,/g3t1_1,,running
Status,524,12707717875,/g3t1_1,,success
Status,525,12709040572,/g3t1_2,,running
Status,526,12709337741,/g3t1_2,,success
Status,527,12713094412,/g3t1_3,,running
Status,528,12713159788,/g3t1_3,,success
Status,529,12749402907,/g4t1,,fail
Status,530,12757249596,/g3t1_1,,running
Status,531,12757632691,/g3t1_1,,success
Status,532,12759051122,/g3t1_2,,running
Status,533,12759453483,/g3t1_2,,success
Status,534,12763878800,/g3t1_3,,running
Status,535,12763959797,/g3t1_3,,success
Status,536,12807553563,/g3t1_1,,running
Status,537,12807952712,/g3t1_1,,success
Status,538,12809159082,/g3t1_2,,running
Status,539,12809694319,/g3t1_2,,success
Status,540,12813176437,/g3t1_3,,running
Status,541,12813517774,/g3t1_3,,success
Status,542,12849772586,/g4t1,,fail
Status,543,12857714133,/g3t1_1,,running
Status,544,12858155343,/g3t1_1,,success
Status,545,12859180633,/g3t1_2,,running
Status,546,12859768733,/g3t1_2,,success
Status,547,12863545138,/g3t1_3,,running
Status,548,12863853342,/g3t1_3,,success
Status,549,12907123808,/g3t1_1,,running
Status,550,12907160736,/g3t1_1,,success
Status,551,12908799886,/g3t1_2,,running
Status,552,12908916226,/g3t1_2,,success
Status,553,12912829057,/g3t1_3,,running
Status,554,12913074532,/g3t1_3,,success
Status,555,12948987025,/g4t1,,fail
Status,556,12957207064,/g3t1_1,,running
Status,557,12957244037,/g3t1_1,,success
Status,558,12959192083,/g3t1_2,,running
Status,559,12959298744,/g3t1_2,,success
Status,560,12963425918,/g3t1_3,,running
Status,561,12963544239,/g3t1_3,,success
Status,562,13007341928,/g3t1_1,,running
Status,563,13007372946,/g3t1_1,,success
Status,564,13009496240,/g3t1_2,,running
Status,565,13009537130,/g3t1_2,,success
Status,566,13013205821,/g3t1_3,,running
Status,567,13013228712,/g3t1_3,,success
Status,568,13049772233,/g4t1,,fail
Status,569,13057358185,/g3t1_1,,running
Status,570,13057663248,/g3t1_1,,success
Status,571,13059385142,/g3t1_2,,running
Status,572,13059569217,/g3t1_2,,success
Status,573,13063551409,/g3t1_3,,running
Status,574,13063605184,/g3t1_3,,success
Status,575,13107646481,/g3t1_1,,running
Status,576,13107684386,/g3t1_1,,success
Status,577,13109634362,/g3t1_2,,running
Status,578,13109814148,/g3t1_2,,success
Status,579,13113685881,/g3t1_3,,running
Status,580,13113728085,/g3t1_3,,success
Status,581,13149755564,/g4t1,,fail
Status,582,13157864434,/g3t1_1,,running
Status,583,13157969482,/g3t1_1,,success
Status,584,13159446544,/g3t1_2,,running
Status,585,13159695359,/g3t1_2,,success
Status,586,13163666255,/g3t1_3,,running
Status,587,13163692714,/g3t1_3,,success
Status,588,13207748417,/g3t1_1,,running
Status,589,13208062287,/g3t1_1,,success
Status,590,13209482617,/g3t1_2,,running
Status,591,13209708208,/g3t1_2,,success
Status,592,13213643408,/g3t1_3,,running
Status,593,13213824192,/g3t1_3,,success
Status,594,13249640832,/g4t1,,fail
Status,595,13257956145,/g3t1_1,,running
Status,596,13258286339,/g3t1_1,,success
Status,597,13259801673,/g3t1_2,,running
Status,598,13260418189,/g3t1_2,,success
Status,599,13263961707,/g3t1_3,,running
Status,600,13264408281,/g3t1_3,,success
Status,601,13307808482,/g3t1_1,,running
Status,602,13307844274,/g3t1_1,,success
Status,603,13310065382,/g3t1_2,,running
Status,604,13310507758,/g3t1_2,,success
Status,605,13313752515,/g3t1_3,,running
Status,606,13313928198,/g3t1_3,,success
Status,607,13349442499,/g4t1,,fail
Status,608,13357866205,/g3t1_1,,running
Status,609,13357936079,/g3t1_1,,success
Status,610,13360496704,/g3t1_2,,running
Status,611,13360869377,/g3t1_2,,success
Status,612,13363795855,/g3t1_3,,running
Status,613,13363895790,/g3t1_3,,success
Status,614,13407914380,/g3t1_1,,running
Status,615,13408078325,/g3t1_1,,success
Status,616,13410318817,/g3t1_2,,running
Status,617,13410380142,/g3t1_2,,success
Status,618,13414042587,/g3t1_3,,running
Status,619,13414140288,/g3t1_3,,success
Status,620,13449772895,/g4t1,,fail
Status,621,13458193600,/g3t1_1,,running
Status,622,13458535683,/g3t1_1,,success
Status,623,13460675746,/g3t1_2,,running
Status,624,13460734511,/g3t1_2,,success
Status,625,13464786699,/g3t1_3,,running
Status,626,13464937709,/g3t1_3,,success
Status,627,13508460230,/g3t1_1,,running
Status,628,13508810240,/g3t1_1,,success
Status,629,13510480540,/g3t1_2,,running
Status,630,13510750640,/g3t1_2,,success
Status,631,13514364761,/g3t1_3,,running
Status,632,13514628572,/g3t1_3,,success
Status,633,13549728017,/g4t1,,fail
Status,634,13558272479,/g3t1_1,,running
Status,635,13558690517,/g3t1_1,,success
Status,636,13560912427,/g3t1_2,,running
Status,637,13561116429,/g3t1_2,,success
Status,638,13565011282,/g3t1_3,,running
Status,639,13565269243,/g3t1_3,,success
Status,640,13608803962,/g3t1_1,,running
Status,641,13609085167,/g3t1_1,,success
Status,642,13610346129,/g3t1_2,,running
Status,643,13610522049,/g3t1_2,,success
Status,644,13614557165,/g3t1_3,,running
Status,645,13614598665,/g3t1_3,,success
Status,646,13650393036,/g4t1,,fail
Status,647,13659524659,/g3t1_1,,running
Status,648,13659648300,/g3t1_1,,success
Status,649,13661345124,/g3t1_2,,running
Status,650,13662141520,/g3t1_2,,success
Status,651,13664972408,/g3t1_3,,running
Status,652,13665579270,/g3t1_3,,success
Status,653,13709112396,/g3t1_1,,running
Status,654,13709335130,/g3t1_1,,success
Status,655,13710852002,/g3t1_2,,running
Status,656,13711276986,/g3t1_2,,success
Status,657,13715011762,/g3t1_3,,running
Status,658,13715414994,/g3t1_3,,success
Status,659,13750178970,/g4t1,,fail
Status,660,13758719887,/g3t1_1,,running
Status,661,13759414212,/g3t1_1,,success
Status,662,13760834246,/g3t1_2,,running
Status,663,13761379433,/g3t1_2,,success
Status,664,13764777206,/g3t1_3,,running
Status,665,13765028299,/g3t1_3,,success
Status,666,13809050571,/g3t1_1,,running
Status,667,13809249224,/g3t1_1,,success
Status,668,13811237167,/g3t1_2,,running
Status,669,13811684403,/g3t1_2,,success
Status,670,13814902891,/g3t1_3,,running
Status,671,13815144152,/g3t1_3,,success
Status,672,13850164870,/g4t1,,fail
Status,673,13859005512,/g3t1_1,,running
Status,674,13859283436,/g3t1_1,,success
Status,675,13861482377,/g3t1_2,,running
Status,676,13861867735,/g3t1_2,,success
Status,677,13865099802,/g3t1_3,,running
Status,678,13865418519,/g3t1_3,,success
Status,679,13908922775,/g3t1_1,,running
Status,680,13908945513,/g3t1_1,,success
Status,681,13910877607,/g3t1_2,,running
Status,682,13911031766,/g3t1_2,,success
Status,683,13914736365,/g3t1_3,,running
Status,684,13914852399,/g3t1_3,,success
Status,685,13949918403,/g4t1,,fail
Status,686,13959477018,/g3t1_1,,running
Status,687,13959669240,/g3t1_1,,success
Status,688,13961544483,/g3t1_2,,running
Status,689,13961609516,/g3t1_2,,success
Status,690,13965218540,/g3t1_3,,running
Status,691,13965578436,/g3t1_3,,success
Status,692,14009403228,/g3t1_1,,running
Status,693,14009640289,/g3t1_1,,success
Status,694,14011456249,/g3t1_2,,running
Status,695,14011801383,/g3t1_2,,success
Status,696,14015337868,/g3t1_3,,running
Status,697,14015604510,/g3t1_3,,success
Status,698,14050714698,/g4t1,,fail
Status,699,14060114843,/g3t1_1,,running
Status,700,14060192881,/g3t1_1,,success
Status,701,14061697113,/g3t1_2,,running
Status,702,14062043108,/g3t1_2,,success
Status,703,14065459358,/g3t1_3,,running
Status,704,14066061812,/g3t1_3,,success
Status,705,14109784668,/g3t1_1,,running
Status,706,14110083155,/g3t1_1,,success
Status,707,14111502150,/g3t1_2,,running
Status,708,14111956534,/g3t1_2,,success
Status,709,14115703319,/g3t1_3,,running
Status,710,14116100761,/g3t1_3,,success
Status,711,14150926194,/g4t1,,fail
Status,712,14159923627,/g3t1_1,,running
Status,713,14160334630,/g3t1_1,,success
Status,714,14161980827,/g3t1_2,,running
Status,715,14162238434,/g3t1_2,,success
Status,716,14166223430,/g3t1_3,,running
Status,717,14166690338,/g3t1_3,,success
Status,718,14209979661,/g3t1_1,,running
Status,719,14210306421,/g3t1_1,,success
Status,720,14212022751,/g3t1_2,,running
Status,721,14212297433,/g3t1_2,,success
Status,722,14215892606,/g3t1_3,,running
Status,723,14216367865,/g3t1_3,,success
Status,724,14250449281,/g4t1,,fail
Status,725,14259908919,/g3t1_1,,running
Status,726,14260128254,/g3t1_1,,success
Status,727,14261579137,/g3t1_2,,running
Status,728,14261710014,/g3t1_2,,success
Status,729,14265663635,/g3t1_3,,running
Status,730,14265927299,/g3t1_3,,success
Status,731,14310341934,/g3t1_1,,running
Status,732,14310596765,/g3t1_1,,success
Status,733,14312106506,/g3t1_2,,running
Status,734,14312439238,/g3t1_2,,success
Status,735,14316091430,/g3t1_3,,running
Status,736,14316494503,/g3t1_3,,success
Status,737,14350877229,/g4t1,,fail
Status,738,14360482920,/g3t1_1,,running
Status,739,14360548618,/g3t1_1,,success
Status,740,14362594707,/g3t1_2,,running
Status,741,14362654877,/g3t1_2,,success
Status,742,14366270866,/g3t1_3,,running
Status,743,14366554601,/g3t1_3,,success
Status,744,14410649553,/g3t1_1,,running
Status,745,14410965409,/g3t1_1,,success
Status,746,14412379679,/g3t1_2,,running
Status,747,14412876287,/g3t1_2,,success
Status,748,14416504743,/g3t1_3,,running
Status,749,14416965254,/g3t1_3,,success
Status,750,14451333469,/g4t1,,fail
Status,751,14460748914,/g3t1_1,,running
Status,752,14461270231,/g3t1_1,,success
Status,753,14462541712,/g3t1_2,,running
Status,754,14462870448,/g3t1_2,,success
Status,755,14466610594,/g3t1_3,,running
Status,756,14466980120,/g3t1_3,,success
Status,757,14511069024,/g3t1_1,,running
Status,758,14511461392,/g3t1_1,,success
Status,759,14512592018,/g3t1_2,,running
Status,760,14513263969,/g3t1_2,,success
Status,761,14516727154,/g3t1_3,,running
Status,762,14517154433,/g3t1_3,,success
Status,763,14551493543,/g4t1,,fail
Status,764,14561152625,/g3t1_1,,running
Status,765,14561779667,/g3t1_1,,success
Status,766,14563205932,/g3t1_2,,running
Status,767,14563285830,/g3t1_2,,success
Status,768,14566835131,/g3t1_3,,running
Status,769,14567175429,/g3t1_3,,success
Status,770,14611313925,/g3t1_1,,running
Status,771,14611622030,/g3t1_1,,success
Status,772,14612656245,/g3t1_2,,running
Status,773,14613214471,/g3t1_2,,success
Status,774,14616987797,/g3t1_3,,running
Status,775,14617921372,/g3t1_3,,success
Status,776,14651595097,/g4t1,,fail
Status,777,14661577825,/g3t1_1,,running
Status,778,14661650197,/g3t1_1,,success
Status,779,14662853428,/g3t1_2,,running
Status,780,14663226419,/g3t1_2,,success
Status,781,14666950906,/g3t1_3,,running
Status,782,14667671089,/g3t1_3,,success
Status,783,14711529764,/g3t1_1,,running
Status,784,14711922698,/g3t1_1,,success
Status,785,14712970390,/g3t1_2,,running
Status,786,14713288605,/g3t1_2,,success
Status,787,14717028773,/g3t1_3,,running
Status,788,14717586414,/g3t1_3,,success
Status,789,14751811988,/g4t1,,fail
Status,790,14761849643,/g3t1_1,,running
Status,791,14762249739,/g3t1_1,,success
Status,792,14763199751,/g3t1_2,,running
Status,793,14763604202,/g3t1_2,,success
Status,794,14767172285,/g3t1_3,,running
Status,795,14767780293,/g3t1_3,,success
Status,796,14812086745,/g3t1_1,,running
Status,797,14812500267,/g3t1_1,,success
Status,798,14813368157,/g3t1_2,,running
Status,799,14813776328,/g3t1_2,,success
Status,800,14817306221,/g3t1_3,,running
Status,801,14817690207,/g3t1_3,,success
Status,802,14851915950,/g4t1,,fail
Status,803,14862075056,/g3t1_1,,running
Status,804,14862540521,/g3t1_1,,success
Status,805,14863450443,/g3t1_2,,running
Status,806,14863812794,/g3t1_2,,success
Status,807,14867261583,/g3t1_3,,running
Status,808,14867927007,/g3t1_3,,success
Status,809,14912294307,/g3t1_1,,running
Status,810,14912614345,/g3t1_1,,success
Status,811,14913398869,/g3t1_2,,running
Status,812,14913824623,/g3t1_2,,success
Status,813,14917287153,/g3t1_3,,running
Status,814,14917715499,/g3t1_3,,success
Status,815,14952225356,/g4t1,,fail
Status,816,14962720484,/g3t1_1,,running
Status,817,14963355883,/g3t1_1,,success
Status,818,14963487482,/g3t1_2,,running
Status,819,14964094744,/g3t1_2,,success
Status,820,14967448070,/g3t1_3,,running
Status,821,14967944392,/g3t1_3,,success
Status,822,15012908897,/g3t1_1,,running
Status,823,15013641459,/g3t1_2,,running
Status,824,15013768110,/g3t1_1,,success
Status,825,15014292890,/g3t1_2,,success
Status,826,15017532985,/g3t1_3,,running
Status,827,15017967576,/g3t1_3,,success
Status,828,15052577502,/g4t1,,fail
Status,829,15063071743,/g3t1_1,,running
Status,830,15063825536,/g3t1_1,,success
Status,831,15063955306,/g3t1_2,,running
Status,832,15064552323,/g3t1_2,,success
Status,833,15067638569,/g3t1_3,,running
Status,834,15068073726,/g3t1_3,,success
Status,835,15113703903,/g3t1_1,,running
Status,836,15113796919,/g3t1_1,,success
Status,837,15113892857,/g3t1_2,,running
Status,838,15114552640,/g3t1_2,,success
Status,839,15117844696,/g3t1_3,,running
Status,840,15118590819,/g3t1_3,,success
Status,841,15151660548,/g4t1,,fail
Status,842,15162735099,/g3t1_1,,running
Status,843,15162759096,/g3t1_1,,success
Status,844,15163316693,/g3t1_2,,running
Status,845,15163492529,/g3t1_2,,success
Status,846,15167709140,/g3t1_3,,running
Status,847,15167765440,/g3t1_3,,success
Status,848,15212792834,/g3t1_1,,running
Status,849,15212888997,/g3t1_1,,success
Status,850,15213444012,/g3t1_2,,running
Status,851,15213561465,/g3t1_2,,success
Status,852,15217634295,/g3t1_3,,running
Status,853,15217722348,/g3t1_3,,success
Status,854,15251642780,/g4t1,,fail
Status,855,15262874292,/g3t1_1,,running
Status,856,15263119859,/g3t1_1,,success
Status,857,15263433165,/g3t1_2,,running
Status,858,15263547915,/g3t1_2,,success
Status,859,15267565376,/g3t1_3,,running
Status,860,15267673332,/g3t1_3,,success
Status,861,15312976191,/g3t1_1,,running
Status,862,15313050210,/g3t1_1,,success
Status,863,15313549633,/g3t1_2,,running
Status,864,15313749203,/g3t1_2,,success
Status,865,15317814729,/g3t1_3,,running
Status,866,15317851474,/g3t1_3,,success
Status,867,15352574573,/g4t1,,fail
Status,868,15364165145,/g3t1_1,,running
Status,869,15364257915,/g3t1_2,,running
Status,870,15364687821,/g3t1_1,,success
Status,871,15365075053,/g3t1_2,,success
Status,872,15368447959,/g3t1_3,,running
Status,873,15368867970,/g3t1_3,,success
Status,874,15413820824,/g3t1_1,,running
Status,875,15414334111,/g3t1_1,,success
Status,876,15414399899,/g3t1_2,,running
Status,877,15414664970,/g3t1_2,,success
Status,878,15418800934,/g3t1_3,,running
Status,879,15418882311,/g3t1_3,,success
Status,880,15452049177,/g4t1,,fail
Status,881,15463470702,/g3t1_1,,running
Status,882,15463651931,/g3t1_1,,success
Status,883,15464163972,/g3t1_2,,running
Status,884,15464188792,/g3t1_2,,success
Status,885,15468128448,/g3t1_3,,running
Status,886,15468153869,/g3t1_3,,success
Status,887,15514044998,/g3t1_1,,running
Status,888,15514597722,/g3t1_2,,running
Status,889,15514918691,/g3t1_1,,success
Status,890,15515513306,/g3t1_2,,success
Status,891,15518476746,/g3t1_3,,running
Status,892,15518841427,/g3t1_3,,success
Status,893,15553084289,/g4t1,,fail
Status,894,15564827278,/g3t1_1,,running
Status,895,15564936444,/g3t1_2,,running
Status,896,15565028998,/g3t1_1,,success
Status,897,15565433907,/g3t1_2,,success
Status,898,15568657486,/g3t1_3,,running
Status,899,15568935144,/g3t1_3,,success
Status,900,15614278194,/g3t1_1,,running
Status,901,15614353482,/g3t1_1,,success
Status,902,15614575416,/g3t1_2,,running
Status,903,15614797578,/g3t1_2,,success
Status,904,15618531894,/g3t1_3,,running
Status,905,15618772869,/g3t1_3,,success
Status,906,15653198768,/g4t1,,fail
Status,907,15664842743,/g3t1_1,,running
Status,908,15664934561,/g3t1_2,,running
Status,909,15665442539,/g3t1_1,,success
Status,910,15665640122,/g3t1_2,,success
Status,911,15668900073,/g3t1_3,,running
Status,912,15669465392,/g3t1_3,,success
Status,913,15715138138,/g3t1_1,,running
Status,914,15715241492,/g3t1_1,,success
Status,915,15715273585,/g3t1_2,,running
Status,916,15715700878,/g3t1_2,,success
Status,917,15718836667,/g3t1_3,,running
Status,918,15719147196,/g3t1_3,,success
Status,919,15753323782,/g4t1,,fail
Status,920,15764880853,/g3t1_1,,running
Status,921,15764945650,/g3t1_2,,running
Status,922,15764977146,/g3t1_1,,success
Status,923,15765005194,/g3t1_2,,success
Status,924,15768772543,/g3t1_3,,running
Status,925,15768930742,/g3t1_3,,success
Status,926,15815128415,/g3t1_1,,running
Status,927,15815221832,/g3t1_2,,running
Status,928,15815745769,/g3t1_2,,success
Status,929,15816151653,/g3t1_1,,success
Status,930,15819131653,/g3t1_3,,running
Status,931,15820364552,/g3t1_3,,success
Status,932,15853624223,/g4t1,,fail
Status,933,15864639779,/g3t1_1,,running
Status,934,15864961059,/g3t1_2,,running
Status,935,15865046613,/g3t1_1,,success
Status,936,15865194917,/g3t1_2,,success
Status,937,15868882362,/g3t1_3,,running
Status,938,15868920217,/g3t1_3,,success
Status,939,15914466792,/g3t1_1,,running
Status,940,15914612913,/g3t1_1,,success
Status,941,15914651570,/g3t1_2,,running
Status,942,15914872589,/g3t1_2,,success
Status,943,15918862168,/g3t1_3,,running
Status,944,15918888654,/g3t1_3,,success
Status,945,15952730911,/g4t1,,fail
Status,946,15964606999,/g3t1_1,,running
Status,947,15964639606,/g3t1_1,,success
Status,948,15964789462,/g3t1_2,,running
Status,949,15964977432,/g3t1_2,,success
Status,950,15968862427,/g3t1_3,,running
Status,951,15969018377,/g3t1_3,,success
Status,952,16015064593,/g3t1_1,,running
Status,953,16015141112,/g3t1_2,,running
Status,954,16015522025,/g3t1_2,,success
Status,955,16015629231,/g3t1_1,,success
Status,956,16019324691,/g3t1_3,,running
Status,957,16019644318,/g3t1_3,,success
Status,958,16053417249,/g4t1,,fail
Status,959,16065483637,/g3t1_1,,running
Status,960,16065560977,/g3t1_2,,running
Status,961,16065596948,/g3t1_1,,success
Status,962,16065871234,/g3t1_2,,success
Status,963,16069511926,/g3t1_3,,running
Status,964,16069836814,/g3t1_3,,success
Status,965,16115806826,/g3t1_1,,running
Status,966,16115886670,/g3t1_2,,running
Status,967,16116386408,/g3t1_1,,success
Status,968,16116457663,/g3t1_2,,success
Status,969,16120330088,/g3t1_3,,running
Status,970,16120385378,/g3t1_3,,success
Status,971,16153647979,/g4t1,,fail
Status,972,16166021419,/g3t1_1,,running
Status,973,16166168724,/g3t1_2,,running
Status,974,16166477437,/g3t1_2,,success
Status,975,16166932551,/g3t1_1,,success
Status,976,16169990220,/g3t1_3,,running
Status,977,16170204715,/g3t1_3,,success
Status,978,16215195691,/g3t1_1,,running
Status,979,16215368374,/g3t1_2,,running
Status,980,16215394808,/g3t1_1,,success
Status,981,16215541913,/g3t1_2,,success
Status,982,16219929851,/g3t1_3,,running
Status,983,16220081389,/g3t1_3,,success
Status,984,16252959100,/g4t1,,fail
Status,985,16265334633,/g3t1_1,,running
Status,986,16265480700,/g3t1_1,,success
Status,987,16265512185,/g3t1_2,,running
Status,988,16265678601,/g3t1_2,,success
Status,989,16269485555,/g3t1_3,,running
Status,990,16269613812,/g3t1_3,,success
Status,991,16315552443,/g3t1_1,,running
Status,992,16315579355,/g3t1_1,,success
Status,993,16315595623,/g3t1_2,,running
Status,994,16315710911,/g3t1_2,,success
Status,995,16319620578,/g3t1_3,,running
Status,996,16319642334,/g3t1_3,,success
Status,997,16353373864,/g4t1,,fail
Status,998,16365814254,/g3t1_1,,running
Status,999,16365871627,/g3t1_2,,running
Status,1000,16366191780,/g3t1_2,,success
Status,1001,16366298954,/g3t1_1,,success
Status,1002,16369813224,/g3t1_3,,running
Status,1003,16369851501,/g3t1_3,,success
Status,1004,16415578216,/g3t1_1,,running
Status,1005,16415764210,/g3t1_2,,running
Status,1006,16415786693,/g3t1_1,,success
Status,1007,16415874828,/g3t1_2,,success
Status,1008,16419644152,/g3t1_3,,running
Status,1009,16419887748,/g3t1_3,,success
Status,1010,16453325368,/g4t1,,fail
Status,1011,16465706687,/g3t1_1,,running
Status,1012,16465740659,/g3t1_1,,success
Status,1013,16465907162,/g3t1_2,,running
Status,1014,16465930445,/g3t1_2,,success
Status,1015,16469765270,/g3t1_3,,running
Status,1016,16470060755,/g3t1_3,,success
Status,1017,16516763219,/g3t1_1,,running
Status,1018,16516859238,/g3t1_2,,running
Status,1019,16517054155,/g3t1_1,,success
Status,1020,16517370480,/g3t1_2,,success
Status,1021,16520515334,/g3t1_3,,running
Status,1022,16520947524,/g3t1_3,,success
Status,1023,16553985497,/g4t1,,fail
Status,1024,16567181444,/g3t1_1,,running
Status,1025,16567368145,/g3t1_2,,running
Status,1026,16567406290,/g3t1_2,,success
Status,1027,16567534881,/g3t1_1,,success
Status,1028,16570528056,/g3t1_3,,running
Status,1029,16570902230,/g3t1_3,,success
Status,1030,16616843098,/g3t1_1,,running
Status,1031,16616940235,/g3t1_2,,running
Status,1032,16617303703,/g3t1_1,,success
Status,1033,16617384973,/g3t1_2,,success
Status,1034,16620801744,/g3t1_3,,running
Status,1035,16621106393,/g3t1_3,,success
Status,1036,16654162265,/g4t1,,fail
Status,1037,16666846615,/g3t1_1,,running
Status,1038,16667147745,/g3t1_2,,running
Status,1039,16667786887,/g3t1_1,,success
Status,1040,16667882356,/g3t1_2,,success
Status,1041,16671189264,/g3t1_3,,running
Status,1042,16672391515,/g3t1_3,,success
Status,1043,16716931835,/g3t1_1,,running
Status,1044,16717353729,/g3t1_2,,running
Status,1045,16717476068,/g3t1_1,,success
Status,1046,16717521937,/g3t1_2,,success
Status,1047,16720747843,/g3t1_3,,running
Status,1048,16721182441,/g3t1_3,,success
Status,1049,16754329208,/g4t1,,fail
Status,1050,16767018685,/g3t1_1,,running
Status,1051,16767167289,/g3t1_1,,success
Status,1052,16767272826,/g3t1_2,,running
Status,1053,16767854659,/g3t1_2,,success
Status,1054,16770908266,/g3t1_3,,running
Status,1055,16771323455,/g3t1_3,,success
Status,1056,16817269369,/g3t1_1,,running
Status,1057,16817352636,/g3t1_2,,running
Status,1058,16817573449,/g3t1_1,,success
Status,1059,16817627502,/g3t1_2,,success
Status,1060,16820843976,/g3t1_3,,running
Status,1061,16821471899,/g3t1_3,,success
Status,1062,16853782446,/g4t1,,fail
Status,1063,16866591085,/g3t1_1,,running
Status,1064,16866841266,/g3t1_1,,success
Status,1065,16867058692,/g3t1_2,,running
Status,1066,16867082086,/g3t1_2,,success
Status,1067,16871106004,/g3t1_3,,running
Status,1068,16871160547,/g3t1_3,,success
Status,1069,16916718777,/g3t1_1,,running
Status,1070,16916912513,/g3t1_2,,running
Status,1071,16916934199,/g3t1_1,,success
Status,1072,16917064939,/g3t1_2,,success
Status,1073,16920905496,/g3t1_3,,running
Status,1074,16921024828,/g3t1_3,,success
Status,1075,16953735198,/g4t1,,fail
Status,1076,16966730141,/g3t1_1,,running
Status,1077,16967029932,/g3t1_1,,success
Status,1078,16967059203,/g3t1_2,,running
Status,1079,16967081787,/g3t1_2,,success
Status,1080,16970766254,/g3t1_3,,running
Status,1081,16970879144,/g3t1_3,,success
Status,1082,17016897894,/g3t1_1,,running
Status,1083,17016931753,/g3t1_1,,success
Status,1084,17016948412,/g3t1_2,,running
Status,1085,17017182983,/g3t1_2,,success
Status,1086,17020726064,/g3t1_3,,running
Status,1087,17020919534,/g3t1_3,,success
Status,1088,17054465015,/g4t1,,fail
Status,1089,17067564456,/g3t1_1,,running
Status,1090,17067624144,/g3t1_2,,running
Status,1091,17067711246,/g3t1_1,,success
Status,1092,17067955504,/g3t1_2,,success
Status,1093,17071198484,/g3t1_3,,running
Status,1094,17071443491,/g3t1_3,,success
Status,1095,17118095255,/g3t1_1,,running
Status,1096,17118190513,/g3t1_2,,running
Status,1097,17118564755,/g3t1_1,,success
Status,1098,17118655224,/g3t1_2,,success
Status,1099,17121659777,/g3t1_3,,running
Status,1100,17121983693,/g3t1_3,,success
Status,1101,17154913596,/g4t1,,fail
Status,1102,17168094970,/g3t1_1,,running
Status,1103,17168250216,/g3t1_2,,running
Status,1104,17168677212,/g3t1_2,,success
Status,1105,17168760304,/g3t1_1,,success
Status,1106,17171642969,/g3t1_3,,running
Status,1107,17172091687,/g3t1_3,,success
Status,1108,17218473041,/g3t1_1,,running
Status,1109,17218534486,/g3t1_2,,running
Status,1110,17218561782,/g3t1_1,,success
Status,1111,17218590027,/g3t1_2,,success
Status,1112,17222040562,/g3t1_3,,running
Status,1113,17222628298,/g3t1_3,,success
Status,1114,17254807812,/g4t1,,fail
Status,1115,17268592892,/g3t1_1,,running
Status,1116,17268728746,/g3t1_2,,running
Status,1117,17268774238,/g3t1_1,,success
Status,1118,17268849729,/g3t1_2,,success
Status,1119,17271923100,/g3t1_3,,running
Status,1120,17272942537,/g3t1_3,,success
Status,1121,17318406051,/g3t1_1,,running
Status,1122,17318498862,/g3t1_2,,running
Status,1123,17319003778,/g3t1_2,,success
Status,1124,17319089140,/g3t1_1,,success
Status,1125,17321745182,/g3t1_3,,running
Status,1126,17322046261,/g3t1_3,,success
Status,1127,17354403558,/g4t1,,fail
Status,1128,17367880107,/g3t1_2,,running
Status,1129,17367909865,/g3t1_1,,running
Status,1130,17367920521,/g3t1_2,,success
Status,1131,17367965412,/g3t1_1,,success
Status,1132,17371644946,/g3t1_3,,running
Status,1133,17371721424,/g3t1_3,,success
Status,1134,17418426225,/g3t1_1,,running
Status,1135,17418538660,/g3t1_2,,running
Status,1136,17419003667,/g3t1_2,,success
Status,1137,17419082636,/g3t1_1,,success
Status,1138,17422050357,/g3t1_3,,running
Status,1139,17422566301,/g3t1_3,,success
Status,1140,17455267773,/g4t1,,fail
Status,1141,17468670842,/g3t1_1,,running
Status,1142,17468771712,/g3t1_2,,running
Status,1143,17469227632,/g3t1_1,,success
Status,1144,17469694793,/g3t1_2,,success
Status,1145,17472263634,/g3t1_3,,running
Status,1146,17472853435,/g3t1_3,,success
Status,1147,17518965912,/g3t1_1,,running
Status,1148,17519117735,/g3t1_2,,running
Status,1149,17519255684,/g3t1_2,,success
Status,1150,17519290610,/g3t1_1,,success
Status,1151,17522280328,/g3t1_3,,running
Status,1152,17522714128,/g3t1_3,,success
Status,1153,17555463658,/g4t1,,fail
Status,1154,17568927755,/g3t1_1,,running
Status,1155,17569021155,/g3t1_2,,running
Status,1156,17569393790,/g3t1_2,,success
Status,1157,17569445840,/g3t1_1,,success
Status,1158,17572501689,/g3t1_3,,running
Status,1159,17572859800,/g3t1_3,,success
Status,1160,17619071673,/g3t1_1,,running
Status,1161,17619183933,/g3t1_2,,running
Status,1162,17619400327,/g3t1_1,,success
Status,1163,17619450910,/g3t1_2,,success
Status,1164,17622674147,/g3t1_3,,running
Status,1165,17623111601,/g3t1_3,,success
Status,1166,17655476772,/g4t1,,fail
Status,1167,17669184899,/g3t1_1,,running
Status,1168,17669344823,/g3t1_2,,running
Status,1169,17669862426,/g3t1_1,,success
Status,1170,17669974871,/g3t1_2,,success
Status,1171,17672627796,/g3t1_3,,running
Status,1172,17673301661,/g3t1_3,,success
Status,1173,17719625248,/g3t1_2,,running
Status,1174,17719695921,/g3t1_1,,running
Status,1175,17720068763,/g3t1_2,,success
Status,1176,17720174073,/g3t1_1,,success
Status,1177,17722905775,/g3t1_3,,running
Status,1178,17723588931,/g3t1_3,,success
Status,1179,17755629071,/g4t1,,fail
Status,1180,17769483841,/g3t1_2,,running
Status,1181,17769655551,/g3t1_1,,running
Status,1182,17769699076,/g3t1_1,,success
Status,1183,17770173888,/g3t1_2,,success
Status,1184,17772868015,/g3t1_3,,running
Status,1185,17773304783,/g3t1_3,,success
Status,1186,17819495750,/g3t1_2,,running
Status,1187,17819643169,/g3t1_1,,running
Status,1188,17819689359,/g3t1_1,,success
Status,1189,17819917487,/g3t1_2,,success
Status,1190,17822942624,/g3t1_3,,running
Status,1191,17823283295,/g3t1_3,,success
Status,1192,17855793523,/g4t1,,fail
Status,1193,17869778285,/g3t1_1,,running
Status,1194,17869923096,/g3t1_2,,running
Status,1195,17870366556,/g3t1_2,,success
Status,1196,17870427169,/g3t1_1,,success
Status,1197,17873046240,/g3t1_3,,running
Status,1198,17873604001,/g3t1_3,,success
Status,1199,17919712596,/g3t1_1,,running
Status,1200,17919833108,/g3t1_2,,running
Status,1201,17920320267,/g3t1_2,,success
Status,1202,17920405578,/g3t1_1,,success
Status,1203,17923181391,/g3t1_3,,running
Status,1204,17923545645,/g3t1_3,,success
Status,1205,17955885268,/g4t1,,fail
Status,1206,17969911338,/g3t1_1,,running
Status,1207,17969972168,/g3t1_2,,running
Status,1208,17970075750,/g3t1_2,,success
Status,1209,17970544932,/g3t1_1,,success
Status,1210,17973305878,/g3t1_3,,running
Status,1211,17974202708,/g3t1_3,,success
Status,1212,18020027707,/g3t1_1,,running
Status,1213,18020098214,/g3t1_2,,running
Status,1214,18020442888,/g3t1_2,,success
Status,1215,18020529614,/g3t1_1,,success
Status,1216,18023363519,/g3t1_3,,running
Status,1217,18023867525,/g3t1_3,,success
Status,1218,18055926654,/g4t1,,fail
Status,1219,18070455648,/g3t1_1,,running
Status,1220,18070538746,/g3t1_2,,running
Status,1221,18070642350,/g3t1_2,,success
Status,1222,18070668222,/g3t1_1,,success
Status,1223,18073624340,/g3t1_3,,running
Status,1224,18073706779,/g3t1_3,,success
Status,1225,18120649630,/g3t1_1,,running
Status,1226,18120753162,/g3t1_2,,running
Status,1227,18121021672,/g3t1_2,,success
Status,1228,18121409475,/g3t1_1,,success
Status,1229,18123483929,/g3t1_3,,running
Status,1230,18123777669,/g3t1_3,,success
Status,1231,18156237174,/g4t1,,fail
Status,1232,18170565673,/g3t1_1,,running
Status,1233,18170632727,/g3t1_2,,running
Status,1234,18170928949,/g3t1_1,,success
Status,1235,18171022595,/g3t1_2,,success
Status,1236,18173794185,/g3t1_3,,running
Status,1237,18174493787,/g3t1_3,,success
Status,1238,18220855622,/g3t1_2,,running
Status,1239,18220931825,/g3t1_1,,running
Status,1240,18221102300,/g3t1_2,,success
Status,1241,18221158148,/g3t1_1,,success
Status,1242,18223626207,/g3t1_3,,running
Status,1243,18224115124,/g3t1_3,,success
Status,1244,18256208122,/g4t1,,fail
Status,1245,18271050129,/g3t1_2,,running
Status,1246,18271143853,/g3t1_1,,running
Status,1247,18271721297,/g3t1_2,,success
Status,1248,18271892183,/g3t1_1,,success
Status,1249,18273878786,/g3t1_3,,running
Status,1250,18274297657,/g3t1_3,,success
Status,1251,18321078841,/g3t1_1,,running
Status,1252,18321173921,/g3t1_2,,running
Status,1253,18321606652,/g3t1_1,,success
Status,1254,18321735640,/g3t1_2,,success
Status,1255,18323939185,/g3t1_3,,running
Status,1256,18324354247,/g3t1_3,,success
Status,1257,18356498332,/g4t1,,fail
Status,1258,18371579187,/g3t1_1,,running
Status,1259,18371681215,/g3t1_2,,running
Status,1260,18371711317,/g3t1_1,,success
Status,1261,18371795362,/g3t1_2,,success
Status,1262,18374130705,/g3t1_3,,running
Status,1263,18374621025,/g3t1_3,,success
Status,1264,18420704734,/g3t1_1,,running
Status,1265,18420725799,/g3t1_2,,running
Status,1266,18420801724,/g3t1_2,,success
Status,1267,18420826725,/g3t1_1,,success
Status,1268,18423871321,/g3t1_3,,running
Status,1269,18423894309,/g3t1_3,,success
Status,1270,18455715720,/g4t1,,fail
Status,1271,18470764234,/g3t1_1,,running
Status,1272,18470805416,/g3t1_2,,running
Status,1273,18470867573,/g3t1_1,,success
Status,1274,18470887499,/g3t1_2,,success
Status,1275,18473713882,/g3t1_3,,running
Status,1276,18473825891,/g3t1_3,,success
Status,1277,18521623780,/g3t1_1,,running
Status,1278,18521687527,/g3t1_2,,running
Status,1279,18521714870,/g3t1_2,,success
Status,1280,18521855357,/g3t1_1,,success
Status,1281,18524415646,/g3t1_3,,running
Status,1282,18524999111,/g3t1_3,,success
Status,1283,18556021566,/g4t1,,fail
Status,1284,18571085973,/g3t1_1,,running
Status,1285,18571119841,/g3t1_2,,running
Status,1286,18571138962,/g3t1_1,,success
Status,1287,18571159228,/g3t1_2,,success
Status,1288,18574344551,/g3t1_3,,running
Status,1289,18574375714,/g3t1_3,,success
Status,1290,18621695041,/g3t1_1,,running
Status,1291,18621810991,/g3t1_2,,running
Status,1292,18622159172,/g3t1_1,,success
Status,1293,18622246677,/g3t1_2,,success
Status,1294,18624604994,/g3t1_3,,running
Status,1295,18625025289,/g3t1_3,,success
Status,1296,18656841645,/g4t1,,fail
Status,1297,18671521317,/g3t1_1,,running
Status,1298,18671584852,/g3t1_2,,running
Status,1299,18671964604,/g3t1_1,,success
Status,1300,18672076278,/g3t1_2,,success
Status,1301,18674418954,/g3t1_3,,running
Status,1302,18674500775,/g3t1_3,,success
Status,1303,18721672693,/g3t1_1,,running
Status,1304,18721732774,/g3t1_2,,running
Status,1305,18722085654,/g3t1_2,,success
Status,1306,18722128284,/g3t1_1,,success
Status,1307,18724328666,/g3t1_3,,running
Status,1308,18724695180,/g3t1_3,,success
Status,1309,18756845978,/g4t1,,fail
Status,1310,18772692408,/g3t1_2,,running
Status,1311,18772786467,/g3t1_1,,running
Status,1312,18773204838,/g3t1_1,,success
Status,1313,18773337863,/g3t1_2,,success
Status,1314,18774649346,/g3t1_3,,running
Status,1315,18775669130,/g3t1_3,,success
Status,1316,18822443684,/g3t1_1,,running
Status,1317,18822513142,/g3t1_2,,running
Status,1318,18822915378,/g3t1_1,,success
Status,1319,18822983286,/g3t1_2,,success
Status,1320,18824747546,/g3t1_3,,running
Status,1321,18825312533,/g3t1_3,,success
Status,1322,18857000864,/g4t1,,fail
Status,1323,18872996393,/g3t1_1,,running
Status,1324,18873082772,/g3t1_2,,running
Status,1325,18873181878,/g3t1_1,,success
Status,1326,18873222498,/g3t1_2,,success
Status,1327,18874905408,/g3t1_3,,running
Status,1328,18875221693,/g3t1_3,,success
Status,1329,18922469703,/g3t1_1,,running
Status,1330,18922567406,/g3t1_2,,running
Status,1331,18922872006,/g3t1_2,,success
Status,1332,18923469033,/g3t1_1,,success
Status,1333,18924978888,/g3t1_3,,running
Status,1334,18925414975,/g3t1_3,,success
Status,1335,18957124026,/g4t1,,fail
Status,1336,18973096160,/g3t1_1,,running
Status,1337,18973160071,/g3t1_2,,running
Status,1338,18973237850,/g3t1_2,,success
Status,1339,18973270092,/g3t1_1,,success
Status,1340,18975026765,/g3t1_3,,running
Status,1341,18975523652,/g3t1_3,,success
Status,1342,19023136068,/g3t1_1,,running
Status,1343,19023404309,/g3t1_2,,running
Status,1344,19023504659,/g3t1_1,,success
Status,1345,19023577501,/g3t1_2,,success
Status,1346,19025309598,/g3t1_3,,running
Status,1347,19025693749,/g3t1_3,,success
Status,1348,19057478795,/g4t1,,fail
Status,1349,19073119298,/g3t1_1,,running
Status,1350,19073218529,/g3t1_2,,running
Status,1351,19073577731,/g3t1_1,,success
Status,1352,19073906054,/g3t1_2,,success
Status,1353,19075404207,/g3t1_3,,running
Status,1354,19075795912,/g3t1_3,,success
Status,1355,19123212728,/g3t1_2,,running
Status,1356,19123292088,/g3t1_1,,running
Status,1357,19123393036,/g3t1_2,,success
Status,1358,19123686587,/g3t1_1,,success
Status,1359,19125454233,/g3t1_3,,running
Status,1360,19125880058,/g3t1_3,,success
Status,1361,19157312129,/g4t1,,fail
Status,1362,19173287085,/g3t1_1,,running
Status,1363,19173475419,/g3t1_2,,running
Status,1364,19173925253,/g3t1_1,,success
Status,1365,19174014587,/g3t1_2,,success
Status,1366,19175349293,/g3t1_3,,running
Status,1367,19176169379,/g3t1_3,,success
Status,1368,19223495131,/g3t1_1,,running
Status,1369,19223575184,/g3t1_2,,running
Status,1370,19223650158,/g3t1_1,,success
Status,1371,19223672910,/g3t1_2,,success
Status,1372,19225472054,/g3t1_3,,running
Status,1373,19225780600,/g3t1_3,,success
Status,1374,19257464473,/g4t1,,fail
Status,1375,19273356938,/g3t1_2,,running
Status,1376,19273439928,/g3t1_1,,running
Status,1377,19273858816,/g3t1_1,,success
Status,1378,19274214085,/g3t1_2,,success
Status,1379,19275625807,/g3t1_3,,running
Status,1380,19275967187,/g3t1_3,,success
Status,1381,19323662963,/g3t1_1,,running
Status,1382,19323724210,/g3t1_2,,running
Status,1383,19323750290,/g3t1_1,,success
Status,1384,19323774447,/g3t1_2,,success
Status,1385,19325737175,/g3t1_3,,running
Status,1386,19326070423,/g3t1_3,,success
Status,1387,19358033475,/g4t1,,fail
Status,1388,19373920100,/g3t1_1,,running
Status,1389,19374007969,/g3t1_2,,running
Status,1390,19374505942,/g3t1_1,,success
Status,1391,19374626569,/g3t1_2,,success
Status,1392,19376069829,/g3t1_3,,running
Status,1393,19376479547,/g3t1_3,,success
Status,1394,19423808675,/g3t1_1,,running
Status,1395,19423900071,/g3t1_2,,running
Status,1396,19425129425,/g3t1_2,,success
Status,1397,19425211332,/g3t1_1,,success
Status,1398,19426505303,/g3t1_3,,running
Status,1399,19426597680,/g3t1_3,,success
Status,1400,19457653021,/g4t1,,fail
Status,1401,19473832606,/g3t1_2,,running
Status,1402,19473931849,/g3t1_1,,running
Status,1403,19474347867,/g3t1_2,,success
Status,1404,19474434510,/g3t1_1,,success
Status,1405,19476190379,/g3t1_3,,running
Status,1406,19476846048,/g3t1_3,,success
Status,1407,19523793353,/g3t1_1,,running
Status,1408,19523892536,/g3t1_2,,running
Status,1409,19524419760,/g3t1_2,,success
Status,1410,19524500845,/g3t1_1,,success
Status,1411,19526335321,/g3t1_3,,running
Status,1412,19526840309,/g3t1_3,,success
Status,1413,19557856661,/g4t1,,fail
Status,1414,19574071767,/g3t1_1,,running
Status,1415,19574174051,/g3t1_2,,running
Status,1416,19575027601,/g3t1_1,,success
Status,1417,19575119350,/g3t1_2,,success
Status,1418,19576328617,/g3t1_3,,running
Status,1419,19577223553,/g3t1_3,,success
Status,1420,19624225846,/g3t1_1,,running
Status,1421,19624323730,/g3t1_2,,running
Status,1422,19624974919,/g3t1_2,,success
Status,1423,19625457524,/g3t1_1,,success
Status,1424,19626578973,/g3t1_3,,running
Status,1425,19626886016,/g3t1_3,,success
Status,1426,19658191926,/g4t1,,fail
Status,1427,19674587478,/g3t1_1,,running
Status,1428,19674677684,/g3t1_2,,running
Status,1429,19674781709,/g3t1_2,,success
Status,1430,19674920113,/g3t1_1,,success
Status,1431,19676492024,/g3t1_3,,running
Status,1432,19676927851,/g3t1_3,,success
Status,1433,19724462620,/g3t1_1,,running
Status,1434,19724538110,/g3t1_2,,running
Status,1435,19724885658,/g3t1_1,,success
Status,1436,19724974292,/g3t1_2,,success
Status,1437,19726534788,/g3t1_3,,running
Status,1438,19726893223,/g3t1_3,,success
Status,1439,19758316216,/g4t1,,fail
Status,1440,19774561156,/g3t1_1,,running
Status,1441,19774725643,/g3t1_2,,running
Status,1442,19775000903,/g3t1_1,,success
Status,1443,19775722180,/g3t1_2,,success
Status,1444,19777242734,/g3t1_3,,running
Status,1445,19777632463,/g3t1_3,,success
Status,1446,19824564009,/g3t1_1,,running
Status,1447,19824661137,/g3t1_2,,running
Status,1448,19825110573,/g3t1_2,,success
Status,1449,19825383919,/g3t1_1,,success
Status,1450,19826790292,/g3t1_3,,running
Status,1451,19827279261,/g3t1_3,,success
Status,1452,19858222720,/g4t1,,fail
Status,1453,19874826798,/g3t1_1,,running
Status,1454,19874913167,/g3t1_2,,running
Status,1455,19875120724,/g3t1_2,,success
Status,1456,19875174701,/g3t1_1,,success
Status,1457,19876856555,/g3t1_3,,running
Status,1458,19877431581,/g3t1_3,,success
Status,1459,19925082597,/g3t1_1,,running
Status,1460,19925241062,/g3t1_2,,running
Status,1461,19925907312,/g3t1_2,,success
Status,1462,19925972066,/g3t1_1,,success
Status,1463,19926967356,/g3t1_3,,running
Status,1464,19927269312,/g3t1_3,,success
Status,1465,19958408714,/g4t1,,fail
Status,1466,19975047660,/g3t1_1,,running
Status,1467,19975152095,/g3t1_2,,running
Status,1468,19975602806,/g3t1_1,,success
Status,1469,19975941477,/g3t1_2,,success
Status,1470,19977088852,/g3t1_3,,running
Status,1471,19977527265,/g3t1_3,,success
Status,1472,20025034175,/g3t1_1,,running
Status,1473,20025117381,/g3t1_2,,running
Status,1474,20025613119,/g3t1_2,,success
Status,1475,20025721631,/g3t1_1,,success
Status,1476,20027119844,/g3t1_3,,running
Status,1477,20027384400,/g3t1_3,,success
Status,1478,20058660246,/g4t1,,fail
Status,1479,20075685813,/g3t1_1,,running
Status,1480,20075774077,/g3t1_2,,running
Status,1481,20075825843,/g3t1_1,,success
Status,1482,20075928844,/g3t1_2,,success
Status,1483,20077336517,/g3t1_3,,running
Status,1484,20077669993,/g3t1_3,,success
Status,1485,20125552725,/g3t1_1,,running
Status,1486,20125655009,/g3t1_2,,running
Status,1487,20126259193,/g3t1_1,,success
Status,1488,20126336341,/g3t1_2,,success
Status,1489,20127249077,/g3t1_3,,running
Status,1490,20127665566,/g3t1_3,,success
Status,1491,20158600519,/g4t1,,fail
Status,1492,20175598452,/g3t1_1,,running
Status,1493,20175698828,/g3t1_2,,running
Status,1494,20176165481,/g3t1_1,,success
Status,1495,20176224494,/g3t1_2,,success
Status,1496,20177600762,/g3t1_3,,running
Status,1497,20177981664,/g3t1_3,,success
Status,1498,20225675950,/g3t1_1,,running
Status,1499,20225772592,/g3t1_2,,running
Status,1500,20226105025,/g3t1_2,,success
Status,1501,20226950973,/g3t1_1,,success
Status,1502,20227889106,/g3t1_3,,running
Status,1503,20228665073,/g3t1_3,,success
Status,1504,20258630687,/g4t1,,fail
Status,1505,20275887921,/g3t1_1,,running
Status,1506,20276006677,/g3t1_2,,running
Status,1507,20276448488,/g3t1_1,,success
Status,1508,20276548179,/g3t1_2,,success
Status,1509,20278529191,/g3t1_3,,running
Status,1510,20278733530,/g3t1_3,,success
Status,1511,20325797579,/g3t1_1,,running
Status,1512,20325879699,/g3t1_2,,running
