
Status,2,3420621909,/g4t1,,init
Status,3,8531444656,/g3t1_1,,init
Status,5,8537924338,/g3t1_1,,init
Status,6,8537945129,/g3t1_1,,running
Status,7,8538396718,/g3t1_1,,success
Status,8,8588146106,/g3t1_1,,running
Status,9,8588168113,/g3t1_1,,success
Status,10,8635340111,/g3t1_2,,init
Status,12,8638093273,/g3t1_1,,running
Status,13,8638171191,/g3t1_1,,success
Status,14,8643493624,/g3t1_2,,init
Status,15,8643508544,/g3t1_2,,running
Status,16,8643901259,/g3t1_2,,success
Status,17,8688396837,/g3t1_1,,running
Status,18,8688414406,/g3t1_1,,success
Status,19,8693784394,/g3t1_2,,running
Status,20,8693940675,/g3t1_2,,success
Status,22,8736033137,/g3t1_3,,init
Status,23,8738443434,/g3t1_1,,running
Status,24,8739449019,/g3t1_1,,success
Status,25,8743737688,/g3t1_2,,running
Status,26,8743919458,/g3t1_2,,success
Status,27,8746931289,/g3t1_3,,init
Status,28,8746952173,/g3t1_3,,running
Status,29,8747598473,/g3t1_3,,success
Status,30,8788937094,/g3t1_1,,running
Status,31,8788978707,/g3t1_1,,success
Status,32,8794051130,/g3t1_2,,running
Status,33,8794249943,/g3t1_2,,success
Status,34,8797195720,/g3t1_3,,running
Status,35,8797425075,/g3t1_3,,success
Status,36,8839148763,/g3t1_1,,running
Status,37,8839303571,/g3t1_1,,success
Status,38,8842112589,/g4t1,,success
Status,39,8844233390,/g3t1_2,,running
Status,40,8844552553,/g3t1_2,,success
Status,41,8847541350,/g3t1_3,,running
Status,42,8847945546,/g3t1_3,,success
Status,43,8889133870,/g3t1_1,,running
Status,44,8889444410,/g3t1_1,,success
Status,45,8894540516,/g3t1_2,,running
Status,46,8894947502,/g3t1_2,,success
Status,47,8897751144,/g3t1_3,,running
Status,48,8898049274,/g3t1_3,,success
Status,49,8939385057,/g3t1_1,,running
Status,50,8939872655,/g3t1_1,,success
Status,51,8942965176,/g4t1,,success
Status,52,8944714139,/g3t1_2,,running
Status,53,8944989990,/g3t1_2,,success
Status,54,8947758847,/g3t1_3,,running
Status,55,8948164537,/g3t1_3,,success
Status,56,8989781974,/g3t1_1,,running
Status,57,8989869105,/g3t1_1,,success
Status,58,8994961680,/g3t1_2,,running
Status,59,8995349825,/g3t1_2,,success
Status,60,8998119545,/g3t1_3,,running
Status,61,8998360091,/g3t1_3,,success
Status,62,9039688123,/g3t1_1,,running
Status,63,9040099683,/g3t1_1,,success
Status,64,9042637992,/g4t1,,success
Status,65,9044846679,/g3t1_2,,running
Status,66,9045342427,/g3t1_2,,success
Status,67,9047975442,/g3t1_3,,running
Status,68,9048315564,/g3t1_3,,success
Status,69,9090042830,/g3t1_1,,running
Status,70,9090106026,/g3t1_1,,success
Status,71,9095676793,/g3t1_2,,running
Status,72,9095835919,/g3t1_2,,success
Status,73,9098577827,/g3t1_3,,running
Status,74,9098652706,/g3t1_3,,success
Status,75,9139967659,/g3t1_1,,running
Status,76,9140325615,/g3t1_1,,success
Status,77,9142807453,/g4t1,,success
Status,78,9145335410,/g3t1_2,,running
Status,79,9145797789,/g3t1_2,,success
Status,80,9148179371,/g3t1_3,,running
Status,81,9148692171,/g3t1_3,,success
Status,82,9189961403,/g3t1_1,,running
Status,83,9190180923,/g3t1_1,,success
Status,84,9195491418,/g3t1_2,,running
Status,85,9195908322,/g3t1_2,,success
Status,86,9198576494,/g3t1_3,,running
Status,87,9199239541,/g3t1_3,,success
Status,88,9240177347,/g3t1_1,,running
Status,89,9240808288,/g3t1_1,,success
Status,90,9243716956,/g4t1,,fail
Status,91,9245718418,/g3t1_2,,running
Status,92,9246161697,/g3t1_2,,success
Status,93,9248387797,/g3t1_3,,running
Status,94,9249001980,/g3t1_3,,success
Status,95,9290509391,/g3t1_1,,running
Status,96,9290949729,/g3t1_1,,success
Status,97,9295901055,/g3t1_2,,running
Status,98,9296561751,/g3t1_2,,success
Status,99,9298534067,/g3t1_3,,running
Status,100,9299243982,/g3t1_3,,success
Status,101,9340790827,/g3t1_1,,running
Status,102,9340878112,/g3t1_1,,success
Status,103,9343567880,/g4t1,,fail
Status,104,9346097478,/g3t1_2,,running
Status,105,9346421040,/g3t1_2,,success
Status,106,9348591540,/g3t1_3,,running
Status,107,9349390792,/g3t1_3,,success
Status,108,9390666306,/g3t1_1,,running
Status,109,9391660706,/g3t1_1,,success
Status,110,9396177423,/g3t1_2,,running
Status,111,9396870734,/g3t1_2,,success
Status,112,9398728663,/g3t1_3,,running
Status,113,9399262876,/g3t1_3,,success
Status,114,9440822663,/g3t1_1,,running
Status,115,9440914083,/g3t1_1,,success
Status,116,9443496751,/g4t1,,fail
Status,117,9446329902,/g3t1_2,,running
Status,118,9446814920,/g3t1_2,,success
Status,119,9448766339,/g3t1_3,,running
Status,120,9449281339,/g3t1_3,,success
Status,121,9491063150,/g3t1_1,,running
Status,122,9491476449,/g3t1_1,,success
Status,123,9496427186,/g3t1_2,,running
Status,124,9497220932,/g3t1_2,,success
Status,125,9499329304,/g3t1_3,,running
Status,126,9499529909,/g3t1_3,,success
Status,127,9541158527,/g3t1_1,,running
Status,128,9541243381,/g3t1_1,,success
Status,129,9543740381,/g4t1,,fail
Status,130,9546538371,/g3t1_2,,running
Status,131,9546935659,/g3t1_2,,success
Status,132,9549202457,/g3t1_3,,running
Status,133,9549455739,/g3t1_3,,success
Status,134,9591269591,/g3t1_1,,running
Status,135,9591874708,/g3t1_1,,success
Status,136,9596909429,/g3t1_2,,running
Status,137,9597399627,/g3t1_2,,success
Status,138,9599431781,/g3t1_3,,running
Status,139,9599518157,/g3t1_3,,success
Status,140,9641231603,/g3t1_1,,running
Status,141,9641600598,/g3t1_1,,success
Status,142,9643606420,/g4t1,,fail
Status,143,9647037940,/g3t1_2,,running
Status,144,9647304498,/g3t1_2,,success
Status,145,9649130939,/g3t1_3,,running
Status,146,9649574701,/g3t1_3,,success
Status,147,9691378552,/g3t1_1,,running
Status,148,9691752468,/g3t1_1,,success
Status,149,9697439441,/g3t1_2,,running
Status,150,9697747906,/g3t1_2,,success
Status,151,9700300597,/g3t1_3,,running
Status,152,9700915169,/g3t1_3,,success
Status,153,9741460867,/g3t1_1,,running
Status,154,9742077510,/g3t1_1,,success
Status,155,9743505624,/g4t1,,fail
Status,156,9747518846,/g3t1_2,,running
Status,157,9747970885,/g3t1_2,,success
Status,158,9749798836,/g3t1_3,,running
Status,159,9749882784,/g3t1_3,,success
Status,160,9791518402,/g3t1_1,,running
Status,161,9791871018,/g3t1_1,,success
Status,162,9797818313,/g3t1_2,,running
Status,163,9797898210,/g3t1_2,,success
Status,164,9799881020,/g3t1_3,,running
Status,165,9800639441,/g3t1_3,,success
Status,166,9841697591,/g3t1_1,,running
Status,167,9842160912,/g3t1_1,,success
Status,168,9843650692,/g4t1,,fail
Status,169,9847339099,/g3t1_2,,running
Status,170,9847521379,/g3t1_2,,success
Status,171,9849856812,/g3t1_3,,running
Status,172,9850489090,/g3t1_3,,success
Status,173,9891813407,/g3t1_1,,running
Status,174,9892270417,/g3t1_1,,success
Status,175,9897521301,/g3t1_2,,running
Status,176,9898085098,/g3t1_2,,success
Status,177,9899965352,/g3t1_3,,running
Status,178,9900147744,/g3t1_3,,success
Status,179,9942372573,/g3t1_1,,running
Status,180,9942444051,/g3t1_1,,success
Status,181,9943808647,/g4t1,,fail
Status,182,9947835624,/g3t1_2,,running
Status,183,9947895512,/g3t1_2,,success
Status,184,9950077376,/g3t1_3,,running
Status,185,9950649894,/g3t1_3,,success
Status,186,9992297409,/g3t1_1,,running
Status,187,9992771375,/g3t1_1,,success
Status,188,9997484353,/g3t1_2,,running
Status,189,9997924032,/g3t1_2,,success
Status,190,10000212340,/g3t1_3,,running
Status,191,10000405302,/g3t1_3,,success
Status,192,10042464172,/g3t1_1,,running
Status,193,10042740757,/g3t1_1,,success
Status,194,10043876603,/g4t1,,fail
Status,195,10047666133,/g3t1_2,,running
Status,196,10048074620,/g3t1_2,,success
Status,197,10050157547,/g3t1_3,,running
Status,198,10050543531,/g3t1_3,,success
Status,199,10092345764,/g3t1_1,,running
Status,200,10093077931,/g3t1_1,,success
Status,201,10097711027,/g3t1_2,,running
Status,202,10098132083,/g3t1_2,,success
Status,203,10100283143,/g3t1_3,,running
Status,204,10100838969,/g3t1_3,,success
Status,205,10142851185,/g3t1_1,,running
Status,206,10142926500,/g3t1_1,,success
Status,207,10144226029,/g4t1,,fail
Status,208,10147852326,/g3t1_2,,running
Status,209,10148201691,/g3t1_2,,success
Status,210,10150354853,/g3t1_3,,running
Status,211,10150718409,/g3t1_3,,success
Status,212,10193391398,/g3t1_1,,running
Status,213,10193523035,/g3t1_1,,success
Status,214,10198494141,/g3t1_2,,running
Status,215,10198603203,/g3t1_2,,success
Status,216,10200420459,/g3t1_3,,running
Status,217,10200504752,/g3t1_3,,success
Status,218,10242349894,/g3t1_1,,running
Status,219,10242379980,/g3t1_1,,success
Status,220,10243512911,/g4t1,,fail
Status,221,10247611950,/g3t1_2,,running
Status,222,10247639714,/g3t1_2,,success
Status,223,10250148972,/g3t1_3,,running
Status,224,10250170289,/g3t1_3,,success
Status,225,10292276960,/g3t1_1,,running
Status,226,10292368403,/g3t1_1,,success
Status,227,10298417094,/g3t1_2,,running
Status,228,10299003018,/g3t1_2,,success
Status,229,10300822117,/g3t1_3,,running
Status,230,10301322295,/g3t1_3,,success
Status,231,10343169402,/g3t1_1,,running
Status,232,10343588500,/g3t1_1,,success
Status,233,10344016654,/g4t1,,fail
Status,234,10348754625,/g3t1_2,,running
Status,235,10348840607,/g3t1_2,,success
Status,236,10350701966,/g3t1_3,,running
Status,237,10351109368,/g3t1_3,,success
Status,238,10393631406,/g3t1_1,,running
Status,239,10393764560,/g3t1_1,,success
Status,240,10398691827,/g3t1_2,,running
Status,241,10398756012,/g3t1_2,,success
Status,242,10400964725,/g3t1_3,,running
Status,243,10401205528,/g3t1_3,,success
Status,244,10443069342,/g3t1_1,,running
Status,245,10443572974,/g3t1_1,,success
Status,246,10444142769,/g4t1,,fail
Status,247,10448219982,/g3t1_2,,running
Status,248,10448589260,/g3t1_2,,success
Status,249,10450724998,/g3t1_3,,running
Status,250,10451056989,/g3t1_3,,success
Status,251,10493633086,/g3t1_1,,running
Status,252,10494415775,/g3t1_1,,success
Status,253,10498564555,/g3t1_2,,running
Status,254,10498743140,/g3t1_2,,success
Status,255,10500937866,/g3t1_3,,running
Status,256,10501300864,/g3t1_3,,success
Status,257,10543800122,/g3t1_1,,running
Status,258,10544466455,/g4t1,,fail
Status,259,10544561407,/g3t1_1,,success
Status,260,10548676661,/g3t1_2,,running
Status,261,10549074957,/g3t1_2,,success
Status,262,10551242273,/g3t1_3,,running
Status,263,10551821638,/g3t1_3,,success
Status,264,10593389782,/g3t1_1,,running
Status,265,10593843360,/g3t1_1,,success
Status,266,10598556750,/g3t1_2,,running
Status,267,10599080679,/g3t1_2,,success
Status,268,10601098432,/g3t1_3,,running
Status,269,10601363377,/g3t1_3,,success
Status,270,10643470895,/g3t1_1,,running
Status,271,10643641102,/g3t1_1,,success
Status,272,10643980428,/g4t1,,fail
Status,273,10648583042,/g3t1_2,,running
Status,274,10648678666,/g3t1_2,,success
Status,275,10651176727,/g3t1_3,,running
Status,276,10651513257,/g3t1_3,,success
Status,277,10693848310,/g3t1_1,,running
Status,278,10693897276,/g3t1_1,,success
Status,279,10698825401,/g3t1_2,,running
Status,280,10699166799,/g3t1_2,,success
Status,281,10701204818,/g3t1_3,,running
Status,282,10701488373,/g3t1_3,,success
Status,283,10744387605,/g3t1_1,,running
Status,284,10744952015,/g3t1_1,,success
Status,285,10745015997,/g4t1,,fail
Status,286,10749230663,/g3t1_2,,running
Status,287,10749443776,/g3t1_2,,success
Status,288,10751648078,/g3t1_3,,running
Status,289,10751997009,/g3t1_3,,success
Status,290,10794478664,/g3t1_1,,running
Status,291,10794549974,/g3t1_1,,success
Status,292,10799366960,/g3t1_2,,running
Status,293,10799904766,/g3t1_2,,success
Status,294,10801440889,/g3t1_3,,running
Status,295,10801880865,/g3t1_3,,success
Status,296,10844522103,/g3t1_1,,running
Status,297,10844610056,/g3t1_1,,success
Status,298,10844671181,/g4t1,,fail
Status,299,10849356399,/g3t1_2,,running
Status,300,10849653347,/g3t1_2,,success
Status,301,10851812751,/g3t1_3,,running
Status,302,10852803270,/g3t1_3,,success
Status,303,10895026198,/g3t1_1,,running
Status,304,10895082542,/g3t1_1,,success
Status,305,10899413225,/g3t1_2,,running
Status,306,10899634687,/g3t1_2,,success
Status,307,10901718234,/g3t1_3,,running
Status,308,10902380822,/g3t1_3,,success
Status,309,10944727080,/g3t1_1,,running
Status,310,10945160020,/g4t1,,fail
Status,311,10945233636,/g3t1_1,,success
Status,312,10949577331,/g3t1_2,,running
Status,313,10950195404,/g3t1_2,,success
Status,314,10951962144,/g3t1_3,,running
Status,315,10952381607,/g3t1_3,,success
Status,316,10994788996,/g3t1_1,,running
Status,317,10995070482,/g3t1_1,,success
Status,318,10999520530,/g3t1_2,,running
Status,319,10999719361,/g3t1_2,,success
Status,320,11001652995,/g3t1_3,,running
Status,321,11001974552,/g3t1_3,,success
Status,322,11044416581,/g3t1_1,,running
Status,323,11044442090,/g4t1,,fail
Status,324,11044474277,/g3t1_1,,success
Status,325,11049378236,/g3t1_2,,running
Status,326,11049400416,/g3t1_2,,success
Status,327,11051654049,/g3t1_3,,running
Status,328,11051771639,/g3t1_3,,success
Status,329,11095169739,/g3t1_1,,running
Status,330,11095611936,/g3t1_1,,success
Status,331,11100325332,/g3t1_2,,running
Status,332,11100389907,/g3t1_2,,success
Status,333,11102719571,/g3t1_3,,running
Status,334,11103347832,/g3t1_3,,success
Status,335,11145177907,/g4t1,,fail
Status,336,11145237595,/g3t1_1,,running
Status,337,11145341352,/g3t1_1,,success
Status,338,11150440026,/g3t1_2,,running
Status,339,11150685161,/g3t1_2,,success
Status,340,11152121322,/g3t1_3,,running
Status,341,11152480162,/g3t1_3,,success
Status,342,11195431916,/g3t1_1,,running
Status,343,11195625152,/g3t1_1,,success
Status,344,11199974529,/g3t1_2,,running
Status,345,11200439389,/g3t1_2,,success
Status,346,11202463840,/g3t1_3,,running
Status,347,11202877914,/g3t1_3,,success
Status,348,11245483566,/g3t1_1,,running
Status,349,11245584585,/g4t1,,fail
Status,350,11245635216,/g3t1_1,,success
Status,351,11250009527,/g3t1_2,,running
Status,352,11250558890,/g3t1_2,,success
Status,353,11252476641,/g3t1_3,,running
Status,354,11252868655,/g3t1_3,,success
Status,355,11295293778,/g3t1_1,,running
Status,356,11295338915,/g3t1_1,,success
Status,357,11300009197,/g3t1_2,,running
Status,358,11300394755,/g3t1_2,,success
Status,359,11302258272,/g3t1_3,,running
Status,360,11302586640,/g3t1_3,,success
Status,361,11345434704,/g4t1,,fail
Status,362,11345515180,/g3t1_1,,running
Status,363,11345911154,/g3t1_1,,success
Status,364,11350373887,/g3t1_2,,running
Status,365,11350835657,/g3t1_2,,success
Status,366,11352451079,/g3t1_3,,running
Status,367,11353047399,/g3t1_3,,success
Status,368,11395739188,/g3t1_1,,running
Status,369,11395980660,/g3t1_1,,success
Status,370,11400503048,/g3t1_2,,running
Status,371,11401023683,/g3t1_2,,success
Status,372,11402987968,/g3t1_3,,running
Status,373,11403309804,/g3t1_3,,success
Status,374,11445726411,/g4t1,,fail
Status,375,11445832698,/g3t1_1,,running
Status,376,11446403690,/g3t1_1,,success
Status,377,11450505961,/g3t1_2,,running
Status,378,11451172278,/g3t1_2,,success
Status,379,11452880439,/g3t1_3,,running
Status,380,11453278539,/g3t1_3,,success
Status,381,11495813624,/g3t1_1,,running
Status,382,11496241799,/g3t1_1,,success
Status,383,11500841594,/g3t1_2,,running
Status,384,11501216937,/g3t1_2,,success
Status,385,11503033276,/g3t1_3,,running
Status,386,11503413660,/g3t1_3,,success
Status,387,11545861696,/g4t1,,fail
Status,388,11545949539,/g3t1_1,,running
Status,389,11546440150,/g3t1_1,,success
Status,390,11550664417,/g3t1_2,,running
Status,391,11551004569,/g3t1_2,,success
Status,392,11553115741,/g3t1_3,,running
Status,393,11553558385,/g3t1_3,,success
Status,394,11596631123,/g3t1_1,,running
Status,395,11596715238,/g3t1_1,,success
Status,396,11600855448,/g3t1_2,,running
Status,397,11601321921,/g3t1_2,,success
Status,398,11603425355,/g3t1_3,,running
Status,399,11603774490,/g3t1_3,,success
Status,400,11645730292,/g4t1,,fail
Status,401,11646162060,/g3t1_1,,running
Status,402,11646947064,/g3t1_1,,success
Status,403,11651075854,/g3t1_2,,running
Status,404,11651322236,/g3t1_2,,success
Status,405,11653292116,/g3t1_3,,running
Status,406,11653686721,/g3t1_3,,success
Status,407,11696439783,/g3t1_1,,running
Status,408,11696508050,/g3t1_1,,success
Status,409,11701234498,/g3t1_2,,running
Status,410,11701763835,/g3t1_2,,success
Status,411,11703484110,/g3t1_3,,running
Status,412,11703902674,/g3t1_3,,success
Status,413,11746162155,/g4t1,,fail
Status,414,11746254089,/g3t1_1,,running
Status,415,11746759273,/g3t1_1,,success
Status,416,11751178067,/g3t1_2,,running
Status,417,11751856393,/g3t1_2,,success
Status,418,11753377418,/g3t1_3,,running
Status,419,11753744115,/g3t1_3,,success
Status,420,11796723024,/g3t1_1,,running
Status,421,11796815294,/g3t1_1,,success
Status,422,11801368242,/g3t1_2,,running
Status,423,11801873610,/g3t1_2,,success
Status,424,11803740770,/g3t1_3,,running
Status,425,11804529002,/g3t1_3,,success
Status,426,11846198564,/g4t1,,fail
Status,427,11846462764,/g3t1_1,,running
Status,428,11847142230,/g3t1_1,,success
Status,429,11851429420,/g3t1_2,,running
Status,430,11851786997,/g3t1_2,,success
Status,431,11853701995,/g3t1_3,,running
Status,432,11854092906,/g3t1_3,,success
Status,433,11896899409,/g3t1_1,,running
Status,434,11896964736,/g3t1_1,,success
Status,435,11901684871,/g3t1_2,,running
Status,436,11902089928,/g3t1_2,,success
Status,437,11903646146,/g3t1_3,,running
Status,438,11904207060,/g3t1_3,,success
Status,439,11946133674,/g4t1,,fail
Status,440,11946752284,/g3t1_1,,running
Status,441,11947570643,/g3t1_1,,success
Status,442,11951685432,/g3t1_2,,running
Status,443,11952266452,/g3t1_2,,success
Status,444,11954247343,/g3t1_3,,running
Status,445,11954370937,/g3t1_3,,success
Status,446,11997090288,/g3t1_1,,running
Status,447,11997535368,/g3t1_1,,success
Status,448,12001615019,/g3t1_2,,running
Status,449,12002051467,/g3t1_2,,success
Status,450,12004030406,/g3t1_3,,running
Status,451,12004413161,/g3t1_3,,success
Status,452,12046499047,/g4t1,,fail
Status,453,12047237551,/g3t1_1,,running
Status,454,12047316625,/g3t1_1,,success
Status,455,12051798882,/g3t1_2,,running
Status,456,12052686884,/g3t1_2,,success
Status,457,12054185995,/g3t1_3,,running
Status,458,12055153913,/g3t1_3,,success
Status,459,12097267908,/g3t1_1,,running
Status,460,12097817870,/g3t1_1,,success
Status,461,12101890416,/g3t1_2,,running
Status,462,12102346689,/g3t1_2,,success
Status,463,12104232750,/g3t1_3,,running
Status,464,12104595948,/g3t1_3,,success
Status,465,12146446270,/g4t1,,fail
Status,466,12147180536,/g3t1_1,,running
Status,467,12147602162,/g3t1_1,,success
Status,468,12152049169,/g3t1_2,,running
Status,469,12152441040,/g3t1_2,,success
Status,470,12154502219,/g3t1_3,,running
Status,471,12155051566,/g3t1_3,,success
Status,472,12197547029,/g3t1_1,,running
Status,473,12198128278,/g3t1_1,,success
Status,474,12202039610,/g3t1_2,,running
Status,475,12202506197,/g3t1_2,,success
Status,476,12204453141,/g3t1_3,,running
Status,477,12205064998,/g3t1_3,,success
Status,478,12246659274,/g4t1,,fail
Status,479,12247614667,/g3t1_1,,running
Status,480,12248325593,/g3t1_1,,success
Status,481,12252258596,/g3t1_2,,running
Status,482,12252711910,/g3t1_2,,success
Status,483,12254812240,/g3t1_3,,running
Status,484,12255225443,/g3t1_3,,success
Status,485,12297445075,/g3t1_1,,running
Status,486,12297978880,/g3t1_1,,success
Status,487,12302890586,/g3t1_2,,running
Status,488,12303008801,/g3t1_2,,success
Status,489,12304643042,/g3t1_3,,running
Status,490,12305068825,/g3t1_3,,success
Status,491,12347015131,/g4t1,,fail
Status,492,12347843969,/g3t1_1,,running
Status,493,12348244825,/g3t1_1,,success
Status,494,12352499364,/g3t1_2,,running
Status,495,12352890584,/g3t1_2,,success
Status,496,12354997468,/g3t1_3,,running
Status,497,12355553318,/g3t1_3,,success
Status,498,12398088898,/g3t1_1,,running
Status,499,12398654743,/g3t1_1,,success
Status,500,12402750581,/g3t1_2,,running
Status,501,12403412685,/g3t1_2,,success
Status,502,12404854912,/g3t1_3,,running
Status,503,12405188379,/g3t1_3,,success
Status,504,12446968110,/g4t1,,fail
Status,505,12447896473,/g3t1_1,,running
Status,506,12448256053,/g3t1_1,,success
Status,507,12452757650,/g3t1_2,,running
Status,508,12453257505,/g3t1_2,,success
Status,509,12454854156,/g3t1_3,,running
Status,510,12455464609,/g3t1_3,,success
Status,511,12498157900,/g3t1_1,,running
Status,512,12498592294,/g3t1_1,,success
Status,513,12502967067,/g3t1_2,,running
Status,514,12503550232,/g3t1_2,,success
Status,515,12505007840,/g3t1_3,,running
Status,516,12505437172,/g3t1_3,,success
Status,517,12547253782,/g4t1,,fail
Status,518,12548684230,/g3t1_1,,running
Status,519,12548772113,/g3t1_1,,success
Status,520,12553062283,/g3t1_2,,running
Status,521,12553514898,/g3t1_2,,success
Status,522,12555569912,/g3t1_3,,running
Status,523,12555752556,/g3t1_3,,success
Status,524,12598635060,/g3t1_1,,running
Status,525,12598959519,/g3t1_1,,success
Status,526,12603744879,/g3t1_2,,running
Status,527,12604037541,/g3t1_2,,success
Status,528,12605412846,/g3t1_3,,running
Status,529,12605760979,/g3t1_3,,success
Status,530,12647416704,/g4t1,,fail
Status,531,12648670557,/g3t1_1,,running
Status,532,12649209982,/g3t1_1,,success
Status,533,12653398938,/g3t1_2,,running
Status,534,12654192400,/g3t1_2,,success
Status,535,12655316084,/g3t1_3,,running
Status,536,12655876606,/g3t1_3,,success
Status,537,12698831968,/g3t1_1,,running
Status,538,12699399333,/g3t1_1,,success
Status,539,12703580378,/g3t1_2,,running
Status,540,12704044345,/g3t1_2,,success
Status,541,12705534514,/g3t1_3,,running
Status,542,12705892894,/g3t1_3,,success
Status,543,12747527915,/g4t1,,fail
Status,544,12748992947,/g3t1_1,,running
Status,545,12749456275,/g3t1_1,,success
Status,546,12753683211,/g3t1_2,,running
Status,547,12754402053,/g3t1_2,,success
Status,548,12755699478,/g3t1_3,,running
Status,549,12756010089,/g3t1_3,,success
Status,550,12799202580,/g3t1_1,,running
Status,551,12799613510,/g3t1_1,,success
Status,552,12803879211,/g3t1_2,,running
Status,553,12804333845,/g3t1_2,,success
Status,554,12805972977,/g3t1_3,,running
Status,555,12806052775,/g3t1_3,,success
Status,556,12847464962,/g4t1,,fail
Status,557,12849084418,/g3t1_1,,running
Status,558,12849677229,/g3t1_1,,success
Status,559,12853945528,/g3t1_2,,running
Status,560,12854384969,/g3t1_2,,success
Status,561,12855844947,/g3t1_3,,running
Status,562,12856307224,/g3t1_3,,success
Status,563,12899610082,/g3t1_1,,running
Status,564,12899953408,/g3t1_1,,success
Status,565,12904151053,/g3t1_2,,running
Status,566,12904754599,/g3t1_2,,success
Status,567,12905917729,/g3t1_3,,running
Status,568,12906373207,/g3t1_3,,success
Status,569,12947574115,/g4t1,,fail
Status,570,12949566668,/g3t1_1,,running
Status,571,12949953535,/g3t1_1,,success
Status,572,12954262626,/g3t1_2,,running
Status,573,12954645129,/g3t1_2,,success
Status,574,12956061780,/g3t1_3,,running
Status,575,12956427798,/g3t1_3,,success
Status,576,12999816952,/g3t1_1,,running
Status,577,13000215111,/g3t1_1,,success
Status,578,13005030990,/g3t1_2,,running
Status,579,13005682363,/g3t1_2,,success
Status,580,13007019407,/g3t1_3,,running
Status,581,13007243609,/g3t1_3,,success
Status,582,13047802834,/g4t1,,fail
Status,583,13049635951,/g3t1_1,,running
Status,584,13050195256,/g3t1_1,,success
Status,585,13054854907,/g3t1_2,,running
Status,586,13055416092,/g3t1_2,,success
Status,587,13056305279,/g3t1_3,,running
Status,588,13056967795,/g3t1_3,,success
Status,589,13099959364,/g3t1_1,,running
Status,590,13100232195,/g3t1_1,,success
Status,591,13104743126,/g3t1_2,,running
Status,592,13105071400,/g3t1_2,,success
Status,593,13106473276,/g3t1_3,,running
Status,594,13106930232,/g3t1_3,,success
Status,595,13147883744,/g4t1,,fail
Status,596,13149869712,/g3t1_1,,running
Status,597,13150524640,/g3t1_1,,success
Status,598,13154662366,/g3t1_2,,running
Status,599,13155037181,/g3t1_2,,success
Status,600,13156468796,/g3t1_3,,running
Status,601,13156811212,/g3t1_3,,success
Status,602,13200246684,/g3t1_1,,running
Status,603,13200843323,/g3t1_1,,success
Status,604,13204754083,/g3t1_2,,running
Status,605,13205220542,/g3t1_2,,success
Status,606,13206559745,/g3t1_3,,running
Status,607,13206966811,/g3t1_3,,success
Status,608,13247984480,/g4t1,,fail
Status,609,13250221316,/g3t1_1,,running
Status,610,13250812725,/g3t1_1,,success
Status,611,13254923428,/g3t1_2,,running
Status,612,13255487692,/g3t1_2,,success
Status,613,13256531518,/g3t1_3,,running
Status,614,13257216655,/g3t1_3,,success
Status,615,13300444343,/g3t1_1,,running
Status,616,13301147809,/g3t1_1,,success
Status,617,13305036441,/g3t1_2,,running
Status,618,13305349764,/g3t1_2,,success
Status,619,13306905132,/g3t1_3,,running
Status,620,13307283882,/g3t1_3,,success
Status,621,13348200250,/g4t1,,fail
Status,622,13350582462,/g3t1_1,,running
Status,623,13350824209,/g3t1_1,,success
Status,624,13355482279,/g3t1_2,,running
Status,625,13355828969,/g3t1_2,,success
Status,626,13356826801,/g3t1_3,,running
Status,627,13357481523,/g3t1_3,,success
Status,628,13400748002,/g3t1_1,,running
Status,629,13401415197,/g3t1_1,,success
Status,630,13405445244,/g3t1_2,,running
Status,631,13406472647,/g3t1_2,,success
Status,632,13407663660,/g3t1_3,,running
Status,633,13407768941,/g3t1_3,,success
Status,634,13448178371,/g4t1,,fail
Status,635,13450797199,/g3t1_1,,running
Status,636,13451158718,/g3t1_1,,success
Status,637,13455392704,/g3t1_2,,running
Status,638,13455991859,/g3t1_2,,success
Status,639,13456963850,/g3t1_3,,running
Status,640,13457315630,/g3t1_3,,success
Status,641,13501141750,/g3t1_1,,running
Status,642,13501589938,/g3t1_1,,success
Status,643,13505684904,/g3t1_2,,running
Status,644,13506154385,/g3t1_2,,success
Status,645,13507179161,/g3t1_3,,running
Status,646,13507863382,/g3t1_3,,success
Status,647,13548373830,/g4t1,,fail
Status,648,13551011633,/g3t1_1,,running
Status,649,13551579553,/g3t1_1,,success
Status,650,13555794241,/g3t1_2,,running
Status,651,13556398101,/g3t1_2,,success
Status,652,13557188806,/g3t1_3,,running
Status,653,13557893264,/g3t1_3,,success
Status,654,13601286173,/g3t1_1,,running
Status,655,13601577408,/g3t1_1,,success
Status,656,13605838978,/g3t1_2,,running
Status,657,13606206812,/g3t1_2,,success
Status,658,13607353119,/g3t1_3,,running
Status,659,13607710842,/g3t1_3,,success
Status,660,13648514692,/g4t1,,fail
Status,661,13651285795,/g3t1_1,,running
Status,662,13651662013,/g3t1_1,,success
Status,663,13656028517,/g3t1_2,,running
Status,664,13656807288,/g3t1_2,,success
Status,665,13657907088,/g3t1_3,,running
Status,666,13658683732,/g3t1_3,,success
Status,667,13700826462,/g3t1_1,,running
Status,668,13700885341,/g3t1_1,,success
Status,669,13705440138,/g3t1_2,,running
Status,670,13705578706,/g3t1_2,,success
Status,671,13707522546,/g3t1_3,,running
Status,672,13707641017,/g3t1_3,,success
Status,673,13747983526,/g4t1,,fail
Status,674,13750960251,/g3t1_1,,running
Status,675,13751059663,/g3t1_1,,success
Status,676,13755697445,/g3t1_2,,running
Status,677,13755717945,/g3t1_2,,success
Status,678,13758420371,/g3t1_3,,running
Status,679,13758803515,/g3t1_3,,success
Status,680,13801140538,/g3t1_1,,running
Status,681,13801169807,/g3t1_1,,success
Status,682,13805806611,/g3t1_2,,running
Status,683,13805959174,/g3t1_2,,success
Status,684,13807699461,/g3t1_3,,running
Status,685,13807832138,/g3t1_3,,success
Status,686,13848283911,/g4t1,,fail
Status,687,13851168361,/g3t1_1,,running
Status,688,13851319782,/g3t1_1,,success
Status,689,13855870446,/g3t1_2,,running
Status,690,13855996504,/g3t1_2,,success
Status,691,13857932133,/g3t1_3,,running
Status,692,13858068002,/g3t1_3,,success
Status,693,13902337817,/g3t1_1,,running
Status,694,13903053724,/g3t1_1,,success
Status,695,13906410468,/g3t1_2,,running
Status,696,13907067552,/g3t1_2,,success
Status,697,13908739765,/g3t1_3,,running
Status,698,13908876829,/g3t1_3,,success
Status,699,13948959513,/g4t1,,fail
Status,700,13952357008,/g3t1_1,,running
Status,701,13952424327,/g3t1_1,,success
Status,702,13956446500,/g3t1_2,,running
Status,703,13956693542,/g3t1_2,,success
Status,704,13958630805,/g3t1_3,,running
Status,705,13959357751,/g3t1_3,,success
Status,706,14002194322,/g3t1_1,,running
Status,707,14002529285,/g3t1_1,,success
Status,708,14007094877,/g3t1_2,,running
Status,709,14007156772,/g3t1_2,,success
Status,710,14008790770,/g3t1_3,,running
Status,711,14009273076,/g3t1_3,,success
Status,712,14049146700,/g4t1,,fail
Status,713,14052573028,/g3t1_1,,running
Status,714,14052652475,/g3t1_1,,success
Status,715,14056916744,/g3t1_2,,running
Status,716,14057235138,/g3t1_2,,success
Status,717,14059086358,/g3t1_3,,running
Status,718,14059720569,/g3t1_3,,success
Status,719,14102642157,/g3t1_1,,running
Status,720,14103134237,/g3t1_1,,success
Status,721,14107404021,/g3t1_2,,running
Status,722,14107741984,/g3t1_2,,success
Status,723,14109251585,/g3t1_3,,running
Status,724,14109305622,/g3t1_3,,success
Status,725,14149307593,/g4t1,,fail
Status,726,14152459665,/g3t1_1,,running
Status,727,14152795807,/g3t1_1,,success
Status,728,14157278389,/g3t1_2,,running
Status,729,14157617753,/g3t1_2,,success
Status,730,14159211243,/g3t1_3,,running
Status,731,14159469747,/g3t1_3,,success
Status,732,14202798265,/g3t1_1,,running
Status,733,14203173264,/g3t1_1,,success
Status,734,14207260498,/g3t1_2,,running
Status,735,14208020218,/g3t1_2,,success
Status,736,14209243882,/g3t1_3,,running
Status,737,14209765515,/g3t1_3,,success
Status,738,14249067638,/g4t1,,fail
Status,739,14252969818,/g3t1_1,,running
Status,740,14253566180,/g3t1_1,,success
Status,741,14257517049,/g3t1_2,,running
Status,742,14258150184,/g3t1_2,,success
Status,743,14259372850,/g3t1_3,,running
Status,744,14259897044,/g3t1_3,,success
Status,745,14302995977,/g3t1_1,,running
Status,746,14303530787,/g3t1_1,,success
Status,747,14307580376,/g3t1_2,,running
Status,748,14308016865,/g3t1_2,,success
Status,749,14309494549,/g3t1_3,,running
Status,750,14310162599,/g3t1_3,,success
Status,751,14348540246,/g4t1,,fail
Status,752,14352446553,/g3t1_1,,running
Status,753,14352629113,/g3t1_1,,success
Status,754,14357313806,/g3t1_2,,running
Status,755,14357538129,/g3t1_2,,success
Status,756,14359448823,/g3t1_3,,running
Status,757,14359506098,/g3t1_3,,success
Status,758,14403242552,/g3t1_1,,running
Status,759,14403658172,/g3t1_1,,success
Status,760,14407751363,/g3t1_2,,running
Status,761,14408228828,/g3t1_2,,success
Status,762,14409642978,/g3t1_3,,running
Status,763,14410036761,/g3t1_3,,success
Status,764,14449507442,/g4t1,,fail
Status,765,14453284646,/g3t1_1,,running
Status,766,14453685588,/g3t1_1,,success
Status,767,14457935011,/g3t1_2,,running
Status,768,14458221377,/g3t1_2,,success
Status,769,14459871809,/g3t1_3,,running
Status,770,14460150629,/g3t1_3,,success
Status,771,14503610003,/g3t1_1,,running
Status,772,14503865843,/g3t1_1,,success
Status,773,14508027755,/g3t1_2,,running
Status,774,14508410203,/g3t1_2,,success
Status,775,14509817998,/g3t1_3,,running
Status,776,14510231272,/g3t1_3,,success
Status,777,14549590798,/g4t1,,fail
Status,778,14553508014,/g3t1_1,,running
Status,779,14553966382,/g3t1_1,,success
Status,780,14558161052,/g3t1_2,,running
Status,781,14558550012,/g3t1_2,,success
Status,782,14560082123,/g3t1_3,,running
Status,783,14560810160,/g3t1_3,,success
Status,784,14603856916,/g3t1_1,,running
Status,785,14604199758,/g3t1_1,,success
Status,786,14608282113,/g3t1_2,,running
Status,787,14608910446,/g3t1_2,,success
Status,788,14610205868,/g3t1_3,,running
Status,789,14610636587,/g3t1_3,,success
Status,790,14649578860,/g4t1,,fail
Status,791,14653844311,/g3t1_1,,running
Status,792,14654371340,/g3t1_1,,success
Status,793,14658455847,/g3t1_2,,running
Status,794,14658789713,/g3t1_2,,success
Status,795,14663178050,/g3t1_3,,running
Status,796,14663268562,/g3t1_3,,success
Status,797,14704067537,/g3t1_1,,running
Status,798,14704373762,/g3t1_1,,success
Status,799,14708664050,/g3t1_2,,running
Status,800,14708999263,/g3t1_2,,success
Status,801,14712813866,/g3t1_3,,running
Status,802,14713098024,/g3t1_3,,success
Status,803,14750047476,/g4t1,,fail
Status,804,14754560174,/g3t1_1,,running
Status,805,14754987577,/g3t1_1,,success
Status,806,14758688273,/g3t1_2,,running
Status,807,14759102309,/g3t1_2,,success
Status,808,14762886302,/g3t1_3,,running
Status,809,14763229049,/g3t1_3,,success
Status,810,14804527265,/g3t1_1,,running
Status,811,14804882494,/g3t1_1,,success
Status,812,14809100741,/g3t1_2,,running
Status,813,14809445987,/g3t1_2,,success
Status,814,14812912922,/g3t1_3,,running
Status,815,14813207844,/g3t1_3,,success
Status,816,14849553943,/g4t1,,fail
Status,817,14854261015,/g3t1_1,,running
Status,818,14854727747,/g3t1_1,,success
Status,819,14858630819,/g3t1_2,,running
Status,820,14858939115,/g3t1_2,,success
Status,821,14862903413,/g3t1_3,,running
Status,822,14862998613,/g3t1_3,,success
Status,823,14904085722,/g3t1_1,,running
Status,824,14904183828,/g3t1_1,,success
Status,825,14908475023,/g3t1_2,,running
Status,826,14908503724,/g3t1_2,,success
Status,827,14912803312,/g3t1_3,,running
Status,828,14912830937,/g3t1_3,,success
Status,829,14949314548,/g4t1,,fail
Status,830,14954117883,/g3t1_1,,running
Status,831,14954291249,/g3t1_1,,success
Status,832,14959835307,/g3t1_2,,running
Status,833,14959928629,/g3t1_2,,success
Status,834,14962700214,/g3t1_3,,running
Status,835,14962851807,/g3t1_3,,success
Status,836,15004314181,/g3t1_1,,running
Status,837,15004544444,/g3t1_1,,success
Status,838,15008700168,/g3t1_2,,running
Status,839,15008811997,/g3t1_2,,success
Status,840,15012700160,/g3t1_3,,running
Status,841,15012839992,/g3t1_3,,success
Status,842,15049430940,/g4t1,,fail
Status,843,15054331581,/g3t1_1,,running
Status,844,15054459082,/g3t1_1,,success
Status,845,15058831097,/g3t1_2,,running
Status,846,15059069478,/g3t1_2,,success
Status,847,15062918443,/g3t1_3,,running
Status,848,15062965042,/g3t1_3,,success
Status,849,15104348614,/g3t1_1,,running
Status,850,15104511880,/g3t1_1,,success
Status,851,15108745049,/g3t1_2,,running
Status,852,15108872360,/g3t1_2,,success
Status,853,15112766303,/g3t1_3,,running
Status,854,15113056565,/g3t1_3,,success
Status,855,15149559612,/g4t1,,fail
Status,856,15154390479,/g3t1_1,,running
Status,857,15154605091,/g3t1_1,,success
Status,858,15159278488,/g3t1_2,,running
Status,859,15159352530,/g3t1_2,,success
Status,860,15162994813,/g3t1_3,,running
Status,861,15163016757,/g3t1_3,,success
Status,862,15204664183,/g3t1_1,,running
Status,863,15204687386,/g3t1_1,,success
Status,864,15209029403,/g3t1_2,,running
Status,865,15209084303,/g3t1_2,,success
Status,866,15213168824,/g3t1_3,,running
Status,867,15213191759,/g3t1_3,,success
Status,868,15249600693,/g4t1,,fail
Status,869,15254799016,/g3t1_1,,running
Status,870,15254821563,/g3t1_1,,success
Status,871,15259295618,/g3t1_2,,running
Status,872,15259318689,/g3t1_2,,success
Status,873,15263267443,/g3t1_3,,running
Status,874,15263291318,/g3t1_3,,success
Status,875,15304739427,/g3t1_1,,running
Status,876,15304761885,/g3t1_1,,success
Status,877,15309294597,/g3t1_2,,running
Status,878,15309423380,/g3t1_2,,success
Status,879,15313225033,/g3t1_3,,running
Status,880,15313419128,/g3t1_3,,success
Status,881,15349718118,/g4t1,,fail
Status,882,15354720818,/g3t1_1,,running
Status,883,15354992103,/g3t1_1,,success
Status,884,15359237757,/g3t1_2,,running
Status,885,15359318138,/g3t1_2,,success
Status,886,15363569661,/g3t1_3,,running
Status,887,15363646607,/g3t1_3,,success
Status,888,15405109369,/g3t1_1,,running
Status,889,15405141344,/g3t1_1,,success
Status,890,15410262282,/g3t1_2,,running
Status,891,15410664339,/g3t1_2,,success
Status,892,15413692007,/g3t1_3,,running
Status,893,15413747240,/g3t1_3,,success
Status,894,15449694880,/g4t1,,fail
Status,895,15455432999,/g3t1_1,,running
Status,896,15455529006,/g3t1_1,,success
Status,897,15460085639,/g3t1_2,,running
Status,898,15460528514,/g3t1_2,,success
Status,899,15463605193,/g3t1_3,,running
Status,900,15463775094,/g3t1_3,,success
Status,901,15505118677,/g3t1_1,,running
Status,902,15505140230,/g3t1_1,,success
Status,903,15510165320,/g3t1_2,,running
Status,904,15510206798,/g3t1_2,,success
Status,905,15513630026,/g3t1_3,,running
Status,906,15513831597,/g3t1_3,,success
Status,907,15549799072,/g4t1,,fail
Status,908,15555153778,/g3t1_1,,running
Status,909,15555178924,/g3t1_1,,success
Status,910,15559667084,/g3t1_2,,running
Status,911,15559764814,/g3t1_2,,success
Status,912,15563782609,/g3t1_3,,running
Status,913,15563806866,/g3t1_3,,success
Status,914,15605253934,/g3t1_1,,running
Status,915,15605275606,/g3t1_1,,success
Status,916,15610013662,/g3t1_2,,running
Status,917,15610044127,/g3t1_2,,success
Status,918,15613810162,/g3t1_3,,running
Status,919,15613832360,/g3t1_3,,success
Status,920,15649861493,/g4t1,,fail
Status,921,15655280823,/g3t1_1,,running
Status,922,15655302936,/g3t1_1,,success
Status,923,15659769321,/g3t1_2,,running
Status,924,15659848403,/g3t1_2,,success
Status,925,15663790503,/g3t1_3,,running
Status,926,15663909970,/g3t1_3,,success
Status,927,15705465085,/g3t1_1,,running
Status,928,15705492169,/g3t1_1,,success
Status,929,15709917964,/g3t1_2,,running
Status,930,15709949218,/g3t1_2,,success
Status,931,15713839591,/g3t1_3,,running
Status,932,15713938533,/g3t1_3,,success
Status,933,15750056880,/g4t1,,fail
Status,934,15755519017,/g3t1_1,,running
Status,935,15755537790,/g3t1_1,,success
Status,936,15760152606,/g3t1_2,,running
Status,937,15760172719,/g3t1_2,,success
Status,938,15764094300,/g3t1_3,,running
Status,939,15764112527,/g3t1_3,,success
Status,940,15806409759,/g3t1_1,,running
Status,941,15806964275,/g3t1_1,,success
Status,942,15810751931,/g3t1_2,,running
Status,943,15811241832,/g3t1_2,,success
Status,944,15814609850,/g3t1_3,,running
Status,945,15815246642,/g3t1_3,,success
Status,946,15850993572,/g4t1,,fail
Status,947,15856309404,/g3t1_1,,running
Status,948,15856936404,/g3t1_1,,success
Status,949,15861143673,/g3t1_2,,running
Status,950,15861469215,/g3t1_2,,success
Status,951,15864860513,/g3t1_3,,running
Status,952,15865281817,/g3t1_3,,success
Status,953,15906174262,/g3t1_1,,running
Status,954,15906646699,/g3t1_1,,success
Status,955,15910981582,/g3t1_2,,running
Status,956,15911169247,/g3t1_2,,success
Status,957,15914723195,/g3t1_3,,running
Status,958,15914945187,/g3t1_3,,success
Status,959,15950948922,/g4t1,,fail
Status,960,15956625526,/g3t1_1,,running
Status,961,15957115210,/g3t1_1,,success
Status,962,15961356160,/g3t1_2,,running
Status,963,15961916154,/g3t1_2,,success
Status,964,15964849488,/g3t1_3,,running
Status,965,15965117672,/g3t1_3,,success
Status,966,16006880374,/g3t1_1,,running
Status,967,16007690713,/g3t1_1,,success
Status,968,16011654310,/g3t1_2,,running
Status,969,16012026324,/g3t1_2,,success
Status,970,16015066283,/g3t1_3,,running
Status,971,16015770949,/g3t1_3,,success
Status,972,16050385358,/g4t1,,fail
Status,973,16056262840,/g3t1_1,,running
Status,974,16056390217,/g3t1_1,,success
Status,975,16061024365,/g3t1_2,,running
Status,976,16061059140,/g3t1_2,,success
Status,977,16064735480,/g3t1_3,,running
Status,978,16064897173,/g3t1_3,,success
Status,979,16107179595,/g3t1_1,,running
Status,980,16107247171,/g3t1_1,,success
Status,981,16111617179,/g3t1_2,,running
Status,982,16112080912,/g3t1_2,,success
Status,983,16115349713,/g3t1_3,,running
Status,984,16115684419,/g3t1_3,,success
Status,985,16150395338,/g4t1,,fail
Status,986,16156416385,/g3t1_1,,running
Status,987,16156722990,/g3t1_1,,success
Status,988,16161273720,/g3t1_2,,running
Status,989,16161316594,/g3t1_2,,success
Status,990,16165016293,/g3t1_3,,running
Status,991,16165198222,/g3t1_3,,success
Status,992,16207245364,/g3t1_1,,running
Status,993,16207723256,/g3t1_1,,success
Status,994,16212114259,/g3t1_2,,running
Status,995,16212945797,/g3t1_2,,success
Status,996,16215587878,/g3t1_3,,running
Status,997,16216014878,/g3t1_3,,success
Status,998,16251392703,/g4t1,,fail
Status,999,16257254535,/g3t1_1,,running
Status,1000,16257553893,/g3t1_1,,success
Status,1001,16261917535,/g3t1_2,,running
Status,1002,16262375584,/g3t1_2,,success
Status,1003,16265929870,/g3t1_3,,running
Status,1004,16265995936,/g3t1_3,,success
Status,1005,16307442471,/g3t1_1,,running
Status,1006,16307531545,/g3t1_1,,success
Status,1007,16312540519,/g3t1_2,,running
Status,1008,16312612580,/g3t1_2,,success
Status,1009,16315823945,/g3t1_3,,running
Status,1010,16316109274,/g3t1_3,,success
Status,1011,16351543069,/g4t1,,fail
Status,1012,16357644776,/g3t1_1,,running
Status,1013,16357722400,/g3t1_1,,success
Status,1014,16362042784,/g3t1_2,,running
Status,1015,16362479620,/g3t1_2,,success
Status,1016,16366001547,/g3t1_3,,running
Status,1017,16366441546,/g3t1_3,,success
Status,1018,16407575871,/g3t1_1,,running
Status,1019,16408066644,/g3t1_1,,success
Status,1020,16412801629,/g3t1_2,,running
Status,1021,16412871552,/g3t1_2,,success
Status,1022,16416125812,/g3t1_3,,running
Status,1023,16416567806,/g3t1_3,,success
Status,1024,16451571489,/g4t1,,fail
Status,1025,16457691699,/g3t1_1,,running
Status,1026,16458233191,/g3t1_1,,success
Status,1027,16462510486,/g3t1_2,,running
Status,1028,16463250398,/g3t1_2,,success
Status,1029,16466244350,/g3t1_3,,running
Status,1030,16466703572,/g3t1_3,,success
Status,1031,16507863144,/g3t1_1,,running
Status,1032,16508570559,/g3t1_1,,success
Status,1033,16513216212,/g3t1_2,,running
Status,1034,16513457788,/g3t1_2,,success
Status,1035,16516376074,/g3t1_3,,running
Status,1036,16516436518,/g3t1_3,,success
Status,1037,16551926292,/g4t1,,fail
Status,1038,16558197213,/g3t1_1,,running
Status,1039,16558899607,/g3t1_1,,success
Status,1040,16562927049,/g3t1_2,,running
Status,1041,16563476754,/g3t1_2,,success
Status,1042,16566502927,/g3t1_3,,running
Status,1043,16566857436,/g3t1_3,,success
Status,1044,16608509569,/g3t1_1,,running
Status,1045,16608783765,/g3t1_1,,success
Status,1046,16613093857,/g3t1_2,,running
Status,1047,16613399035,/g3t1_2,,success
Status,1048,16616367189,/g3t1_3,,running
Status,1049,16616806623,/g3t1_3,,success
Status,1050,16651928971,/g4t1,,fail
Status,1051,16658165152,/g3t1_1,,running
Status,1052,16658784876,/g3t1_1,,success
Status,1053,16663103397,/g3t1_2,,running
Status,1054,16663462124,/g3t1_2,,success
Status,1055,16666482596,/g3t1_3,,running
Status,1056,16667164000,/g3t1_3,,success
Status,1057,16708472624,/g3t1_1,,running
Status,1058,16708964301,/g3t1_1,,success
Status,1059,16713644817,/g3t1_2,,running
Status,1060,16713719706,/g3t1_2,,success
Status,1061,16716699398,/g3t1_3,,running
Status,1062,16717037252,/g3t1_3,,success
Status,1063,16752087424,/g4t1,,fail
Status,1064,16758355862,/g3t1_1,,running
Status,1065,16759069631,/g3t1_1,,success
Status,1066,16763226055,/g3t1_2,,running
Status,1067,16763738477,/g3t1_2,,success
Status,1068,16766861514,/g3t1_3,,running
Status,1069,16767640835,/g3t1_3,,success
Status,1070,16808920394,/g3t1_1,,running
Status,1071,16808998996,/g3t1_1,,success
Status,1072,16813653498,/g3t1_2,,running
Status,1073,16813749039,/g3t1_2,,success
Status,1074,16816869073,/g3t1_3,,running
Status,1075,16817252685,/g3t1_3,,success
Status,1076,16852111641,/g4t1,,fail
Status,1077,16858838519,/g3t1_1,,running
Status,1078,16859139679,/g3t1_1,,success
Status,1079,16863503927,/g3t1_2,,running
Status,1080,16863558302,/g3t1_2,,success
Status,1081,16867268200,/g3t1_3,,running
Status,1082,16867688001,/g3t1_3,,success
Status,1083,16908584313,/g3t1_1,,running
Status,1084,16908720635,/g3t1_1,,success
Status,1085,16913349005,/g3t1_2,,running
Status,1086,16913392802,/g3t1_2,,success
Status,1087,16916706017,/g3t1_3,,running
Status,1088,16916896444,/g3t1_3,,success
Status,1089,16951511583,/g4t1,,fail
Status,1090,16958489445,/g3t1_1,,running
Status,1091,16958641846,/g3t1_1,,success
Status,1092,16963309241,/g3t1_2,,running
Status,1093,16963398108,/g3t1_2,,success
Status,1094,16966693841,/g3t1_3,,running
Status,1095,16966722667,/g3t1_3,,success
Status,1096,17009067598,/g3t1_1,,running
Status,1097,17009414503,/g3t1_1,,success
Status,1098,17013862975,/g3t1_2,,running
Status,1099,17014199075,/g3t1_2,,success
Status,1100,17017374642,/g3t1_3,,running
Status,1101,17017586962,/g3t1_3,,success
Status,1102,17052321450,/g4t1,,fail
Status,1103,17059838138,/g3t1_1,,running
Status,1104,17059911113,/g3t1_1,,success
Status,1105,17064233370,/g3t1_2,,running
Status,1106,17064565165,/g3t1_2,,success
Status,1107,17067483867,/g3t1_3,,running
Status,1108,17067822498,/g3t1_3,,success
Status,1109,17109262996,/g3t1_1,,running
Status,1110,17109690711,/g3t1_1,,success
Status,1111,17114154913,/g3t1_2,,running
Status,1112,17114626569,/g3t1_2,,success
Status,1113,17117381388,/g3t1_3,,running
Status,1114,17118013995,/g3t1_3,,success
Status,1115,17152671669,/g4t1,,fail
Status,1116,17159310379,/g3t1_1,,running
Status,1117,17159874983,/g3t1_1,,success
Status,1118,17164672521,/g3t1_2,,running
Status,1119,17165128978,/g3t1_2,,success
Status,1120,17167687263,/g3t1_3,,running
Status,1121,17168131158,/g3t1_3,,success
Status,1122,17209636230,/g3t1_1,,running
Status,1123,17210016782,/g3t1_1,,success
Status,1124,17214397507,/g3t1_2,,running
Status,1125,17214816010,/g3t1_2,,success
Status,1126,17217722449,/g3t1_3,,running
Status,1127,17218144347,/g3t1_3,,success
Status,1128,17252705211,/g4t1,,fail
Status,1129,17259552181,/g3t1_1,,running
Status,1130,17260171210,/g3t1_1,,success
Status,1131,17264758524,/g3t1_2,,running
Status,1132,17264954259,/g3t1_2,,success
Status,1133,17267866754,/g3t1_3,,running
Status,1134,17268083625,/g3t1_3,,success
Status,1135,17309812276,/g3t1_1,,running
Status,1136,17310488950,/g3t1_1,,success
Status,1137,17314898375,/g3t1_2,,running
Status,1138,17314979860,/g3t1_2,,success
Status,1139,17317922738,/g3t1_3,,running
Status,1140,17318602608,/g3t1_3,,success
Status,1141,17352811059,/g4t1,,fail
Status,1142,17360127303,/g3t1_1,,running
Status,1143,17360462217,/g3t1_1,,success
Status,1144,17365004734,/g3t1_2,,running
Status,1145,17365616134,/g3t1_2,,success
Status,1146,17368073342,/g3t1_3,,running
Status,1147,17368540339,/g3t1_3,,success
Status,1148,17410444631,/g3t1_1,,running
Status,1149,17410942615,/g3t1_1,,success
Status,1150,17415092729,/g3t1_2,,running
Status,1151,17415533391,/g3t1_2,,success
Status,1152,17418197146,/g3t1_3,,running
Status,1153,17419054913,/g3t1_3,,success
Status,1154,17453007008,/g4t1,,fail
Status,1155,17460414321,/g3t1_1,,running
Status,1156,17460740453,/g3t1_1,,success
Status,1157,17465111608,/g3t1_2,,running
Status,1158,17465398012,/g3t1_2,,success
Status,1159,17468510747,/g3t1_3,,running
Status,1160,17468592609,/g3t1_3,,success
Status,1161,17510756190,/g3t1_1,,running
Status,1162,17510886919,/g3t1_1,,success
Status,1163,17515373601,/g3t1_2,,running
Status,1164,17515443127,/g3t1_2,,success
Status,1165,17518509061,/g3t1_3,,running
Status,1166,17518947620,/g3t1_3,,success
Status,1167,17553293392,/g4t1,,fail
Status,1168,17560445935,/g3t1_1,,running
Status,1169,17560897749,/g3t1_1,,success
Status,1170,17565278721,/g3t1_2,,running
Status,1171,17565650441,/g3t1_2,,success
Status,1172,17568630089,/g3t1_3,,running
Status,1173,17569050989,/g3t1_3,,success
Status,1174,17611001718,/g3t1_1,,running
Status,1175,17611710980,/g3t1_1,,success
Status,1176,17615334482,/g3t1_2,,running
Status,1177,17615747049,/g3t1_2,,success
Status,1178,17618696301,/g3t1_3,,running
Status,1179,17619362380,/g3t1_3,,success
Status,1180,17653492231,/g4t1,,fail
Status,1181,17660951519,/g3t1_1,,running
Status,1182,17661191923,/g3t1_1,,success
Status,1183,17665556051,/g3t1_2,,running
Status,1184,17665902166,/g3t1_2,,success
Status,1185,17668841626,/g3t1_3,,running
Status,1186,17669266181,/g3t1_3,,success
Status,1187,17711373160,/g3t1_1,,running
Status,1188,17711882257,/g3t1_1,,success
Status,1189,17715613793,/g3t1_2,,running
Status,1190,17715899960,/g3t1_2,,success
Status,1191,17718980836,/g3t1_3,,running
Status,1192,17719368633,/g3t1_3,,success
Status,1193,17753615386,/g4t1,,fail
Status,1194,17761207693,/g3t1_1,,running
Status,1195,17761660976,/g3t1_1,,success
Status,1196,17765583574,/g3t1_2,,running
Status,1197,17765942842,/g3t1_2,,success
Status,1198,17768950754,/g3t1_3,,running
Status,1199,17769385587,/g3t1_3,,success
Status,1200,17811571950,/g3t1_1,,running
Status,1201,17812130447,/g3t1_1,,success
Status,1202,17815680833,/g3t1_2,,running
Status,1203,17816097392,/g3t1_2,,success
Status,1204,17819103706,/g3t1_3,,running
Status,1205,17819834547,/g3t1_3,,success
Status,1206,17853796807,/g4t1,,fail
Status,1207,17861618419,/g3t1_1,,running
Status,1208,17862043547,/g3t1_1,,success
Status,1209,17866325304,/g3t1_2,,running
Status,1210,17866406878,/g3t1_2,,success
Status,1211,17869453772,/g3t1_3,,running
Status,1212,17869950460,/g3t1_3,,success
Status,1213,17911899010,/g3t1_1,,running
Status,1214,17911968944,/g3t1_1,,success
Status,1215,17916005058,/g3t1_2,,running
Status,1216,17916493997,/g3t1_2,,success
Status,1217,17919305142,/g3t1_3,,running
Status,1218,17919773490,/g3t1_3,,success
Status,1219,17953889373,/g4t1,,fail
Status,1220,17961556282,/g3t1_1,,running
Status,1221,17961992532,/g3t1_1,,success
Status,1222,17966075828,/g3t1_2,,running
Status,1223,17966908825,/g3t1_2,,success
Status,1224,17969520812,/g3t1_3,,running
Status,1225,17969846433,/g3t1_3,,success
Status,1226,18011927918,/g3t1_1,,running
Status,1227,18012491350,/g3t1_1,,success
Status,1228,18016328857,/g3t1_2,,running
Status,1229,18016616122,/g3t1_2,,success
Status,1230,18019658935,/g3t1_3,,running
Status,1231,18020130629,/g3t1_3,,success
Status,1232,18054215927,/g4t1,,fail
Status,1233,18062126341,/g3t1_1,,running
Status,1234,18062695828,/g3t1_1,,success
Status,1235,18066383951,/g3t1_2,,running
Status,1236,18066512945,/g3t1_2,,success
Status,1237,18069814600,/g3t1_3,,running
Status,1238,18070128203,/g3t1_3,,success
Status,1239,18112379156,/g3t1_1,,running
Status,1240,18112709711,/g3t1_1,,success
Status,1241,18116598056,/g3t1_2,,running
Status,1242,18117062663,/g3t1_2,,success
Status,1243,18120285086,/g3t1_3,,running
Status,1244,18120353230,/g3t1_3,,success
Status,1245,18154401664,/g4t1,,fail
Status,1246,18162177761,/g3t1_1,,running
Status,1247,18162325778,/g3t1_1,,success
Status,1248,18166796565,/g3t1_2,,running
Status,1249,18167212511,/g3t1_2,,success
Status,1250,18170147530,/g3t1_3,,running
Status,1251,18170562985,/g3t1_3,,success
Status,1252,18212470176,/g3t1_1,,running
Status,1253,18212933644,/g3t1_1,,success
Status,1254,18216902761,/g3t1_2,,running
Status,1255,18217261032,/g3t1_2,,success
Status,1256,18220338815,/g3t1_3,,running
Status,1257,18220802957,/g3t1_3,,success
Status,1258,18254546260,/g4t1,,fail
Status,1259,18262434932,/g3t1_1,,running
Status,1260,18263089108,/g3t1_1,,success
Status,1261,18267330502,/g3t1_2,,running
Status,1262,18267398504,/g3t1_2,,success
Status,1263,18270409817,/g3t1_3,,running
Status,1264,18270770884,/g3t1_3,,success
Status,1265,18312525819,/g3t1_1,,running
Status,1266,18312998068,/g3t1_1,,success
Status,1267,18317019980,/g3t1_2,,running
Status,1268,18317409549,/g3t1_2,,success
Status,1269,18320510336,/g3t1_3,,running
Status,1270,18321012837,/g3t1_3,,success
Status,1271,18354596585,/g4t1,,fail
Status,1272,18362646572,/g3t1_1,,running
Status,1273,18362954776,/g3t1_1,,success
Status,1274,18367199143,/g3t1_2,,running
Status,1275,18367652419,/g3t1_2,,success
Status,1276,18370562244,/g3t1_3,,running
Status,1277,18371230885,/g3t1_3,,success
Status,1278,18413032262,/g3t1_1,,running
Status,1279,18413373665,/g3t1_1,,success
Status,1280,18417375794,/g3t1_2,,running
Status,1281,18417765506,/g3t1_2,,success
Status,1282,18420915519,/g3t1_3,,running
Status,1283,18420978692,/g3t1_3,,success
Status,1284,18454945271,/g4t1,,fail
Status,1285,18462990545,/g3t1_1,,running
Status,1286,18463195830,/g3t1_1,,success
Status,1287,18467530670,/g3t1_2,,running
Status,1288,18467591916,/g3t1_2,,success
Status,1289,18470875929,/g3t1_3,,running
Status,1290,18471230523,/g3t1_3,,success
Status,1291,18513183609,/g3t1_1,,running
Status,1292,18513613085,/g3t1_1,,success
Status,1293,18517511194,/g3t1_2,,running
Status,1294,18518094703,/g3t1_2,,success
Status,1295,18520956535,/g3t1_3,,running
Status,1296,18521398476,/g3t1_3,,success
Status,1297,18554894463,/g4t1,,fail
Status,1298,18563530379,/g3t1_1,,running
Status,1299,18563600191,/g3t1_1,,success
Status,1300,18567854606,/g3t1_2,,running
Status,1301,18567915943,/g3t1_2,,success
Status,1302,18571180131,/g3t1_3,,running
Status,1303,18571632914,/g3t1_3,,success
Status,1304,18613575593,/g3t1_1,,running
Status,1305,18613838805,/g3t1_1,,success
Status,1306,18617872201,/g3t1_2,,running
Status,1307,18618194672,/g3t1_2,,success
Status,1308,18621182767,/g3t1_3,,running
Status,1309,18621538977,/g3t1_3,,success
Status,1310,18655027721,/g4t1,,fail
Status,1311,18663536200,/g3t1_1,,running
Status,1312,18663986786,/g3t1_1,,success
Status,1313,18667911090,/g3t1_2,,running
Status,1314,18668378665,/g3t1_2,,success
Status,1315,18671381010,/g3t1_3,,running
Status,1316,18671974591,/g3t1_3,,success
Status,1317,18714143433,/g3t1_1,,running
Status,1318,18714398253,/g3t1_1,,success
Status,1319,18718056404,/g3t1_2,,running
Status,1320,18718448123,/g3t1_2,,success
Status,1321,18721457220,/g3t1_3,,running
Status,1322,18722054161,/g3t1_3,,success
Status,1323,18755321126,/g4t1,,fail
Status,1324,18763908340,/g3t1_1,,running
Status,1325,18764304405,/g3t1_1,,success
Status,1326,18768253147,/g3t1_2,,running
Status,1327,18768660081,/g3t1_2,,success
Status,1328,18771770622,/g3t1_3,,running
Status,1329,18772198569,/g3t1_3,,success
Status,1330,18814108084,/g3t1_1,,running
Status,1331,18814750222,/g3t1_1,,success
Status,1332,18818463105,/g3t1_2,,running
Status,1333,18818519922,/g3t1_2,,success
Status,1334,18821721479,/g3t1_3,,running
Status,1335,18822259902,/g3t1_3,,success
Status,1336,18855302076,/g4t1,,fail
Status,1337,18864502190,/g3t1_1,,running
Status,1338,18864570108,/g3t1_1,,success
Status,1339,18868341991,/g3t1_2,,running
Status,1340,18868675392,/g3t1_2,,success
Status,1341,18871971256,/g3t1_3,,running
Status,1342,18872261684,/g3t1_3,,success
Status,1343,18914256257,/g3t1_1,,running
Status,1344,18914592930,/g3t1_1,,success
Status,1345,18918507378,/g3t1_2,,running
Status,1346,18918980188,/g3t1_2,,success
Status,1347,18921979849,/g3t1_3,,running
Status,1348,18922636973,/g3t1_3,,success
Status,1349,18955384521,/g4t1,,fail
Status,1350,18964534428,/g3t1_1,,running
Status,1351,18964957845,/g3t1_1,,success
Status,1352,18968883015,/g3t1_2,,running
Status,1353,18968950394,/g3t1_2,,success
Status,1354,18972126485,/g3t1_3,,running
Status,1355,18972493910,/g3t1_3,,success
Status,1356,19014887412,/g3t1_1,,running
Status,1357,19015234046,/g3t1_1,,success
Status,1358,19019059840,/g3t1_2,,running
Status,1359,19019317377,/g3t1_2,,success
Status,1360,19022338770,/g3t1_3,,running
Status,1361,19022913742,/g3t1_3,,success
Status,1362,19055605616,/g4t1,,fail
Status,1363,19064897637,/g3t1_1,,running
Status,1364,19065229291,/g3t1_1,,success
Status,1365,19068796096,/g3t1_2,,running
Status,1366,19069210917,/g3t1_2,,success
Status,1367,19072346861,/g3t1_3,,running
Status,1368,19072642516,/g3t1_3,,success
Status,1369,19115018116,/g3t1_1,,running
Status,1370,19115863632,/g3t1_1,,success
Status,1371,19118995647,/g3t1_2,,running
Status,1372,19119369052,/g3t1_2,,success
Status,1373,19122557935,/g3t1_3,,running
Status,1374,19123023666,/g3t1_3,,success
Status,1375,19155691708,/g4t1,,fail
Status,1376,19165210435,/g3t1_1,,running
Status,1377,19165725609,/g3t1_1,,success
Status,1378,19169110021,/g3t1_2,,running
Status,1379,19169469219,/g3t1_2,,success
Status,1380,19173038632,/g3t1_3,,running
Status,1381,19173462185,/g3t1_3,,success
Status,1382,19215556850,/g3t1_1,,running
Status,1383,19215974634,/g3t1_1,,success
Status,1384,19219325893,/g3t1_2,,running
Status,1385,19219684081,/g3t1_2,,success
Status,1386,19222810393,/g3t1_3,,running
Status,1387,19223109109,/g3t1_3,,success
Status,1388,19255752493,/g4t1,,fail
Status,1389,19265584674,/g3t1_1,,running
Status,1390,19265980124,/g3t1_1,,success
Status,1391,19269271175,/g3t1_2,,running
Status,1392,19269547010,/g3t1_2,,success
Status,1393,19273048467,/g3t1_3,,running
Status,1394,19273409122,/g3t1_3,,success
Status,1395,19315500218,/g3t1_1,,running
Status,1396,19315707604,/g3t1_1,,success
Status,1397,19320033801,/g3t1_2,,running
Status,1398,19320122625,/g3t1_2,,success
Status,1399,19323329425,/g3t1_3,,running
Status,1400,19323407239,/g3t1_3,,success
Status,1401,19355716828,/g4t1,,fail
Status,1402,19365737486,/g3t1_1,,running
Status,1403,19366217071,/g3t1_1,,success
Status,1404,19369571911,/g3t1_2,,running
Status,1405,19370085252,/g3t1_2,,success
Status,1406,19373284983,/g3t1_3,,running
Status,1407,19373684224,/g3t1_3,,success
Status,1408,19416164276,/g3t1_1,,running
Status,1409,19416232699,/g3t1_1,,success
Status,1410,19419670272,/g3t1_2,,running
Status,1411,19420514157,/g3t1_2,,success
Status,1412,19423546488,/g3t1_3,,running
Status,1413,19423618904,/g3t1_3,,success
Status,1414,19455949338,/g4t1,,fail
Status,1415,19466202800,/g3t1_1,,running
Status,1416,19466294704,/g3t1_1,,success
Status,1417,19469814390,/g3t1_2,,running
Status,1418,19470416124,/g3t1_2,,success
Status,1419,19473500588,/g3t1_3,,running
Status,1420,19473900307,/g3t1_3,,success
Status,1421,19516192546,/g3t1_1,,running
Status,1422,19516795893,/g3t1_1,,success
Status,1423,19520084962,/g3t1_2,,running
Status,1424,19520492057,/g3t1_2,,success
Status,1425,19523359995,/g3t1_3,,running
Status,1426,19523970517,/g3t1_3,,success
Status,1427,19556021748,/g4t1,,fail
Status,1428,19566412703,/g3t1_1,,running
Status,1429,19566884854,/g3t1_1,,success
Status,1430,19570166834,/g3t1_2,,running
Status,1431,19570784849,/g3t1_2,,success
Status,1432,19573483014,/g3t1_3,,running
Status,1433,19573830011,/g3t1_3,,success
Status,1434,19616499607,/g3t1_1,,running
Status,1435,19616931718,/g3t1_1,,success
Status,1436,19620300959,/g3t1_2,,running
Status,1437,19620774322,/g3t1_2,,success
Status,1438,19623654388,/g3t1_3,,running
Status,1439,19624319805,/g3t1_3,,success
Status,1440,19656262206,/g4t1,,fail
Status,1441,19666673440,/g3t1_1,,running
Status,1442,19667093486,/g3t1_1,,success
Status,1443,19670455623,/g3t1_2,,running
Status,1444,19670921641,/g3t1_2,,success
Status,1445,19673756292,/g3t1_3,,running
Status,1446,19674083995,/g3t1_3,,success
Status,1447,19716933920,/g3t1_1,,running
Status,1448,19717501833,/g3t1_1,,success
Status,1449,19720618873,/g3t1_2,,running
Status,1450,19720955594,/g3t1_2,,success
Status,1451,19724250173,/g3t1_3,,running
Status,1452,19724304703,/g3t1_3,,success
Status,1453,19756336963,/g4t1,,fail
Status,1454,19767202541,/g3t1_1,,running
Status,1455,19767628056,/g3t1_1,,success
Status,1456,19770810991,/g3t1_2,,running
Status,1457,19771201202,/g3t1_2,,success
Status,1458,19774021728,/g3t1_3,,running
Status,1459,19774494824,/g3t1_3,,success
Status,1460,19817416960,/g3t1_1,,running
Status,1461,19817762289,/g3t1_1,,success
Status,1462,19820718337,/g3t1_2,,running
Status,1463,19821378529,/g3t1_2,,success
Status,1464,19824506271,/g3t1_3,,running
Status,1465,19824565703,/g3t1_3,,success
Status,1466,19856434889,/g4t1,,fail
Status,1467,19867595258,/g3t1_1,,running
Status,1468,19868135388,/g3t1_1,,success
Status,1469,19870949233,/g3t1_2,,running
Status,1470,19871301138,/g3t1_2,,success
Status,1471,19874242218,/g3t1_3,,running
Status,1472,19874839842,/g3t1_3,,success
Status,1473,19917855757,/g3t1_1,,running
Status,1474,19917925584,/g3t1_1,,success
Status,1475,19921190239,/g3t1_2,,running
Status,1476,19921631792,/g3t1_2,,success
Status,1477,19924593546,/g3t1_3,,running
Status,1478,19924655387,/g3t1_3,,success
Status,1479,19956576089,/g4t1,,fail
Status,1480,19967975217,/g3t1_1,,running
Status,1481,19968174529,/g3t1_1,,success
Status,1482,19971150523,/g3t1_2,,running
Status,1483,19971620944,/g3t1_2,,success
Status,1484,19974661629,/g3t1_3,,running
Status,1485,19975022835,/g3t1_3,,success
Status,1486,20017970807,/g3t1_1,,running
Status,1487,20018340824,/g3t1_1,,success
Status,1488,20021360875,/g3t1_2,,running
Status,1489,20021784480,/g3t1_2,,success
Status,1490,20024499215,/g3t1_3,,running
Status,1491,20024855090,/g3t1_3,,success
Status,1492,20056751540,/g4t1,,fail
Status,1493,20068247444,/g3t1_1,,running
Status,1494,20068537264,/g3t1_1,,success
Status,1495,20071520357,/g3t1_2,,running
Status,1496,20071945824,/g3t1_2,,success
Status,1497,20074841697,/g3t1_3,,running
Status,1498,20075375821,/g3t1_3,,success
Status,1499,20118435820,/g3t1_1,,running
Status,1500,20118836834,/g3t1_1,,success
Status,1501,20121850775,/g3t1_2,,running
Status,1502,20121923736,/g3t1_2,,success
Status,1503,20124804392,/g3t1_3,,running
Status,1504,20125187545,/g3t1_3,,success
Status,1505,20156875451,/g4t1,,fail
Status,1506,20168467530,/g3t1_1,,running
Status,1507,20168849493,/g3t1_1,,success
Status,1508,20171871353,/g3t1_2,,running
Status,1509,20172239954,/g3t1_2,,success
Status,1510,20174990874,/g3t1_3,,running
Status,1511,20175384991,/g3t1_3,,success
Status,1512,20218676571,/g3t1_1,,running
