
Status,1,3548287164,/g4t1,,init
Status,4,8562326132,/g3t1_1,,init
Status,5,8569995825,/g3t1_1,,init
Status,6,8570022824,/g3t1_1,,running
Status,7,8570088749,/g3t1_1,,success
Status,8,8619364279,/g3t1_1,,running
Status,9,8619382868,/g3t1_1,,success
Status,10,8669557474,/g3t1_1,,running
Status,11,8669580061,/g3t1_1,,success
Status,12,8719549120,/g3t1_1,,running
Status,13,8719614720,/g3t1_1,,success
Status,14,8769579761,/g3t1_1,,running
Status,15,8769801644,/g3t1_1,,success
Status,16,8819699858,/g3t1_1,,running
Status,17,8819826060,/g3t1_1,,success
Status,18,8864064623,/g3t1_2,,init
Status,20,8869701493,/g3t1_1,,running
Status,21,8869785633,/g3t1_1,,success
Status,22,8870985929,/g3t1_2,,init
Status,23,8871001516,/g3t1_2,,running
Status,24,8871529333,/g3t1_2,,success
Status,25,8919891049,/g3t1_1,,running
Status,26,8919918385,/g3t1_1,,success
Status,27,8921107027,/g3t1_2,,running
Status,28,8921160365,/g3t1_2,,success
Status,30,8964692042,/g3t1_3,,init
Status,31,8969922203,/g3t1_1,,running
Status,32,8969981403,/g3t1_1,,success
Status,33,8971129226,/g3t1_2,,running
Status,34,8971211529,/g3t1_2,,success
Status,35,8971478722,/g3t1_3,,init
Status,36,8971493618,/g3t1_3,,running
Status,37,8971906061,/g3t1_3,,success
Status,38,9020273623,/g3t1_1,,running
Status,39,9020461778,/g3t1_1,,success
Status,40,9021309519,/g3t1_2,,running
Status,41,9021473306,/g3t1_2,,success
Status,42,9021750145,/g3t1_3,,running
Status,43,9021971565,/g3t1_3,,success
Status,44,9071044293,/g3t1_1,,running
Status,45,9071793919,/g3t1_1,,success
Status,46,9072093891,/g3t1_2,,running
Status,47,9072498026,/g3t1_3,,running
Status,48,9072600527,/g3t1_2,,success
Status,49,9073328566,/g3t1_3,,success
Status,50,9121466165,/g3t1_1,,running
Status,51,9121535931,/g3t1_1,,success
Status,52,9122270659,/g3t1_2,,running
Status,53,9122802391,/g3t1_3,,running
Status,54,9123165477,/g3t1_2,,success
Status,55,9123244060,/g3t1_3,,success
Status,56,9168005129,/g4t1,,success
Status,57,9171059422,/g3t1_1,,running
Status,58,9171575998,/g3t1_1,,success
Status,59,9172207352,/g3t1_2,,running
Status,60,9172875761,/g3t1_3,,running
Status,61,9173319836,/g3t1_2,,success
Status,62,9173564961,/g3t1_3,,success
Status,63,9221336216,/g3t1_1,,running
Status,64,9221763023,/g3t1_1,,success
Status,65,9222475255,/g3t1_2,,running
Status,66,9222906822,/g3t1_2,,success
Status,67,9222997344,/g3t1_3,,running
Status,68,9223658786,/g3t1_3,,success
Status,69,9268084047,/g4t1,,success
Status,70,9271351998,/g3t1_1,,running
Status,71,9272294176,/g3t1_1,,success
Status,72,9272943716,/g3t1_2,,running
Status,73,9273130098,/g3t1_2,,success
Status,74,9273773535,/g3t1_3,,running
Status,75,9274102764,/g3t1_3,,success
Status,76,9321691592,/g3t1_1,,running
Status,77,9321836571,/g3t1_1,,success
Status,78,9322874983,/g3t1_2,,running
Status,79,9322958225,/g3t1_2,,success
Status,80,9323555841,/g3t1_3,,running
Status,81,9324052603,/g3t1_3,,success
Status,82,9368210912,/g4t1,,success
Status,83,9371733082,/g3t1_1,,running
Status,84,9372270242,/g3t1_1,,success
Status,85,9372963943,/g3t1_2,,running
Status,86,9373536048,/g3t1_2,,success
Status,87,9373987650,/g3t1_3,,running
Status,88,9374261583,/g3t1_3,,success
Status,89,9421776908,/g3t1_1,,running
Status,90,9422393350,/g3t1_1,,success
Status,91,9422812727,/g3t1_2,,running
Status,92,9423597320,/g3t1_2,,success
Status,93,9424154289,/g3t1_3,,running
Status,94,9424369267,/g3t1_3,,success
Status,95,9468368536,/g4t1,,fail
Status,96,9471862299,/g3t1_1,,running
Status,97,9472627894,/g3t1_1,,success
Status,98,9473059202,/g3t1_2,,running
Status,99,9473679618,/g3t1_2,,success
Status,100,9474195481,/g3t1_3,,running
Status,101,9474252942,/g3t1_3,,success
Status,102,9522020234,/g3t1_1,,running
Status,103,9522227489,/g3t1_1,,success
Status,104,9522899551,/g3t1_2,,running
Status,105,9523773309,/g3t1_2,,success
Status,106,9523886470,/g3t1_3,,running
Status,107,9524217537,/g3t1_3,,success
Status,108,9568422319,/g4t1,,fail
Status,109,9572164011,/g3t1_1,,running
Status,110,9572755118,/g3t1_1,,success
Status,111,9573388928,/g3t1_2,,running
Status,112,9573956432,/g3t1_2,,success
Status,113,9574038257,/g3t1_3,,running
Status,114,9574670793,/g3t1_3,,success
Status,115,9622336340,/g3t1_1,,running
Status,116,9622602953,/g3t1_1,,success
Status,117,9623241217,/g3t1_2,,running
Status,118,9623831880,/g3t1_2,,success
Status,119,9624140649,/g3t1_3,,running
Status,120,9624572752,/g3t1_3,,success
Status,121,9668758227,/g4t1,,fail
Status,122,9672539864,/g3t1_1,,running
Status,123,9672860528,/g3t1_1,,success
Status,124,9673178467,/g3t1_2,,running
Status,125,9673893943,/g3t1_2,,success
Status,126,9674263836,/g3t1_3,,running
Status,127,9674790560,/g3t1_3,,success
Status,128,9722651076,/g3t1_1,,running
Status,129,9723023006,/g3t1_1,,success
Status,130,9723339488,/g3t1_2,,running
Status,131,9724119326,/g3t1_2,,success
Status,132,9724846639,/g3t1_3,,running
Status,133,9724915703,/g3t1_3,,success
Status,134,9768992421,/g4t1,,fail
Status,135,9772920811,/g3t1_1,,running
Status,136,9773017684,/g3t1_1,,success
Status,137,9773553444,/g3t1_2,,running
Status,138,9774357677,/g3t1_2,,success
Status,139,9774491308,/g3t1_3,,running
Status,140,9775174766,/g3t1_3,,success
Status,141,9823191189,/g3t1_1,,running
Status,142,9823792844,/g3t1_2,,running
Status,143,9823937819,/g3t1_1,,success
Status,144,9824492195,/g3t1_2,,success
Status,145,9825235483,/g3t1_3,,running
Status,146,9825334703,/g3t1_3,,success
Status,147,9869083519,/g4t1,,fail
Status,148,9872964182,/g3t1_1,,running
Status,149,9873442666,/g3t1_1,,success
Status,150,9873821418,/g3t1_2,,running
Status,151,9875228118,/g3t1_2,,success
Status,152,9875323285,/g3t1_3,,running
Status,153,9875367177,/g3t1_3,,success
Status,154,9922992354,/g3t1_1,,running
Status,155,9923504764,/g3t1_1,,success
Status,156,9923607923,/g3t1_2,,running
Status,157,9923880951,/g3t1_2,,success
Status,158,9924454330,/g3t1_3,,running
Status,159,9924636406,/g3t1_3,,success
Status,160,9969272547,/g4t1,,fail
Status,161,9973195828,/g3t1_1,,running
Status,162,9974062417,/g3t1_1,,success
Status,163,9974228930,/g3t1_2,,running
Status,164,9974786055,/g3t1_2,,success
Status,165,9974940006,/g3t1_3,,running
Status,166,9975937074,/g3t1_3,,success
Status,167,10024231238,/g3t1_1,,running
Status,168,10024310852,/g3t1_1,,success
Status,169,10024350665,/g3t1_2,,running
Status,170,10024607807,/g3t1_2,,success
Status,171,10024890419,/g3t1_3,,running
Status,172,10025477830,/g3t1_3,,success
Status,173,10069350834,/g4t1,,fail
Status,174,10073567378,/g3t1_1,,running
Status,175,10074309079,/g3t1_2,,running
Status,176,10074644486,/g3t1_1,,success
Status,177,10075234328,/g3t1_2,,success
Status,178,10075310508,/g3t1_3,,running
Status,179,10075667997,/g3t1_3,,success
Status,180,10124056551,/g3t1_1,,running
Status,181,10124513130,/g3t1_2,,running
Status,182,10124591392,/g3t1_1,,success
Status,183,10125551565,/g3t1_2,,success
Status,184,10125626852,/g3t1_3,,running
Status,185,10126182215,/g3t1_3,,success
Status,186,10169460910,/g4t1,,fail
Status,187,10173874879,/g3t1_1,,running
Status,188,10174459980,/g3t1_1,,success
Status,189,10174615663,/g3t1_2,,running
Status,190,10175618138,/g3t1_2,,success
Status,191,10175669941,/g3t1_3,,running
Status,192,10175696760,/g3t1_3,,success
Status,193,10224371519,/g3t1_1,,running
Status,194,10224819503,/g3t1_1,,success
Status,195,10224891409,/g3t1_2,,running
Status,196,10225662710,/g3t1_2,,success
Status,197,10225815631,/g3t1_3,,running
Status,198,10226204227,/g3t1_3,,success
Status,199,10269601036,/g4t1,,fail
Status,200,10274046873,/g3t1_1,,running
Status,201,10274810013,/g3t1_2,,running
Status,202,10275134746,/g3t1_1,,success
Status,203,10275754004,/g3t1_2,,success
Status,204,10275834520,/g3t1_3,,running
Status,205,10276385607,/g3t1_3,,success
Status,206,10324570711,/g3t1_1,,running
Status,207,10325113716,/g3t1_2,,running
Status,208,10325478976,/g3t1_1,,success
Status,209,10325597165,/g3t1_2,,success
Status,210,10325966952,/g3t1_3,,running
Status,211,10326612016,/g3t1_3,,success
Status,212,10369547042,/g4t1,,fail
Status,213,10374310365,/g3t1_1,,running
Status,214,10374750113,/g3t1_1,,success
Status,215,10375365468,/g3t1_2,,running
Status,216,10376140740,/g3t1_3,,running
Status,217,10376913715,/g3t1_2,,success
Status,218,10377001703,/g3t1_3,,success
Status,219,10424935036,/g3t1_1,,running
Status,220,10425643953,/g3t1_2,,running
Status,221,10425739031,/g3t1_1,,success
Status,222,10425848437,/g3t1_2,,success
Status,223,10426232731,/g3t1_3,,running
Status,224,10426766181,/g3t1_3,,success
Status,225,10469812354,/g4t1,,fail
Status,226,10474603004,/g3t1_1,,running
Status,227,10475170278,/g3t1_1,,success
Status,228,10475242903,/g3t1_2,,running
Status,229,10476161945,/g3t1_2,,success
Status,230,10476333551,/g3t1_3,,running
Status,231,10476799118,/g3t1_3,,success
Status,232,10525415049,/g3t1_1,,running
Status,233,10525721164,/g3t1_2,,running
Status,234,10525869407,/g3t1_1,,success
Status,235,10525929328,/g3t1_2,,success
Status,236,10525967965,/g3t1_3,,running
Status,237,10526738356,/g3t1_3,,success
Status,238,10569970059,/g4t1,,fail
Status,239,10574811731,/g3t1_1,,running
Status,240,10575433312,/g3t1_1,,success
Status,241,10575518270,/g3t1_2,,running
Status,242,10576132775,/g3t1_2,,success
Status,243,10576602873,/g3t1_3,,running
Status,244,10577268491,/g3t1_3,,success
Status,245,10625238989,/g3t1_1,,running
Status,246,10625698200,/g3t1_2,,running
Status,247,10626468176,/g3t1_1,,success
Status,248,10626529281,/g3t1_2,,success
Status,249,10626635594,/g3t1_3,,running
Status,250,10627037930,/g3t1_3,,success
Status,251,10670070254,/g4t1,,fail
Status,252,10675040366,/g3t1_1,,running
Status,253,10675793875,/g3t1_1,,success
Status,254,10676234739,/g3t1_2,,running
Status,255,10676725602,/g3t1_2,,success
Status,256,10676802836,/g3t1_3,,running
Status,257,10677394149,/g3t1_3,,success
Status,258,10725634503,/g3t1_1,,running
Status,259,10726367113,/g3t1_1,,success
Status,260,10726447891,/g3t1_2,,running
Status,261,10726974016,/g3t1_2,,success
Status,262,10727027045,/g3t1_3,,running
Status,263,10727458685,/g3t1_3,,success
Status,264,10770288363,/g4t1,,fail
Status,265,10775355393,/g3t1_1,,running
Status,266,10775940738,/g3t1_1,,success
Status,267,10776137281,/g3t1_2,,running
Status,268,10777202857,/g3t1_2,,success
Status,269,10777352115,/g3t1_3,,running
Status,270,10777780926,/g3t1_3,,success
Status,271,10825834983,/g3t1_1,,running
Status,272,10826442263,/g3t1_1,,success
Status,273,10826587355,/g3t1_2,,running
Status,274,10827165126,/g3t1_2,,success
Status,275,10827515744,/g3t1_3,,running
Status,276,10827741871,/g3t1_3,,success
Status,277,10870302621,/g4t1,,fail
Status,278,10875788686,/g3t1_1,,running
Status,279,10877213599,/g3t1_2,,running
Status,280,10877304950,/g3t1_1,,success
Status,281,10877332751,/g3t1_2,,success
Status,282,10877358821,/g3t1_3,,running
Status,283,10877858950,/g3t1_3,,success
Status,284,10926455767,/g3t1_1,,running
Status,285,10926623816,/g3t1_2,,running
Status,286,10926662484,/g3t1_1,,success
Status,287,10927502247,/g3t1_2,,success
Status,288,10927590353,/g3t1_3,,running
Status,289,10927852915,/g3t1_3,,success
Status,290,10970419141,/g4t1,,fail
Status,291,10975918935,/g3t1_1,,running
Status,292,10976490990,/g3t1_2,,running
Status,293,10976626788,/g3t1_1,,success
Status,294,10977040506,/g3t1_2,,success
Status,295,10977463675,/g3t1_3,,running
Status,296,10978151709,/g3t1_3,,success
Status,297,11026577495,/g3t1_1,,running
Status,298,11026722525,/g3t1_2,,running
Status,299,11026784331,/g3t1_1,,success
Status,300,11027522063,/g3t1_2,,success
Status,301,11027600294,/g3t1_3,,running
Status,302,11028103318,/g3t1_3,,success
Status,303,11070660459,/g4t1,,fail
Status,304,11076708403,/g3t1_1,,running
Status,305,11076812633,/g3t1_2,,running
Status,306,11077332416,/g3t1_1,,success
Status,307,11078121496,/g3t1_2,,success
Status,308,11078200716,/g3t1_3,,running
Status,309,11078558054,/g3t1_3,,success
Status,310,11126907998,/g3t1_1,,running
Status,311,11127015505,/g3t1_2,,running
Status,312,11127682203,/g3t1_1,,success
Status,313,11127823127,/g3t1_2,,success
Status,314,11128477973,/g3t1_3,,running
Status,315,11128580131,/g3t1_3,,success
Status,316,11170956940,/g4t1,,fail
Status,317,11177278214,/g3t1_1,,running
Status,318,11177390764,/g3t1_2,,running
Status,319,11178215828,/g3t1_1,,success
Status,320,11178289995,/g3t1_2,,success
Status,321,11178342702,/g3t1_3,,running
Status,322,11179035096,/g3t1_3,,success
Status,323,11227274914,/g3t1_1,,running
Status,324,11227349239,/g3t1_2,,running
Status,325,11227389706,/g3t1_1,,success
Status,326,11227666462,/g3t1_2,,success
Status,327,11228409419,/g3t1_3,,running
Status,328,11228805082,/g3t1_3,,success
Status,329,11270876676,/g4t1,,fail
Status,330,11277724900,/g3t1_1,,running
Status,331,11277905934,/g3t1_2,,running
Status,332,11278044316,/g3t1_1,,success
Status,333,11278626555,/g3t1_3,,running
Status,334,11279098312,/g3t1_2,,success
Status,335,11279241969,/g3t1_3,,success
Status,336,11327763616,/g3t1_1,,running
Status,337,11327921529,/g3t1_2,,running
Status,338,11328173973,/g3t1_1,,success
Status,339,11328268708,/g3t1_2,,success
Status,340,11328365559,/g3t1_3,,running
Status,341,11328736046,/g3t1_3,,success
Status,342,11371120262,/g4t1,,fail
Status,343,11378136756,/g3t1_1,,running
Status,344,11378247394,/g3t1_2,,running
Status,345,11378651360,/g3t1_1,,success
Status,346,11378861687,/g3t1_2,,success
Status,347,11378999814,/g3t1_3,,running
Status,348,11379483450,/g3t1_3,,success
Status,349,11427164910,/g3t1_1,,running
Status,350,11427281962,/g3t1_2,,running
Status,351,11427355494,/g3t1_1,,success
Status,352,11427469660,/g3t1_2,,success
Status,353,11428081636,/g3t1_3,,running
Status,354,11428286615,/g3t1_3,,success
Status,355,11470354992,/g4t1,,fail
Status,356,11477185692,/g3t1_1,,running
Status,357,11477217071,/g3t1_1,,success
Status,358,11477311131,/g3t1_2,,running
Status,359,11477434714,/g3t1_2,,success
Status,360,11478039814,/g3t1_3,,running
Status,361,11478164403,/g3t1_3,,success
Status,362,11528723715,/g3t1_1,,running
Status,363,11528809119,/g3t1_2,,running
Status,364,11528945409,/g3t1_1,,success
Status,365,11528973962,/g3t1_2,,success
Status,366,11529005898,/g3t1_3,,running
Status,367,11529680736,/g3t1_3,,success
Status,368,11571368684,/g4t1,,fail
Status,369,11578631732,/g3t1_2,,running
Status,370,11578730189,/g3t1_1,,running
Status,371,11579445819,/g3t1_3,,running
Status,372,11579854525,/g3t1_2,,success
Status,373,11580125915,/g3t1_3,,success
Status,374,11580193615,/g3t1_1,,success
Status,375,11628949241,/g3t1_1,,running
Status,376,11629058485,/g3t1_2,,running
Status,377,11629187133,/g3t1_1,,success
Status,378,11629432560,/g3t1_3,,running
Status,379,11629501286,/g3t1_2,,success
Status,380,11630162425,/g3t1_3,,success
Status,381,11671445354,/g4t1,,fail
Status,382,11679687301,/g3t1_2,,running
Status,383,11679760778,/g3t1_1,,running
Status,384,11679853100,/g3t1_2,,success
Status,385,11679880134,/g3t1_1,,success
Status,386,11679902729,/g3t1_3,,running
Status,387,11680321570,/g3t1_3,,success
Status,388,11729952963,/g3t1_2,,running
Status,389,11730074061,/g3t1_2,,success
Status,390,11730105994,/g3t1_1,,running
Status,391,11730130041,/g3t1_1,,success
Status,392,11730154644,/g3t1_3,,running
Status,393,11730198465,/g3t1_3,,success
Status,394,11771469250,/g4t1,,fail
Status,395,11780398149,/g3t1_1,,running
Status,396,11780484418,/g3t1_2,,running
Status,397,11780528226,/g3t1_1,,success
Status,398,11780699548,/g3t1_3,,running
Status,399,11780732910,/g3t1_3,,success
Status,400,11780849199,/g3t1_2,,success
Status,401,11830281436,/g3t1_1,,running
Status,402,11830354238,/g3t1_2,,running
Status,403,11830381037,/g3t1_1,,success
Status,404,11830406729,/g3t1_2,,success
Status,405,11830430905,/g3t1_3,,running
Status,406,11830604994,/g3t1_3,,success
Status,407,11871731751,/g4t1,,fail
Status,408,11879463711,/g3t1_2,,running
Status,409,11879836946,/g3t1_1,,running
Status,410,11880458572,/g3t1_1,,success
Status,411,11880509275,/g3t1_3,,running
Status,412,11880535197,/g3t1_3,,success
Status,413,11880630554,/g3t1_2,,success
Status,414,11929920751,/g3t1_1,,running
Status,415,11929995056,/g3t1_2,,running
Status,416,11930037592,/g3t1_3,,running
Status,417,11930222194,/g3t1_2,,success
Status,418,11930335046,/g3t1_3,,success
Status,419,11930949729,/g3t1_1,,success
Status,420,11971792627,/g4t1,,fail
Status,421,11979758655,/g3t1_2,,running
Status,422,11979858206,/g3t1_1,,running
Status,423,11980490413,/g3t1_3,,running
Status,424,11980915969,/g3t1_1,,success
Status,425,11981029871,/g3t1_3,,success
Status,426,11981148755,/g3t1_2,,success
Status,427,12029927156,/g3t1_2,,running
Status,428,12030267790,/g3t1_1,,running
Status,429,12030337950,/g3t1_2,,success
Status,430,12030452080,/g3t1_3,,running
Status,431,12030491666,/g3t1_1,,success
Status,432,12030896300,/g3t1_3,,success
Status,433,12071853311,/g4t1,,fail
Status,434,12080124783,/g3t1_1,,running
Status,435,12080234445,/g3t1_2,,running
Status,436,12081020737,/g3t1_3,,running
Status,437,12081088806,/g3t1_1,,success
Status,438,12081234247,/g3t1_2,,success
Status,439,12081529502,/g3t1_3,,success
Status,440,12130693190,/g3t1_1,,running
Status,441,12130770646,/g3t1_2,,running
Status,442,12130955701,/g3t1_2,,success
Status,443,12131002446,/g3t1_3,,running
Status,444,12131073593,/g3t1_1,,success
Status,445,12131510919,/g3t1_3,,success
Status,446,12172168061,/g4t1,,fail
Status,447,12180350181,/g3t1_1,,running
Status,448,12181123339,/g3t1_2,,running
Status,449,12181232623,/g3t1_2,,success
Status,450,12181277740,/g3t1_3,,running
Status,451,12181317887,/g3t1_1,,success
Status,452,12181395207,/g3t1_3,,success
Status,453,12230477430,/g3t1_1,,running
Status,454,12230618322,/g3t1_2,,running
Status,455,12231289099,/g3t1_3,,running
Status,456,12231362429,/g3t1_1,,success
Status,457,12231491899,/g3t1_2,,success
Status,458,12231845739,/g3t1_3,,success
Status,459,12272350805,/g4t1,,fail
Status,460,12280655052,/g3t1_2,,running
Status,461,12280766474,/g3t1_1,,running
Status,462,12281460254,/g3t1_2,,success
Status,463,12281644813,/g3t1_3,,running
Status,464,12281733824,/g3t1_1,,success
Status,465,12281920190,/g3t1_3,,success
Status,466,12331499356,/g3t1_2,,running
Status,467,12331597017,/g3t1_1,,running
Status,468,12331643271,/g3t1_2,,success
Status,469,12331678635,/g3t1_1,,success
Status,470,12331716855,/g3t1_3,,running
Status,471,12332098115,/g3t1_3,,success
Status,472,12372199644,/g4t1,,fail
Status,473,12381317174,/g3t1_1,,running
Status,474,12381494017,/g3t1_2,,running
Status,475,12381533726,/g3t1_2,,success
Status,476,12381613601,/g3t1_1,,success
Status,477,12381646917,/g3t1_3,,running
Status,478,12382077445,/g3t1_3,,success
Status,479,12431176129,/g3t1_1,,running
Status,480,12431274936,/g3t1_2,,running
Status,481,12431743491,/g3t1_1,,success
Status,482,12431869111,/g3t1_2,,success
Status,483,12432347923,/g3t1_3,,running
Status,484,12432608418,/g3t1_3,,success
Status,485,12472299578,/g4t1,,fail
Status,486,12481369258,/g3t1_2,,running
Status,487,12481469035,/g3t1_1,,running
Status,488,12481989784,/g3t1_2,,success
Status,489,12482101863,/g3t1_1,,success
Status,490,12482235910,/g3t1_3,,running
Status,491,12482451444,/g3t1_3,,success
Status,492,12532099225,/g3t1_1,,running
Status,493,12532294616,/g3t1_2,,running
Status,494,12532359846,/g3t1_1,,success
Status,495,12532437748,/g3t1_3,,running
Status,496,12532468262,/g3t1_2,,success
Status,497,12532796176,/g3t1_3,,success
Status,498,12572604072,/g4t1,,fail
Status,499,12581487644,/g3t1_1,,running
Status,500,12582076214,/g3t1_2,,running
Status,501,12582167601,/g3t1_2,,success
Status,502,12582668026,/g3t1_1,,success
Status,503,12582810060,/g3t1_3,,running
Status,504,12582841857,/g3t1_3,,success
Status,505,12632636278,/g3t1_1,,running
Status,506,12632792124,/g3t1_2,,running
Status,507,12632842027,/g3t1_3,,running
Status,508,12632886833,/g3t1_1,,success
Status,509,12632920769,/g3t1_2,,success
Status,510,12632960212,/g3t1_3,,success
Status,511,12672557602,/g4t1,,fail
Status,512,12682065582,/g3t1_1,,running
Status,513,12682346446,/g3t1_2,,running
Status,514,12682562901,/g3t1_2,,success
Status,515,12682615697,/g3t1_3,,running
Status,516,12683016575,/g3t1_3,,success
Status,517,12683098678,/g3t1_1,,success
Status,518,12732324325,/g3t1_2,,running
Status,519,12733118639,/g3t1_1,,running
Status,520,12733171895,/g3t1_3,,running
Status,521,12733379553,/g3t1_1,,success
Status,522,12733414135,/g3t1_2,,success
Status,523,12733439178,/g3t1_3,,success
Status,524,12772056206,/g4t1,,fail
Status,525,12781592110,/g3t1_2,,running
Status,526,12781626479,/g3t1_1,,running
Status,527,12781797764,/g3t1_1,,success
Status,528,12781862242,/g3t1_2,,success
Status,529,12781922005,/g3t1_3,,running
Status,530,12782060570,/g3t1_3,,success
Status,531,12833037790,/g3t1_1,,running
Status,532,12833155199,/g3t1_2,,running
Status,533,12833187586,/g3t1_3,,running
Status,534,12833557228,/g3t1_3,,success
Status,535,12833643802,/g3t1_1,,success
Status,536,12833686880,/g3t1_2,,success
Status,537,12872733388,/g4t1,,fail
Status,538,12882825834,/g3t1_1,,running
Status,539,12883012111,/g3t1_2,,running
Status,540,12883162248,/g3t1_3,,running
Status,541,12883194225,/g3t1_2,,success
Status,542,12883389632,/g3t1_3,,success
Status,543,12883836717,/g3t1_1,,success
Status,544,12933274147,/g3t1_2,,running
Status,545,12933335706,/g3t1_1,,running
Status,546,12933412239,/g3t1_3,,running
Status,547,12933436056,/g3t1_2,,success
Status,548,12933461918,/g3t1_3,,success
Status,549,12933500145,/g3t1_1,,success
Status,550,12973106580,/g4t1,,fail
Status,551,12983135509,/g3t1_2,,running
Status,552,12983216051,/g3t1_1,,running
Status,553,12983342575,/g3t1_2,,success
Status,554,12983377878,/g3t1_3,,running
Status,555,12983474214,/g3t1_1,,success
Status,556,12983519618,/g3t1_3,,success
Status,557,13033253049,/g3t1_2,,running
Status,558,13033338098,/g3t1_1,,running
Status,559,13033375890,/g3t1_3,,running
Status,560,13033413709,/g3t1_2,,success
Status,561,13033546613,/g3t1_1,,success
Status,562,13033850515,/g3t1_3,,success
Status,563,13073295897,/g4t1,,fail
Status,564,13083626372,/g3t1_2,,running
Status,565,13083696495,/g3t1_1,,running
Status,566,13083721655,/g3t1_3,,running
Status,567,13083745898,/g3t1_3,,success
Status,568,13083788107,/g3t1_1,,success
Status,569,13083885478,/g3t1_2,,success
Status,570,13133935558,/g3t1_2,,running
Status,571,13134063814,/g3t1_1,,running
Status,572,13134174456,/g3t1_3,,running
Status,573,13134220107,/g3t1_1,,success
Status,574,13134262123,/g3t1_3,,success
Status,575,13134310457,/g3t1_2,,success
Status,576,13173277381,/g4t1,,fail
Status,577,13183520797,/g3t1_2,,running
Status,578,13183620261,/g3t1_1,,running
Status,579,13184305789,/g3t1_2,,success
Status,580,13184426611,/g3t1_1,,success
Status,581,13184525514,/g3t1_3,,running
Status,582,13184714476,/g3t1_3,,success
Status,583,13234094826,/g3t1_2,,running
Status,584,13234183730,/g3t1_1,,running
Status,585,13234552935,/g3t1_1,,success
Status,586,13234600323,/g3t1_2,,success
Status,587,13234672479,/g3t1_3,,running
Status,588,13234706156,/g3t1_3,,success
Status,589,13273405798,/g4t1,,fail
Status,590,13283919819,/g3t1_2,,running
Status,591,13284157415,/g3t1_1,,running
Status,592,13284250567,/g3t1_3,,running
Status,593,13284387072,/g3t1_2,,success
Status,594,13284749214,/g3t1_1,,success
Status,595,13284829682,/g3t1_3,,success
Status,596,13334031176,/g3t1_2,,running
Status,597,13334120295,/g3t1_1,,running
Status,598,13334163087,/g3t1_3,,running
Status,599,13334425901,/g3t1_2,,success
Status,600,13334853895,/g3t1_3,,success
Status,601,13334916484,/g3t1_1,,success
Status,602,13373542990,/g4t1,,fail
Status,603,13384268417,/g3t1_1,,running
Status,604,13384331394,/g3t1_2,,running
Status,605,13384356440,/g3t1_3,,running
Status,606,13384384709,/g3t1_2,,success
Status,607,13384566269,/g3t1_1,,success
Status,608,13384889133,/g3t1_3,,success
Status,609,13434215716,/g3t1_2,,running
Status,610,13434366222,/g3t1_1,,running
Status,611,13434458829,/g3t1_3,,running
Status,612,13434893701,/g3t1_3,,success
Status,613,13434970035,/g3t1_1,,success
Status,614,13435052327,/g3t1_2,,success
Status,615,13473635340,/g4t1,,fail
Status,616,13484594056,/g3t1_2,,running
Status,617,13484680013,/g3t1_1,,running
Status,618,13484795876,/g3t1_3,,running
Status,619,13484839688,/g3t1_2,,success
Status,620,13484880259,/g3t1_1,,success
Status,621,13485254558,/g3t1_3,,success
Status,622,13534896855,/g3t1_1,,running
Status,623,13534998840,/g3t1_2,,running
Status,624,13535058114,/g3t1_3,,running
Status,625,13535095762,/g3t1_3,,success
Status,626,13535151147,/g3t1_2,,success
Status,627,13535252764,/g3t1_1,,success
Status,628,13573619542,/g4t1,,fail
Status,629,13584648127,/g3t1_2,,running
Status,630,13584796502,/g3t1_1,,running
Status,631,13584852200,/g3t1_3,,running
Status,632,13584963456,/g3t1_3,,success
Status,633,13585274958,/g3t1_2,,success
Status,634,13585775588,/g3t1_1,,success
Status,635,13635215533,/g3t1_2,,running
Status,636,13635296974,/g3t1_1,,running
Status,637,13635535816,/g3t1_3,,running
Status,638,13635561306,/g3t1_1,,success
Status,639,13635587233,/g3t1_3,,success
Status,640,13635718661,/g3t1_2,,success
Status,641,13674052022,/g4t1,,fail
Status,642,13685109897,/g3t1_2,,running
Status,643,13685381481,/g3t1_1,,running
Status,644,13685431173,/g3t1_3,,running
Status,645,13685655314,/g3t1_1,,success
Status,646,13685706929,/g3t1_3,,success
Status,647,13685800776,/g3t1_2,,success
Status,648,13735299694,/g3t1_1,,running
Status,649,13735417998,/g3t1_2,,running
Status,650,13735478622,/g3t1_3,,running
Status,651,13735528993,/g3t1_1,,success
Status,652,13735574362,/g3t1_3,,success
Status,653,13736258242,/g3t1_2,,success
Status,654,13773856824,/g4t1,,fail
Status,655,13785987795,/g3t1_1,,running
Status,656,13786061763,/g3t1_2,,running
Status,657,13786231118,/g3t1_3,,running
Status,658,13786268246,/g3t1_1,,success
Status,659,13786297035,/g3t1_2,,success
Status,660,13786323329,/g3t1_3,,success
Status,661,13835643247,/g3t1_2,,running
Status,662,13835726445,/g3t1_3,,running
Status,663,13835775278,/g3t1_1,,running
Status,664,13835815441,/g3t1_2,,success
Status,665,13835851695,/g3t1_3,,success
Status,666,13836274915,/g3t1_1,,success
Status,667,13874158512,/g4t1,,fail
Status,668,13885702167,/g3t1_2,,running
Status,669,13885803246,/g3t1_3,,running
Status,670,13886259327,/g3t1_2,,success
Status,671,13886341329,/g3t1_3,,success
Status,672,13886377745,/g3t1_1,,running
Status,673,13886434739,/g3t1_1,,success
Status,674,13936169521,/g3t1_3,,running
Status,675,13936248788,/g3t1_2,,running
Status,676,13936486957,/g3t1_1,,running
Status,677,13936542053,/g3t1_1,,success
Status,678,13936566473,/g3t1_3,,success
Status,679,13936587452,/g3t1_2,,success
Status,680,13974317903,/g4t1,,fail
Status,681,13986124272,/g3t1_2,,running
Status,682,13986464137,/g3t1_3,,running
Status,683,13986542725,/g3t1_1,,running
Status,684,13986583086,/g3t1_3,,success
Status,685,13986611595,/g3t1_2,,success
Status,686,13987104445,/g3t1_1,,success
Status,687,14036400974,/g3t1_3,,running
Status,688,14036487558,/g3t1_2,,running
Status,689,14036711909,/g3t1_1,,running
Status,690,14037001788,/g3t1_3,,success
Status,691,14037099513,/g3t1_2,,success
Status,692,14037605378,/g3t1_1,,success
Status,693,14074416755,/g4t1,,fail
Status,694,14086802432,/g3t1_3,,running
Status,695,14086874257,/g3t1_1,,running
Status,696,14086898754,/g3t1_2,,running
Status,697,14086925437,/g3t1_2,,success
Status,698,14086949800,/g3t1_3,,success
Status,699,14087149468,/g3t1_1,,success
Status,700,14137112328,/g3t1_1,,running
Status,701,14137271807,/g3t1_2,,running
Status,702,14137317606,/g3t1_3,,running
Status,703,14137353808,/g3t1_3,,success
Status,704,14137571923,/g3t1_2,,success
Status,705,14137643265,/g3t1_1,,success
Status,706,14174618834,/g4t1,,fail
Status,707,14186568202,/g3t1_1,,running
Status,708,14186814265,/g3t1_2,,running
Status,709,14187241964,/g3t1_3,,running
Status,710,14187538833,/g3t1_3,,success
Status,711,14187583395,/g3t1_2,,success
Status,712,14188799591,/g3t1_1,,success
Status,713,14237000228,/g3t1_2,,running
Status,714,14237095800,/g3t1_3,,running
Status,715,14237145866,/g3t1_1,,running
Status,716,14237183328,/g3t1_1,,success
Status,717,14237349333,/g3t1_2,,success
Status,718,14237390381,/g3t1_3,,success
Status,719,14274769168,/g4t1,,fail
Status,720,14287401390,/g3t1_2,,running
Status,721,14287560671,/g3t1_3,,running
Status,722,14287609377,/g3t1_1,,running
Status,723,14287639957,/g3t1_2,,success
Status,724,14287668562,/g3t1_1,,success
Status,725,14287765056,/g3t1_3,,success
Status,726,14337701632,/g3t1_2,,running
Status,727,14337838561,/g3t1_3,,running
Status,728,14337953658,/g3t1_1,,running
Status,729,14337981793,/g3t1_3,,success
Status,730,14338418988,/g3t1_2,,success
Status,731,14338517554,/g3t1_1,,success
Status,732,14374668251,/g4t1,,fail
Status,733,14387830380,/g3t1_2,,running
Status,734,14387919210,/g3t1_3,,running
Status,735,14388223024,/g3t1_1,,running
Status,736,14388260428,/g3t1_1,,success
Status,737,14388286061,/g3t1_2,,success
Status,738,14389102243,/g3t1_3,,success
Status,739,14438266533,/g3t1_2,,running
Status,740,14438355821,/g3t1_1,,running
Status,741,14438413986,/g3t1_2,,success
Status,742,14438510302,/g3t1_3,,running
Status,743,14438658113,/g3t1_3,,success
Status,744,14438689109,/g3t1_1,,success
Status,745,14474687800,/g4t1,,fail
Status,746,14487877534,/g3t1_2,,running
Status,747,14488035581,/g3t1_3,,running
Status,748,14488461155,/g3t1_2,,success
Status,749,14488569633,/g3t1_1,,running
Status,750,14488618738,/g3t1_3,,success
Status,751,14488649031,/g3t1_1,,success
Status,752,14538397230,/g3t1_2,,running
Status,753,14538551939,/g3t1_3,,running
Status,754,14538634351,/g3t1_2,,success
Status,755,14538726120,/g3t1_1,,running
Status,756,14538763530,/g3t1_3,,success
Status,757,14539100959,/g3t1_1,,success
Status,758,14574851662,/g4t1,,fail
Status,759,14588850626,/g3t1_2,,running
Status,760,14588921911,/g3t1_3,,running
Status,761,14588946525,/g3t1_1,,running
Status,762,14588969809,/g3t1_2,,success
Status,763,14588994127,/g3t1_1,,success
Status,764,14589049415,/g3t1_3,,success
Status,765,14638513484,/g3t1_2,,running
Status,766,14638675467,/g3t1_1,,running
Status,767,14638731842,/g3t1_3,,running
Status,768,14639553480,/g3t1_3,,success
Status,769,14639652123,/g3t1_2,,success
Status,770,14639701956,/g3t1_1,,success
Status,771,14674914104,/g4t1,,fail
Status,772,14688260908,/g3t1_2,,running
Status,773,14688360825,/g3t1_3,,running
Status,774,14688611986,/g3t1_1,,running
Status,775,14688799778,/g3t1_3,,success
Status,776,14688907148,/g3t1_2,,success
Status,777,14689283139,/g3t1_1,,success
Status,778,14738367464,/g3t1_1,,running
Status,779,14738491244,/g3t1_3,,running
Status,780,14738640616,/g3t1_2,,running
Status,781,14739111703,/g3t1_3,,success
Status,782,14739194714,/g3t1_2,,success
Status,783,14739301251,/g3t1_1,,success
Status,784,14775013612,/g4t1,,fail
Status,785,14788773644,/g3t1_1,,running
Status,786,14788907335,/g3t1_3,,running
Status,787,14789057033,/g3t1_2,,running
Status,788,14789095059,/g3t1_1,,success
Status,789,14789551708,/g3t1_3,,success
Status,790,14789674454,/g3t1_2,,success
Status,791,14838829760,/g3t1_3,,running
Status,792,14838891189,/g3t1_1,,running
Status,793,14838919385,/g3t1_3,,success
Status,794,14838951292,/g3t1_2,,running
Status,795,14839126756,/g3t1_2,,success
Status,796,14839176448,/g3t1_1,,success
Status,797,14875056460,/g4t1,,fail
Status,798,14888941657,/g3t1_3,,running
Status,799,14889117374,/g3t1_1,,running
Status,800,14889173194,/g3t1_2,,running
Status,801,14889740498,/g3t1_2,,success
Status,802,14889940231,/g3t1_3,,success
Status,803,14890084595,/g3t1_1,,success
Status,804,14938888976,/g3t1_2,,running
Status,805,14939363831,/g3t1_3,,running
Status,806,14939493310,/g3t1_1,,running
Status,807,14939581545,/g3t1_2,,success
Status,808,14939623676,/g3t1_1,,success
Status,809,14939722244,/g3t1_3,,success
Status,810,14975440988,/g4t1,,fail
Status,811,14989622845,/g3t1_3,,running
Status,812,14989697789,/g3t1_1,,running
Status,813,14989885404,/g3t1_2,,running
Status,814,14989982376,/g3t1_1,,success
Status,815,14990094166,/g3t1_2,,success
Status,816,14990135065,/g3t1_3,,success
Status,817,15039331590,/g3t1_3,,running
Status,818,15039674613,/g3t1_2,,running
Status,819,15039714887,/g3t1_1,,running
Status,820,15040264479,/g3t1_2,,success
Status,821,15040339630,/g3t1_3,,success
Status,822,15040445346,/g3t1_1,,success
Status,823,15075495095,/g4t1,,fail
Status,824,15089259936,/g3t1_3,,running
Status,825,15089387304,/g3t1_2,,running
Status,826,15089522902,/g3t1_1,,running
Status,827,15090006945,/g3t1_1,,success
Status,828,15090110666,/g3t1_3,,success
Status,829,15090235680,/g3t1_2,,success
Status,830,15140185792,/g3t1_1,,running
Status,831,15140253713,/g3t1_2,,running
Status,832,15140458714,/g3t1_3,,running
Status,833,15140555006,/g3t1_2,,success
Status,834,15140585657,/g3t1_3,,success
Status,835,15140616187,/g3t1_1,,success
Status,836,15175642137,/g4t1,,fail
Status,837,15189601100,/g3t1_2,,running
Status,838,15189698831,/g3t1_1,,running
Status,839,15189744060,/g3t1_3,,running
Status,840,15189865690,/g3t1_1,,success
Status,841,15190227657,/g3t1_3,,success
Status,842,15190688626,/g3t1_2,,success
Status,843,15240061321,/g3t1_2,,running
Status,844,15240156398,/g3t1_1,,running
Status,845,15240479500,/g3t1_2,,success
Status,846,15240650550,/g3t1_3,,running
Status,847,15240685276,/g3t1_1,,success
Status,848,15240758939,/g3t1_3,,success
Status,849,15275774712,/g4t1,,fail
Status,850,15289895906,/g3t1_2,,running
Status,851,15290050823,/g3t1_3,,running
Status,852,15290400913,/g3t1_1,,running
Status,853,15290580381,/g3t1_1,,success
Status,854,15290609060,/g3t1_3,,success
Status,855,15290632849,/g3t1_2,,success
Status,856,15340487597,/g3t1_2,,running
Status,857,15341238549,/g3t1_3,,running
Status,858,15341356400,/g3t1_1,,running
Status,859,15341413210,/g3t1_2,,success
Status,860,15341451782,/g3t1_1,,success
Status,861,15341491687,/g3t1_3,,success
Status,862,15375826062,/g4t1,,fail
Status,863,15390825020,/g3t1_3,,running
Status,864,15390913766,/g3t1_2,,running
Status,865,15391086492,/g3t1_1,,running
Status,866,15391117135,/g3t1_3,,success
Status,867,15391219390,/g3t1_2,,success
Status,868,15391247469,/g3t1_1,,success
Status,869,15440790065,/g3t1_1,,running
Status,870,15440865605,/g3t1_3,,running
Status,871,15440895937,/g3t1_2,,running
Status,872,15440919956,/g3t1_3,,success
Status,873,15441012847,/g3t1_2,,success
Status,874,15441039735,/g3t1_1,,success
Status,875,15476182522,/g4t1,,fail
Status,876,15490814037,/g3t1_2,,running
Status,877,15490915920,/g3t1_3,,running
Status,878,15491205763,/g3t1_1,,running
Status,879,15491253113,/g3t1_1,,success
Status,880,15491292493,/g3t1_3,,success
Status,881,15491588105,/g3t1_2,,success
Status,882,15541206342,/g3t1_3,,running
Status,883,15541333932,/g3t1_1,,running
Status,884,15541462667,/g3t1_2,,running
Status,885,15541490209,/g3t1_3,,success
Status,886,15541522860,/g3t1_1,,success
Status,887,15541764995,/g3t1_2,,success
Status,888,15576343033,/g4t1,,fail
Status,889,15591037549,/g3t1_3,,running
Status,890,15591127338,/g3t1_1,,running
Status,891,15591242176,/g3t1_2,,running
Status,892,15591416731,/g3t1_1,,success
Status,893,15591448990,/g3t1_3,,success
Status,894,15591736992,/g3t1_2,,success
Status,895,15641518495,/g3t1_2,,running
Status,896,15641631099,/g3t1_1,,running
Status,897,15641741635,/g3t1_3,,running
Status,898,15641781967,/g3t1_1,,success
Status,899,15641823848,/g3t1_3,,success
Status,900,15642315324,/g3t1_2,,success
Status,901,15676542447,/g4t1,,fail
Status,902,15691261349,/g3t1_1,,running
Status,903,15691343723,/g3t1_3,,running
Status,904,15691393017,/g3t1_2,,running
Status,905,15691562053,/g3t1_2,,success
Status,906,15691597102,/g3t1_3,,success
Status,907,15691623421,/g3t1_1,,success
Status,908,15741859014,/g3t1_2,,running
Status,909,15741990133,/g3t1_3,,running
Status,910,15742119442,/g3t1_1,,running
Status,911,15742147371,/g3t1_2,,success
Status,912,15742172891,/g3t1_1,,success
Status,913,15742202824,/g3t1_3,,success
Status,914,15776699182,/g4t1,,fail
Status,915,15791782439,/g3t1_3,,running
Status,916,15791869271,/g3t1_1,,running
Status,917,15792015767,/g3t1_2,,running
Status,918,15792124928,/g3t1_2,,success
Status,919,15792174487,/g3t1_3,,success
Status,920,15792210846,/g3t1_1,,success
Status,921,15841979030,/g3t1_3,,running
Status,922,15842517947,/g3t1_2,,running
Status,923,15842593791,/g3t1_1,,running
Status,924,15842770361,/g3t1_3,,success
Status,925,15842969827,/g3t1_2,,success
Status,926,15843020261,/g3t1_1,,success
Status,927,15876931674,/g4t1,,fail
Status,928,15891847543,/g3t1_3,,running
Status,929,15891951174,/g3t1_2,,running
Status,930,15892151462,/g3t1_1,,running
Status,931,15892580006,/g3t1_1,,success
Status,932,15892667924,/g3t1_2,,success
Status,933,15892768826,/g3t1_3,,success
Status,934,15941979968,/g3t1_1,,running
Status,935,15942074185,/g3t1_3,,running
Status,936,15942269488,/g3t1_2,,running
Status,937,15942626647,/g3t1_2,,success
Status,938,15942727172,/g3t1_1,,success
Status,939,15942770844,/g3t1_3,,success
Status,940,15976896832,/g4t1,,fail
Status,941,15992409716,/g3t1_3,,running
Status,942,15992489776,/g3t1_1,,running
Status,943,15992516862,/g3t1_2,,running
Status,944,15992712800,/g3t1_3,,success
Status,945,15993027663,/g3t1_1,,success
Status,946,15993113846,/g3t1_2,,success
Status,947,16042097789,/g3t1_3,,running
Status,948,16042773955,/g3t1_1,,running
Status,949,16042898448,/g3t1_2,,running
Status,950,16042928446,/g3t1_1,,success
Status,951,16042951720,/g3t1_2,,success
Status,952,16042976508,/g3t1_3,,success
Status,953,16076993786,/g4t1,,fail
Status,954,16092627803,/g3t1_3,,running
Status,955,16092714065,/g3t1_1,,running
Status,956,16092923119,/g3t1_2,,running
Status,957,16092977472,/g3t1_1,,success
Status,958,16093015210,/g3t1_2,,success
Status,959,16093456849,/g3t1_3,,success
Status,960,16142791634,/g3t1_3,,running
Status,961,16142882031,/g3t1_2,,running
Status,962,16143150375,/g3t1_2,,success
Status,963,16143206005,/g3t1_1,,running
Status,964,16143281773,/g3t1_1,,success
Status,965,16143316543,/g3t1_3,,success
Status,966,16176716947,/g4t1,,fail
Status,967,16193036347,/g3t1_1,,running
Status,968,16193197665,/g3t1_2,,running
Status,969,16193243691,/g3t1_2,,success
Status,970,16193287714,/g3t1_3,,running
Status,971,16193322246,/g3t1_1,,success
Status,972,16193357955,/g3t1_3,,success
Status,973,16243321496,/g3t1_2,,running
Status,974,16243580736,/g3t1_1,,running
Status,975,16243651355,/g3t1_3,,running
Status,976,16243777374,/g3t1_2,,success
Status,977,16243827467,/g3t1_1,,success
Status,978,16244221032,/g3t1_3,,success
Status,979,16277250609,/g4t1,,fail
Status,980,16293285542,/g3t1_2,,running
Status,981,16293381794,/g3t1_1,,running
Status,982,16293424005,/g3t1_3,,running
Status,983,16293481375,/g3t1_2,,success
Status,984,16293734949,/g3t1_1,,success
Status,985,16294120464,/g3t1_3,,success
Status,986,16343839413,/g3t1_3,,running
Status,987,16344111707,/g3t1_1,,running
Status,988,16344198190,/g3t1_2,,running
Status,989,16344401209,/g3t1_2,,success
Status,990,16344497380,/g3t1_1,,success
Status,991,16344536918,/g3t1_3,,success
Status,992,16377531648,/g4t1,,fail
Status,993,16393435258,/g3t1_3,,running
Status,994,16393528397,/g3t1_1,,running
Status,995,16393586228,/g3t1_2,,running
Status,996,16393782841,/g3t1_3,,success
Status,997,16393823620,/g3t1_2,,success
Status,998,16393918976,/g3t1_1,,success
Status,999,16443659962,/g3t1_3,,running
Status,1000,16443761217,/g3t1_1,,running
Status,1001,16443861583,/g3t1_2,,running
Status,1002,16443901735,/g3t1_3,,success
Status,1003,16443939880,/g3t1_2,,success
Status,1004,16444315208,/g3t1_1,,success
Status,1005,16477621998,/g4t1,,fail
Status,1006,16493484744,/g3t1_3,,running
Status,1007,16493681019,/g3t1_2,,running
Status,1008,16493809913,/g3t1_1,,running
Status,1009,16494151094,/g3t1_1,,success
Status,1010,16494187338,/g3t1_2,,success
Status,1011,16494271416,/g3t1_3,,success
Status,1012,16543746037,/g3t1_2,,running
Status,1013,16543889823,/g3t1_1,,running
Status,1014,16544066498,/g3t1_3,,running
Status,1015,16544107114,/g3t1_2,,success
Status,1016,16544409767,/g3t1_3,,success
Status,1017,16544464402,/g3t1_1,,success
Status,1018,16577677756,/g4t1,,fail
Status,1019,16594068428,/g3t1_3,,running
Status,1020,16594161898,/g3t1_2,,running
Status,1021,16594358016,/g3t1_1,,running
Status,1022,16594459936,/g3t1_3,,success
Status,1023,16594483352,/g3t1_2,,success
Status,1024,16594507481,/g3t1_1,,success
Status,1025,16644580964,/g3t1_2,,running
Status,1026,16644685356,/g3t1_3,,running
Status,1027,16644775842,/g3t1_1,,running
Status,1028,16644945992,/g3t1_2,,success
Status,1029,16644988306,/g3t1_1,,success
Status,1030,16645016768,/g3t1_3,,success
Status,1031,16677584393,/g4t1,,fail
Status,1032,16694678248,/g3t1_2,,running
Status,1033,16694796295,/g3t1_1,,running
Status,1034,16694908942,/g3t1_3,,running
Status,1035,16694981314,/g3t1_2,,success
Status,1036,16695525810,/g3t1_1,,success
Status,1037,16695589085,/g3t1_3,,success
Status,1038,16744683968,/g3t1_1,,running
Status,1039,16744783290,/g3t1_3,,running
Status,1040,16744847233,/g3t1_2,,running
Status,1041,16745114390,/g3t1_1,,success
Status,1042,16745153479,/g3t1_3,,success
Status,1043,16745428189,/g3t1_2,,success
Status,1044,16777787262,/g4t1,,fail
Status,1045,16795304503,/g3t1_2,,running
Status,1046,16795525577,/g3t1_3,,running
Status,1047,16795598798,/g3t1_1,,running
Status,1048,16795636970,/g3t1_1,,success
Status,1049,16795706936,/g3t1_3,,success
Status,1050,16795907525,/g3t1_2,,success
Status,1051,16845238032,/g3t1_3,,running
Status,1052,16845324394,/g3t1_1,,running
Status,1053,16845452444,/g3t1_2,,running
Status,1054,16845494774,/g3t1_1,,success
Status,1055,16845529108,/g3t1_3,,success
Status,1056,16846081002,/g3t1_2,,success
Status,1057,16877889177,/g4t1,,fail
Status,1058,16895474286,/g3t1_2,,running
Status,1059,16895560866,/g3t1_1,,running
Status,1060,16895638210,/g3t1_3,,running
Status,1061,16895712376,/g3t1_1,,success
Status,1062,16895762186,/g3t1_3,,success
Status,1063,16895800852,/g3t1_2,,success
Status,1064,16945191953,/g3t1_3,,running
Status,1065,16945334117,/g3t1_1,,running
Status,1066,16945490068,/g3t1_2,,running
Status,1067,16946115602,/g3t1_2,,success
Status,1068,16946217119,/g3t1_3,,success
Status,1069,16946868613,/g3t1_1,,success
Status,1070,16977976262,/g4t1,,fail
Status,1071,16995908282,/g3t1_2,,running
Status,1072,16996104665,/g3t1_1,,running
Status,1073,16996142378,/g3t1_3,,running
Status,1074,16996254034,/g3t1_3,,success
Status,1075,16996294468,/g3t1_2,,success
Status,1076,16996374035,/g3t1_1,,success
Status,1077,17045858846,/g3t1_1,,running
Status,1078,17046026299,/g3t1_3,,running
Status,1079,17046106348,/g3t1_2,,running
Status,1080,17046225834,/g3t1_3,,success
Status,1081,17046275956,/g3t1_2,,success
Status,1082,17046656119,/g3t1_1,,success
Status,1083,17078074319,/g4t1,,fail
Status,1084,17096216965,/g3t1_2,,running
Status,1085,17096312229,/g3t1_3,,running
Status,1086,17096417004,/g3t1_1,,running
Status,1087,17096437884,/g3t1_2,,success
Status,1088,17096462003,/g3t1_1,,success
Status,1089,17096491772,/g3t1_3,,success
Status,1090,17145967330,/g3t1_2,,running
Status,1091,17146067529,/g3t1_1,,running
Status,1092,17146129666,/g3t1_3,,running
Status,1093,17146166478,/g3t1_1,,success
Status,1094,17146715428,/g3t1_2,,success
Status,1095,17146810331,/g3t1_3,,success
Status,1096,17178247606,/g4t1,,fail
Status,1097,17196209807,/g3t1_3,,running
Status,1098,17196314504,/g3t1_1,,running
Status,1099,17196415842,/g3t1_2,,running
Status,1100,17196454540,/g3t1_2,,success
Status,1101,17196835331,/g3t1_3,,success
Status,1102,17196972101,/g3t1_1,,success
Status,1103,17246549199,/g3t1_3,,running
Status,1104,17246777267,/g3t1_2,,running
Status,1105,17246897892,/g3t1_1,,running
Status,1106,17246954113,/g3t1_3,,success
Status,1107,17246996454,/g3t1_2,,success
Status,1108,17247102386,/g3t1_1,,success
Status,1109,17278229298,/g4t1,,fail
Status,1110,17296211676,/g3t1_3,,running
Status,1111,17296319913,/g3t1_2,,running
Status,1112,17296463685,/g3t1_1,,running
Status,1113,17297149256,/g3t1_2,,success
Status,1114,17297220506,/g3t1_3,,success
Status,1115,17297257299,/g3t1_1,,success
Status,1116,17346880658,/g3t1_3,,running
Status,1117,17346961987,/g3t1_2,,running
Status,1118,17347085014,/g3t1_1,,running
Status,1119,17347110101,/g3t1_2,,success
Status,1120,17347134319,/g3t1_1,,success
Status,1121,17347192057,/g3t1_3,,success
Status,1122,17378526339,/g4t1,,fail
Status,1123,17396751151,/g3t1_3,,running
Status,1124,17396823872,/g3t1_2,,running
Status,1125,17396848857,/g3t1_1,,running
Status,1126,17397014961,/g3t1_2,,success
Status,1127,17397067925,/g3t1_1,,success
Status,1128,17397092666,/g3t1_3,,success
Status,1129,17446551310,/g3t1_3,,running
Status,1130,17446644574,/g3t1_2,,running
Status,1131,17447347797,/g3t1_1,,running
Status,1132,17447433415,/g3t1_3,,success
Status,1133,17447848012,/g3t1_1,,success
Status,1134,17447937850,/g3t1_2,,success
Status,1135,17478563512,/g4t1,,fail
Status,1136,17496935141,/g3t1_2,,running
Status,1137,17497038995,/g3t1_3,,running
Status,1138,17497231469,/g3t1_3,,success
Status,1139,17497294386,/g3t1_1,,running
Status,1140,17497406288,/g3t1_2,,success
Status,1141,17497632461,/g3t1_1,,success
Status,1142,17546616788,/g3t1_3,,running
Status,1143,17546712526,/g3t1_2,,running
Status,1144,17546841461,/g3t1_1,,running
Status,1145,17547521303,/g3t1_3,,success
Status,1146,17547583008,/g3t1_1,,success
Status,1147,17547722716,/g3t1_2,,success
Status,1148,17578810432,/g4t1,,fail
Status,1149,17597089284,/g3t1_3,,running
Status,1150,17597158541,/g3t1_1,,running
Status,1151,17597185046,/g3t1_2,,running
Status,1152,17597211820,/g3t1_2,,success
Status,1153,17597398696,/g3t1_1,,success
Status,1154,17597451518,/g3t1_3,,success
Status,1155,17647370537,/g3t1_1,,running
Status,1156,17647460546,/g3t1_2,,running
Status,1157,17647492968,/g3t1_3,,running
Status,1158,17647533571,/g3t1_2,,success
Status,1159,17647707152,/g3t1_3,,success
Status,1160,17647738531,/g3t1_1,,success
Status,1161,17678794994,/g4t1,,fail
Status,1162,17697226210,/g3t1_1,,running
Status,1163,17697322883,/g3t1_3,,running
Status,1164,17697369250,/g3t1_2,,running
Status,1165,17697588496,/g3t1_3,,success
Status,1166,17697954012,/g3t1_1,,success
Status,1167,17698048299,/g3t1_2,,success
Status,1168,17748306799,/g3t1_2,,running
Status,1169,17748380599,/g3t1_2,,success
Status,1170,17748581418,/g3t1_3,,running
Status,1171,17748657996,/g3t1_1,,running
Status,1172,17748685573,/g3t1_1,,success
Status,1173,17748714835,/g3t1_3,,success
Status,1174,17778931690,/g4t1,,fail
Status,1175,17797688206,/g3t1_3,,running
Status,1176,17797769296,/g3t1_2,,running
Status,1177,17797815393,/g3t1_1,,running
Status,1178,17797989959,/g3t1_1,,success
Status,1179,17798053948,/g3t1_2,,success
Status,1180,17798081774,/g3t1_3,,success
Status,1181,17848068847,/g3t1_2,,running
Status,1182,17848247576,/g3t1_1,,running
Status,1183,17848298902,/g3t1_3,,running
Status,1184,17848754488,/g3t1_2,,success
Status,1185,17848811455,/g3t1_1,,success
Status,1186,17849478165,/g3t1_3,,success
Status,1187,17879053258,/g4t1,,fail
Status,1188,17897917432,/g3t1_3,,running
Status,1189,17898151615,/g3t1_2,,running
Status,1190,17898330167,/g3t1_1,,running
Status,1191,17898401655,/g3t1_1,,success
Status,1192,17898866137,/g3t1_3,,success
Status,1193,17898953357,/g3t1_2,,success
Status,1194,17948168899,/g3t1_3,,running
Status,1195,17948342760,/g3t1_2,,running
Status,1196,17948503764,/g3t1_1,,running
Status,1197,17948895754,/g3t1_2,,success
Status,1198,17948979118,/g3t1_3,,success
Status,1199,17949084814,/g3t1_1,,success
Status,1200,17979290428,/g4t1,,fail
Status,1201,17998688943,/g3t1_2,,running
Status,1202,17998781516,/g3t1_3,,running
Status,1203,17998822129,/g3t1_1,,running
Status,1204,17998850437,/g3t1_3,,success
Status,1205,17998872692,/g3t1_1,,success
Status,1206,17998910594,/g3t1_2,,success
Status,1207,18048778507,/g3t1_3,,running
Status,1208,18048853761,/g3t1_1,,running
Status,1209,18049027354,/g3t1_2,,running
Status,1210,18049080408,/g3t1_2,,success
Status,1211,18049203605,/g3t1_3,,success
Status,1212,18049225654,/g3t1_1,,success
Status,1213,18079426996,/g4t1,,fail
Status,1214,18098243014,/g3t1_2,,running
Status,1215,18098332343,/g3t1_3,,running
Status,1216,18098369518,/g3t1_1,,running
Status,1217,18098838876,/g3t1_2,,success
Status,1218,18098898496,/g3t1_1,,success
Status,1219,18099139361,/g3t1_3,,success
Status,1220,18148899115,/g3t1_2,,running
Status,1221,18149061120,/g3t1_3,,running
Status,1222,18149204724,/g3t1_1,,running
Status,1223,18149672030,/g3t1_2,,success
Status,1224,18149828462,/g3t1_3,,success
Status,1225,18150041662,/g3t1_1,,success
Status,1226,18179507937,/g4t1,,fail
Status,1227,18198688867,/g3t1_3,,running
Status,1228,18198768881,/g3t1_2,,running
Status,1229,18198914617,/g3t1_1,,running
Status,1230,18198959275,/g3t1_3,,success
Status,1231,18199364206,/g3t1_1,,success
Status,1232,18200272884,/g3t1_2,,success
Status,1233,18249480105,/g3t1_2,,running
Status,1234,18249585833,/g3t1_3,,running
Status,1235,18249626139,/g3t1_1,,running
Status,1236,18249777301,/g3t1_1,,success
Status,1237,18249815065,/g3t1_3,,success
Status,1238,18249841696,/g3t1_2,,success
Status,1239,18279717349,/g4t1,,fail
Status,1240,18298872544,/g3t1_1,,running
Status,1241,18298963961,/g3t1_3,,running
Status,1242,18299096004,/g3t1_2,,running
Status,1243,18299903313,/g3t1_3,,success
Status,1244,18300084302,/g3t1_2,,success
Status,1245,18300325786,/g3t1_1,,success
Status,1246,18349258015,/g3t1_1,,running
Status,1247,18349334531,/g3t1_2,,running
Status,1248,18349456280,/g3t1_3,,running
Status,1249,18349499227,/g3t1_3,,success
Status,1250,18349558969,/g3t1_2,,success
Status,1251,18349816791,/g3t1_1,,success
Status,1252,18379768810,/g4t1,,fail
Status,1253,18399467058,/g3t1_2,,running
Status,1254,18399535263,/g3t1_3,,running
Status,1255,18399729573,/g3t1_1,,running
Status,1256,18399774185,/g3t1_2,,success
Status,1257,18399811839,/g3t1_1,,success
Status,1258,18399907290,/g3t1_3,,success
Status,1259,18448372735,/g3t1_1,,running
Status,1260,18448405626,/g3t1_2,,running
Status,1261,18448669491,/g3t1_2,,success
Status,1262,18448689129,/g3t1_1,,success
Status,1263,18448718484,/g3t1_3,,running
Status,1264,18448726768,/g3t1_3,,success
Status,1265,18479188799,/g4t1,,fail
Status,1266,18498675110,/g3t1_1,,running
Status,1267,18498713868,/g3t1_1,,success
Status,1268,18498797438,/g3t1_2,,running
Status,1269,18498807213,/g3t1_3,,running
Status,1270,18498816772,/g3t1_2,,success
Status,1271,18498824552,/g3t1_3,,success
Status,1272,18548812111,/g3t1_1,,running
Status,1273,18548847235,/g3t1_3,,running
Status,1274,18548870620,/g3t1_2,,running
Status,1275,18548933153,/g3t1_1,,success
Status,1276,18549124970,/g3t1_2,,success
Status,1277,18549172201,/g3t1_3,,success
Status,1278,18579209136,/g4t1,,fail
Status,1279,18599735175,/g3t1_3,,running
Status,1280,18599865624,/g3t1_1,,running
Status,1281,18599914064,/g3t1_2,,running
Status,1282,18600052793,/g3t1_1,,success
Status,1283,18600092512,/g3t1_2,,success
Status,1284,18600122219,/g3t1_3,,success
Status,1285,18649098063,/g3t1_1,,running
Status,1286,18649147735,/g3t1_2,,running
Status,1287,18649167615,/g3t1_3,,running
Status,1288,18649188626,/g3t1_1,,success
Status,1289,18649206625,/g3t1_2,,success
Status,1290,18649830752,/g3t1_3,,success
Status,1291,18679599424,/g4t1,,fail
Status,1292,18699260126,/g3t1_3,,running
Status,1293,18699347338,/g3t1_2,,running
Status,1294,18699369222,/g3t1_1,,running
Status,1295,18699406467,/g3t1_3,,success
Status,1296,18699618409,/g3t1_2,,success
Status,1297,18699653272,/g3t1_1,,success
Status,1298,18750066491,/g3t1_2,,running
Status,1299,18750113746,/g3t1_1,,running
Status,1300,18750200109,/g3t1_3,,running
Status,1301,18750229125,/g3t1_2,,success
Status,1302,18750285026,/g3t1_3,,success
Status,1303,18750424388,/g3t1_1,,success
Status,1304,18780272868,/g4t1,,fail
Status,1305,18800712419,/g3t1_2,,running
Status,1306,18800818612,/g3t1_3,,running
Status,1307,18800848980,/g3t1_1,,running
Status,1308,18800890533,/g3t1_1,,success
Status,1309,18800925018,/g3t1_3,,success
Status,1310,18800985509,/g3t1_2,,success
Status,1311,18850255501,/g3t1_1,,running
Status,1312,18850376627,/g3t1_3,,running
Status,1313,18850522663,/g3t1_2,,running
Status,1314,18851659492,/g3t1_3,,success
Status,1315,18852325356,/g3t1_2,,success
Status,1316,18852392488,/g3t1_1,,success
Status,1317,18880311493,/g4t1,,fail
Status,1318,18900240251,/g3t1_3,,running
Status,1319,18900377359,/g3t1_2,,running
Status,1320,18900542594,/g3t1_1,,running
Status,1321,18900997540,/g3t1_2,,success
Status,1322,18901133327,/g3t1_3,,success
Status,1323,18902557656,/g3t1_1,,success
Status,1324,18950896796,/g3t1_2,,running
Status,1325,18950996450,/g3t1_3,,running
Status,1326,18951028248,/g3t1_1,,running
Status,1327,18951463304,/g3t1_3,,success
Status,1328,18951586930,/g3t1_2,,success
Status,1329,18951770413,/g3t1_1,,success
Status,1330,18980652632,/g4t1,,fail
Status,1331,19000763240,/g3t1_3,,running
Status,1332,19000869403,/g3t1_1,,running
Status,1333,19001453141,/g3t1_3,,success
Status,1334,19001507595,/g3t1_2,,running
Status,1335,19001534911,/g3t1_2,,success
Status,1336,19001572716,/g3t1_1,,success
Status,1337,19050808235,/g3t1_1,,running
Status,1338,19050899604,/g3t1_3,,running
Status,1339,19051006795,/g3t1_2,,running
Status,1340,19051183175,/g3t1_2,,success
Status,1341,19051214810,/g3t1_1,,success
Status,1342,19051784060,/g3t1_3,,success
Status,1343,19080604396,/g4t1,,fail
Status,1344,19101036079,/g3t1_2,,running
Status,1345,19101125748,/g3t1_3,,running
Status,1346,19101220805,/g3t1_1,,running
Status,1347,19101457178,/g3t1_1,,success
Status,1348,19101511828,/g3t1_2,,success
Status,1349,19101544354,/g3t1_3,,success
Status,1350,19151488604,/g3t1_2,,running
Status,1351,19151586948,/g3t1_1,,running
Status,1352,19151729481,/g3t1_3,,running
Status,1353,19152216820,/g3t1_3,,success
Status,1354,19152541169,/g3t1_1,,success
Status,1355,19152611892,/g3t1_2,,success
Status,1356,19180706334,/g4t1,,fail
Status,1357,19201647969,/g3t1_1,,running
Status,1358,19201768246,/g3t1_3,,running
Status,1359,19201922530,/g3t1_2,,running
Status,1360,19201976358,/g3t1_1,,success
Status,1361,19202570666,/g3t1_3,,success
Status,1362,19202658549,/g3t1_2,,success
Status,1363,19251788899,/g3t1_1,,running
Status,1364,19251853524,/g3t1_3,,running
Status,1365,19251924870,/g3t1_2,,running
Status,1366,19252034802,/g3t1_1,,success
Status,1367,19252074414,/g3t1_2,,success
Status,1368,19252104485,/g3t1_3,,success
Status,1369,19281013784,/g4t1,,fail
Status,1370,19301757553,/g3t1_1,,running
Status,1371,19301835499,/g3t1_3,,running
Status,1372,19302007171,/g3t1_2,,running
Status,1373,19302036583,/g3t1_2,,success
Status,1374,19302102352,/g3t1_3,,success
Status,1375,19302124037,/g3t1_1,,success
Status,1376,19351564880,/g3t1_1,,running
Status,1377,19352117396,/g3t1_3,,running
Status,1378,19352206253,/g3t1_2,,running
Status,1379,19352247348,/g3t1_1,,success
Status,1380,19352706169,/g3t1_3,,success
Status,1381,19352777413,/g3t1_2,,success
Status,1382,19381056093,/g4t1,,fail
Status,1383,19402457361,/g3t1_1,,running
Status,1384,19402543386,/g3t1_3,,running
Status,1385,19402568349,/g3t1_1,,success
Status,1386,19402751230,/g3t1_2,,running
Status,1387,19402780267,/g3t1_2,,success
Status,1388,19402802259,/g3t1_3,,success
Status,1389,19451912746,/g3t1_1,,running
Status,1390,19452134787,/g3t1_3,,running
Status,1391,19452176767,/g3t1_2,,running
Status,1392,19452260637,/g3t1_1,,success
Status,1393,19452632686,/g3t1_2,,success
Status,1394,19452709177,/g3t1_3,,success
Status,1395,19481296219,/g4t1,,fail
Status,1396,19502214044,/g3t1_1,,running
Status,1397,19502287148,/g3t1_3,,running
Status,1398,19502332217,/g3t1_2,,running
Status,1399,19502553348,/g3t1_1,,success
Status,1400,19502607542,/g3t1_2,,success
Status,1401,19502850600,/g3t1_3,,success
Status,1402,19552210189,/g3t1_1,,running
Status,1403,19552495547,/g3t1_3,,running
Status,1404,19552900648,/g3t1_3,,success
Status,1405,19553003489,/g3t1_2,,running
Status,1406,19553105521,/g3t1_2,,success
Status,1407,19553146426,/g3t1_1,,success
Status,1408,19581429287,/g4t1,,fail
Status,1409,19602532061,/g3t1_1,,running
Status,1410,19602749179,/g3t1_3,,running
Status,1411,19602930978,/g3t1_2,,running
Status,1412,19602963155,/g3t1_2,,success
Status,1413,19602989473,/g3t1_3,,success
Status,1414,19603012372,/g3t1_1,,success
Status,1415,19652431651,/g3t1_1,,running
Status,1416,19652731640,/g3t1_3,,running
Status,1417,19652783853,/g3t1_2,,running
Status,1418,19653170526,/g3t1_1,,success
Status,1419,19653251997,/g3t1_3,,success
Status,1420,19653293874,/g3t1_2,,success
Status,1421,19681491162,/g4t1,,fail
Status,1422,19702448422,/g3t1_1,,running
Status,1423,19702632957,/g3t1_3,,running
Status,1424,19702825143,/g3t1_2,,running
Status,1425,19703200468,/g3t1_3,,success
Status,1426,19703290008,/g3t1_2,,success
Status,1427,19703714769,/g3t1_1,,success
Status,1428,19752753275,/g3t1_1,,running
Status,1429,19752932496,/g3t1_3,,running
Status,1430,19753276719,/g3t1_3,,success
Status,1431,19753721240,/g3t1_2,,running
Status,1432,19753903335,/g3t1_1,,success
Status,1433,19754059629,/g3t1_2,,success
Status,1434,19781475400,/g4t1,,fail
Status,1435,19802815613,/g3t1_1,,running
Status,1436,19802918185,/g3t1_3,,running
Status,1437,19803387600,/g3t1_2,,running
Status,1438,19803530383,/g3t1_1,,success
Status,1439,19803577334,/g3t1_2,,success
Status,1440,19803615082,/g3t1_3,,success
Status,1441,19853128952,/g3t1_1,,running
Status,1442,19853225635,/g3t1_3,,running
Status,1443,19853398642,/g3t1_2,,running
Status,1444,19853833451,/g3t1_1,,success
Status,1445,19853926729,/g3t1_3,,success
Status,1446,19853969276,/g3t1_2,,success
Status,1447,19881663498,/g4t1,,fail
Status,1448,19903759315,/g3t1_3,,running
Status,1449,19903837154,/g3t1_1,,running
Status,1450,19903933781,/g3t1_3,,success
Status,1451,19904015979,/g3t1_1,,success
Status,1452,19904044384,/g3t1_2,,running
Status,1453,19904069379,/g3t1_2,,success
Status,1454,19953713035,/g3t1_1,,running
Status,1455,19953806345,/g3t1_3,,running
Status,1456,19953925968,/g3t1_2,,running
Status,1457,19953951770,/g3t1_2,,success
Status,1458,19954226350,/g3t1_1,,success
Status,1459,19954405790,/g3t1_3,,success
Status,1460,19981757722,/g4t1,,fail
Status,1461,20003779145,/g3t1_1,,running
Status,1462,20003865446,/g3t1_3,,running
Status,1463,20004028329,/g3t1_2,,running
Status,1464,20004204511,/g3t1_1,,success
Status,1465,20004278191,/g3t1_3,,success
Status,1466,20004383310,/g3t1_2,,success
Status,1467,20054109724,/g3t1_2,,running
Status,1468,20054186672,/g3t1_3,,running
Status,1469,20054216313,/g3t1_1,,running
Status,1470,20054388927,/g3t1_1,,success
Status,1471,20054695346,/g3t1_2,,success
Status,1472,20054770471,/g3t1_3,,success
Status,1473,20081921862,/g4t1,,fail
Status,1474,20104397894,/g3t1_2,,running
Status,1475,20104537317,/g3t1_3,,running
Status,1476,20104570012,/g3t1_2,,success
Status,1477,20104734543,/g3t1_1,,running
Status,1478,20104768871,/g3t1_3,,success
Status,1479,20104851236,/g3t1_1,,success
Status,1480,20154680550,/g3t1_2,,running
Status,1481,20154784420,/g3t1_3,,running
Status,1482,20154841268,/g3t1_2,,success
Status,1483,20154968443,/g3t1_3,,success
Status,1484,20155037364,/g3t1_1,,running
Status,1485,20155070119,/g3t1_1,,success
Status,1486,20181983936,/g4t1,,fail
Status,1487,20204451472,/g3t1_3,,running
Status,1488,20204638666,/g3t1_2,,running
Status,1489,20204814562,/g3t1_1,,running
Status,1490,20204864359,/g3t1_2,,success
Status,1491,20204900328,/g3t1_3,,success
Status,1492,20205149784,/g3t1_1,,success
Status,1493,20254477139,/g3t1_3,,running
Status,1494,20254570208,/g3t1_2,,running
Status,1495,20254695765,/g3t1_1,,running
Status,1496,20255726905,/g3t1_2,,success
Status,1497,20255830279,/g3t1_1,,success
Status,1498,20255950369,/g3t1_3,,success
Status,1499,20282186771,/g4t1,,fail
Status,1500,20304770933,/g3t1_3,,running
Status,1501,20304836501,/g3t1_2,,running
Status,1502,20305013433,/g3t1_1,,running
Status,1503,20305082284,/g3t1_1,,success
Status,1504,20305170331,/g3t1_2,,success
Status,1505,20305212984,/g3t1_3,,success
Status,1506,20354863731,/g3t1_3,,running
Status,1507,20355070004,/g3t1_2,,running
Status,1508,20355271025,/g3t1_1,,running
Status,1509,20355314198,/g3t1_3,,success
Status,1510,20355341615,/g3t1_2,,success
Status,1511,20355411619,/g3t1_1,,success
Status,1512,20382204894,/g4t1,,fail
