
Status,2,3217297481,/g4t1,,init
Status,3,8434547592,/g3t1_1,,init
Status,5,8444083051,/g3t1_1,,init
Status,6,8444100915,/g3t1_1,,running
Status,7,8444522606,/g3t1_1,,success
Status,8,8494181915,/g3t1_1,,running
Status,9,8494350795,/g3t1_1,,success
Status,10,8537353946,/g3t1_2,,init
Status,12,8544228680,/g3t1_1,,running
Status,13,8544243036,/g3t1_1,,success
Status,14,8544564769,/g3t1_2,,init
Status,15,8544575223,/g3t1_2,,running
Status,16,8545034007,/g3t1_2,,success
Status,17,8594349490,/g3t1_1,,running
Status,18,8594365441,/g3t1_1,,success
Status,19,8594763961,/g3t1_2,,running
Status,20,8594825472,/g3t1_2,,success
Status,22,8637903521,/g3t1_3,,init
Status,23,8644231245,/g3t1_1,,running
Status,24,8644359801,/g3t1_1,,success
Status,25,8644710758,/g3t1_2,,running
Status,26,8644839653,/g3t1_2,,success
Status,27,8645350640,/g3t1_3,,init
Status,28,8645365741,/g3t1_3,,running
Status,29,8645794367,/g3t1_3,,success
Status,30,8694678756,/g3t1_1,,running
Status,31,8694908661,/g3t1_1,,success
Status,32,8695283111,/g3t1_2,,running
Status,33,8695313976,/g3t1_2,,success
Status,34,8695709542,/g3t1_3,,running
Status,35,8695968402,/g3t1_3,,success
Status,36,8738091409,/g4t1,,success
Status,37,8744691869,/g3t1_1,,running
Status,38,8745098843,/g3t1_1,,success
Status,39,8745130475,/g3t1_2,,running
Status,40,8745190646,/g3t1_2,,success
Status,41,8745684795,/g3t1_3,,running
Status,42,8745928409,/g3t1_3,,success
Status,43,8795021936,/g3t1_1,,running
Status,44,8795076931,/g3t1_1,,success
Status,45,8795196814,/g3t1_2,,running
Status,46,8795396784,/g3t1_2,,success
Status,47,8795806772,/g3t1_3,,running
Status,48,8795936443,/g3t1_3,,success
Status,49,8838154847,/g4t1,,success
Status,50,8845057710,/g3t1_1,,running
Status,51,8845338679,/g3t1_2,,running
Status,52,8845374481,/g3t1_1,,success
Status,53,8845720032,/g3t1_2,,success
Status,54,8845906295,/g3t1_3,,running
Status,55,8846104781,/g3t1_3,,success
Status,56,8895082663,/g3t1_1,,running
Status,57,8895121602,/g3t1_1,,success
Status,58,8895246527,/g3t1_2,,running
Status,59,8895382932,/g3t1_2,,success
Status,60,8895915735,/g3t1_3,,running
Status,61,8896126597,/g3t1_3,,success
Status,62,8938229945,/g4t1,,success
Status,63,8945919221,/g3t1_1,,running
Status,64,8946057127,/g3t1_2,,running
Status,65,8946881542,/g3t1_1,,success
Status,66,8946939414,/g3t1_3,,running
Status,67,8946977708,/g3t1_2,,success
Status,68,8947036617,/g3t1_3,,success
Status,69,8996949529,/g3t1_1,,running
Status,70,8997013961,/g3t1_2,,running
Status,71,8997151463,/g3t1_1,,success
Status,72,8997348955,/g3t1_3,,running
Status,73,8997383128,/g3t1_2,,success
Status,74,8997620987,/g3t1_3,,success
Status,75,9038755051,/g4t1,,success
Status,76,9046074348,/g3t1_1,,running
Status,77,9047118090,/g3t1_2,,running
Status,78,9047184423,/g3t1_1,,success
Status,79,9047286992,/g3t1_3,,running
Status,80,9047455118,/g3t1_2,,success
Status,81,9047808566,/g3t1_3,,success
Status,82,9095977189,/g3t1_1,,running
Status,83,9096000141,/g3t1_1,,success
Status,84,9096101617,/g3t1_2,,running
Status,85,9096114568,/g3t1_2,,success
Status,86,9096388415,/g3t1_3,,running
Status,87,9096639017,/g3t1_3,,success
Status,88,9138889261,/g4t1,,fail
Status,89,9145871219,/g3t1_1,,running
Status,90,9145900108,/g3t1_2,,running
Status,91,9145909856,/g3t1_1,,success
Status,92,9145953934,/g3t1_2,,success
Status,93,9146489312,/g3t1_3,,running
Status,94,9146721079,/g3t1_3,,success
Status,95,9197120908,/g3t1_2,,running
Status,96,9197212007,/g3t1_1,,running
Status,97,9197618195,/g3t1_3,,running
Status,98,9197657655,/g3t1_1,,success
Status,99,9197683252,/g3t1_2,,success
Status,100,9198167396,/g3t1_3,,success
Status,101,9238555837,/g4t1,,fail
Status,102,9246350222,/g3t1_1,,running
Status,103,9246373935,/g3t1_2,,running
Status,104,9246405392,/g3t1_2,,success
Status,105,9246412559,/g3t1_1,,success
Status,106,9246834664,/g3t1_3,,running
Status,107,9246852069,/g3t1_3,,success
Status,108,9296288597,/g3t1_1,,running
Status,109,9296308488,/g3t1_2,,running
Status,110,9296317080,/g3t1_1,,success
Status,111,9296390998,/g3t1_2,,success
Status,112,9296841491,/g3t1_3,,running
Status,113,9296861928,/g3t1_3,,success
Status,114,9339506550,/g4t1,,fail
Status,115,9347631788,/g3t1_2,,running
Status,116,9347709209,/g3t1_1,,running
Status,117,9347749316,/g3t1_3,,running
Status,118,9347836873,/g3t1_1,,success
Status,119,9347944221,/g3t1_2,,success
Status,120,9348490586,/g3t1_3,,success
Status,121,9397378178,/g3t1_1,,running
Status,122,9397523976,/g3t1_2,,running
Status,123,9397564856,/g3t1_2,,success
Status,124,9397957069,/g3t1_1,,success
Status,125,9398033914,/g3t1_3,,running
Status,126,9398465870,/g3t1_3,,success
Status,127,9439607767,/g4t1,,fail
Status,128,9447409738,/g3t1_1,,running
Status,129,9447505862,/g3t1_2,,running
Status,130,9447909058,/g3t1_2,,success
Status,131,9447947527,/g3t1_1,,success
Status,132,9448255581,/g3t1_3,,running
Status,133,9448716901,/g3t1_3,,success
Status,134,9497870865,/g3t1_2,,running
Status,135,9498009660,/g3t1_1,,running
Status,136,9498120501,/g3t1_1,,success
Status,137,9498159278,/g3t1_3,,running
Status,138,9498185362,/g3t1_2,,success
Status,139,9498493491,/g3t1_3,,success
Status,140,9539848747,/g4t1,,fail
Status,141,9547607707,/g3t1_1,,running
Status,142,9547724852,/g3t1_2,,running
Status,143,9548202973,/g3t1_1,,success
Status,144,9548463635,/g3t1_2,,success
Status,145,9548506497,/g3t1_3,,running
Status,146,9548742680,/g3t1_3,,success
Status,147,9598105068,/g3t1_1,,running
Status,148,9598198070,/g3t1_2,,running
Status,149,9598858865,/g3t1_1,,success
Status,150,9598971430,/g3t1_3,,running
Status,151,9599272352,/g3t1_3,,success
Status,152,9599345257,/g3t1_2,,success
Status,153,9639808648,/g4t1,,fail
Status,154,9647899152,/g3t1_1,,running
Status,155,9647989912,/g3t1_2,,running
Status,156,9648195033,/g3t1_2,,success
Status,157,9648538062,/g3t1_1,,success
Status,158,9648643387,/g3t1_3,,running
Status,159,9649071186,/g3t1_3,,success
Status,160,9697602839,/g3t1_2,,running
Status,161,9697637275,/g3t1_1,,running
Status,162,9697651101,/g3t1_1,,success
Status,163,9697846355,/g3t1_2,,success
Status,164,9698276791,/g3t1_3,,running
Status,165,9698535037,/g3t1_3,,success
Status,166,9740020269,/g4t1,,fail
Status,167,9748177579,/g3t1_2,,running
Status,168,9748265618,/g3t1_1,,running
Status,169,9748897966,/g3t1_1,,success
Status,170,9749325005,/g3t1_2,,success
Status,171,9749416380,/g3t1_3,,running
Status,172,9749450963,/g3t1_3,,success
Status,173,9798456529,/g3t1_2,,running
Status,174,9798868043,/g3t1_1,,running
Status,175,9798920938,/g3t1_1,,success
Status,176,9798943871,/g3t1_2,,success
Status,177,9799413503,/g3t1_3,,running
Status,178,9799521913,/g3t1_3,,success
Status,179,9839812473,/g4t1,,fail
Status,180,9848578387,/g3t1_2,,running
Status,181,9848670779,/g3t1_1,,running
Status,182,9849003246,/g3t1_3,,running
Status,183,9849508095,/g3t1_1,,success
Status,184,9849595745,/g3t1_2,,success
Status,185,9850259422,/g3t1_3,,success
Status,186,9898622438,/g3t1_2,,running
Status,187,9899369234,/g3t1_1,,running
Status,188,9899686413,/g3t1_1,,success
Status,189,9899774021,/g3t1_3,,running
Status,190,9900112765,/g3t1_2,,success
Status,191,9900731212,/g3t1_3,,success
Status,192,9939766888,/g4t1,,fail
Status,193,9948355630,/g3t1_2,,running
Status,194,9948418403,/g3t1_1,,running
Status,195,9948446844,/g3t1_2,,success
Status,196,9948627749,/g3t1_1,,success
Status,197,9948955547,/g3t1_3,,running
Status,198,9949456729,/g3t1_3,,success
Status,199,9999868433,/g3t1_2,,running
Status,200,9999979372,/g3t1_1,,running
Status,201,10000077130,/g3t1_1,,success
Status,202,10000115674,/g3t1_3,,running
Status,203,10000147198,/g3t1_2,,success
Status,204,10001431794,/g3t1_3,,success
Status,205,10040540338,/g4t1,,fail
Status,206,10050491495,/g3t1_2,,running
Status,207,10050582346,/g3t1_1,,running
Status,208,10050618847,/g3t1_3,,running
Status,209,10050758285,/g3t1_3,,success
Status,210,10050808038,/g3t1_1,,success
Status,211,10050841307,/g3t1_2,,success
Status,212,10098328356,/g3t1_2,,running
Status,213,10098370945,/g3t1_1,,running
Status,214,10098500178,/g3t1_2,,success
Status,215,10098538708,/g3t1_1,,success
Status,216,10099112877,/g3t1_3,,running
Status,217,10099407757,/g3t1_3,,success
Status,218,10139504221,/g4t1,,fail
Status,219,10148880195,/g3t1_2,,running
Status,220,10149208814,/g3t1_1,,running
Status,221,10149857917,/g3t1_2,,success
Status,222,10149886215,/g3t1_1,,success
Status,223,10149928628,/g3t1_3,,running
Status,224,10149947324,/g3t1_3,,success
Status,225,10198988380,/g3t1_2,,running
Status,226,10199058121,/g3t1_1,,running
Status,227,10199235813,/g3t1_2,,success
Status,228,10199249820,/g3t1_1,,success
Status,229,10199395414,/g3t1_3,,running
Status,230,10199992590,/g3t1_3,,success
Status,231,10239627548,/g4t1,,fail
Status,232,10248953940,/g3t1_2,,running
Status,233,10249138133,/g3t1_1,,running
Status,234,10249184205,/g3t1_1,,success
Status,235,10249376882,/g3t1_2,,success
Status,236,10249481879,/g3t1_3,,running
Status,237,10249592607,/g3t1_3,,success
Status,238,10299446087,/g3t1_2,,running
Status,239,10299532590,/g3t1_1,,running
Status,240,10300552531,/g3t1_1,,success
Status,241,10300598393,/g3t1_2,,success
Status,242,10300686555,/g3t1_3,,running
Status,243,10300717629,/g3t1_3,,success
Status,244,10340347627,/g4t1,,fail
Status,245,10349153837,/g3t1_2,,running
Status,246,10350451323,/g3t1_2,,success
Status,247,10350512388,/g3t1_1,,running
Status,248,10350648859,/g3t1_1,,success
Status,249,10350684675,/g3t1_3,,running
Status,250,10350819051,/g3t1_3,,success
Status,251,10399107355,/g3t1_2,,running
Status,252,10399173043,/g3t1_1,,running
Status,253,10399385110,/g3t1_2,,success
Status,254,10400287959,/g3t1_1,,success
Status,255,10400340621,/g3t1_3,,running
Status,256,10400542296,/g3t1_3,,success
Status,257,10440113055,/g4t1,,fail
Status,258,10448969466,/g3t1_2,,running
Status,259,10449346862,/g3t1_1,,running
Status,260,10449395582,/g3t1_2,,success
Status,261,10449589343,/g3t1_1,,success
Status,262,10449883616,/g3t1_3,,running
Status,263,10450325608,/g3t1_3,,success
Status,264,10499720316,/g3t1_2,,running
Status,265,10499796004,/g3t1_1,,running
Status,266,10499891323,/g3t1_2,,success
Status,267,10500224483,/g3t1_1,,success
Status,268,10500348193,/g3t1_3,,running
Status,269,10500804238,/g3t1_3,,success
Status,270,10540745528,/g4t1,,fail
Status,271,10550825655,/g3t1_2,,running
Status,272,10551900622,/g3t1_3,,running
Status,273,10551978111,/g3t1_3,,success
Status,274,10552295850,/g3t1_1,,running
Status,275,10552819726,/g3t1_1,,success
Status,276,10552970779,/g3t1_2,,success
Status,277,10599789742,/g3t1_2,,running
Status,278,10600331692,/g3t1_2,,success
Status,279,10601054153,/g3t1_3,,running
Status,280,10601474868,/g3t1_3,,success
Status,281,10601587128,/g3t1_1,,running
Status,282,10601633148,/g3t1_1,,success
Status,283,10640330303,/g4t1,,fail
Status,284,10649451192,/g3t1_2,,running
Status,285,10649481665,/g3t1_2,,success
Status,286,10650251104,/g3t1_3,,running
Status,287,10650405439,/g3t1_3,,success
Status,288,10650692141,/g3t1_1,,running
Status,289,10650870565,/g3t1_1,,success
Status,290,10700286399,/g3t1_2,,running
Status,291,10700691767,/g3t1_2,,success
Status,292,10700852683,/g3t1_3,,running
Status,293,10701561513,/g3t1_1,,running
Status,294,10702018273,/g3t1_3,,success
Status,295,10702133781,/g3t1_1,,success
Status,296,10740664139,/g4t1,,fail
Status,297,10749490991,/g3t1_2,,running
Status,298,10749559377,/g3t1_2,,success
Status,299,10750315897,/g3t1_3,,running
Status,300,10750334381,/g3t1_3,,success
Status,301,10750828536,/g3t1_1,,running
Status,302,10750926132,/g3t1_1,,success
Status,303,10800341375,/g3t1_2,,running
Status,304,10800997238,/g3t1_2,,success
Status,305,10801261766,/g3t1_3,,running
Status,306,10802178445,/g3t1_3,,success
Status,307,10802234042,/g3t1_1,,running
Status,308,10802312589,/g3t1_1,,success
Status,309,10840873506,/g4t1,,fail
Status,310,10850047173,/g3t1_2,,running
Status,311,10850230766,/g3t1_2,,success
Status,312,10850810467,/g3t1_3,,running
Status,313,10851191846,/g3t1_3,,success
Status,314,10851234713,/g3t1_1,,running
Status,315,10851451860,/g3t1_1,,success
Status,316,10900067949,/g3t1_2,,running
Status,317,10900283318,/g3t1_2,,success
Status,318,10900770619,/g3t1_3,,running
Status,319,10901040563,/g3t1_3,,success
Status,320,10901147582,/g3t1_1,,running
Status,321,10901511402,/g3t1_1,,success
Status,322,10940343113,/g4t1,,fail
Status,323,10950004214,/g3t1_2,,running
Status,324,10950139367,/g3t1_2,,success
Status,325,10950615447,/g3t1_3,,running
Status,326,10950765086,/g3t1_3,,success
Status,327,10951085916,/g3t1_1,,running
Status,328,10951241744,/g3t1_1,,success
Status,329,11000539767,/g3t1_2,,running
Status,330,11000584524,/g3t1_2,,success
Status,331,11002022509,/g3t1_3,,running
Status,332,11002136898,/g3t1_1,,running
Status,333,11002171768,/g3t1_1,,success
Status,334,11002190137,/g3t1_3,,success
Status,335,11041006247,/g4t1,,fail
Status,336,11050394672,/g3t1_2,,running
Status,337,11050704515,/g3t1_2,,success
Status,338,11051235188,/g3t1_3,,running
Status,339,11051802316,/g3t1_3,,success
Status,340,11051843451,/g3t1_1,,running
Status,341,11052223126,/g3t1_1,,success
Status,342,11100923029,/g3t1_2,,running
Status,343,11101861638,/g3t1_2,,success
Status,344,11101936308,/g3t1_3,,running
Status,345,11103243656,/g3t1_3,,success
Status,346,11103331887,/g3t1_1,,running
Status,347,11103377999,/g3t1_1,,success
Status,348,11140666648,/g4t1,,fail
Status,349,11150506690,/g3t1_2,,running
Status,350,11150537743,/g3t1_2,,success
Status,351,11151020533,/g3t1_3,,running
Status,352,11151185358,/g3t1_3,,success
Status,353,11151706320,/g3t1_1,,running
Status,354,11151732657,/g3t1_1,,success
Status,355,11201186651,/g3t1_2,,running
Status,356,11202018828,/g3t1_3,,running
Status,357,11202479760,/g3t1_3,,success
Status,358,11202573078,/g3t1_2,,success
Status,359,11202616485,/g3t1_1,,running
Status,360,11202784197,/g3t1_1,,success
Status,361,11241575139,/g4t1,,fail
Status,362,11251238046,/g3t1_2,,running
Status,363,11252133381,/g3t1_2,,success
Status,364,11252190045,/g3t1_3,,running
Status,365,11252660816,/g3t1_3,,success
Status,366,11252822554,/g3t1_1,,running
Status,367,11253231824,/g3t1_1,,success
Status,368,11302136804,/g3t1_2,,running
Status,369,11302425574,/g3t1_2,,success
Status,370,11302567603,/g3t1_3,,running
Status,371,11303273466,/g3t1_1,,running
Status,372,11303384551,/g3t1_3,,success
Status,373,11303463520,/g3t1_1,,success
Status,374,11341816922,/g4t1,,fail
Status,375,11351455217,/g3t1_2,,running
Status,376,11352927291,/g3t1_3,,running
Status,377,11352993652,/g3t1_1,,running
Status,378,11353218382,/g3t1_2,,success
Status,379,11353601320,/g3t1_1,,success
Status,380,11353683811,/g3t1_3,,success
Status,381,11401168916,/g3t1_2,,running
Status,382,11401200545,/g3t1_2,,success
Status,383,11401559263,/g3t1_3,,running
Status,384,11401703247,/g3t1_3,,success
Status,385,11402128743,/g3t1_1,,running
Status,386,11402152815,/g3t1_1,,success
Status,387,11440994321,/g4t1,,fail
Status,388,11451132928,/g3t1_2,,running
Status,389,11451171937,/g3t1_2,,success
Status,390,11451607118,/g3t1_3,,running
Status,391,11451741610,/g3t1_3,,success
Status,392,11452236911,/g3t1_1,,running
Status,393,11452271343,/g3t1_1,,success
Status,394,11501171946,/g3t1_2,,running
Status,395,11501333627,/g3t1_2,,success
Status,396,11501654104,/g3t1_3,,running
Status,397,11501836985,/g3t1_3,,success
Status,398,11503170073,/g3t1_1,,running
Status,399,11503219655,/g3t1_1,,success
Status,400,11541710051,/g4t1,,fail
Status,401,11551256397,/g3t1_2,,running
Status,402,11551279609,/g3t1_2,,success
Status,403,11551804577,/g3t1_3,,running
Status,404,11551903587,/g3t1_3,,success
Status,405,11552208883,/g3t1_1,,running
Status,406,11552363978,/g3t1_1,,success
Status,407,11601553939,/g3t1_2,,running
Status,408,11601586950,/g3t1_2,,success
Status,409,11601879467,/g3t1_3,,running
Status,410,11602035780,/g3t1_3,,success
Status,411,11602477313,/g3t1_1,,running
Status,412,11602509966,/g3t1_1,,success
Status,413,11641582115,/g4t1,,fail
Status,414,11651687122,/g3t1_2,,running
Status,415,11651725173,/g3t1_2,,success
Status,416,11652027919,/g3t1_3,,running
Status,417,11652119162,/g3t1_3,,success
Status,418,11652520261,/g3t1_1,,running
Status,419,11652540863,/g3t1_1,,success
Status,420,11701837307,/g3t1_2,,running
Status,421,11701996009,/g3t1_2,,success
Status,422,11702031007,/g3t1_3,,running
Status,423,11702284433,/g3t1_3,,success
Status,424,11702575443,/g3t1_1,,running
Status,425,11703005127,/g3t1_1,,success
Status,426,11741654619,/g4t1,,fail
Status,427,11751971419,/g3t1_2,,running
Status,428,11752218013,/g3t1_2,,success
Status,429,11752261337,/g3t1_3,,running
Status,430,11752396645,/g3t1_3,,success
Status,431,11752751972,/g3t1_1,,running
Status,432,11752904804,/g3t1_1,,success
Status,433,11802191990,/g3t1_2,,running
Status,434,11802240052,/g3t1_2,,success
Status,435,11802261461,/g3t1_3,,running
Status,436,11802509729,/g3t1_3,,success
Status,437,11803024624,/g3t1_1,,running
Status,438,11803075299,/g3t1_1,,success
Status,439,11842117609,/g4t1,,fail
Status,440,11852008952,/g3t1_2,,running
Status,441,11852384836,/g3t1_2,,success
Status,442,11852692548,/g3t1_3,,running
Status,443,11852865767,/g3t1_3,,success
Status,444,11852886375,/g3t1_1,,running
Status,445,11853268124,/g3t1_1,,success
Status,446,11901988939,/g3t1_2,,running
Status,447,11902095727,/g3t1_2,,success
Status,448,11902371144,/g3t1_3,,running
Status,449,11902575399,/g3t1_3,,success
Status,450,11902829632,/g3t1_1,,running
Status,451,11903020007,/g3t1_1,,success
Status,452,11942194743,/g4t1,,fail
Status,453,11952893741,/g3t1_2,,running
Status,454,11952968708,/g3t1_2,,success
Status,455,11953005526,/g3t1_3,,running
Status,456,11954047844,/g3t1_1,,running
Status,457,11954156430,/g3t1_3,,success
Status,458,11954217410,/g3t1_1,,success
Status,459,12002822905,/g3t1_2,,running
Status,460,12004104572,/g3t1_3,,running
Status,461,12004186655,/g3t1_2,,success
Status,462,12004416769,/g3t1_3,,success
Status,463,12004600675,/g3t1_1,,running
Status,464,12004723943,/g3t1_1,,success
Status,465,12042213214,/g4t1,,fail
Status,466,12053204717,/g3t1_2,,running
Status,467,12053517567,/g3t1_2,,success
Status,468,12054012707,/g3t1_3,,running
Status,469,12054114543,/g3t1_3,,success
Status,470,12055400735,/g3t1_1,,running
Status,471,12055476644,/g3t1_1,,success
Status,472,12103162722,/g3t1_2,,running
Status,473,12103406411,/g3t1_3,,running
Status,474,12103468221,/g3t1_2,,success
Status,475,12103505236,/g3t1_3,,success
Status,476,12103966518,/g3t1_1,,running
Status,477,12104352353,/g3t1_1,,success
Status,478,12142219780,/g4t1,,fail
Status,479,12152609930,/g3t1_2,,running
Status,480,12152854144,/g3t1_3,,running
Status,481,12152891298,/g3t1_2,,success
Status,482,12153209112,/g3t1_3,,success
Status,483,12153765467,/g3t1_1,,running
Status,484,12153790767,/g3t1_1,,success
Status,485,12202709926,/g3t1_2,,running
Status,486,12202796592,/g3t1_2,,success
Status,487,12202817350,/g3t1_3,,running
Status,488,12202882112,/g3t1_3,,success
Status,489,12203492882,/g3t1_1,,running
Status,490,12203626451,/g3t1_1,,success
Status,491,12242551755,/g4t1,,fail
Status,492,12252882049,/g3t1_2,,running
Status,493,12252915555,/g3t1_2,,success
Status,494,12252954892,/g3t1_3,,running
Status,495,12253105295,/g3t1_3,,success
Status,496,12253759968,/g3t1_1,,running
Status,497,12253788329,/g3t1_1,,success
Status,498,12302886898,/g3t1_2,,running
Status,499,12303327234,/g3t1_2,,success
Status,500,12303375137,/g3t1_3,,running
Status,501,12303642384,/g3t1_3,,success
Status,502,12303898070,/g3t1_1,,running
Status,503,12304494995,/g3t1_1,,success
Status,504,12342313457,/g4t1,,fail
Status,505,12353080285,/g3t1_2,,running
Status,506,12353705991,/g3t1_3,,running
Status,507,12353767997,/g3t1_3,,success
Status,508,12353818896,/g3t1_2,,success
Status,509,12354566289,/g3t1_1,,running
Status,510,12354612671,/g3t1_1,,success
Status,511,12403245736,/g3t1_2,,running
Status,512,12403388021,/g3t1_3,,running
Status,513,12403414951,/g3t1_2,,success
Status,514,12403440545,/g3t1_3,,success
Status,515,12404098526,/g3t1_1,,running
Status,516,12404118245,/g3t1_1,,success
Status,517,12442161108,/g4t1,,fail
Status,518,12453820496,/g3t1_2,,running
Status,519,12453861283,/g3t1_3,,running
Status,520,12453886354,/g3t1_3,,success
Status,521,12453898385,/g3t1_2,,success
Status,522,12454197615,/g3t1_1,,running
Status,523,12454220812,/g3t1_1,,success
Status,524,12503408971,/g3t1_2,,running
Status,525,12503439852,/g3t1_3,,running
Status,526,12503483057,/g3t1_2,,success
Status,527,12503702016,/g3t1_3,,success
Status,528,12504046562,/g3t1_1,,running
Status,529,12504202871,/g3t1_1,,success
Status,530,12542444002,/g4t1,,fail
Status,531,12553541651,/g3t1_2,,running
Status,532,12553597440,/g3t1_2,,success
Status,533,12553613656,/g3t1_3,,running
Status,534,12553723701,/g3t1_3,,success
Status,535,12554110704,/g3t1_1,,running
Status,536,12554247618,/g3t1_1,,success
Status,537,12604427176,/g3t1_2,,running
Status,538,12605674611,/g3t1_3,,running
Status,539,12605738989,/g3t1_2,,success
Status,540,12605804711,/g3t1_1,,running
Status,541,12605893633,/g3t1_1,,success
Status,542,12605929151,/g3t1_3,,success
Status,543,12642727091,/g4t1,,fail
Status,544,12653630235,/g3t1_2,,running
Status,545,12654406804,/g3t1_3,,running
Status,546,12654440100,/g3t1_2,,success
Status,547,12654451934,/g3t1_3,,success
Status,548,12654463056,/g3t1_1,,running
Status,549,12654669842,/g3t1_1,,success
Status,550,12703887711,/g3t1_2,,running
Status,551,12705004650,/g3t1_2,,success
Status,552,12705058800,/g3t1_1,,running
Status,553,12705155228,/g3t1_3,,running
Status,554,12705487384,/g3t1_1,,success
Status,555,12705548730,/g3t1_3,,success
Status,556,12742303078,/g4t1,,fail
Status,557,12753865901,/g3t1_2,,running
Status,558,12754041962,/g3t1_2,,success
Status,559,12754059178,/g3t1_3,,running
Status,560,12754153989,/g3t1_3,,success
Status,561,12754675473,/g3t1_1,,running
Status,562,12754691991,/g3t1_1,,success
Status,563,12804468981,/g3t1_2,,running
Status,564,12804522290,/g3t1_3,,running
Status,565,12804691545,/g3t1_2,,success
Status,566,12804714034,/g3t1_3,,success
Status,567,12805242574,/g3t1_1,,running
Status,568,12805256874,/g3t1_1,,success
Status,569,12842439045,/g4t1,,fail
Status,570,12854467613,/g3t1_2,,running
Status,571,12854681173,/g3t1_3,,running
Status,572,12854748441,/g3t1_2,,success
Status,573,12855115683,/g3t1_3,,success
Status,574,12855140853,/g3t1_1,,running
Status,575,12855334701,/g3t1_1,,success
Status,576,12904355254,/g3t1_2,,running
Status,577,12904382876,/g3t1_3,,running
Status,578,12904411575,/g3t1_2,,success
Status,579,12904420582,/g3t1_3,,success
Status,580,12904980758,/g3t1_1,,running
Status,581,12905046332,/g3t1_1,,success
Status,582,12942768031,/g4t1,,fail
Status,583,12954484734,/g3t1_2,,running
Status,584,12954531624,/g3t1_3,,running
Status,585,12954549127,/g3t1_2,,success
Status,586,12954695420,/g3t1_3,,success
Status,587,12955260242,/g3t1_1,,running
Status,588,12955460206,/g3t1_1,,success
Status,589,13005049741,/g3t1_2,,running
Status,590,13005144439,/g3t1_3,,running
Status,591,13005650129,/g3t1_3,,success
Status,592,13005849020,/g3t1_2,,success
Status,593,13005900407,/g3t1_1,,running
Status,594,13007101243,/g3t1_1,,success
Status,595,13042580834,/g4t1,,fail
Status,596,13054438307,/g3t1_2,,running
Status,597,13054473530,/g3t1_3,,running
Status,598,13054606690,/g3t1_2,,success
Status,599,13054683963,/g3t1_3,,success
Status,600,13055017905,/g3t1_1,,running
Status,601,13055169461,/g3t1_1,,success
Status,602,13104639575,/g3t1_2,,running
Status,603,13104682078,/g3t1_3,,running
Status,604,13104727822,/g3t1_2,,success
Status,605,13104737766,/g3t1_3,,success
Status,606,13105206550,/g3t1_1,,running
Status,607,13105423917,/g3t1_1,,success
Status,608,13143470062,/g4t1,,fail
Status,609,13155734417,/g3t1_2,,running
Status,610,13155823000,/g3t1_3,,running
Status,611,13155976377,/g3t1_2,,success
Status,612,13156087337,/g3t1_1,,running
Status,613,13157685216,/g3t1_3,,success
Status,614,13157781249,/g3t1_1,,success
Status,615,13205080231,/g3t1_2,,running
Status,616,13205145216,/g3t1_3,,running
Status,617,13205165114,/g3t1_3,,success
Status,618,13205221760,/g3t1_2,,success
Status,619,13206011017,/g3t1_1,,running
Status,620,13206577026,/g3t1_1,,success
Status,621,13243490973,/g4t1,,fail
Status,622,13256150341,/g3t1_3,,running
Status,623,13256303334,/g3t1_2,,running
Status,624,13256375318,/g3t1_2,,success
Status,625,13256411003,/g3t1_1,,running
Status,626,13257637296,/g3t1_1,,success
Status,627,13257703703,/g3t1_3,,success
Status,628,13306342027,/g3t1_2,,running
Status,629,13306427305,/g3t1_3,,running
Status,630,13306551641,/g3t1_2,,success
Status,631,13306989733,/g3t1_1,,running
Status,632,13307073607,/g3t1_3,,success
Status,633,13307469632,/g3t1_1,,success
Status,634,13343693780,/g4t1,,fail
Status,635,13356096827,/g3t1_2,,running
Status,636,13356425709,/g3t1_3,,running
Status,637,13356671858,/g3t1_3,,success
Status,638,13356709089,/g3t1_2,,success
Status,639,13357814122,/g3t1_1,,running
Status,640,13357915528,/g3t1_1,,success
Status,641,13405668928,/g3t1_2,,running
Status,642,13405753891,/g3t1_3,,running
Status,643,13405793629,/g3t1_3,,success
Status,644,13405806718,/g3t1_2,,success
Status,645,13406395367,/g3t1_1,,running
Status,646,13406422321,/g3t1_1,,success
Status,647,13443280974,/g4t1,,fail
Status,648,13455573777,/g3t1_2,,running
Status,649,13455630035,/g3t1_3,,running
Status,650,13455702400,/g3t1_2,,success
Status,651,13455938254,/g3t1_3,,success
Status,652,13456535868,/g3t1_1,,running
Status,653,13456566610,/g3t1_1,,success
Status,654,13505631409,/g3t1_2,,running
Status,655,13505662588,/g3t1_3,,running
Status,656,13505711341,/g3t1_3,,success
Status,657,13505723117,/g3t1_2,,success
Status,658,13506511922,/g3t1_1,,running
Status,659,13506647192,/g3t1_1,,success
Status,660,13543279352,/g4t1,,fail
Status,661,13555684531,/g3t1_2,,running
Status,662,13555733649,/g3t1_3,,running
Status,663,13555759820,/g3t1_2,,success
Status,664,13556109925,/g3t1_3,,success
Status,665,13556514726,/g3t1_1,,running
Status,666,13556868755,/g3t1_1,,success
Status,667,13606011884,/g3t1_2,,running
Status,668,13606079572,/g3t1_3,,running
Status,669,13606154304,/g3t1_3,,success
Status,670,13606347758,/g3t1_2,,success
Status,671,13606739892,/g3t1_1,,running
Status,672,13607410898,/g3t1_1,,success
Status,673,13643626890,/g4t1,,fail
Status,674,13656557679,/g3t1_3,,running
Status,675,13656630738,/g3t1_2,,running
Status,676,13656986793,/g3t1_2,,success
Status,677,13657603997,/g3t1_1,,running
Status,678,13657705619,/g3t1_3,,success
Status,679,13657779643,/g3t1_1,,success
Status,680,13706828782,/g3t1_2,,running
Status,681,13706910591,/g3t1_3,,running
Status,682,13706950082,/g3t1_2,,success
Status,683,13707840866,/g3t1_3,,success
Status,684,13707935328,/g3t1_1,,running
Status,685,13708055853,/g3t1_1,,success
Status,686,13743446607,/g4t1,,fail
Status,687,13756298135,/g3t1_2,,running
Status,688,13756345332,/g3t1_3,,running
Status,689,13756385930,/g3t1_3,,success
Status,690,13756400384,/g3t1_2,,success
Status,691,13756771361,/g3t1_1,,running
Status,692,13757554140,/g3t1_1,,success
Status,693,13806398160,/g3t1_2,,running
Status,694,13806456715,/g3t1_3,,running
Status,695,13806486784,/g3t1_2,,success
Status,696,13806509721,/g3t1_3,,success
Status,697,13807380244,/g3t1_1,,running
Status,698,13807410591,/g3t1_1,,success
Status,699,13843572874,/g4t1,,fail
Status,700,13856291467,/g3t1_2,,running
Status,701,13856327860,/g3t1_3,,running
Status,702,13856357585,/g3t1_2,,success
Status,703,13856463817,/g3t1_3,,success
Status,704,13857051002,/g3t1_1,,running
Status,705,13857072623,/g3t1_1,,success
Status,706,13906277705,/g3t1_2,,running
Status,707,13906318803,/g3t1_3,,running
Status,708,13906372187,/g3t1_2,,success
Status,709,13906504924,/g3t1_3,,success
Status,710,13906956864,/g3t1_1,,running
Status,711,13907078635,/g3t1_1,,success
Status,712,13944428138,/g4t1,,fail
Status,713,13957192571,/g3t1_2,,running
Status,714,13957278106,/g3t1_3,,running
Status,715,13957859548,/g3t1_2,,success
Status,716,13957940988,/g3t1_3,,success
Status,717,13958040066,/g3t1_1,,running
Status,718,13958085891,/g3t1_1,,success
Status,719,14006582684,/g3t1_2,,running
Status,720,14006767367,/g3t1_3,,running
Status,721,14006792299,/g3t1_2,,success
Status,722,14007007233,/g3t1_3,,success
Status,723,14007347462,/g3t1_1,,running
Status,724,14007470951,/g3t1_1,,success
Status,725,14043933923,/g4t1,,fail
Status,726,14056812115,/g3t1_2,,running
Status,727,14056862971,/g3t1_3,,running
Status,728,14057234354,/g3t1_2,,success
Status,729,14057281300,/g3t1_3,,success
Status,730,14057441935,/g3t1_1,,running
Status,731,14057679597,/g3t1_1,,success
Status,732,14107349207,/g3t1_2,,running
Status,733,14107415331,/g3t1_3,,running
Status,734,14107732387,/g3t1_2,,success
Status,735,14107805652,/g3t1_3,,success
Status,736,14108229251,/g3t1_1,,running
Status,737,14108330287,/g3t1_1,,success
Status,738,14144161670,/g4t1,,fail
Status,739,14157050284,/g3t1_2,,running
Status,740,14157089976,/g3t1_3,,running
Status,741,14157330392,/g3t1_2,,success
Status,742,14157355235,/g3t1_3,,success
Status,743,14157552497,/g3t1_1,,running
Status,744,14157995885,/g3t1_1,,success
Status,745,14206999319,/g3t1_2,,running
Status,746,14207068480,/g3t1_2,,success
Status,747,14207093435,/g3t1_3,,running
Status,748,14207246654,/g3t1_3,,success
Status,749,14207928034,/g3t1_1,,running
Status,750,14208334226,/g3t1_1,,success
Status,751,14244046678,/g4t1,,fail
Status,752,14256906155,/g3t1_2,,running
Status,753,14256940275,/g3t1_3,,running
Status,754,14256977767,/g3t1_2,,success
Status,755,14257098350,/g3t1_3,,success
Status,756,14257560387,/g3t1_1,,running
Status,757,14257588352,/g3t1_1,,success
Status,758,14307007215,/g3t1_2,,running
Status,759,14307035658,/g3t1_2,,success
Status,760,14307068056,/g3t1_3,,running
Status,761,14307264881,/g3t1_3,,success
Status,762,14307518972,/g3t1_1,,running
Status,763,14307706875,/g3t1_1,,success
Status,764,14344037843,/g4t1,,fail
Status,765,14357197478,/g3t1_2,,running
Status,766,14357227834,/g3t1_2,,success
Status,767,14357278314,/g3t1_3,,running
Status,768,14357648244,/g3t1_3,,success
Status,769,14357684096,/g3t1_1,,running
Status,770,14357916975,/g3t1_1,,success
Status,771,14407278494,/g3t1_2,,running
Status,772,14407312412,/g3t1_3,,running
Status,773,14407456891,/g3t1_2,,success
Status,774,14407732849,/g3t1_3,,success
Status,775,14407759468,/g3t1_1,,running
Status,776,14407973738,/g3t1_1,,success
Status,777,14444230136,/g4t1,,fail
Status,778,14457364680,/g3t1_2,,running
Status,779,14457411446,/g3t1_3,,running
Status,780,14457577094,/g3t1_2,,success
Status,781,14457750354,/g3t1_3,,success
Status,782,14457848270,/g3t1_1,,running
Status,783,14457959650,/g3t1_1,,success
Status,784,14508131637,/g3t1_2,,running
Status,785,14508646229,/g3t1_3,,running
Status,786,14508687567,/g3t1_2,,success
Status,787,14509082980,/g3t1_1,,running
Status,788,14509176081,/g3t1_3,,success
Status,789,14509205374,/g3t1_1,,success
Status,790,14544668189,/g4t1,,fail
Status,791,14558227519,/g3t1_2,,running
Status,792,14558297505,/g3t1_3,,running
Status,793,14558718477,/g3t1_1,,running
Status,794,14558806098,/g3t1_2,,success
Status,795,14559079461,/g3t1_3,,success
Status,796,14559167492,/g3t1_1,,success
Status,797,14608940212,/g3t1_2,,running
Status,798,14608992222,/g3t1_3,,running
Status,799,14609023833,/g3t1_3,,success
Status,800,14609372539,/g3t1_1,,running
Status,801,14609439837,/g3t1_1,,success
Status,802,14609489246,/g3t1_2,,success
Status,803,14644452069,/g4t1,,fail
Status,804,14657883408,/g3t1_2,,running
Status,805,14657924547,/g3t1_3,,running
Status,806,14658121674,/g3t1_2,,success
Status,807,14658148358,/g3t1_3,,success
Status,808,14658630337,/g3t1_1,,running
Status,809,14658652288,/g3t1_1,,success
Status,810,14708322992,/g3t1_2,,running
Status,811,14708391326,/g3t1_3,,running
Status,812,14709018313,/g3t1_3,,success
Status,813,14709075779,/g3t1_1,,running
Status,814,14709210733,/g3t1_2,,success
Status,815,14709450940,/g3t1_1,,success
Status,816,14744898975,/g4t1,,fail
Status,817,14758984930,/g3t1_2,,running
Status,818,14759077472,/g3t1_3,,running
Status,819,14759184932,/g3t1_3,,success
Status,820,14759218751,/g3t1_1,,running
Status,821,14759480463,/g3t1_1,,success
Status,822,14759620811,/g3t1_2,,success
Status,823,14808496131,/g3t1_2,,running
Status,824,14808555650,/g3t1_3,,running
Status,825,14808572429,/g3t1_2,,success
Status,826,14808733119,/g3t1_3,,success
Status,827,14808890932,/g3t1_1,,running
Status,828,14808974565,/g3t1_1,,success
Status,829,14844979193,/g4t1,,fail
Status,830,14858907865,/g3t1_2,,running
Status,831,14859001137,/g3t1_3,,running
Status,832,14859021120,/g3t1_2,,success
Status,833,14859126068,/g3t1_1,,running
Status,834,14859161842,/g3t1_3,,success
Status,835,14859808943,/g3t1_1,,success
Status,836,14908856045,/g3t1_2,,running
Status,837,14908924202,/g3t1_3,,running
Status,838,14908955850,/g3t1_2,,success
Status,839,14908984910,/g3t1_3,,success
Status,840,14909025941,/g3t1_1,,running
Status,841,14909609226,/g3t1_1,,success
Status,842,14944905066,/g4t1,,fail
Status,843,14959021415,/g3t1_2,,running
Status,844,14959092093,/g3t1_3,,running
Status,845,14959126152,/g3t1_2,,success
Status,846,14959156173,/g3t1_1,,running
Status,847,14959535396,/g3t1_3,,success
Status,848,14959856596,/g3t1_1,,success
Status,849,15009703819,/g3t1_2,,running
Status,850,15009843699,/g3t1_3,,running
Status,851,15009871956,/g3t1_1,,running
Status,852,15009895195,/g3t1_2,,success
Status,853,15009926552,/g3t1_3,,success
Status,854,15010926800,/g3t1_1,,success
Status,855,15045148507,/g4t1,,fail
Status,856,15059351738,/g3t1_2,,running
Status,857,15059503359,/g3t1_3,,running
Status,858,15059823003,/g3t1_1,,running
Status,859,15059929582,/g3t1_2,,success
Status,860,15060477348,/g3t1_3,,success
Status,861,15060577394,/g3t1_1,,success
Status,862,15109627712,/g3t1_2,,running
Status,863,15109702340,/g3t1_3,,running
Status,864,15110706482,/g3t1_2,,success
Status,865,15110800941,/g3t1_3,,success
Status,866,15110886899,/g3t1_1,,running
Status,867,15110919839,/g3t1_1,,success
Status,868,15144795664,/g4t1,,fail
Status,869,15158914438,/g3t1_2,,running
Status,870,15158940633,/g3t1_2,,success
Status,871,15158952703,/g3t1_3,,running
Status,872,15159099317,/g3t1_3,,success
Status,873,15159609693,/g3t1_1,,running
Status,874,15159637587,/g3t1_1,,success
Status,875,15209217682,/g3t1_2,,running
Status,876,15209257626,/g3t1_3,,running
Status,877,15209309338,/g3t1_2,,success
Status,878,15209877149,/g3t1_3,,success
Status,879,15210038723,/g3t1_1,,running
Status,880,15210056078,/g3t1_1,,success
Status,881,15244975862,/g4t1,,fail
Status,882,15259172124,/g3t1_2,,running
Status,883,15259209991,/g3t1_3,,running
Status,884,15259257784,/g3t1_2,,success
Status,885,15259342787,/g3t1_3,,success
Status,886,15259836807,/g3t1_1,,running
Status,887,15259871183,/g3t1_1,,success
Status,888,15310382228,/g3t1_2,,running
Status,889,15310557289,/g3t1_3,,running
Status,890,15310593418,/g3t1_1,,running
Status,891,15310615762,/g3t1_2,,success
Status,892,15310637235,/g3t1_3,,success
Status,893,15310662640,/g3t1_1,,success
Status,894,15345526227,/g4t1,,fail
Status,895,15359748830,/g3t1_2,,running
Status,896,15359855371,/g3t1_3,,running
Status,897,15360689386,/g3t1_3,,success
Status,898,15360753353,/g3t1_2,,success
Status,899,15360844490,/g3t1_1,,running
Status,900,15360881727,/g3t1_1,,success
Status,901,15409584329,/g3t1_2,,running
Status,902,15409612294,/g3t1_3,,running
Status,903,15409621939,/g3t1_3,,success
Status,904,15409630627,/g3t1_2,,success
Status,905,15409984899,/g3t1_1,,running
Status,906,15410013980,/g3t1_1,,success
Status,907,15445228267,/g4t1,,fail
Status,908,15459677500,/g3t1_3,,running
Status,909,15459700716,/g3t1_2,,running
Status,910,15459710087,/g3t1_3,,success
Status,911,15459779482,/g3t1_2,,success
Status,912,15459953583,/g3t1_1,,running
Status,913,15460080476,/g3t1_1,,success
Status,914,15510206072,/g3t1_3,,running
Status,915,15510279376,/g3t1_2,,running
Status,916,15510855278,/g3t1_3,,success
Status,917,15510931542,/g3t1_1,,running
Status,918,15510995604,/g3t1_2,,success
Status,919,15511027303,/g3t1_1,,success
Status,920,15545723304,/g4t1,,fail
Status,921,15559809312,/g3t1_2,,running
Status,922,15559842273,/g3t1_3,,running
Status,923,15559884592,/g3t1_2,,success
Status,924,15560152759,/g3t1_3,,success
Status,925,15560324724,/g3t1_1,,running
Status,926,15560401587,/g3t1_1,,success
Status,927,15609864120,/g3t1_2,,running
Status,928,15609898590,/g3t1_3,,running
Status,929,15610050429,/g3t1_2,,success
Status,930,15610086407,/g3t1_3,,success
Status,931,15610286634,/g3t1_1,,running
Status,932,15611165822,/g3t1_1,,success
Status,933,15645340622,/g4t1,,fail
Status,934,15660026378,/g3t1_3,,running
Status,935,15660178626,/g3t1_2,,running
Status,936,15660333007,/g3t1_3,,success
Status,937,15660355517,/g3t1_2,,success
Status,938,15660451741,/g3t1_1,,running
Status,939,15660579262,/g3t1_1,,success
Status,940,15710117355,/g3t1_2,,running
Status,941,15710146278,/g3t1_3,,running
Status,942,15710306443,/g3t1_3,,success
Status,943,15710354551,/g3t1_2,,success
Status,944,15710370749,/g3t1_1,,running
Status,945,15710580717,/g3t1_1,,success
Status,946,15745357962,/g4t1,,fail
Status,947,15761509087,/g3t1_3,,running
Status,948,15762372139,/g3t1_3,,success
Status,949,15762403741,/g3t1_1,,running
Status,950,15762546957,/g3t1_2,,running
Status,951,15762583841,/g3t1_2,,success
Status,952,15762597924,/g3t1_1,,success
Status,953,15810280912,/g3t1_2,,running
Status,954,15810305476,/g3t1_3,,running
Status,955,15810318483,/g3t1_2,,success
Status,956,15810459449,/g3t1_3,,success
Status,957,15810870324,/g3t1_1,,running
Status,958,15811008618,/g3t1_1,,success
Status,959,15845567012,/g4t1,,fail
Status,960,15860372003,/g3t1_2,,running
Status,961,15860410436,/g3t1_3,,running
Status,962,15860681672,/g3t1_2,,success
Status,963,15860712992,/g3t1_3,,success
Status,964,15860998036,/g3t1_1,,running
Status,965,15861233737,/g3t1_1,,success
Status,966,15911257420,/g3t1_2,,running
Status,967,15911320140,/g3t1_3,,running
Status,968,15911399118,/g3t1_2,,success
Status,969,15911425253,/g3t1_3,,success
Status,970,15911444054,/g3t1_1,,running
Status,971,15911766968,/g3t1_1,,success
Status,972,15945595178,/g4t1,,fail
Status,973,15960704375,/g3t1_2,,running
Status,974,15960748127,/g3t1_3,,running
Status,975,15960758139,/g3t1_3,,success
Status,976,15960766551,/g3t1_2,,success
Status,977,15961116863,/g3t1_1,,running
Status,978,15961274113,/g3t1_1,,success
Status,979,16010559988,/g3t1_2,,running
Status,980,16010586187,/g3t1_3,,running
Status,981,16010623339,/g3t1_2,,success
Status,982,16010721142,/g3t1_3,,success
Status,983,16011176121,/g3t1_1,,running
Status,984,16011302145,/g3t1_1,,success
Status,985,16045683941,/g4t1,,fail
Status,986,16060670594,/g3t1_2,,running
Status,987,16060697738,/g3t1_3,,running
Status,988,16060708724,/g3t1_2,,success
Status,989,16060786099,/g3t1_3,,success
Status,990,16061269831,/g3t1_1,,running
Status,991,16061465536,/g3t1_1,,success
Status,992,16111400829,/g3t1_3,,running
Status,993,16111483610,/g3t1_2,,running
Status,994,16112222076,/g3t1_2,,success
Status,995,16112273379,/g3t1_1,,running
Status,996,16112431455,/g3t1_3,,success
Status,997,16112475455,/g3t1_1,,success
Status,998,16146762923,/g4t1,,fail
Status,999,16161788117,/g3t1_3,,running
Status,1000,16161867092,/g3t1_2,,running
Status,1001,16162424953,/g3t1_1,,running
Status,1002,16162500504,/g3t1_2,,success
Status,1003,16162538739,/g3t1_3,,success
Status,1004,16162773712,/g3t1_1,,success
Status,1005,16212333856,/g3t1_2,,running
Status,1006,16212434961,/g3t1_3,,running
Status,1007,16212522388,/g3t1_2,,success
Status,1008,16212545144,/g3t1_1,,running
Status,1009,16212569046,/g3t1_3,,success
Status,1010,16212734944,/g3t1_1,,success
Status,1011,16246660085,/g4t1,,fail
Status,1012,16262570805,/g3t1_3,,running
Status,1013,16262663074,/g3t1_2,,running
Status,1014,16262840847,/g3t1_1,,running
Status,1015,16262866856,/g3t1_3,,success
Status,1016,16262891580,/g3t1_2,,success
Status,1017,16262955677,/g3t1_1,,success
Status,1018,16312393892,/g3t1_2,,running
Status,1019,16312509053,/g3t1_3,,running
Status,1020,16312760901,/g3t1_1,,running
Status,1021,16313077749,/g3t1_3,,success
Status,1022,16313174027,/g3t1_2,,success
Status,1023,16313284809,/g3t1_1,,success
Status,1024,16346867097,/g4t1,,fail
Status,1025,16362494001,/g3t1_3,,running
Status,1026,16362592077,/g3t1_2,,running
Status,1027,16363164252,/g3t1_1,,running
Status,1028,16363199763,/g3t1_3,,success
Status,1029,16363308928,/g3t1_2,,success
Status,1030,16363818040,/g3t1_1,,success
Status,1031,16413140387,/g3t1_2,,running
Status,1032,16413287175,/g3t1_3,,running
Status,1033,16413333873,/g3t1_1,,running
Status,1034,16413430009,/g3t1_2,,success
Status,1035,16413468727,/g3t1_3,,success
Status,1036,16413502709,/g3t1_1,,success
Status,1037,16446945655,/g4t1,,fail
Status,1038,16462936796,/g3t1_2,,running
Status,1039,16463396845,/g3t1_3,,running
Status,1040,16463468648,/g3t1_1,,running
Status,1041,16463756891,/g3t1_3,,success
Status,1042,16464098299,/g3t1_1,,success
Status,1043,16464432776,/g3t1_2,,success
Status,1044,16512106798,/g3t1_2,,running
Status,1045,16512141972,/g3t1_3,,running
Status,1046,16512192090,/g3t1_2,,success
Status,1047,16512347600,/g3t1_3,,success
Status,1048,16512785309,/g3t1_1,,running
Status,1049,16512808885,/g3t1_1,,success
Status,1050,16546252524,/g4t1,,fail
Status,1051,16562379652,/g3t1_2,,running
Status,1052,16562501380,/g3t1_3,,running
Status,1053,16562514160,/g3t1_3,,success
Status,1054,16562524438,/g3t1_2,,success
Status,1055,16562884335,/g3t1_1,,running
Status,1056,16562976431,/g3t1_1,,success
Status,1057,16612461136,/g3t1_2,,running
Status,1058,16612512130,/g3t1_3,,running
Status,1059,16612776737,/g3t1_2,,success
Status,1060,16612864922,/g3t1_3,,success
Status,1061,16612997627,/g3t1_1,,running
Status,1062,16613144946,/g3t1_1,,success
Status,1063,16646306248,/g4t1,,fail
Status,1064,16662607713,/g3t1_2,,running
Status,1065,16662640520,/g3t1_3,,running
Status,1066,16662652148,/g3t1_2,,success
Status,1067,16662664763,/g3t1_3,,success
Status,1068,16662864597,/g3t1_1,,running
Status,1069,16663081205,/g3t1_1,,success
Status,1070,16712668159,/g3t1_3,,running
Status,1071,16712714685,/g3t1_2,,running
Status,1072,16712757258,/g3t1_2,,success
Status,1073,16712831060,/g3t1_3,,success
Status,1074,16712970414,/g3t1_1,,running
Status,1075,16713157408,/g3t1_1,,success
Status,1076,16746842596,/g4t1,,fail
Status,1077,16763009463,/g3t1_3,,running
Status,1078,16763081913,/g3t1_2,,running
Status,1079,16763347637,/g3t1_1,,running
Status,1080,16763418448,/g3t1_3,,success
Status,1081,16763911133,/g3t1_1,,success
Status,1082,16764043410,/g3t1_2,,success
Status,1083,16813865022,/g3t1_2,,running
Status,1084,16814021021,/g3t1_3,,running
Status,1085,16814222924,/g3t1_1,,running
Status,1086,16814272965,/g3t1_2,,success
Status,1087,16814400355,/g3t1_3,,success
Status,1088,16814649840,/g3t1_1,,success
Status,1089,16847198544,/g4t1,,fail
Status,1090,16863836971,/g3t1_2,,running
Status,1091,16864041512,/g3t1_3,,running
Status,1092,16864118318,/g3t1_3,,success
Status,1093,16864604299,/g3t1_1,,running
Status,1094,16864669455,/g3t1_2,,success
Status,1095,16864694877,/g3t1_1,,success
Status,1096,16913956575,/g3t1_2,,running
Status,1097,16914044019,/g3t1_3,,running
Status,1098,16914533230,/g3t1_1,,running
Status,1099,16914807804,/g3t1_2,,success
Status,1100,16914872336,/g3t1_1,,success
Status,1101,16915613462,/g3t1_3,,success
Status,1102,16946500584,/g4t1,,fail
Status,1103,16963087467,/g3t1_3,,running
Status,1104,16963119456,/g3t1_2,,running
Status,1105,16963229135,/g3t1_3,,success
Status,1106,16963246460,/g3t1_2,,success
Status,1107,16963402025,/g3t1_1,,running
Status,1108,16963581852,/g3t1_1,,success
Status,1109,17014669016,/g3t1_3,,running
Status,1110,17014759299,/g3t1_2,,running
Status,1111,17014802363,/g3t1_1,,running
Status,1112,17014989530,/g3t1_2,,success
Status,1113,17015310952,/g3t1_1,,success
Status,1114,17015376953,/g3t1_3,,success
Status,1115,17047049934,/g4t1,,fail
Status,1116,17063428343,/g3t1_3,,running
Status,1117,17064105095,/g3t1_2,,running
Status,1118,17064122157,/g3t1_3,,success
Status,1119,17064214174,/g3t1_2,,success
Status,1120,17064228595,/g3t1_1,,running
Status,1121,17064250014,/g3t1_1,,success
Status,1122,17113524479,/g3t1_2,,running
Status,1123,17113555074,/g3t1_3,,running
Status,1124,17113591688,/g3t1_3,,success
Status,1125,17113604051,/g3t1_2,,success
Status,1126,17113919965,/g3t1_1,,running
Status,1127,17114138487,/g3t1_1,,success
Status,1128,17146838427,/g4t1,,fail
Status,1129,17163813433,/g3t1_2,,running
Status,1130,17163882515,/g3t1_3,,running
Status,1131,17164113349,/g3t1_2,,success
Status,1132,17164315900,/g3t1_1,,running
Status,1133,17164489153,/g3t1_1,,success
Status,1134,17164520346,/g3t1_3,,success
Status,1135,17214310942,/g3t1_2,,running
Status,1136,17214374205,/g3t1_3,,running
Status,1137,17214393848,/g3t1_3,,success
Status,1138,17214738603,/g3t1_1,,running
Status,1139,17214783243,/g3t1_2,,success
Status,1140,17215289472,/g3t1_1,,success
Status,1141,17246973251,/g4t1,,fail
Status,1142,17264534131,/g3t1_3,,running
Status,1143,17264599732,/g3t1_2,,running
Status,1144,17264649385,/g3t1_3,,success
Status,1145,17264664980,/g3t1_1,,running
Status,1146,17264682023,/g3t1_2,,success
Status,1147,17264697421,/g3t1_1,,success
Status,1148,17314525904,/g3t1_2,,running
Status,1149,17314611507,/g3t1_3,,running
Status,1150,17315333818,/g3t1_1,,running
Status,1151,17315932568,/g3t1_3,,success
Status,1152,17316012127,/g3t1_2,,success
Status,1153,17316066247,/g3t1_1,,success
Status,1154,17347496278,/g4t1,,fail
Status,1155,17364047361,/g3t1_2,,running
Status,1156,17364079850,/g3t1_3,,running
Status,1157,17364241317,/g3t1_3,,success
Status,1158,17364696742,/g3t1_1,,running
Status,1159,17364756229,/g3t1_1,,success
Status,1160,17364785990,/g3t1_2,,success
Status,1161,17414380369,/g3t1_3,,running
Status,1162,17414662804,/g3t1_2,,running
Status,1163,17415174945,/g3t1_2,,success
Status,1164,17415211494,/g3t1_1,,running
Status,1165,17415230407,/g3t1_1,,success
Status,1166,17415875194,/g3t1_3,,success
Status,1167,17447119169,/g4t1,,fail
Status,1168,17464203352,/g3t1_2,,running
Status,1169,17464230491,/g3t1_3,,running
Status,1170,17464245254,/g3t1_2,,success
Status,1171,17464315884,/g3t1_3,,success
Status,1172,17464673192,/g3t1_1,,running
Status,1173,17464990738,/g3t1_1,,success
Status,1174,17515778513,/g3t1_2,,running
Status,1175,17515903521,/g3t1_3,,running
Status,1176,17515999534,/g3t1_1,,running
Status,1177,17516021876,/g3t1_1,,success
Status,1178,17516114953,/g3t1_2,,success
Status,1179,17516135552,/g3t1_3,,success
Status,1180,17547952043,/g4t1,,fail
Status,1181,17565020981,/g3t1_3,,running
Status,1182,17566100600,/g3t1_2,,running
Status,1183,17566170308,/g3t1_3,,success
Status,1184,17566233535,/g3t1_2,,success
Status,1185,17566275070,/g3t1_1,,running
Status,1186,17566316011,/g3t1_1,,success
Status,1187,17614888612,/g3t1_2,,running
Status,1188,17614975205,/g3t1_3,,running
Status,1189,17615361603,/g3t1_2,,success
Status,1190,17615442200,/g3t1_1,,running
Status,1191,17615516182,/g3t1_3,,success
Status,1192,17615979932,/g3t1_1,,success
Status,1193,17647711388,/g4t1,,fail
Status,1194,17665235679,/g3t1_3,,running
Status,1195,17665298305,/g3t1_2,,running
Status,1196,17666070060,/g3t1_1,,running
Status,1197,17666111933,/g3t1_3,,success
Status,1198,17666172020,/g3t1_2,,success
Status,1199,17666189525,/g3t1_1,,success
Status,1200,17715921665,/g3t1_3,,running
Status,1201,17716005675,/g3t1_2,,running
Status,1202,17716046356,/g3t1_1,,running
Status,1203,17716517267,/g3t1_2,,success
Status,1204,17716574625,/g3t1_1,,success
Status,1205,17716610708,/g3t1_3,,success
Status,1206,17748383209,/g4t1,,fail
Status,1207,17766051242,/g3t1_3,,running
Status,1208,17766155115,/g3t1_2,,running
Status,1209,17766681939,/g3t1_3,,success
Status,1210,17766726214,/g3t1_1,,running
Status,1211,17766757452,/g3t1_2,,success
Status,1212,17766786676,/g3t1_1,,success
Status,1213,17815778990,/g3t1_2,,running
Status,1214,17815865002,/g3t1_3,,running
Status,1215,17816689814,/g3t1_1,,running
Status,1216,17816754418,/g3t1_3,,success
Status,1217,17816792205,/g3t1_1,,success
Status,1218,17816983107,/g3t1_2,,success
Status,1219,17848443519,/g4t1,,fail
Status,1220,17865635269,/g3t1_3,,running
Status,1221,17865777124,/g3t1_2,,running
Status,1222,17866045067,/g3t1_3,,success
Status,1223,17866544507,/g3t1_1,,running
Status,1224,17866595318,/g3t1_2,,success
Status,1225,17867019279,/g3t1_1,,success
Status,1226,17916701423,/g3t1_2,,running
Status,1227,17916764774,/g3t1_3,,running
Status,1228,17916808062,/g3t1_3,,success
Status,1229,17917001353,/g3t1_2,,success
Status,1230,17917091175,/g3t1_1,,running
Status,1231,17917146845,/g3t1_1,,success
Status,1232,17948454805,/g4t1,,fail
Status,1233,17966339768,/g3t1_2,,running
Status,1234,17966401747,/g3t1_3,,running
Status,1235,17966482076,/g3t1_3,,success
Status,1236,17966605454,/g3t1_2,,success
Status,1237,17967227742,/g3t1_1,,running
Status,1238,17967326745,/g3t1_1,,success
Status,1239,18016367220,/g3t1_3,,running
Status,1240,18016478301,/g3t1_2,,running
Status,1241,18016883792,/g3t1_2,,success
Status,1242,18017383543,/g3t1_3,,success
Status,1243,18017455614,/g3t1_1,,running
Status,1244,18017505751,/g3t1_1,,success
Status,1245,18048687532,/g4t1,,fail
Status,1246,18066479006,/g3t1_2,,running
Status,1247,18067898933,/g3t1_3,,running
Status,1248,18067983892,/g3t1_3,,success
Status,1249,18068428203,/g3t1_2,,success
Status,1250,18068476532,/g3t1_1,,running
Status,1251,18068511138,/g3t1_1,,success
Status,1252,18115655480,/g3t1_2,,running
Status,1253,18115696773,/g3t1_2,,success
Status,1254,18116572113,/g3t1_3,,running
Status,1255,18116599985,/g3t1_3,,success
Status,1256,18117808989,/g3t1_1,,running
Status,1257,18117851658,/g3t1_1,,success
Status,1258,18147986661,/g4t1,,fail
Status,1259,18165632421,/g3t1_2,,running
Status,1260,18166187372,/g3t1_2,,success
Status,1261,18166214823,/g3t1_3,,running
Status,1262,18166332642,/g3t1_3,,success
Status,1263,18167628654,/g3t1_1,,running
Status,1264,18167816556,/g3t1_1,,success
Status,1265,18215724633,/g3t1_2,,running
Status,1266,18215841238,/g3t1_2,,success
Status,1267,18216112607,/g3t1_3,,running
Status,1268,18216452942,/g3t1_3,,success
Status,1269,18217624769,/g3t1_1,,running
Status,1270,18217826860,/g3t1_1,,success
Status,1271,18248591958,/g4t1,,fail
Status,1272,18265831327,/g3t1_2,,running
Status,1273,18265885487,/g3t1_2,,success
Status,1274,18266149673,/g3t1_3,,running
Status,1275,18266413767,/g3t1_3,,success
Status,1276,18267655548,/g3t1_1,,running
Status,1277,18267879719,/g3t1_1,,success
Status,1278,18315955498,/g3t1_2,,running
Status,1279,18315989801,/g3t1_2,,success
Status,1280,18316358579,/g3t1_3,,running
Status,1281,18316417775,/g3t1_3,,success
Status,1282,18317696298,/g3t1_1,,running
Status,1283,18317881144,/g3t1_1,,success
Status,1284,18348310306,/g4t1,,fail
Status,1285,18366081046,/g3t1_2,,running
Status,1286,18366212031,/g3t1_2,,success
Status,1287,18366487854,/g3t1_3,,running
Status,1288,18366624986,/g3t1_3,,success
Status,1289,18367831485,/g3t1_1,,running
Status,1290,18367964491,/g3t1_1,,success
Status,1291,18416319798,/g3t1_2,,running
Status,1292,18417110210,/g3t1_2,,success
Status,1293,18417168311,/g3t1_3,,running
Status,1294,18417581484,/g3t1_3,,success
Status,1295,18418320937,/g3t1_1,,running
Status,1296,18418659013,/g3t1_1,,success
Status,1297,18448730771,/g4t1,,fail
Status,1298,18466622789,/g3t1_2,,running
Status,1299,18467132123,/g3t1_2,,success
Status,1300,18467192904,/g3t1_3,,running
Status,1301,18467682118,/g3t1_3,,success
Status,1302,18468215439,/g3t1_1,,running
Status,1303,18468507510,/g3t1_1,,success
Status,1304,18516659675,/g3t1_2,,running
Status,1305,18517023882,/g3t1_2,,success
Status,1306,18517076467,/g3t1_3,,running
Status,1307,18517488628,/g3t1_3,,success
Status,1308,18518593740,/g3t1_1,,running
Status,1309,18518634138,/g3t1_1,,success
Status,1310,18548856026,/g4t1,,fail
Status,1311,18566643766,/g3t1_2,,running
Status,1312,18567216747,/g3t1_2,,success
Status,1313,18567264521,/g3t1_3,,running
Status,1314,18567597841,/g3t1_3,,success
Status,1315,18568400947,/g3t1_1,,running
Status,1316,18568766842,/g3t1_1,,success
Status,1317,18617024170,/g3t1_2,,running
Status,1318,18617706536,/g3t1_2,,success
Status,1319,18617783369,/g3t1_3,,running
Status,1320,18619105557,/g3t1_1,,running
Status,1321,18619803254,/g3t1_3,,success
Status,1322,18620120857,/g3t1_1,,success
Status,1323,18649283580,/g4t1,,fail
Status,1324,18667279077,/g3t1_2,,running
Status,1325,18667620890,/g3t1_3,,running
Status,1326,18668545798,/g3t1_3,,success
Status,1327,18668625764,/g3t1_2,,success
Status,1328,18669593891,/g3t1_1,,running
Status,1329,18669870427,/g3t1_1,,success
Status,1330,18717828834,/g3t1_2,,running
Status,1331,18717984433,/g3t1_3,,running
Status,1332,18718121814,/g3t1_2,,success
Status,1333,18718146531,/g3t1_3,,success
Status,1334,18719260535,/g3t1_1,,running
Status,1335,18719899544,/g3t1_1,,success
Status,1336,18749355317,/g4t1,,fail
Status,1337,18767831346,/g3t1_2,,running
Status,1338,18767929774,/g3t1_3,,running
Status,1339,18768080418,/g3t1_2,,success
Status,1340,18768554438,/g3t1_3,,success
Status,1341,18769698086,/g3t1_1,,running
Status,1342,18770027561,/g3t1_1,,success
Status,1343,18817461876,/g3t1_2,,running
Status,1344,18817587651,/g3t1_2,,success
Status,1345,18817921382,/g3t1_3,,running
Status,1346,18818318151,/g3t1_3,,success
Status,1347,18819334937,/g3t1_1,,running
Status,1348,18819816728,/g3t1_1,,success
Status,1349,18849493543,/g4t1,,fail
Status,1350,18867847207,/g3t1_2,,running
Status,1351,18867977850,/g3t1_2,,success
Status,1352,18868103831,/g3t1_3,,running
Status,1353,18868515416,/g3t1_3,,success
Status,1354,18869723385,/g3t1_1,,running
Status,1355,18870082270,/g3t1_1,,success
Status,1356,18917709213,/g3t1_2,,running
Status,1357,18918275138,/g3t1_3,,running
Status,1358,18918433121,/g3t1_2,,success
Status,1359,18918545031,/g3t1_3,,success
Status,1360,18919668036,/g3t1_1,,running
Status,1361,18920275924,/g3t1_1,,success
Status,1362,18949553323,/g4t1,,fail
Status,1363,18968355277,/g3t1_2,,running
Status,1364,18968451485,/g3t1_2,,success
Status,1365,18968569384,/g3t1_3,,running
Status,1366,18968999118,/g3t1_3,,success
Status,1367,18970277867,/g3t1_1,,running
Status,1368,18970484955,/g3t1_1,,success
Status,1369,19017979207,/g3t1_2,,running
Status,1370,19018325957,/g3t1_3,,running
Status,1371,19018399691,/g3t1_2,,success
Status,1372,19018882075,/g3t1_3,,success
Status,1373,19020212480,/g3t1_1,,running
Status,1374,19020326783,/g3t1_1,,success
Status,1375,19049682972,/g4t1,,fail
Status,1376,19068326034,/g3t1_2,,running
Status,1377,19068530679,/g3t1_3,,running
Status,1378,19068610165,/g3t1_2,,success
Status,1379,19069180980,/g3t1_3,,success
Status,1380,19070115392,/g3t1_1,,running
Status,1381,19071400338,/g3t1_1,,success
Status,1382,19118408965,/g3t1_2,,running
Status,1383,19119213149,/g3t1_3,,running
Status,1384,19119387739,/g3t1_2,,success
Status,1385,19119897470,/g3t1_3,,success
Status,1386,19120556998,/g3t1_1,,running
Status,1387,19121336815,/g3t1_1,,success
Status,1388,19149699425,/g4t1,,fail
Status,1389,19168780498,/g3t1_2,,running
Status,1390,19168873347,/g3t1_3,,running
Status,1391,19169075409,/g3t1_2,,success
Status,1392,19169355850,/g3t1_3,,success
Status,1393,19170638689,/g3t1_1,,running
Status,1394,19171005177,/g3t1_1,,success
Status,1395,19218689278,/g3t1_2,,running
Status,1396,19218778613,/g3t1_3,,running
Status,1397,19218957238,/g3t1_2,,success
Status,1398,19219256774,/g3t1_3,,success
Status,1399,19220522046,/g3t1_1,,running
Status,1400,19221095633,/g3t1_1,,success
Status,1401,19249892144,/g4t1,,fail
Status,1402,19268798063,/g3t1_2,,running
Status,1403,19268895654,/g3t1_3,,running
Status,1404,19269848545,/g3t1_2,,success
Status,1405,19269961629,/g3t1_3,,success
Status,1406,19270645483,/g3t1_1,,running
Status,1407,19271931994,/g3t1_1,,success
Status,1408,19319202656,/g3t1_2,,running
Status,1409,19319306675,/g3t1_2,,success
Status,1410,19319473085,/g3t1_3,,running
Status,1411,19319524255,/g3t1_3,,success
Status,1412,19321229442,/g3t1_1,,running
Status,1413,19321374860,/g3t1_1,,success
Status,1414,19349363757,/g4t1,,fail
Status,1415,19368114468,/g3t1_2,,running
Status,1416,19368201975,/g3t1_2,,success
Status,1417,19368408450,/g3t1_3,,running
Status,1418,19368736577,/g3t1_3,,success
Status,1419,19370640861,/g3t1_1,,running
Status,1420,19370756409,/g3t1_1,,success
Status,1421,19418203169,/g3t1_2,,running
Status,1422,19418397364,/g3t1_2,,success
Status,1423,19418429653,/g3t1_3,,running
Status,1424,19418830002,/g3t1_3,,success
Status,1425,19420779422,/g3t1_1,,running
Status,1426,19420808204,/g3t1_1,,success
Status,1427,19449268500,/g4t1,,fail
Status,1428,19468348859,/g3t1_2,,running
Status,1429,19468489484,/g3t1_2,,success
Status,1430,19468678092,/g3t1_3,,running
Status,1431,19468811267,/g3t1_3,,success
Status,1432,19470624714,/g3t1_1,,running
Status,1433,19470684135,/g3t1_1,,success
Status,1434,19518506388,/g3t1_2,,running
Status,1435,19518537768,/g3t1_2,,success
Status,1436,19518661585,/g3t1_3,,running
Status,1437,19518867266,/g3t1_3,,success
Status,1438,19520704032,/g3t1_1,,running
Status,1439,19520788346,/g3t1_1,,success
Status,1440,19549344744,/g4t1,,fail
Status,1441,19568644562,/g3t1_2,,running
Status,1442,19568765550,/g3t1_3,,running
Status,1443,19568789763,/g3t1_2,,success
Status,1444,19569076958,/g3t1_3,,success
Status,1445,19571125457,/g3t1_1,,running
Status,1446,19571164902,/g3t1_1,,success
Status,1447,19618580000,/g3t1_2,,running
Status,1448,19618612599,/g3t1_2,,success
Status,1449,19619241368,/g3t1_3,,running
Status,1450,19619263718,/g3t1_3,,success
Status,1451,19620901023,/g3t1_1,,running
Status,1452,19621088696,/g3t1_1,,success
Status,1453,19649417194,/g4t1,,fail
Status,1454,19668676960,/g3t1_2,,running
Status,1455,19669019396,/g3t1_3,,running
Status,1456,19669321751,/g3t1_3,,success
Status,1457,19669347340,/g3t1_2,,success
Status,1458,19671200873,/g3t1_1,,running
Status,1459,19671296814,/g3t1_1,,success
Status,1460,19718677131,/g3t1_2,,running
Status,1461,19718700255,/g3t1_2,,success
Status,1462,19719003778,/g3t1_3,,running
Status,1463,19719038715,/g3t1_3,,success
Status,1464,19720915772,/g3t1_1,,running
Status,1465,19721063811,/g3t1_1,,success
Status,1466,19749556651,/g4t1,,fail
Status,1467,19768814708,/g3t1_2,,running
Status,1468,19769163512,/g3t1_2,,success
Status,1469,19769196992,/g3t1_3,,running
Status,1470,19769351905,/g3t1_3,,success
Status,1471,19771077617,/g3t1_1,,running
Status,1472,19771797878,/g3t1_1,,success
Status,1473,19819048581,/g3t1_2,,running
Status,1474,19819087378,/g3t1_2,,success
Status,1475,19819135077,/g3t1_3,,running
Status,1476,19819314356,/g3t1_3,,success
Status,1477,19821096927,/g3t1_1,,running
Status,1478,19821481803,/g3t1_1,,success
Status,1479,19849503471,/g4t1,,fail
Status,1480,19869895218,/g3t1_2,,running
Status,1481,19869968063,/g3t1_3,,running
Status,1482,19870266948,/g3t1_2,,success
Status,1483,19871861205,/g3t1_3,,success
Status,1484,19871918873,/g3t1_1,,running
Status,1485,19871970443,/g3t1_1,,success
Status,1486,19919722567,/g3t1_2,,running
Status,1487,19919763260,/g3t1_3,,running
Status,1488,19919779045,/g3t1_2,,success
Status,1489,19919791083,/g3t1_3,,success
Status,1490,19922264511,/g3t1_1,,running
Status,1491,19922323937,/g3t1_1,,success
Status,1492,19949688289,/g4t1,,fail
Status,1493,19969152823,/g3t1_2,,running
Status,1494,19969403867,/g3t1_2,,success
Status,1495,19969435975,/g3t1_3,,running
Status,1496,19969590385,/g3t1_3,,success
Status,1497,19971337105,/g3t1_1,,running
Status,1498,19971455606,/g3t1_1,,success
Status,1499,20020098518,/g3t1_2,,running
Status,1500,20020600439,/g3t1_2,,success
Status,1501,20020870865,/g3t1_3,,running
Status,1502,20020953292,/g3t1_3,,success
Status,1503,20021861260,/g3t1_1,,running
Status,1504,20022056911,/g3t1_1,,success
Status,1505,20049782315,/g4t1,,fail
Status,1506,20070179574,/g3t1_2,,running
Status,1507,20070226263,/g3t1_3,,running
Status,1508,20070353228,/g3t1_2,,success
Status,1509,20070384576,/g3t1_3,,success
Status,1510,20072526966,/g3t1_1,,running
Status,1511,20072564248,/g3t1_1,,success
Status,1512,20119960557,/g3t1_2,,running
Status,1513,20120001293,/g3t1_3,,running
