
Status,2,20417018313,/g4t1,,init
Status,3,25629826095,/g3t1_1,,init
Status,5,25634278725,/g3t1_1,,init
Status,6,25634294330,/g3t1_1,,running
Status,7,25635444634,/g3t1_1,,success
Status,9,25732057911,/g3t1_2,,init
Status,10,25737700815,/g3t1_2,,init
Status,11,25737717322,/g3t1_2,,running
Status,12,25739318790,/g3t1_2,,success
Status,14,25833373175,/g3t1_3,,init
Status,15,25837410693,/g3t1_3,,init
Status,16,25837421683,/g3t1_3,,running
Status,17,25838243321,/g3t1_3,,success
Status,19,25933850964,/g3t1_4,,init
Status,20,25937791242,/g3t1_2,,running
Status,21,25937910364,/g3t1_2,,success
Status,22,25940008451,/g3t1_4,,init
Status,23,25940023697,/g3t1_4,,running
Status,24,25941796160,/g3t1_4,,success
Status,26,26138721829,/g3t1_2,,running
Status,27,26139309873,/g3t1_2,,success
Status,30,26339083638,/g3t1_2,,running
Status,31,26339447280,/g3t1_2,,success
Status,33,26426860199,/g4t1,,success
Status,35,26539183676,/g3t1_2,,running
Status,36,26539802035,/g3t1_2,,success
Status,40,26739368202,/g3t1_2,,running
Status,41,26740056550,/g3t1_2,,success
Status,46,26939665719,/g3t1_2,,running
Status,47,26939725603,/g3t1_2,,success
Status,48,26940774435,/g3t1_4,,running
Status,51,26950080675,/g3t1_4,,success
Status,54,27139743245,/g3t1_2,,running
Status,55,27140138074,/g3t1_2,,fail
Status,60,27339812403,/g3t1_2,,running
Status,61,27340474453,/g3t1_2,,success
Status,64,27426878576,/g4t1,,success
Status,67,27540069902,/g3t1_2,,running
Status,68,27540116949,/g3t1_2,,success
Status,74,27739908742,/g3t1_2,,running
Status,75,27740266018,/g3t1_2,,fail
Status,80,27940277998,/g3t1_2,,running
Status,81,27940364881,/g3t1_2,,fail
Status,82,27941207495,/g3t1_4,,running
Status,85,27948793741,/g3t1_4,,success
Status,88,28140058394,/g3t1_2,,running
Status,89,28140352817,/g3t1_2,,fail
Status,94,28340558543,/g3t1_2,,running
Status,95,28340621388,/g3t1_2,,fail
Status,98,28427206197,/g4t1,,success
Status,101,28540509943,/g3t1_2,,running
Status,102,28540563664,/g3t1_2,,fail
Status,109,28740549639,/g3t1_2,,running
Status,110,28741046473,/g3t1_2,,success
Status,117,28940870268,/g3t1_2,,running
Status,118,28941214462,/g3t1_2,,fail
Status,119,28941273326,/g3t1_4,,running
Status,123,28947214392,/g3t1_4,,fail
Status,127,29141109235,/g3t1_2,,running
Status,128,29141170958,/g3t1_2,,fail
Status,135,29340982694,/g3t1_2,,running
Status,136,29341113639,/g3t1_2,,fail
Status,140,29427419374,/g4t1,,success
Status,144,29541328507,/g3t1_2,,running
Status,145,29541390758,/g3t1_2,,fail
Status,153,29741470415,/g3t1_2,,running
Status,154,29742099113,/g3t1_2,,fail
Status,159,29941831524,/g3t1_2,,running
Status,160,29941889089,/g3t1_4,,running
Status,161,29941915807,/g3t1_2,,fail
Status,162,29945558749,/g3t1_4,,success
Status,167,30142002967,/g3t1_2,,running
Status,168,30142114265,/g3t1_2,,fail
Status,173,30342285008,/g3t1_2,,running
Status,174,30342345796,/g3t1_2,,fail
Status,177,30427610360,/g4t1,,success
Status,180,30542604742,/g3t1_2,,running
Status,181,30542681112,/g3t1_2,,fail
Status,184,30635253275,/g3t1_1,,running
Status,185,30635631686,/g3t1_1,,fail
Status,189,30742647148,/g3t1_2,,running
Status,190,30742829923,/g3t1_2,,fail
Status,195,30941713970,/g3t1_4,,running
Status,196,30942743281,/g3t1_2,,running
Status,197,30942792547,/g3t1_2,,fail
Status,199,30949613412,/g3t1_4,,success
Status,203,31142870573,/g3t1_2,,running
Status,204,31142924615,/g3t1_2,,fail
Status,209,31343304681,/g3t1_2,,running
Status,210,31343365318,/g3t1_2,,fail
Status,213,31427619585,/g4t1,,success
Status,216,31543431814,/g3t1_2,,running
Status,217,31543493273,/g3t1_2,,fail
Status,223,31743313958,/g3t1_2,,running
Status,224,31743593648,/g3t1_2,,fail
Status,229,31942015041,/g3t1_4,,running
Status,230,31943239266,/g3t1_2,,running
Status,231,31943723710,/g3t1_2,,fail
Status,232,31949608898,/g3t1_4,,success
Status,237,32143913524,/g3t1_2,,running
Status,238,32143975029,/g3t1_2,,fail
Status,243,32343977687,/g3t1_2,,running
Status,244,32344030692,/g3t1_2,,fail
Status,247,32427645972,/g4t1,,success
Status,250,32544059224,/g3t1_2,,running
Status,251,32544200616,/g3t1_2,,fail
Status,257,32744156817,/g3t1_2,,running
Status,258,32744217020,/g3t1_2,,fail
Status,263,32942143784,/g3t1_4,,running
Status,264,32943895187,/g3t1_2,,running
Status,265,32944173742,/g3t1_2,,fail
Status,266,32948905009,/g3t1_4,,success
Status,271,33144697004,/g3t1_2,,running
Status,272,33144758489,/g3t1_2,,fail
Status,277,33344642679,/g3t1_2,,running
Status,278,33344969838,/g3t1_2,,fail
Status,281,33427859370,/g4t1,,success
Status,284,33544556997,/g3t1_2,,running
Status,285,33544618382,/g3t1_2,,fail
Status,291,33744758774,/g3t1_2,,running
Status,292,33744819041,/g3t1_2,,fail
Status,297,33942340663,/g3t1_4,,running
Status,298,33944721718,/g3t1_2,,running
Status,299,33945107640,/g3t1_2,,fail
Status,300,33950213530,/g3t1_4,,success
Status,305,34144861430,/g3t1_2,,running
Status,306,34145158709,/g3t1_2,,fail
Status,311,34345173033,/g3t1_2,,running
Status,312,34345234000,/g3t1_2,,fail
Status,315,34428075891,/g4t1,,success
Status,318,34545257113,/g3t1_2,,running
Status,319,34545624405,/g3t1_2,,fail
Status,325,34745458040,/g3t1_2,,running
Status,326,34745511967,/g3t1_2,,fail
Status,331,34942185992,/g3t1_4,,running
Status,332,34945235093,/g3t1_2,,running
Status,333,34945398801,/g3t1_2,,fail
Status,334,34948593425,/g3t1_4,,success
Status,339,35145856881,/g3t1_2,,running
Status,340,35146039511,/g3t1_2,,fail
Status,345,35345797274,/g3t1_2,,running
Status,346,35345851483,/g3t1_2,,fail
Status,349,35428246746,/g4t1,,success
Status,352,35545930126,/g3t1_2,,running
Status,353,35546016431,/g3t1_2,,fail
Status,356,35635674312,/g3t1_1,,running
Status,357,35636080303,/g3t1_1,,fail
Status,361,35746321016,/g3t1_2,,running
Status,362,35746384098,/g3t1_2,,fail
Status,365,35838749494,/g3t1_3,,running
Status,366,35839075827,/g3t1_3,,fail
Status,369,35942685722,/g3t1_4,,running
Status,370,35946156432,/g3t1_2,,running
Status,371,35946414545,/g3t1_2,,fail
Status,372,35949414470,/g3t1_4,,success
Status,377,36146749971,/g3t1_2,,running
Status,378,36146813001,/g3t1_2,,fail
Status,383,36347094240,/g3t1_2,,running
Status,384,36347154494,/g3t1_2,,fail
Status,387,36428594822,/g4t1,,success
Status,390,36547202238,/g3t1_2,,running
Status,391,36547267478,/g3t1_2,,fail
Status,397,36747245405,/g3t1_2,,running
Status,398,36747576374,/g3t1_2,,fail
Status,403,36943002791,/g3t1_4,,running
Status,404,36947056923,/g3t1_2,,running
Status,405,36947443314,/g3t1_2,,fail
Status,406,36950320960,/g3t1_4,,success
Status,411,37147513969,/g3t1_2,,running
Status,412,37147928733,/g3t1_2,,fail
Status,417,37346906933,/g3t1_2,,running
Status,418,37346932813,/g3t1_2,,fail
Status,421,37428581875,/g4t1,,success
Status,424,37547798020,/g3t1_2,,running
Status,425,37548026245,/g3t1_2,,fail
Status,431,37747950853,/g3t1_2,,running
Status,432,37748012373,/g3t1_2,,fail
Status,437,37943157716,/g3t1_4,,running
Status,438,37947719663,/g3t1_2,,running
Status,439,37948037247,/g3t1_2,,fail
Status,440,37950786325,/g3t1_4,,success
Status,445,38148037172,/g3t1_2,,running
Status,446,38148117898,/g3t1_2,,fail
Status,451,38348074901,/g3t1_2,,running
Status,452,38348391223,/g3t1_2,,fail
Status,455,38428618854,/g4t1,,success
Status,458,38548145652,/g3t1_2,,running
Status,459,38548541655,/g3t1_2,,fail
Status,465,38748514931,/g3t1_2,,running
Status,466,38749139293,/g3t1_2,,fail
Status,471,38943474760,/g3t1_4,,running
Status,472,38948434533,/g3t1_2,,running
Status,473,38948605054,/g3t1_2,,fail
Status,474,38951206278,/g3t1_4,,success
Status,479,39148399316,/g3t1_2,,running
Status,480,39148448162,/g3t1_2,,fail
Status,485,39348961043,/g3t1_2,,running
Status,486,39349298665,/g3t1_2,,fail
Status,491,39548350540,/g3t1_2,,running
Status,492,39548377922,/g3t1_2,,fail
Status,498,39748635225,/g3t1_2,,running
Status,499,39748666703,/g3t1_2,,fail
Status,504,39943579261,/g3t1_4,,running
Status,505,39949005649,/g3t1_2,,running
Status,506,39949340085,/g3t1_2,,fail
Status,507,39951292225,/g3t1_4,,success
Status,512,40149622945,/g3t1_2,,running
Status,513,40149702487,/g3t1_2,,fail
Status,518,40349759854,/g3t1_2,,running
Status,519,40350045431,/g3t1_2,,fail
Status,524,40550158510,/g3t1_2,,running
Status,525,40550219093,/g3t1_2,,fail
Status,528,40635913226,/g3t1_1,,running
Status,529,40636183563,/g3t1_1,,fail
Status,533,40750278730,/g3t1_2,,running
Status,534,40750339938,/g3t1_2,,fail
Status,539,40943851758,/g3t1_4,,running
Status,540,40950108819,/g3t1_2,,running
Status,541,40950164760,/g3t1_2,,fail
Status,542,40951400865,/g3t1_4,,success
Status,547,41150588896,/g3t1_2,,running
Status,548,41150890390,/g3t1_2,,fail
Status,553,41350922335,/g3t1_2,,running
Status,554,41351260592,/g3t1_2,,fail
Status,559,41551500840,/g3t1_2,,running
Status,560,41551564340,/g3t1_2,,fail
Status,566,41751085420,/g3t1_2,,running
Status,567,41751377729,/g3t1_2,,fail
Status,572,41943845018,/g3t1_4,,running
Status,573,41951189383,/g3t1_2,,running
Status,574,41951237430,/g3t1_4,,success
Status,575,41951255204,/g3t1_2,,fail
Status,580,42151598653,/g3t1_2,,running
Status,581,42151876958,/g3t1_2,,fail
Status,586,42351809607,/g3t1_2,,running
Status,587,42352100562,/g3t1_2,,fail
Status,592,42552246787,/g3t1_2,,running
Status,593,42552313116,/g3t1_2,,fail
Status,599,42752247827,/g3t1_2,,running
Status,600,42752309112,/g3t1_2,,fail
Status,605,42944058713,/g3t1_4,,running
Status,606,42951319019,/g3t1_4,,success
Status,607,42951987140,/g3t1_2,,running
Status,608,42952292553,/g3t1_2,,fail
Status,613,43152600999,/g3t1_2,,running
Status,614,43152661144,/g3t1_2,,fail
Status,619,43352724518,/g3t1_2,,running
Status,620,43352784947,/g3t1_2,,fail
Status,625,43552893908,/g3t1_2,,running
Status,626,43552973854,/g3t1_2,,fail
Status,632,43752798181,/g3t1_2,,running
Status,633,43753099877,/g3t1_2,,fail
Status,638,43944083077,/g3t1_4,,running
Status,639,43951512977,/g3t1_4,,success
Status,640,43952771130,/g3t1_2,,running
Status,641,43952818955,/g3t1_2,,fail
Status,646,44153177692,/g3t1_2,,running
Status,647,44153646125,/g3t1_2,,fail
Status,652,44353441060,/g3t1_2,,running
Status,653,44353683880,/g3t1_2,,fail
Status,658,44553662260,/g3t1_2,,running
Status,659,44553731439,/g3t1_2,,fail
Status,665,44753815330,/g3t1_2,,running
Status,666,44754255847,/g3t1_2,,fail
Status,671,44943973642,/g3t1_4,,running
Status,672,44950770072,/g3t1_4,,success
Status,673,44953672111,/g3t1_2,,running
Status,674,44953720629,/g3t1_2,,fail
Status,679,45154176865,/g3t1_2,,running
Status,680,45154363575,/g3t1_2,,fail
Status,685,45354440232,/g3t1_2,,running
Status,686,45354594226,/g3t1_2,,fail
Status,691,45554588408,/g3t1_2,,running
Status,692,45554717743,/g3t1_2,,fail
Status,695,45635301207,/g3t1_1,,running
Status,696,45635527670,/g3t1_1,,fail
Status,700,45754871660,/g3t1_2,,running
Status,701,45755307901,/g3t1_2,,fail
Status,704,45838866215,/g3t1_3,,running
Status,705,45839167933,/g3t1_3,,success
Status,707,45944495413,/g3t1_4,,running
Status,708,45952055599,/g3t1_4,,success
Status,709,45954705604,/g3t1_2,,running
Status,710,45955146060,/g3t1_2,,fail
Status,713,46155280298,/g3t1_2,,running
Status,714,46155361268,/g3t1_2,,fail
Status,717,46355476436,/g3t1_2,,running
Status,718,46355779033,/g3t1_2,,fail
Status,720,46430078316,/g4t1,,success
Status,722,46555598174,/g3t1_2,,running
Status,723,46555652444,/g3t1_2,,fail
Status,727,46755793670,/g3t1_2,,running
Status,728,46756345624,/g3t1_2,,success
Status,729,46944367440,/g3t1_4,,running
Status,730,46952174997,/g3t1_4,,success
Status,731,46955569504,/g3t1_2,,running
Status,732,46955965584,/g3t1_2,,success
Status,733,47155833301,/g3t1_2,,running
Status,734,47156217493,/g3t1_2,,success
Status,735,47356191546,/g3t1_2,,running
Status,736,47356826224,/g3t1_2,,success
Status,737,47430532910,/g4t1,,success
Status,738,47556433160,/g3t1_2,,running
Status,739,47557131100,/g3t1_2,,success
Status,741,47756625882,/g3t1_2,,running
Status,742,47757029726,/g3t1_2,,success
Status,743,47944692811,/g3t1_4,,running
Status,744,47952240833,/g3t1_4,,success
Status,745,47956360889,/g3t1_2,,running
Status,746,47956930386,/g3t1_2,,success
Status,747,48156453584,/g3t1_2,,running
Status,748,48157121312,/g3t1_2,,success
Status,749,48357018758,/g3t1_2,,running
Status,750,48357610564,/g3t1_2,,success
Status,751,48430707550,/g4t1,,success
Status,752,48557151611,/g3t1_2,,running
Status,753,48557396543,/g3t1_2,,success
Status,755,48757433598,/g3t1_2,,running
Status,756,48757810430,/g3t1_2,,success
Status,757,48944842069,/g3t1_4,,running
Status,758,48957137894,/g3t1_2,,running
Status,759,48957652964,/g3t1_2,,success
Status,760,48959043280,/g3t1_4,,success
Status,761,49157470052,/g3t1_2,,running
Status,762,49157955075,/g3t1_2,,success
Status,763,49357977251,/g3t1_2,,running
Status,764,49358421426,/g3t1_2,,success
Status,765,49430815122,/g4t1,,success
Status,766,49558132062,/g3t1_2,,running
Status,767,49558360741,/g3t1_2,,success
Status,769,49758230387,/g3t1_2,,running
Status,770,49759210883,/g3t1_2,,success
Status,771,49944927071,/g3t1_4,,running
Status,772,49952006420,/g3t1_4,,success
Status,773,49957724239,/g3t1_2,,running
Status,774,49957923193,/g3t1_2,,success
Status,775,50158443337,/g3t1_2,,running
Status,776,50158901748,/g3t1_2,,success
Status,777,50358989801,/g3t1_2,,running
Status,778,50359647305,/g3t1_2,,success
Status,779,50431021715,/g4t1,,success
Status,780,50559386340,/g3t1_2,,running
Status,781,50559447590,/g3t1_2,,success
Status,782,50635788590,/g3t1_1,,running
Status,783,50636361589,/g3t1_1,,success
Status,785,50759431154,/g3t1_2,,running
Status,786,50759755800,/g3t1_2,,success
Status,787,50945195984,/g3t1_4,,running
Status,788,50952895060,/g3t1_4,,success
Status,789,50959338122,/g3t1_2,,running
Status,790,50960021045,/g3t1_2,,success
Status,791,51159637402,/g3t1_2,,running
Status,792,51160304280,/g3t1_2,,success
Status,793,51359684209,/g3t1_2,,running
Status,794,51360285514,/g3t1_2,,success
Status,795,51431252590,/g4t1,,success
Status,796,51559777528,/g3t1_2,,running
Status,797,51560484271,/g3t1_2,,success
Status,799,51759848955,/g3t1_2,,running
Status,800,51760462298,/g3t1_2,,success
Status,801,51945404632,/g3t1_4,,running
Status,802,51953132225,/g3t1_4,,success
Status,803,51959730087,/g3t1_2,,running
Status,804,51961266881,/g3t1_2,,success
Status,805,52160079519,/g3t1_2,,running
Status,806,52160487031,/g3t1_2,,success
Status,807,52360618212,/g3t1_2,,running
Status,808,52361163160,/g3t1_2,,success
Status,809,52431314862,/g4t1,,success
Status,810,52560923783,/g3t1_2,,running
Status,811,52561175374,/g3t1_2,,success
Status,813,52760668599,/g3t1_2,,running
Status,814,52761206689,/g3t1_2,,success
Status,815,52945629223,/g3t1_4,,running
Status,816,52950613658,/g3t1_4,,success
Status,817,52960498662,/g3t1_2,,running
Status,818,52960693313,/g3t1_2,,success
Status,819,53161191450,/g3t1_2,,running
Status,820,53161933739,/g3t1_2,,success
Status,821,53361415980,/g3t1_2,,running
Status,822,53361970848,/g3t1_2,,success
Status,823,53431593859,/g4t1,,success
Status,824,53561603925,/g3t1_2,,running
Status,825,53561926488,/g3t1_2,,success
Status,827,53761569126,/g3t1_2,,running
Status,828,53761893660,/g3t1_2,,success
Status,829,53945739790,/g3t1_4,,running
Status,830,53952721779,/g3t1_4,,success
Status,831,53961458685,/g3t1_2,,running
Status,832,53962142712,/g3t1_2,,success
Status,833,54162046337,/g3t1_2,,running
Status,834,54162732113,/g3t1_2,,success
Status,835,54362358458,/g3t1_2,,running
Status,836,54362771615,/g3t1_2,,success
Status,837,54431661785,/g4t1,,success
Status,838,54562610747,/g3t1_2,,running
Status,839,54563784706,/g3t1_2,,success
Status,841,54762720493,/g3t1_2,,running
Status,842,54763316676,/g3t1_2,,success
Status,843,54945985155,/g3t1_4,,running
Status,844,54953361045,/g3t1_4,,success
Status,845,54962597312,/g3t1_2,,running
Status,846,54963055968,/g3t1_2,,success
Status,847,55163117842,/g3t1_2,,running
Status,848,55163624647,/g3t1_2,,success
Status,849,55363479976,/g3t1_2,,running
Status,850,55363878857,/g3t1_2,,success
Status,851,55431906492,/g4t1,,success
Status,852,55563682353,/g3t1_2,,running
Status,853,55564032443,/g3t1_2,,success
Status,854,55636023350,/g3t1_1,,running
Status,855,55636667062,/g3t1_1,,success
Status,857,55763753430,/g3t1_2,,running
Status,858,55764408085,/g3t1_2,,success
Status,860,55839025427,/g3t1_3,,running
Status,861,55839287620,/g3t1_3,,fail
Status,863,55946271325,/g3t1_4,,running
Status,864,55953468999,/g3t1_4,,success
Status,865,55963468417,/g3t1_2,,running
Status,866,55964197946,/g3t1_2,,success
Status,869,56163799301,/g3t1_2,,running
Status,870,56164435331,/g3t1_2,,success
Status,873,56364315716,/g3t1_2,,running
Status,874,56364959728,/g3t1_2,,success
Status,876,56431959717,/g4t1,,success
Status,878,56564063954,/g3t1_2,,running
Status,879,56564452009,/g3t1_2,,success
Status,884,56764685886,/g3t1_2,,running
Status,885,56765091625,/g3t1_2,,success
Status,890,56946551334,/g3t1_4,,running
Status,891,56953193125,/g3t1_4,,success
Status,892,56964419004,/g3t1_2,,running
Status,893,56964584302,/g3t1_2,,fail
Status,898,57164852445,/g3t1_2,,running
Status,899,57165562737,/g3t1_2,,success
Status,904,57365089153,/g3t1_2,,running
Status,905,57365487544,/g3t1_2,,success
Status,908,57432200245,/g4t1,,success
Status,911,57565303334,/g3t1_2,,running
Status,912,57565365660,/g3t1_2,,fail
Status,918,57765442412,/g3t1_2,,running
Status,919,57765833463,/g3t1_2,,fail
Status,924,57946708363,/g3t1_4,,running
Status,925,57954646121,/g3t1_4,,success
Status,926,57965967211,/g3t1_2,,running
Status,927,57966677371,/g3t1_2,,fail
Status,932,58166223212,/g3t1_2,,running
Status,933,58166286758,/g3t1_2,,fail
Status,938,58365918347,/g3t1_2,,running
Status,939,58366234571,/g3t1_2,,fail
Status,942,58432160453,/g4t1,,success
Status,945,58566606324,/g3t1_2,,running
Status,946,58566737161,/g3t1_2,,fail
Status,953,58766833212,/g3t1_2,,running
Status,954,58766886565,/g3t1_2,,fail
Status,961,58946600110,/g3t1_4,,running
Status,962,58951045755,/g3t1_4,,fail
Status,963,58966618163,/g3t1_2,,running
Status,964,58966676858,/g3t1_2,,fail
Status,971,59167041275,/g3t1_2,,running
Status,972,59167094275,/g3t1_2,,fail
Status,979,59367287837,/g3t1_2,,running
Status,980,59367341236,/g3t1_2,,fail
Status,984,59432135785,/g4t1,,success
Status,988,59567327734,/g3t1_2,,running
Status,989,59567384590,/g3t1_2,,fail
Status,997,59767780579,/g3t1_2,,running
Status,998,59767841287,/g3t1_2,,fail
Status,1003,59946834717,/g3t1_4,,running
Status,1004,59950802911,/g3t1_4,,success
Status,1005,59967575140,/g3t1_2,,running
Status,1006,59967840722,/g3t1_2,,fail
Status,1011,60167687692,/g3t1_2,,running
Status,1012,60167740882,/g3t1_2,,fail
Status,1017,60367965958,/g3t1_2,,running
Status,1018,60368246263,/g3t1_2,,fail
Status,1021,60432448052,/g4t1,,success
Status,1024,60568305916,/g3t1_2,,running
Status,1025,60568367300,/g3t1_2,,fail
Status,1028,60636211910,/g3t1_1,,running
Status,1029,60636265796,/g3t1_1,,fail
Status,1033,60768555249,/g3t1_2,,running
Status,1034,60768609766,/g3t1_2,,fail
Status,1039,60947017786,/g3t1_4,,running
Status,1040,60954612855,/g3t1_4,,success
Status,1041,60968269709,/g3t1_2,,running
Status,1042,60968620935,/g3t1_2,,fail
Status,1047,61168760373,/g3t1_2,,running
Status,1048,61169056138,/g3t1_2,,fail
Status,1053,61368797811,/g3t1_2,,running
Status,1054,61369053368,/g3t1_2,,fail
Status,1057,61432493247,/g4t1,,success
Status,1060,61568766514,/g3t1_2,,running
Status,1061,61569010424,/g3t1_2,,fail
Status,1067,61769429926,/g3t1_2,,running
Status,1068,61769490460,/g3t1_2,,fail
Status,1073,61947041195,/g3t1_4,,running
Status,1074,61953670616,/g3t1_4,,success
Status,1075,61969359914,/g3t1_2,,running
Status,1076,61969414656,/g3t1_2,,fail
Status,1081,62169745435,/g3t1_2,,running
Status,1082,62169800943,/g3t1_2,,fail
Status,1087,62369730300,/g3t1_2,,running
Status,1088,62370219830,/g3t1_2,,fail
Status,1091,62432628489,/g4t1,,success
Status,1094,62569947890,/g3t1_2,,running
Status,1095,62570149683,/g3t1_2,,fail
Status,1101,62769635676,/g3t1_2,,running
Status,1102,62769778750,/g3t1_2,,fail
Status,1107,62947091765,/g3t1_4,,running
Status,1108,62953885181,/g3t1_4,,success
Status,1109,62970371125,/g3t1_2,,running
Status,1110,62970702839,/g3t1_2,,fail
Status,1115,63170337129,/g3t1_2,,running
Status,1116,63170770571,/g3t1_2,,fail
Status,1121,63370830334,/g3t1_2,,running
Status,1122,63370884715,/g3t1_2,,fail
Status,1125,63432700674,/g4t1,,success
Status,1128,63571002267,/g3t1_2,,running
Status,1129,63571297535,/g3t1_2,,fail
Status,1135,63771242338,/g3t1_2,,running
Status,1136,63771486351,/g3t1_2,,fail
Status,1141,63947381712,/g3t1_4,,running
Status,1142,63953783982,/g3t1_4,,success
Status,1143,63971301017,/g3t1_2,,running
Status,1144,63971555345,/g3t1_2,,fail
Status,1149,64171617017,/g3t1_2,,running
Status,1150,64171671061,/g3t1_2,,fail
Status,1155,64371700744,/g3t1_2,,running
Status,1156,64371993273,/g3t1_2,,fail
Status,1159,64432923529,/g4t1,,success
Status,1162,64571815729,/g3t1_2,,running
Status,1163,64571869964,/g3t1_2,,fail
Status,1169,64771952534,/g3t1_2,,running
Status,1170,64772012233,/g3t1_2,,fail
Status,1175,64947417330,/g3t1_4,,running
Status,1176,64955561762,/g3t1_4,,success
Status,1177,64971953982,/g3t1_2,,running
Status,1178,64972045451,/g3t1_2,,fail
Status,1183,65172020191,/g3t1_2,,running
Status,1184,65172086772,/g3t1_2,,fail
Status,1189,65372090939,/g3t1_2,,running
Status,1190,65372371770,/g3t1_2,,fail
Status,1193,65433121044,/g4t1,,success
Status,1196,65572594107,/g3t1_2,,running
Status,1197,65572656116,/g3t1_2,,fail
Status,1200,65636440915,/g3t1_1,,running
Status,1201,65636494529,/g3t1_1,,fail
Status,1205,65772885974,/g3t1_2,,running
Status,1206,65772945583,/g3t1_2,,fail
Status,1209,65839029977,/g3t1_3,,running
Status,1210,65839365894,/g3t1_3,,fail
Status,1213,65947400540,/g3t1_4,,running
Status,1214,65953558236,/g3t1_4,,success
Status,1215,65972730389,/g3t1_2,,running
Status,1216,65973015556,/g3t1_2,,fail
Status,1221,66172967241,/g3t1_2,,running
Status,1222,66173261709,/g3t1_2,,fail
Status,1227,66373292205,/g3t1_2,,running
Status,1228,66373347481,/g3t1_2,,fail
Status,1231,66432963708,/g4t1,,success
Status,1234,66573078973,/g3t1_2,,running
Status,1235,66573115620,/g3t1_2,,fail
Status,1241,66773298120,/g3t1_2,,running
Status,1242,66773565778,/g3t1_2,,fail
Status,1247,66947728274,/g3t1_4,,running
Status,1248,66955458664,/g3t1_4,,success
Status,1249,66973752805,/g3t1_2,,running
Status,1250,66973806811,/g3t1_2,,fail
Status,1255,67173756621,/g3t1_2,,running
Status,1256,67174133790,/g3t1_2,,fail
Status,1261,67374096304,/g3t1_2,,running
Status,1262,67374149598,/g3t1_2,,fail
Status,1265,67433220147,/g4t1,,success
Status,1268,67574117093,/g3t1_2,,running
Status,1269,67574171553,/g3t1_2,,fail
Status,1275,67774246074,/g3t1_2,,running
Status,1276,67774301841,/g3t1_2,,fail
Status,1281,67947986800,/g3t1_4,,running
Status,1282,67955863564,/g3t1_4,,success
Status,1283,67974240538,/g3t1_2,,running
Status,1284,67974392716,/g3t1_2,,fail
Status,1289,68174638073,/g3t1_2,,running
Status,1290,68174938842,/g3t1_2,,fail
Status,1295,68375049222,/g3t1_2,,running
Status,1296,68375111505,/g3t1_2,,fail
Status,1299,68433514469,/g4t1,,success
Status,1302,68575081657,/g3t1_2,,running
Status,1303,68575135174,/g3t1_2,,fail
Status,1309,68775174775,/g3t1_2,,running
Status,1310,68775529518,/g3t1_2,,fail
Status,1315,68947872552,/g3t1_4,,running
Status,1316,68960448617,/g3t1_4,,success
Status,1317,68975415542,/g3t1_2,,running
Status,1318,68975471444,/g3t1_2,,fail
Status,1323,69175482161,/g3t1_2,,running
Status,1324,69175536327,/g3t1_2,,fail
Status,1329,69375866746,/g3t1_2,,running
Status,1330,69375920608,/g3t1_2,,fail
Status,1333,69433617978,/g4t1,,success
Status,1336,69575271843,/g3t1_2,,running
Status,1337,69575469850,/g3t1_2,,fail
Status,1343,69775963676,/g3t1_2,,running
Status,1344,69776017758,/g3t1_2,,fail
Status,1349,69948006916,/g3t1_4,,running
Status,1350,69958594148,/g3t1_4,,success
Status,1351,69975591995,/g3t1_2,,running
Status,1352,69975744245,/g3t1_2,,fail
Status,1357,70176169715,/g3t1_2,,running
Status,1358,70176221362,/g3t1_2,,fail
Status,1363,70376334588,/g3t1_2,,running
Status,1364,70376388250,/g3t1_2,,fail
Status,1367,70433688015,/g4t1,,success
Status,1370,70576448135,/g3t1_2,,running
Status,1371,70576711964,/g3t1_2,,fail
Status,1374,70636451557,/g3t1_1,,running
Status,1375,70636702760,/g3t1_1,,fail
Status,1379,70776870137,/g3t1_2,,running
Status,1380,70776989054,/g3t1_2,,fail
Status,1385,70948275451,/g3t1_4,,running
Status,1386,70955929445,/g3t1_4,,success
Status,1387,70976699611,/g3t1_2,,running
Status,1388,70976753047,/g3t1_2,,fail
Status,1393,71176998575,/g3t1_2,,running
Status,1394,71177058809,/g3t1_2,,fail
Status,1399,71376794100,/g3t1_2,,running
Status,1400,71377224358,/g3t1_2,,fail
Status,1403,71433820242,/g4t1,,success
Status,1406,71577098748,/g3t1_2,,running
Status,1407,71577153987,/g3t1_2,,fail
Status,1413,71777066901,/g3t1_2,,running
Status,1414,71777402469,/g3t1_2,,fail
Status,1419,71948481600,/g3t1_4,,running
Status,1420,71958012937,/g3t1_4,,success
Status,1421,71977458485,/g3t1_2,,running
Status,1422,71977511645,/g3t1_2,,fail
Status,1427,72177614179,/g3t1_2,,running
Status,1428,72177671302,/g3t1_2,,fail
Status,1433,72377710947,/g3t1_2,,running
Status,1434,72377937468,/g3t1_2,,fail
Status,1437,72434033493,/g4t1,,success
Status,1440,72577972298,/g3t1_2,,running
Status,1441,72578036188,/g3t1_2,,fail
Status,1447,72778067474,/g3t1_2,,running
Status,1448,72778133682,/g3t1_2,,fail
Status,1453,72948598803,/g3t1_4,,running
Status,1454,72956173283,/g3t1_4,,success
Status,1455,72978162143,/g3t1_2,,running
Status,1456,72978214916,/g3t1_2,,fail
Status,1461,73178429359,/g3t1_2,,running
Status,1462,73178601776,/g3t1_2,,fail
Status,1467,73378718700,/g3t1_2,,running
Status,1468,73378771278,/g3t1_2,,fail
Status,1471,73433969656,/g4t1,,success
Status,1474,73578655529,/g3t1_2,,running
Status,1475,73579140467,/g3t1_2,,fail
Status,1481,73779081233,/g3t1_2,,running
Status,1482,73779134178,/g3t1_2,,fail
Status,1487,73948709615,/g3t1_4,,running
Status,1488,73956813349,/g3t1_4,,success
Status,1489,73978772843,/g3t1_2,,running
Status,1490,73979100712,/g3t1_2,,fail
Status,1495,74179116347,/g3t1_2,,running
Status,1496,74179624964,/g3t1_2,,fail
Status,1501,74379589198,/g3t1_2,,running
Status,1502,74379646240,/g3t1_2,,fail
Status,1505,74434396247,/g4t1,,success
Status,1508,74579498448,/g3t1_2,,running
Status,1509,74579565127,/g3t1_2,,fail
Status,1515,74779829602,/g3t1_2,,running
Status,1516,74779926512,/g3t1_2,,fail
Status,1521,74948716459,/g3t1_4,,running
Status,1522,74955606098,/g3t1_4,,success
Status,1523,74979833815,/g3t1_2,,running
Status,1524,74979889831,/g3t1_2,,fail
Status,1529,75179928441,/g3t1_2,,running
Status,1530,75179980734,/g3t1_2,,fail
Status,1535,75379911869,/g3t1_2,,running
Status,1536,75379965876,/g3t1_2,,fail
Status,1539,75434391189,/g4t1,,success
Status,1542,75580306575,/g3t1_2,,running
Status,1543,75580494777,/g3t1_2,,fail
Status,1546,75636372133,/g3t1_1,,running
Status,1547,75636754129,/g3t1_1,,fail
Status,1551,75780047257,/g3t1_2,,running
Status,1552,75780178792,/g3t1_2,,fail
Status,1555,75839146386,/g3t1_3,,running
Status,1556,75839488519,/g3t1_3,,fail
Status,1558,75949115089,/g3t1_4,,running
Status,1559,75956957698,/g3t1_4,,success
Status,1560,75980162257,/g3t1_2,,running
Status,1561,75980442223,/g3t1_2,,fail
Status,1564,76180484655,/g3t1_2,,running
Status,1565,76180537707,/g3t1_2,,fail
Status,1568,76380484047,/g3t1_2,,running
Status,1569,76380716093,/g3t1_2,,fail
Status,1571,76434578036,/g4t1,,success
Status,1573,76580612977,/g3t1_2,,running
Status,1574,76580665483,/g3t1_2,,fail
Status,1578,76780743340,/g3t1_2,,running
Status,1579,76780987017,/g3t1_2,,success
Status,1580,76949410036,/g3t1_4,,running
Status,1581,76957122662,/g3t1_4,,success
Status,1582,76980704835,/g3t1_2,,running
Status,1583,76981208319,/g3t1_2,,success
Status,1584,77181126657,/g3t1_2,,running
Status,1585,77181577360,/g3t1_2,,success
Status,1586,77381292423,/g3t1_2,,running
Status,1587,77381891899,/g3t1_2,,success
Status,1588,77434903515,/g4t1,,success
Status,1589,77581554761,/g3t1_2,,running
Status,1590,77581981303,/g3t1_2,,success
Status,1592,77781490895,/g3t1_2,,running
Status,1593,77781822973,/g3t1_2,,success
Status,1594,77949564826,/g3t1_4,,running
Status,1595,77957394310,/g3t1_4,,success
Status,1596,77981562957,/g3t1_2,,running
Status,1597,77982205302,/g3t1_2,,success
Status,1598,78182087168,/g3t1_2,,running
Status,1599,78182999584,/g3t1_2,,success
Status,1600,78382377877,/g3t1_2,,running
Status,1601,78383196665,/g3t1_2,,success
Status,1602,78434888980,/g4t1,,success
Status,1603,78582722576,/g3t1_2,,running
Status,1604,78583076660,/g3t1_2,,success
Status,1606,78782732840,/g3t1_2,,running
Status,1607,78783144595,/g3t1_2,,success
Status,1608,78949032660,/g3t1_4,,running
Status,1609,78951709227,/g3t1_4,,success
Status,1610,78982305415,/g3t1_2,,running
Status,1611,78982361388,/g3t1_2,,success
Status,1612,79183437235,/g3t1_2,,running
Status,1613,79184075648,/g3t1_2,,success
Status,1614,79383354118,/g3t1_2,,running
Status,1615,79384056025,/g3t1_2,,success
Status,1616,79435033945,/g4t1,,success
Status,1617,79583735586,/g3t1_2,,running
Status,1618,79584503158,/g3t1_2,,success
Status,1620,79783697005,/g3t1_2,,running
Status,1621,79784069840,/g3t1_2,,success
Status,1622,79949640569,/g3t1_4,,running
Status,1623,79957429668,/g3t1_4,,success
Status,1624,79983644018,/g3t1_2,,running
Status,1625,79984259523,/g3t1_2,,success
Status,1626,80184217907,/g3t1_2,,running
Status,1627,80185011211,/g3t1_2,,success
Status,1628,80384365971,/g3t1_2,,running
Status,1629,80384973136,/g3t1_2,,success
Status,1630,80435081908,/g4t1,,success
Status,1631,80584436154,/g3t1_2,,running
Status,1632,80584999679,/g3t1_2,,success
Status,1633,80636584278,/g3t1_1,,running
Status,1634,80637109887,/g3t1_1,,success
Status,1636,80784617720,/g3t1_2,,running
Status,1637,80785219073,/g3t1_2,,success
Status,1638,80949766539,/g3t1_4,,running
Status,1639,80956977491,/g3t1_4,,success
Status,1640,80984882064,/g3t1_2,,running
Status,1641,80985497561,/g3t1_2,,success
Status,1642,81185000034,/g3t1_2,,running
Status,1643,81185286864,/g3t1_2,,success
Status,1644,81385243503,/g3t1_2,,running
Status,1645,81385720403,/g3t1_2,,success
Status,1646,81435399550,/g4t1,,success
Status,1647,81585795019,/g3t1_2,,running
Status,1648,81585854007,/g3t1_2,,success
Status,1650,81785646552,/g3t1_2,,running
Status,1651,81786204420,/g3t1_2,,success
Status,1652,81949829811,/g3t1_4,,running
Status,1653,81957961309,/g3t1_4,,success
Status,1654,81985773987,/g3t1_2,,running
Status,1655,81986145328,/g3t1_2,,success
Status,1656,82186190251,/g3t1_2,,running
Status,1657,82186724896,/g3t1_2,,success
Status,1658,82386298598,/g3t1_2,,running
Status,1659,82386823698,/g3t1_2,,success
Status,1660,82435572382,/g4t1,,success
Status,1661,82586406947,/g3t1_2,,running
Status,1662,82586865966,/g3t1_2,,success
Status,1664,82786738892,/g3t1_2,,running
Status,1665,82786989331,/g3t1_2,,success
Status,1666,82950370592,/g3t1_4,,running
Status,1667,82958117976,/g3t1_4,,success
Status,1668,82986783918,/g3t1_2,,running
Status,1669,82987552133,/g3t1_2,,success
Status,1670,83187129892,/g3t1_2,,running
Status,1671,83187517943,/g3t1_2,,success
Status,1672,83387398067,/g3t1_2,,running
Status,1673,83388133900,/g3t1_2,,success
Status,1674,83435376850,/g4t1,,success
Status,1675,83587561000,/g3t1_2,,running
Status,1676,83588390427,/g3t1_2,,success
Status,1678,83787586383,/g3t1_2,,running
Status,1679,83787764238,/g3t1_2,,success
Status,1680,83950680853,/g3t1_4,,running
Status,1681,83958438566,/g3t1_4,,success
Status,1682,83987586300,/g3t1_2,,running
Status,1683,83987992224,/g3t1_2,,success
Status,1684,84187966001,/g3t1_2,,running
Status,1685,84188530957,/g3t1_2,,success
Status,1686,84388198680,/g3t1_2,,running
Status,1687,84388790272,/g3t1_2,,success
Status,1688,84435718491,/g4t1,,success
Status,1689,84588481714,/g3t1_2,,running
Status,1690,84589245798,/g3t1_2,,success
Status,1692,84788484724,/g3t1_2,,running
Status,1693,84788775026,/g3t1_2,,success
Status,1694,84950765559,/g3t1_4,,running
Status,1695,84958243683,/g3t1_4,,success
Status,1696,84988495100,/g3t1_2,,running
Status,1697,84988777778,/g3t1_2,,success
Status,1698,85188862321,/g3t1_2,,running
Status,1699,85189561407,/g3t1_2,,success
Status,1700,85389245409,/g3t1_2,,running
Status,1701,85389576726,/g3t1_2,,success
Status,1702,85435813404,/g4t1,,success
Status,1703,85589370201,/g3t1_2,,running
Status,1704,85589766539,/g3t1_2,,success
Status,1705,85636583816,/g3t1_1,,running
Status,1706,85636973803,/g3t1_1,,success
Status,1708,85789689578,/g3t1_2,,running
Status,1709,85789758568,/g3t1_2,,success
Status,1711,85839092619,/g3t1_3,,running
Status,1712,85839449958,/g3t1_3,,fail
Status,1714,85950929194,/g3t1_4,,running
Status,1715,85957766605,/g3t1_4,,success
Status,1716,85989512685,/g3t1_2,,running
Status,1717,85989892282,/g3t1_2,,success
Status,1720,86189769548,/g3t1_2,,running
Status,1721,86190158272,/g3t1_2,,success
Status,1724,86389752726,/g3t1_2,,running
Status,1725,86390087336,/g3t1_2,,success
Status,1727,86435907664,/g4t1,,success
Status,1729,86589940405,/g3t1_2,,running
Status,1730,86590448785,/g3t1_2,,success
Status,1735,86790279063,/g3t1_2,,running
Status,1736,86790648868,/g3t1_2,,success
Status,1741,86950739377,/g3t1_4,,running
Status,1742,86958336351,/g3t1_4,,success
Status,1743,86990362642,/g3t1_2,,running
Status,1744,86991045397,/g3t1_2,,success
Status,1749,87190717807,/g3t1_2,,running
Status,1750,87191245636,/g3t1_2,,success
Status,1755,87390804690,/g3t1_2,,running
Status,1756,87390989209,/g3t1_2,,success
Status,1759,87436002481,/g4t1,,success
Status,1762,87591058188,/g3t1_2,,running
Status,1763,87591871665,/g3t1_2,,success
Status,1769,87791101899,/g3t1_2,,running
Status,1770,87791155825,/g3t1_2,,fail
Status,1775,87950969656,/g3t1_4,,running
Status,1776,87958440219,/g3t1_4,,success
Status,1777,87991276177,/g3t1_2,,running
Status,1778,87991331349,/g3t1_2,,fail
Status,1783,88190888345,/g3t1_2,,running
Status,1784,88190925024,/g3t1_2,,fail
Status,1789,88391496662,/g3t1_2,,running
Status,1790,88391551846,/g3t1_2,,fail
Status,1791,88436040203,/g4t1,,success
Status,1796,88591629935,/g3t1_2,,running
Status,1797,88591901921,/g3t1_2,,fail
Status,1804,88791635608,/g3t1_2,,running
Status,1805,88791904312,/g3t1_2,,fail
Status,1812,88951211824,/g3t1_4,,running
Status,1813,88956923246,/g3t1_4,,fail
Status,1814,88991752898,/g3t1_2,,running
Status,1815,88991944120,/g3t1_2,,fail
Status,1822,89192015192,/g3t1_2,,running
Status,1823,89192068663,/g3t1_2,,fail
Status,1830,89392286010,/g3t1_2,,running
Status,1831,89392339618,/g3t1_2,,fail
Status,1832,89436112240,/g4t1,,success
Status,1839,89592106509,/g3t1_2,,running
Status,1840,89592375050,/g3t1_2,,fail
Status,1848,89792388866,/g3t1_2,,running
Status,1849,89792692582,/g3t1_2,,fail
Status,1854,89951528168,/g3t1_4,,running
Status,1855,89958680159,/g3t1_4,,success
Status,1856,89992400779,/g3t1_2,,running
Status,1857,89992753904,/g3t1_2,,fail
Status,1862,90192564852,/g3t1_2,,running
Status,1863,90192778102,/g3t1_2,,fail
Status,1868,90392801226,/g3t1_2,,running
Status,1869,90393131435,/g3t1_2,,fail
Status,1870,90436506864,/g4t1,,success
Status,1875,90593083058,/g3t1_2,,running
Status,1876,90593353416,/g3t1_2,,fail
Status,1877,90636982801,/g3t1_1,,running
Status,1878,90637037187,/g3t1_1,,fail
Status,1884,90793133422,/g3t1_2,,running
Status,1885,90793203789,/g3t1_2,,fail
Status,1890,90951640577,/g3t1_4,,running
Status,1891,90963687825,/g3t1_4,,success
Status,1892,90993183364,/g3t1_2,,running
Status,1893,90993238519,/g3t1_2,,fail
Status,1898,91193448016,/g3t1_2,,running
Status,1899,91193515417,/g3t1_2,,fail
Status,1904,91393747367,/g3t1_2,,running
Status,1905,91394194050,/g3t1_2,,fail
Status,1906,91436640590,/g4t1,,success
Status,1911,91593921610,/g3t1_2,,running
Status,1912,91593982451,/g3t1_2,,fail
Status,1918,91794111458,/g3t1_2,,running
Status,1919,91794576021,/g3t1_2,,fail
Status,1924,91951922168,/g3t1_4,,running
Status,1925,91960195781,/g3t1_4,,success
Status,1926,91993936634,/g3t1_2,,running
Status,1927,91994209739,/g3t1_2,,fail
Status,1932,92194266458,/g3t1_2,,running
Status,1933,92194335197,/g3t1_2,,fail
Status,1938,92394218577,/g3t1_2,,running
Status,1939,92394423016,/g3t1_2,,fail
Status,1940,92436634170,/g4t1,,success
Status,1945,92594244138,/g3t1_2,,running
Status,1946,92594626626,/g3t1_2,,fail
Status,1952,92794445244,/g3t1_2,,running
Status,1953,92794555182,/g3t1_2,,fail
Status,1958,92951777599,/g3t1_4,,running
Status,1959,92959457433,/g3t1_4,,success
Status,1960,92994629191,/g3t1_2,,running
Status,1961,92994703888,/g3t1_2,,fail
Status,1966,93194778269,/g3t1_2,,running
Status,1967,93194832116,/g3t1_2,,fail
Status,1972,93395255582,/g3t1_2,,running
Status,1973,93395316769,/g3t1_2,,fail
Status,1974,93436892667,/g4t1,,success
Status,1979,93595249541,/g3t1_2,,running
Status,1980,93595486554,/g3t1_2,,fail
Status,1986,93795088712,/g3t1_2,,running
Status,1987,93795439167,/g3t1_2,,fail
Status,1992,93951895867,/g3t1_4,,running
Status,1993,93959718472,/g3t1_4,,success
Status,1994,93995381876,/g3t1_2,,running
Status,1995,93995712317,/g3t1_2,,fail
Status,2000,94195458657,/g3t1_2,,running
Status,2001,94195529277,/g3t1_2,,fail
Status,2006,94395693317,/g3t1_2,,running
Status,2007,94395872923,/g3t1_2,,fail
Status,2008,94436981323,/g4t1,,success
Status,2013,94595783435,/g3t1_2,,running
Status,2014,94596011822,/g3t1_2,,fail
Status,2020,94795688067,/g3t1_2,,running
Status,2021,94795920491,/g3t1_2,,fail
Status,2026,94951866383,/g3t1_4,,running
Status,2027,94959435384,/g3t1_4,,success
Status,2028,94996079213,/g3t1_2,,running
Status,2029,94996363102,/g3t1_2,,fail
Status,2034,95196118660,/g3t1_2,,running
Status,2035,95196175882,/g3t1_2,,fail
Status,2040,95396216255,/g3t1_2,,running
Status,2041,95396486096,/g3t1_2,,fail
Status,2042,95437062110,/g4t1,,success
Status,2047,95596279695,/g3t1_2,,running
Status,2048,95596537824,/g3t1_2,,fail
Status,2049,95637061791,/g3t1_1,,running
Status,2050,95637388765,/g3t1_1,,fail
Status,2056,95796680454,/g3t1_2,,running
Status,2057,95796743587,/g3t1_2,,fail
Status,2058,95839558879,/g3t1_3,,running
Status,2059,95839610754,/g3t1_3,,fail
Status,2064,95952001970,/g3t1_4,,running
Status,2065,95958847006,/g3t1_4,,success
Status,2066,95996677114,/g3t1_2,,running
Status,2067,95996738298,/g3t1_2,,fail
Status,2072,96196655255,/g3t1_2,,running
Status,2073,96196870685,/g3t1_2,,fail
Status,2078,96396906213,/g3t1_2,,running
Status,2079,96396967438,/g3t1_2,,fail
Status,2080,96437205239,/g4t1,,success
Status,2085,96596979049,/g3t1_2,,running
Status,2086,96597043451,/g3t1_2,,fail
Status,2092,96797254087,/g3t1_2,,running
Status,2093,96797318115,/g3t1_2,,fail
Status,2098,96952947602,/g3t1_4,,running
Status,2099,96960064448,/g3t1_4,,success
Status,2100,96997067624,/g3t1_2,,running
Status,2101,96997421706,/g3t1_2,,fail
Status,2106,97197183252,/g3t1_2,,running
Status,2107,97197787702,/g3t1_2,,fail
Status,2112,97397568183,/g3t1_2,,running
Status,2113,97397635766,/g3t1_2,,fail
Status,2114,97437162904,/g4t1,,success
Status,2119,97597725145,/g3t1_2,,running
Status,2120,97597938589,/g3t1_2,,fail
Status,2126,97797851717,/g3t1_2,,running
Status,2127,97797907498,/g3t1_2,,fail
Status,2130,97952548460,/g3t1_4,,running
Status,2133,97959724002,/g3t1_4,,success
Status,2134,97997759972,/g3t1_2,,running
Status,2135,97997821097,/g3t1_2,,fail
Status,2140,98197879438,/g3t1_2,,running
Status,2141,98198221575,/g3t1_2,,fail
Status,2146,98398622562,/g3t1_2,,running
Status,2147,98398711875,/g3t1_2,,fail
Status,2148,98437615182,/g4t1,,success
Status,2153,98598622343,/g3t1_2,,running
Status,2154,98598707295,/g3t1_2,,fail
Status,2160,98798675932,/g3t1_2,,running
Status,2161,98798731224,/g3t1_2,,fail
Status,2164,98952684908,/g3t1_4,,running
Status,2167,98960167362,/g3t1_4,,success
Status,2168,98998732803,/g3t1_2,,running
Status,2169,98998961752,/g3t1_2,,fail
Status,2174,99198701771,/g3t1_2,,running
Status,2175,99198753822,/g3t1_2,,fail
Status,2180,99399035169,/g3t1_2,,running
Status,2181,99399095946,/g3t1_2,,fail
Status,2182,99437617054,/g4t1,,success
Status,2187,99599299154,/g3t1_2,,running
Status,2188,99599791025,/g3t1_2,,fail
Status,2194,99799304064,/g3t1_2,,running
Status,2195,99799907315,/g3t1_2,,fail
Status,2198,99952930081,/g3t1_4,,running
Status,2201,99960659421,/g3t1_4,,success
Status,2202,99999586713,/g3t1_2,,running
Status,2203,99999640902,/g3t1_2,,fail
Status,2208,100199661048,/g3t1_2,,running
Status,2209,100199934110,/g3t1_2,,fail
Status,2214,100399856748,/g3t1_2,,running
Status,2215,100399921584,/g3t1_2,,fail
Status,2216,100437674063,/g4t1,,success
Status,2221,100599290440,/g3t1_2,,running
Status,2222,100599312720,/g3t1_2,,fail
Status,2223,100637031953,/g3t1_1,,running
Status,2224,100637070927,/g3t1_1,,fail
Status,2230,100799948123,/g3t1_2,,running
Status,2231,100800028879,/g3t1_2,,fail
Status,2234,100953182922,/g3t1_4,,running
Status,2237,100960435606,/g3t1_4,,success
Status,2238,101000135612,/g3t1_2,,running
Status,2239,101000745470,/g3t1_2,,fail
Status,2244,101200526756,/g3t1_2,,running
Status,2245,101200590005,/g3t1_2,,fail
Status,2250,101400600019,/g3t1_2,,running
Status,2251,101400668393,/g3t1_2,,fail
Status,2252,101437728998,/g4t1,,success
Status,2257,101600488269,/g3t1_2,,running
Status,2258,101600566715,/g3t1_2,,fail
Status,2264,101800598637,/g3t1_2,,running
Status,2265,101800672162,/g3t1_2,,fail
Status,2268,101953366393,/g3t1_4,,running
Status,2271,101961255246,/g3t1_4,,success
Status,2272,102000697680,/g3t1_2,,running
Status,2273,102000796584,/g3t1_2,,fail
Status,2278,102200985372,/g3t1_2,,running
Status,2279,102201040295,/g3t1_2,,fail
Status,2284,102401012024,/g3t1_2,,running
Status,2285,102401375457,/g3t1_2,,fail
Status,2286,102438045800,/g4t1,,success
Status,2291,102601167440,/g3t1_2,,running
Status,2292,102601456429,/g3t1_2,,fail
Status,2298,102801376643,/g3t1_2,,running
Status,2299,102801698683,/g3t1_2,,fail
Status,2302,102953628487,/g3t1_4,,running
Status,2303,102961073800,/g3t1_4,,success
Status,2306,103001393619,/g3t1_2,,running
Status,2307,103001462139,/g3t1_2,,fail
Status,2312,103201629431,/g3t1_2,,running
Status,2313,103202125473,/g3t1_2,,fail
Status,2318,103401762721,/g3t1_2,,running
Status,2319,103401827059,/g3t1_2,,fail
Status,2320,103438395378,/g4t1,,success
Status,2325,103601743873,/g3t1_2,,running
Status,2326,103601799410,/g3t1_2,,fail
Status,2332,103802049250,/g3t1_2,,running
Status,2333,103802110817,/g3t1_2,,fail
Status,2336,103954112851,/g3t1_4,,running
Status,2337,103961466783,/g3t1_4,,success
Status,2340,104002143559,/g3t1_2,,running
Status,2341,104002217821,/g3t1_2,,fail
Status,2346,104202126190,/g3t1_2,,running
Status,2347,104202375089,/g3t1_2,,fail
Status,2352,104402300678,/g3t1_2,,running
Status,2353,104402992137,/g3t1_2,,fail
Status,2354,104438386556,/g4t1,,success
Status,2359,104602544010,/g3t1_2,,running
Status,2360,104602921494,/g3t1_2,,fail
Status,2366,104802637216,/g3t1_2,,running
Status,2367,104802703800,/g3t1_2,,fail
Status,2370,104954004081,/g3t1_4,,running
Status,2371,104962037948,/g3t1_4,,success
Status,2374,105002802919,/g3t1_2,,running
Status,2375,105002882790,/g3t1_2,,fail
Status,2380,105202918256,/g3t1_2,,running
Status,2381,105202973577,/g3t1_2,,fail
Status,2386,105403197883,/g3t1_2,,running
Status,2387,105403276975,/g3t1_2,,fail
Status,2388,105438558950,/g4t1,,success
Status,2393,105603120183,/g3t1_2,,running
Status,2394,105603194159,/g3t1_2,,fail
Status,2395,105637522013,/g3t1_1,,running
Status,2396,105637581397,/g3t1_1,,fail
Status,2402,105803183096,/g3t1_2,,running
Status,2403,105803451770,/g3t1_2,,fail
Status,2404,105839754807,/g3t1_3,,running
Status,2405,105839805265,/g3t1_3,,fail
Status,2408,105954377106,/g3t1_4,,running
Status,2409,105962105985,/g3t1_4,,success
Status,2411,106003362639,/g3t1_2,,running
Status,2412,106003633730,/g3t1_2,,fail
Status,2415,106203675730,/g3t1_2,,running
Status,2416,106203959675,/g3t1_2,,fail
Status,2419,106403575142,/g3t1_2,,running
Status,2420,106403979517,/g3t1_2,,fail
Status,2421,106438825039,/g4t1,,success
Status,2424,106603774279,/g3t1_2,,running
Status,2425,106603975999,/g3t1_2,,fail
Status,2429,106803915141,/g3t1_2,,running
Status,2430,106804459534,/g3t1_2,,success
Status,2431,106954865653,/g3t1_4,,running
Status,2432,106962149593,/g3t1_4,,success
Status,2433,107003995059,/g3t1_2,,running
Status,2434,107004345998,/g3t1_2,,success
Status,2435,107204215708,/g3t1_2,,running
Status,2436,107205033746,/g3t1_2,,success
Status,2437,107404292132,/g3t1_2,,running
Status,2438,107405125329,/g3t1_2,,success
Status,2439,107439184379,/g4t1,,success
Status,2440,107604500203,/g3t1_2,,running
Status,2441,107605115577,/g3t1_2,,success
Status,2443,107804750302,/g3t1_2,,running
Status,2444,107804865881,/g3t1_2,,success
Status,2445,107954892287,/g3t1_4,,running
Status,2446,107962534997,/g3t1_4,,success
Status,2447,108004405418,/g3t1_2,,running
Status,2448,108004653068,/g3t1_2,,success
Status,2449,108204777963,/g3t1_2,,running
Status,2450,108205189914,/g3t1_2,,success
Status,2451,108405254971,/g3t1_2,,running
Status,2452,108405855055,/g3t1_2,,success
Status,2453,108439082249,/g4t1,,success
Status,2454,108605662739,/g3t1_2,,running
Status,2455,108605722214,/g3t1_2,,success
Status,2457,108805448984,/g3t1_2,,running
Status,2458,108805775360,/g3t1_2,,success
Status,2459,108955168894,/g3t1_4,,running
Status,2460,108964127021,/g3t1_4,,success
Status,2461,109005302672,/g3t1_2,,running
Status,2462,109005646413,/g3t1_2,,success
Status,2463,109205795097,/g3t1_2,,running
Status,2464,109206633168,/g3t1_2,,success
Status,2465,109406045808,/g3t1_2,,running
Status,2466,109406837148,/g3t1_2,,success
Status,2467,109439355240,/g4t1,,success
Status,2468,109606366504,/g3t1_2,,running
Status,2469,109607236174,/g3t1_2,,success
Status,2471,109806672123,/g3t1_2,,running
Status,2472,109807219130,/g3t1_2,,success
Status,2473,109955281268,/g3t1_4,,running
Status,2474,109962740167,/g3t1_4,,success
Status,2475,110006408526,/g3t1_2,,running
Status,2476,110006698224,/g3t1_2,,success
Status,2477,110206978245,/g3t1_2,,running
Status,2478,110207574201,/g3t1_2,,success
Status,2479,110407260605,/g3t1_2,,running
Status,2480,110407674296,/g3t1_2,,success
Status,2481,110439386448,/g4t1,,success
Status,2482,110607500584,/g3t1_2,,running
Status,2483,110607792408,/g3t1_2,,success
Status,2484,110637473132,/g3t1_1,,running
Status,2485,110637777029,/g3t1_1,,success
Status,2487,110807623174,/g3t1_2,,running
Status,2488,110807682394,/g3t1_2,,success
Status,2489,110955517900,/g3t1_4,,running
Status,2490,110966427407,/g3t1_4,,success
Status,2491,111007216855,/g3t1_2,,running
Status,2492,111007629007,/g3t1_2,,success
Status,2493,111207943232,/g3t1_2,,running
Status,2494,111208000472,/g3t1_2,,success
Status,2495,111407971288,/g3t1_2,,running
Status,2496,111408200868,/g3t1_2,,success
Status,2497,111439582746,/g4t1,,success
Status,2498,111608447218,/g3t1_2,,running
Status,2499,111608526025,/g3t1_2,,success
Status,2501,111808376246,/g3t1_2,,running
Status,2502,111808597654,/g3t1_2,,success
Status,2503,111955682984,/g3t1_4,,running
Status,2504,111963557058,/g3t1_4,,success
Status,2505,112008267848,/g3t1_2,,running
Status,2506,112008560033,/g3t1_2,,success
Status,2507,112208720322,/g3t1_2,,running
Status,2508,112209123884,/g3t1_2,,success
Status,2509,112408921830,/g3t1_2,,running
Status,2510,112409242488,/g3t1_2,,success
Status,2511,112439612833,/g4t1,,success
Status,2512,112609329146,/g3t1_2,,running
Status,2513,112609916382,/g3t1_2,,success
Status,2515,112809088506,/g3t1_2,,running
Status,2516,112809194645,/g3t1_2,,success
Status,2517,112956162319,/g3t1_4,,running
Status,2518,112963230712,/g3t1_4,,success
Status,2519,113009411010,/g3t1_2,,running
Status,2520,113009963226,/g3t1_2,,success
Status,2521,113209618696,/g3t1_2,,running
Status,2522,113210254842,/g3t1_2,,success
Status,2523,113410106916,/g3t1_2,,running
Status,2524,113410809427,/g3t1_2,,success
Status,2525,113440019084,/g4t1,,success
Status,2526,113610086149,/g3t1_2,,running
Status,2527,113610417684,/g3t1_2,,success
Status,2529,113810018732,/g3t1_2,,running
Status,2530,113810433509,/g3t1_2,,success
Status,2531,113956307140,/g3t1_4,,running
Status,2532,113963627915,/g3t1_4,,success
Status,2533,114010120004,/g3t1_2,,running
Status,2534,114010629245,/g3t1_2,,success
Status,2535,114210761586,/g3t1_2,,running
Status,2536,114211124643,/g3t1_2,,success
Status,2537,114410732769,/g3t1_2,,running
Status,2538,114411019598,/g3t1_2,,success
Status,2539,114439808106,/g4t1,,success
Status,2540,114610899543,/g3t1_2,,running
Status,2541,114611731347,/g3t1_2,,success
Status,2543,114811346539,/g3t1_2,,running
Status,2544,114811410730,/g3t1_2,,success
Status,2545,114956819314,/g3t1_4,,running
Status,2546,114964314108,/g3t1_4,,success
Status,2547,115011020820,/g3t1_2,,running
Status,2548,115011533999,/g3t1_2,,success
Status,2549,115211443223,/g3t1_2,,running
Status,2550,115212050729,/g3t1_2,,success
Status,2551,115411659508,/g3t1_2,,running
Status,2552,115412331697,/g3t1_2,,success
Status,2553,115440077934,/g4t1,,success
Status,2554,115611553053,/g3t1_2,,running
Status,2555,115611831686,/g3t1_2,,success
Status,2556,115637515724,/g3t1_1,,running
Status,2557,115637655121,/g3t1_1,,success
Status,2559,115811409531,/g3t1_2,,running
Status,2560,115811783205,/g3t1_2,,success
Status,2561,115839732997,/g3t1_3,,running
Status,2562,115840248219,/g3t1_3,,fail
Status,2564,115956365907,/g3t1_4,,running
Status,2565,115962958122,/g3t1_4,,success
Status,2567,116011739132,/g3t1_2,,running
Status,2568,116012005259,/g3t1_2,,success
Status,2571,116211769186,/g3t1_2,,running
Status,2572,116212129696,/g3t1_2,,success
Status,2575,116411849476,/g3t1_2,,running
Status,2576,116412117993,/g3t1_2,,success
Status,2577,116440161359,/g4t1,,success
Status,2580,116612168061,/g3t1_2,,running
Status,2581,116612949210,/g3t1_2,,success
Status,2586,116812317030,/g3t1_2,,running
Status,2587,116812631943,/g3t1_2,,success
Status,2590,116956652215,/g3t1_4,,running
Status,2591,116963456581,/g3t1_4,,success
Status,2594,117012381856,/g3t1_2,,running
Status,2595,117013082094,/g3t1_2,,success
Status,2600,117212849650,/g3t1_2,,running
Status,2601,117213261619,/g3t1_2,,success
Status,2606,117412923858,/g3t1_2,,running
Status,2607,117413763837,/g3t1_2,,success
Status,2608,117440306852,/g4t1,,success
Status,2613,117612925376,/g3t1_2,,running
Status,2614,117613453765,/g3t1_2,,success
Status,2620,117813159902,/g3t1_2,,running
Status,2621,117813223485,/g3t1_2,,fail
Status,2624,117956744754,/g3t1_4,,running
Status,2625,117963335569,/g3t1_4,,success
Status,2628,118012867689,/g3t1_2,,running
Status,2629,118012935563,/g3t1_2,,fail
Status,2634,118213341172,/g3t1_2,,running
Status,2635,118213419905,/g3t1_2,,fail
Status,2640,118413468816,/g3t1_2,,running
Status,2641,118413861891,/g3t1_2,,success
Status,2642,118440322733,/g4t1,,success
Status,2647,118613831113,/g3t1_2,,running
Status,2648,118613892535,/g3t1_2,,fail
Status,2655,118813837533,/g3t1_2,,running
Status,2656,118814123902,/g3t1_2,,fail
Status,2660,118956930554,/g3t1_4,,running
Status,2661,118957340234,/g3t1_4,,fail
Status,2665,119014136114,/g3t1_2,,running
Status,2666,119014190437,/g3t1_2,,fail
Status,2673,119213793959,/g3t1_2,,running
Status,2674,119213941012,/g3t1_2,,fail
Status,2681,119414246253,/g3t1_2,,running
Status,2682,119414684341,/g3t1_2,,fail
Status,2683,119440469239,/g4t1,,success
Status,2690,119614411343,/g3t1_2,,running
Status,2691,119614813106,/g3t1_2,,fail
Status,2699,119814870826,/g3t1_2,,running
Status,2700,119815330269,/g3t1_2,,fail
Status,2703,119957137834,/g3t1_4,,running
Status,2704,119963680679,/g3t1_4,,success
Status,2707,120014811695,/g3t1_2,,running
Status,2708,120014866771,/g3t1_2,,fail
Status,2713,120215119473,/g3t1_2,,running
Status,2714,120215417391,/g3t1_2,,fail
Status,2719,120415123611,/g3t1_2,,running
Status,2720,120415356908,/g3t1_2,,fail
Status,2721,120440579062,/g4t1,,success
Status,2726,120615407633,/g3t1_2,,running
Status,2727,120615745826,/g3t1_2,,fail
Status,2728,120637779656,/g3t1_1,,running
Status,2729,120637832929,/g3t1_1,,fail
Status,2735,120815643454,/g3t1_2,,running
Status,2736,120815703323,/g3t1_2,,fail
Status,2739,120957283421,/g3t1_4,,running
Status,2740,120964053385,/g3t1_4,,success
Status,2743,121015648030,/g3t1_2,,running
Status,2744,121015703920,/g3t1_2,,fail
Status,2749,121216013827,/g3t1_2,,running
Status,2750,121216074975,/g3t1_2,,fail
Status,2755,121416051433,/g3t1_2,,running
Status,2756,121416131896,/g3t1_2,,fail
Status,2757,121440641140,/g4t1,,success
Status,2762,121615724596,/g3t1_2,,running
Status,2763,121616042337,/g3t1_2,,fail
Status,2769,121816119838,/g3t1_2,,running
Status,2770,121816386744,/g3t1_2,,fail
Status,2773,121957161845,/g3t1_4,,running
Status,2774,121963388082,/g3t1_4,,success
Status,2777,122016019055,/g3t1_2,,running
Status,2778,122016333173,/g3t1_2,,fail
Status,2783,122216551212,/g3t1_2,,running
Status,2784,122216717965,/g3t1_2,,fail
Status,2789,122416676631,/g3t1_2,,running
Status,2790,122416733345,/g3t1_2,,fail
Status,2791,122440934284,/g4t1,,success
Status,2796,122616834165,/g3t1_2,,running
Status,2797,122616895857,/g3t1_2,,fail
Status,2803,122816765994,/g3t1_2,,running
Status,2804,122816829712,/g3t1_2,,fail
Status,2807,122957582720,/g3t1_4,,running
Status,2808,122964309174,/g3t1_4,,success
Status,2811,123016717289,/g3t1_2,,running
Status,2812,123017045307,/g3t1_2,,fail
Status,2817,123217189523,/g3t1_2,,running
Status,2818,123217254832,/g3t1_2,,fail
Status,2823,123417424338,/g3t1_2,,running
Status,2824,123417656539,/g3t1_2,,fail
Status,2825,123441041944,/g4t1,,success
Status,2830,123617707391,/g3t1_2,,running
Status,2831,123617767689,/g3t1_2,,fail
Status,2837,123817835492,/g3t1_2,,running
Status,2838,123818056428,/g3t1_2,,fail
Status,2841,123957537890,/g3t1_4,,running
Status,2842,123964491176,/g3t1_4,,success
Status,2845,124017695826,/g3t1_2,,running
Status,2846,124017900927,/g3t1_2,,fail
Status,2851,124217994202,/g3t1_2,,running
Status,2852,124218298551,/g3t1_2,,fail
Status,2857,124418396573,/g3t1_2,,running
Status,2858,124418657507,/g3t1_2,,fail
Status,2859,124441194566,/g4t1,,success
Status,2864,124618347775,/g3t1_2,,running
Status,2865,124618820554,/g3t1_2,,fail
Status,2871,124818939831,/g3t1_2,,running
Status,2872,124819004289,/g3t1_2,,fail
Status,2875,124957805954,/g3t1_4,,running
Status,2876,124965104424,/g3t1_4,,success
Status,2879,125018831511,/g3t1_2,,running
Status,2880,125019270086,/g3t1_2,,fail
Status,2885,125219238457,/g3t1_2,,running
Status,2886,125219320401,/g3t1_2,,fail
Status,2891,125419427468,/g3t1_2,,running
Status,2892,125419727710,/g3t1_2,,fail
Status,2893,125441298011,/g4t1,,success
Status,2898,125619447128,/g3t1_2,,running
Status,2899,125619950366,/g3t1_2,,fail
Status,2900,125637715982,/g3t1_1,,running
Status,2901,125638064648,/g3t1_1,,fail
Status,2907,125819745639,/g3t1_2,,running
Status,2908,125819800405,/g3t1_2,,fail
Status,2909,125839293249,/g3t1_3,,running
Status,2910,125839423339,/g3t1_3,,fail
Status,2913,125957265947,/g3t1_4,,running
Status,2914,125959205800,/g3t1_4,,success
Status,2917,126019569262,/g3t1_2,,running
Status,2918,126019799195,/g3t1_2,,fail
Status,2923,126219020676,/g3t1_2,,running
Status,2924,126219041022,/g3t1_2,,fail
Status,2929,126419951175,/g3t1_2,,running
Status,2930,126420259260,/g3t1_2,,fail
Status,2931,126441589502,/g4t1,,success
Status,2936,126620040689,/g3t1_2,,running
Status,2937,126620100989,/g3t1_2,,fail
Status,2943,126820001875,/g3t1_2,,running
Status,2944,126820067216,/g3t1_2,,fail
Status,2947,126958300167,/g3t1_4,,running
Status,2948,126966561735,/g3t1_4,,success
Status,2951,127020124895,/g3t1_2,,running
Status,2952,127020180305,/g3t1_2,,fail
Status,2957,127220440551,/g3t1_2,,running
Status,2958,127220501957,/g3t1_2,,fail
Status,2963,127420574101,/g3t1_2,,running
Status,2964,127420635040,/g3t1_2,,fail
Status,2965,127441762205,/g4t1,,success
Status,2970,127620650195,/g3t1_2,,running
Status,2971,127620714931,/g3t1_2,,fail
Status,2977,127820766676,/g3t1_2,,running
Status,2978,127820843266,/g3t1_2,,fail
Status,2981,127957468270,/g3t1_4,,running
Status,2982,127959325754,/g3t1_4,,success
Status,2985,128020085110,/g3t1_2,,running
Status,2986,128020203852,/g3t1_2,,fail
Status,2991,128220977282,/g3t1_2,,running
Status,2992,128221281933,/g3t1_2,,fail
Status,2997,128421188262,/g3t1_2,,running
Status,2998,128421381044,/g3t1_2,,fail
Status,2999,128441600812,/g4t1,,success
Status,3004,128621228924,/g3t1_2,,running
Status,3005,128621473527,/g3t1_2,,fail
Status,3011,128821377971,/g3t1_2,,running
Status,3012,128821587530,/g3t1_2,,fail
Status,3015,128958159325,/g3t1_4,,running
Status,3016,128964904532,/g3t1_4,,success
Status,3019,129021266607,/g3t1_2,,running
Status,3020,129021327527,/g3t1_2,,fail
Status,3025,129221583205,/g3t1_2,,running
Status,3026,129222144581,/g3t1_2,,fail
Status,3031,129421602808,/g3t1_2,,running
Status,3032,129422047017,/g3t1_2,,fail
Status,3033,129441751608,/g4t1,,success
Status,3038,129621958349,/g3t1_2,,running
Status,3039,129622031488,/g3t1_2,,fail
Status,3045,129821984279,/g3t1_2,,running
Status,3046,129822353173,/g3t1_2,,fail
Status,3049,129958515679,/g3t1_4,,running
Status,3050,129973324553,/g3t1_4,,success
Status,3053,130022104348,/g3t1_2,,running
Status,3054,130022568162,/g3t1_2,,fail
Status,3059,130222282468,/g3t1_2,,running
Status,3060,130222551192,/g3t1_2,,fail
Status,3065,130422369318,/g3t1_2,,running
Status,3066,130422845024,/g3t1_2,,fail
Status,3067,130442023074,/g4t1,,success
Status,3072,130622701426,/g3t1_2,,running
Status,3073,130622780352,/g3t1_2,,fail
Status,3074,130638138057,/g3t1_1,,running
Status,3075,130638408677,/g3t1_1,,fail
Status,3081,130822765389,/g3t1_2,,running
Status,3082,130822848179,/g3t1_2,,fail
Status,3085,130958699509,/g3t1_4,,running
Status,3086,130969441052,/g3t1_4,,success
Status,3089,131022557090,/g3t1_2,,running
Status,3090,131022917523,/g3t1_2,,fail
Status,3095,131223325678,/g3t1_2,,running
Status,3096,131223388453,/g3t1_2,,fail
Status,3101,131423362513,/g3t1_2,,running
Status,3102,131423429008,/g3t1_2,,fail
Status,3103,131442217749,/g4t1,,success
Status,3108,131623461860,/g3t1_2,,running
Status,3109,131623531594,/g3t1_2,,fail
Status,3115,131823499613,/g3t1_2,,running
Status,3116,131823625077,/g3t1_2,,fail
Status,3119,131958088867,/g3t1_4,,running
Status,3120,131961685111,/g3t1_4,,success
Status,3123,132023013659,/g3t1_2,,running
Status,3124,132023107675,/g3t1_2,,fail
Status,3129,132223853486,/g3t1_2,,running
Status,3130,132223928332,/g3t1_2,,fail
Status,3135,132423932517,/g3t1_2,,running
Status,3136,132424013703,/g3t1_2,,fail
Status,3137,132442334198,/g4t1,,success
Status,3142,132623901078,/g3t1_2,,running
Status,3143,132624124351,/g3t1_2,,fail
Status,3149,132824163922,/g3t1_2,,running
Status,3150,132824421006,/g3t1_2,,fail
Status,3153,132958879133,/g3t1_4,,running
Status,3154,132966680441,/g3t1_4,,success
Status,3157,133024397398,/g3t1_2,,running
Status,3158,133024458273,/g3t1_2,,fail
Status,3163,133224450318,/g3t1_2,,running
Status,3164,133224508686,/g3t1_2,,fail
Status,3169,133424607932,/g3t1_2,,running
Status,3170,133424669614,/g3t1_2,,fail
Status,3171,133442418886,/g4t1,,success
Status,3176,133624508234,/g3t1_2,,running
Status,3177,133624796859,/g3t1_2,,fail
Status,3183,133824434523,/g3t1_2,,running
Status,3184,133824816472,/g3t1_2,,fail
Status,3187,133959180020,/g3t1_4,,running
Status,3188,133967087667,/g3t1_4,,success
Status,3191,134024666772,/g3t1_2,,running
Status,3192,134024883106,/g3t1_2,,fail
Status,3197,134225008635,/g3t1_2,,running
Status,3198,134225279960,/g3t1_2,,fail
Status,3203,134425265712,/g3t1_2,,running
Status,3204,134425509440,/g3t1_2,,fail
Status,3205,134442583442,/g4t1,,success
Status,3210,134625490464,/g3t1_2,,running
Status,3211,134626227297,/g3t1_2,,fail
Status,3217,134825622813,/g3t1_2,,running
Status,3218,134825682909,/g3t1_2,,fail
Status,3221,134958934279,/g3t1_4,,running
Status,3222,134966944357,/g3t1_4,,success
Status,3225,135025515790,/g3t1_2,,running
Status,3226,135025564366,/g3t1_2,,fail
Status,3231,135226064176,/g3t1_2,,running
Status,3232,135226126108,/g3t1_2,,fail
Status,3237,135426020789,/g3t1_2,,running
Status,3238,135426343557,/g3t1_2,,fail
Status,3239,135442700593,/g4t1,,success
Status,3244,135626315041,/g3t1_2,,running
Status,3245,135626559738,/g3t1_2,,fail
Status,3246,135638417801,/g3t1_1,,running
