
Status,2,3355327929,/g4t1,,init
Status,4,8568429743,/g3t1_1,,init
Status,5,8575226150,/g3t1_1,,init
Status,6,8575239356,/g3t1_1,,running
Status,7,8575743187,/g3t1_1,,success
Status,8,8670301055,/g3t1_2,,init
Status,10,8675367156,/g3t1_1,,running
Status,11,8675426759,/g3t1_1,,success
Status,12,8676747096,/g3t1_2,,init
Status,13,8676757573,/g3t1_2,,running
Status,14,8677137115,/g3t1_2,,success
Status,16,8770939853,/g3t1_3,,init
Status,17,8775448252,/g3t1_1,,running
Status,18,8775536452,/g3t1_1,,success
Status,19,8776823404,/g3t1_2,,running
Status,20,8776873946,/g3t1_2,,success
Status,21,8777176459,/g3t1_3,,init
Status,22,8777201095,/g3t1_3,,running
Status,23,8777575058,/g3t1_3,,success
Status,24,8876056585,/g3t1_1,,running
Status,25,8876386587,/g3t1_1,,success
Status,26,8877324913,/g3t1_2,,running
Status,27,8877961658,/g3t1_2,,success
Status,28,8878013406,/g3t1_3,,running
Status,29,8878252245,/g3t1_3,,success
Status,30,8882972884,/g4t1,,success
Status,31,8976331570,/g3t1_1,,running
Status,32,8976734154,/g3t1_1,,success
Status,33,8977478567,/g3t1_2,,running
Status,34,8978165324,/g3t1_2,,success
Status,35,8978239940,/g3t1_3,,running
Status,36,8978617507,/g3t1_3,,success
Status,37,8983581292,/g4t1,,success
Status,38,9004106422,/g4t1,,success
Status,39,9024068639,/g4t1,,success
Status,40,9076518734,/g3t1_1,,running
Status,41,9077283594,/g3t1_1,,success
Status,42,9078275165,/g3t1_2,,running
Status,43,9078650520,/g3t1_3,,running
Status,44,9078715428,/g3t1_2,,success
Status,45,9079265679,/g3t1_3,,success
Status,46,9084303200,/g4t1,,success
Status,47,9104541555,/g4t1,,success
Status,48,9124657059,/g4t1,,success
Status,49,9144905611,/g4t1,,success
Status,50,9164861941,/g4t1,,success
Status,51,9177125680,/g3t1_1,,running
Status,52,9177817861,/g3t1_1,,success
Status,53,9177881251,/g3t1_2,,running
Status,54,9178635085,/g3t1_2,,success
Status,55,9178740325,/g3t1_3,,running
Status,56,9179395834,/g3t1_3,,success
Status,57,9185228394,/g4t1,,success
Status,58,9205187382,/g4t1,,success
Status,59,9224838158,/g4t1,,success
Status,60,9244607601,/g4t1,,success
Status,61,9265001441,/g4t1,,success
Status,62,9276269968,/g3t1_1,,running
Status,63,9276299707,/g3t1_1,,success
Status,64,9277411538,/g3t1_2,,running
Status,65,9277869374,/g3t1_2,,success
Status,66,9278696964,/g3t1_3,,running
Status,67,9278720883,/g3t1_3,,success
Status,68,9285217207,/g4t1,,fail
Status,69,9304916658,/g4t1,,success
Status,70,9325108088,/g4t1,,success
Status,71,9345227415,/g4t1,,success
Status,72,9366267811,/g4t1,,success
Status,73,9376688170,/g3t1_1,,running
Status,74,9376890158,/g3t1_1,,success
Status,75,9377751801,/g3t1_2,,running
Status,76,9378463222,/g3t1_2,,success
Status,77,9378631763,/g3t1_3,,running
Status,78,9379002862,/g3t1_3,,success
Status,79,9386211485,/g4t1,,fail
Status,80,9405990542,/g4t1,,success
Status,81,9426657461,/g4t1,,success
Status,82,9446272020,/g4t1,,success
Status,83,9466590432,/g4t1,,success
Status,84,9476819338,/g3t1_1,,running
Status,85,9477125523,/g3t1_1,,success
Status,86,9477959657,/g3t1_2,,running
Status,87,9478727416,/g3t1_2,,success
Status,88,9478791077,/g3t1_3,,running
Status,89,9479031630,/g3t1_3,,success
Status,90,9486470141,/g4t1,,fail
Status,91,9506746213,/g4t1,,success
Status,92,9527012327,/g4t1,,success
Status,93,9546336351,/g4t1,,success
Status,94,9566403842,/g4t1,,success
Status,95,9576443584,/g3t1_1,,running
Status,96,9576596077,/g3t1_1,,success
Status,97,9577754106,/g3t1_2,,running
Status,98,9577848982,/g3t1_2,,success
Status,99,9578350394,/g3t1_3,,running
Status,100,9578520739,/g3t1_3,,success
Status,101,9586872175,/g4t1,,fail
Status,102,9607029693,/g4t1,,success
Status,103,9627600619,/g4t1,,success
Status,104,9647721394,/g4t1,,success
Status,105,9667903013,/g4t1,,success
Status,106,9677136840,/g3t1_1,,running
Status,107,9677497101,/g3t1_1,,success
Status,108,9678603148,/g3t1_2,,running
Status,109,9678910670,/g3t1_3,,running
Status,110,9678973932,/g3t1_2,,success
Status,111,9679389260,/g3t1_3,,success
Status,112,9687634491,/g4t1,,fail
Status,113,9707918195,/g4t1,,success
Status,114,9728138687,/g4t1,,success
Status,115,9748317236,/g4t1,,success
Status,116,9768454786,/g4t1,,success
Status,117,9777105581,/g3t1_1,,running
Status,118,9777787427,/g3t1_1,,success
Status,119,9778324235,/g3t1_2,,running
Status,120,9779320891,/g3t1_2,,success
Status,121,9779613317,/g3t1_3,,running
Status,122,9779653141,/g3t1_3,,success
Status,123,9788503979,/g4t1,,fail
Status,124,9808629056,/g4t1,,success
Status,125,9828316957,/g4t1,,success
Status,126,9848465532,/g4t1,,success
Status,127,9868647108,/g4t1,,success
Status,128,9877110859,/g3t1_1,,running
Status,129,9877163555,/g3t1_1,,success
Status,130,9878377228,/g3t1_2,,running
Status,131,9878414404,/g3t1_2,,success
Status,132,9878946006,/g3t1_3,,running
Status,133,9879225326,/g3t1_3,,success
Status,134,9888412663,/g4t1,,fail
Status,135,9908908692,/g4t1,,success
Status,136,9929084804,/g4t1,,success
Status,137,9949282456,/g4t1,,success
Status,138,9969426692,/g4t1,,success
Status,139,9977412254,/g3t1_1,,running
Status,140,9977801416,/g3t1_1,,success
Status,141,9979110166,/g3t1_2,,running
Status,142,9980293717,/g3t1_3,,running
Status,143,9980754632,/g3t1_3,,success
Status,144,9980801453,/g3t1_2,,success
Status,145,9989147545,/g4t1,,fail
Status,146,10009004086,/g4t1,,success
Status,147,10029150875,/g4t1,,success
Status,148,10049240190,/g4t1,,success
Status,149,10069388550,/g4t1,,success
Status,150,10076996225,/g3t1_1,,running
Status,151,10077162334,/g3t1_1,,success
Status,152,10078182782,/g3t1_2,,running
Status,153,10078359022,/g3t1_2,,success
Status,154,10079140812,/g3t1_3,,running
Status,155,10079300695,/g3t1_3,,success
Status,156,10089556236,/g4t1,,fail
Status,157,10109913856,/g4t1,,success
Status,158,10130433824,/g4t1,,success
Status,159,10150688697,/g4t1,,success
Status,160,10170652971,/g4t1,,success
Status,161,10177583132,/g3t1_1,,running
Status,162,10178015545,/g3t1_1,,success
Status,163,10178970989,/g3t1_2,,running
Status,164,10179272127,/g3t1_2,,success
Status,165,10180119669,/g3t1_3,,running
Status,166,10180814030,/g3t1_3,,success
Status,167,10190847444,/g4t1,,fail
Status,168,10211001299,/g4t1,,success
Status,169,10231057134,/g4t1,,success
Status,170,10250946659,/g4t1,,success
Status,171,10271083204,/g4t1,,success
Status,172,10277512148,/g3t1_1,,running
Status,173,10277702269,/g3t1_1,,success
Status,174,10278662910,/g3t1_2,,running
Status,175,10279346705,/g3t1_2,,success
Status,176,10279477238,/g3t1_3,,running
Status,177,10279805116,/g3t1_3,,success
Status,178,10291256824,/g4t1,,fail
Status,179,10311469174,/g4t1,,success
Status,180,10331650171,/g4t1,,success
Status,181,10351917978,/g4t1,,success
Status,182,10371956799,/g4t1,,success
Status,183,10377777963,/g3t1_1,,running
Status,184,10377962038,/g3t1_1,,success
Status,185,10379069001,/g3t1_2,,running
Status,186,10379573213,/g3t1_2,,success
Status,187,10379974894,/g3t1_3,,running
Status,188,10380482272,/g3t1_3,,success
Status,189,10392071593,/g4t1,,fail
Status,190,10412262149,/g4t1,,success
Status,191,10432284819,/g4t1,,success
Status,192,10452623665,/g4t1,,success
Status,193,10472727381,/g4t1,,success
Status,194,10478428385,/g3t1_1,,running
Status,195,10478529440,/g3t1_1,,success
Status,196,10479229390,/g3t1_2,,running
Status,197,10479636475,/g3t1_2,,success
Status,198,10480340861,/g3t1_3,,running
Status,199,10481019720,/g3t1_3,,success
Status,200,10492887316,/g4t1,,fail
Status,201,10512977272,/g4t1,,success
Status,202,10533234159,/g4t1,,success
Status,203,10553338220,/g4t1,,success
Status,204,10573348374,/g4t1,,success
Status,205,10578045009,/g3t1_1,,running
Status,206,10578554636,/g3t1_1,,success
Status,207,10579612369,/g3t1_2,,running
Status,208,10579686338,/g3t1_2,,success
Status,209,10580081709,/g3t1_3,,running
Status,210,10580719529,/g3t1_3,,success
Status,211,10592964706,/g4t1,,fail
Status,212,10613586473,/g4t1,,success
Status,213,10634058681,/g4t1,,success
Status,214,10653943279,/g4t1,,success
Status,215,10674031406,/g4t1,,success
Status,216,10678291280,/g3t1_1,,running
Status,217,10678655855,/g3t1_1,,success
Status,218,10679644449,/g3t1_2,,running
Status,219,10680415232,/g3t1_2,,success
Status,220,10680706101,/g3t1_3,,running
Status,221,10681057526,/g3t1_3,,success
Status,222,10693922879,/g4t1,,fail
Status,223,10713826653,/g4t1,,success
Status,224,10733987158,/g4t1,,success
Status,225,10754337159,/g4t1,,success
Status,226,10774377104,/g4t1,,success
Status,227,10778286941,/g3t1_1,,running
Status,228,10778334831,/g3t1_1,,success
Status,229,10779681272,/g3t1_2,,running
Status,230,10779747525,/g3t1_2,,success
Status,231,10780456624,/g3t1_3,,running
Status,232,10780705287,/g3t1_3,,success
Status,233,10794643282,/g4t1,,fail
Status,234,10814888482,/g4t1,,success
Status,235,10835337089,/g4t1,,success
Status,236,10855240377,/g4t1,,success
Status,237,10875321320,/g4t1,,success
Status,238,10878413903,/g3t1_1,,running
Status,239,10878679547,/g3t1_1,,success
Status,240,10879580902,/g3t1_2,,running
Status,241,10879958164,/g3t1_2,,success
Status,242,10880845487,/g3t1_3,,running
Status,243,10881100108,/g3t1_3,,success
Status,244,10895439395,/g4t1,,fail
Status,245,10915486364,/g4t1,,success
Status,246,10935874368,/g4t1,,success
Status,247,10955845187,/g4t1,,success
Status,248,10976131005,/g4t1,,success
Status,249,10978356676,/g3t1_1,,running
Status,250,10978965434,/g3t1_1,,success
Status,251,10979679386,/g3t1_2,,running
Status,252,10980402599,/g3t1_2,,success
Status,253,10981082537,/g3t1_3,,running
Status,254,10981144680,/g3t1_3,,success
Status,255,10996247020,/g4t1,,fail
Status,256,11016341684,/g4t1,,success
Status,257,11036678375,/g4t1,,success
Status,258,11056634809,/g4t1,,success
Status,259,11076684622,/g4t1,,success
Status,260,11078517166,/g3t1_1,,running
Status,261,11078794625,/g3t1_1,,success
Status,262,11079887903,/g3t1_2,,running
Status,263,11080208212,/g3t1_2,,success
Status,264,11080931139,/g3t1_3,,running
Status,265,11081154927,/g3t1_3,,success
Status,266,11096688396,/g4t1,,fail
Status,267,11116776408,/g4t1,,success
Status,268,11137142759,/g4t1,,success
Status,269,11157206131,/g4t1,,success
Status,270,11177216515,/g4t1,,success
Status,271,11178825593,/g3t1_1,,running
Status,272,11179113209,/g3t1_1,,success
Status,273,11180341498,/g3t1_2,,running
Status,274,11180413520,/g3t1_2,,success
Status,275,11181592332,/g3t1_3,,running
Status,276,11181678523,/g3t1_3,,success
Status,277,11197400213,/g4t1,,fail
Status,278,11217506176,/g4t1,,success
Status,279,11237657470,/g4t1,,success
Status,280,11257843719,/g4t1,,success
Status,281,11277960241,/g4t1,,success
Status,282,11278725055,/g3t1_1,,running
Status,283,11279128305,/g3t1_1,,success
Status,284,11280276282,/g3t1_2,,running
Status,285,11280335568,/g3t1_2,,success
Status,286,11280748755,/g3t1_3,,running
Status,287,11281300233,/g3t1_3,,success
Status,288,11298070418,/g4t1,,fail
Status,289,11318253920,/g4t1,,success
Status,290,11338477157,/g4t1,,success
Status,291,11358827878,/g4t1,,success
Status,292,11378625416,/g4t1,,success
Status,293,11378710894,/g3t1_1,,running
Status,294,11379332745,/g3t1_1,,success
Status,295,11380231378,/g3t1_2,,running
Status,296,11380501955,/g3t1_2,,success
Status,297,11381535718,/g3t1_3,,running
Status,298,11381592582,/g3t1_3,,success
Status,299,11398935084,/g4t1,,fail
Status,300,11418970801,/g4t1,,success
Status,301,11439099783,/g4t1,,success
Status,302,11459118861,/g4t1,,success
Status,303,11479563510,/g3t1_1,,running
Status,304,11479745507,/g4t1,,success
Status,305,11479850869,/g3t1_1,,success
Status,306,11480740607,/g3t1_2,,running
Status,307,11481295216,/g3t1_3,,running
Status,308,11481349037,/g3t1_2,,success
Status,309,11481391929,/g3t1_3,,success
Status,310,11499625870,/g4t1,,fail
Status,311,11519847006,/g4t1,,success
Status,312,11539982592,/g4t1,,success
Status,313,11560122111,/g4t1,,success
Status,314,11579332381,/g3t1_1,,running
Status,315,11581095111,/g3t1_1,,success
Status,316,11581389817,/g3t1_2,,running
Status,317,11581444172,/g3t1_2,,success
Status,318,11581475555,/g4t1,,success
Status,319,11581520529,/g3t1_3,,running
Status,320,11582196732,/g3t1_3,,success
Status,321,11600596828,/g4t1,,fail
Status,322,11620590377,/g4t1,,success
Status,323,11640107464,/g4t1,,success
Status,324,11660279552,/g4t1,,success
Status,325,11678751909,/g3t1_1,,running
Status,326,11678775353,/g3t1_1,,success
Status,327,11679838151,/g3t1_2,,running
Status,328,11679934229,/g3t1_2,,success
Status,329,11680155913,/g4t1,,success
Status,330,11680713529,/g3t1_3,,running
Status,331,11680787252,/g3t1_3,,success
Status,332,11701127514,/g4t1,,fail
Status,333,11721303683,/g4t1,,success
Status,334,11741367194,/g4t1,,success
Status,335,11761568507,/g4t1,,success
Status,336,11779482033,/g3t1_1,,running
Status,337,11780261107,/g3t1_1,,success
Status,338,11780604525,/g3t1_2,,running
Status,339,11781299062,/g3t1_2,,success
Status,340,11781892789,/g3t1_3,,running
Status,341,11781970973,/g4t1,,fail
Status,342,11781998990,/g3t1_3,,success
Status,343,11801834211,/g4t1,,fail
Status,344,11821904883,/g4t1,,success
Status,345,11842140755,/g4t1,,success
Status,346,11862174142,/g4t1,,success
Status,347,11879571386,/g3t1_1,,running
Status,348,11879873045,/g3t1_1,,success
Status,349,11880803766,/g3t1_2,,running
Status,350,11881642139,/g3t1_2,,success
Status,351,11881699468,/g3t1_3,,running
Status,352,11882240377,/g4t1,,success
Status,353,11882303543,/g3t1_3,,success
Status,354,11902379550,/g4t1,,fail
Status,355,11922714978,/g4t1,,success
Status,356,11942907066,/g4t1,,success
Status,357,11962997256,/g4t1,,success
Status,358,11979742226,/g3t1_1,,running
Status,359,11980352465,/g3t1_1,,success
Status,360,11980946764,/g3t1_2,,running
Status,361,11981913598,/g3t1_3,,running
Status,362,11981979776,/g3t1_2,,success
Status,363,11982485808,/g3t1_3,,success
Status,364,11983330957,/g4t1,,fail
Status,365,12003683346,/g4t1,,success
Status,366,12023816694,/g4t1,,success
Status,367,12044116863,/g4t1,,success
Status,368,12064307853,/g4t1,,success
Status,369,12079938404,/g3t1_1,,running
Status,370,12080326397,/g3t1_1,,success
Status,371,12081201063,/g3t1_2,,running
Status,372,12081963573,/g3t1_2,,success
Status,373,12082032175,/g3t1_3,,running
Status,374,12082261581,/g3t1_3,,success
Status,375,12084163779,/g4t1,,fail
Status,376,12104776009,/g4t1,,success
Status,377,12124682046,/g4t1,,success
Status,378,12144052261,/g4t1,,success
Status,379,12164145937,/g4t1,,success
Status,380,12179397467,/g3t1_1,,running
Status,381,12179423448,/g3t1_1,,success
Status,382,12180351898,/g3t1_2,,running
Status,383,12180586549,/g3t1_2,,success
Status,384,12181301428,/g3t1_3,,running
Status,385,12181391454,/g3t1_3,,success
Status,386,12183913490,/g4t1,,fail
Status,387,12204118351,/g4t1,,success
Status,388,12224221143,/g4t1,,success
Status,389,12245050642,/g4t1,,success
Status,390,12265265678,/g4t1,,success
Status,391,12280338403,/g3t1_1,,running
Status,392,12280489608,/g3t1_1,,success
Status,393,12281187344,/g3t1_2,,running
Status,394,12281733201,/g3t1_2,,success
Status,395,12281835888,/g3t1_3,,running
Status,396,12282454319,/g3t1_3,,success
Status,397,12284912240,/g4t1,,fail
Status,398,12305360105,/g4t1,,success
Status,399,12325489620,/g4t1,,success
Status,400,12345663154,/g4t1,,success
Status,401,12365824484,/g4t1,,success
Status,402,12380004064,/g3t1_1,,running
Status,403,12380312158,/g3t1_1,,success
Status,404,12380947869,/g3t1_2,,running
Status,405,12381525234,/g3t1_2,,success
Status,406,12381934606,/g3t1_3,,running
Status,407,12382566011,/g3t1_3,,success
Status,408,12385497070,/g4t1,,fail
Status,409,12405832460,/g4t1,,success
Status,410,12425987455,/g4t1,,success
Status,411,12446086260,/g4t1,,success
Status,412,12466324590,/g4t1,,success
Status,413,12480158726,/g3t1_1,,running
Status,414,12480480642,/g3t1_1,,success
Status,415,12481145821,/g3t1_2,,running
Status,416,12481525283,/g3t1_2,,success
Status,417,12481937896,/g3t1_3,,running
Status,418,12482570949,/g3t1_3,,success
Status,419,12486206698,/g4t1,,fail
Status,420,12506572056,/g4t1,,success
Status,421,12526628825,/g4t1,,success
Status,422,12546916518,/g4t1,,success
Status,423,12567034347,/g4t1,,success
Status,424,12580385154,/g3t1_1,,running
Status,425,12581388665,/g3t1_1,,success
Status,426,12581890123,/g3t1_2,,running
Status,427,12582759773,/g3t1_3,,running
Status,428,12582870076,/g3t1_2,,success
Status,429,12582908951,/g3t1_3,,success
Status,430,12586812863,/g4t1,,fail
Status,431,12607181316,/g4t1,,success
Status,432,12627509449,/g4t1,,success
Status,433,12647659947,/g4t1,,success
Status,434,12667883697,/g4t1,,success
Status,435,12680712144,/g3t1_1,,running
Status,436,12681880931,/g3t1_1,,success
Status,437,12682049176,/g3t1_2,,running
Status,438,12683419632,/g3t1_3,,running
Status,439,12683730393,/g3t1_3,,success
Status,440,12683821592,/g3t1_2,,success
Status,441,12688033099,/g4t1,,fail
Status,442,12707993204,/g4t1,,success
Status,443,12728103007,/g4t1,,success
Status,444,12748166416,/g4t1,,success
Status,445,12768469608,/g4t1,,success
Status,446,12780602753,/g3t1_1,,running
Status,447,12781005166,/g3t1_1,,success
Status,448,12781583506,/g3t1_2,,running
Status,449,12782368566,/g3t1_2,,success
Status,450,12782443264,/g3t1_3,,running
Status,451,12783367737,/g3t1_3,,success
Status,452,12788487130,/g4t1,,fail
Status,453,12808555098,/g4t1,,success
Status,454,12828825540,/g4t1,,success
Status,455,12849042930,/g4t1,,success
Status,456,12869037652,/g4t1,,success
Status,457,12880680338,/g3t1_1,,running
Status,458,12881304044,/g3t1_1,,success
Status,459,12881722776,/g3t1_2,,running
Status,460,12882735622,/g3t1_2,,success
Status,461,12882791978,/g3t1_3,,running
Status,462,12883056102,/g3t1_3,,success
Status,463,12889032415,/g4t1,,fail
Status,464,12909425358,/g4t1,,success
Status,465,12929427130,/g4t1,,success
Status,466,12949435764,/g4t1,,success
Status,467,12969687206,/g4t1,,success
Status,468,12981000214,/g3t1_1,,running
Status,469,12981983373,/g3t1_1,,success
Status,470,12982050035,/g3t1_2,,running
Status,471,12983006704,/g3t1_2,,success
Status,472,12983079485,/g3t1_3,,running
Status,473,12983451282,/g3t1_3,,success
Status,474,12989398548,/g4t1,,fail
Status,475,13010106161,/g4t1,,success
Status,476,13030114699,/g4t1,,success
Status,477,13050389676,/g4t1,,success
Status,478,13070255400,/g4t1,,success
Status,479,13081076149,/g3t1_1,,running
Status,480,13081153952,/g3t1_1,,success
Status,481,13082345210,/g3t1_2,,running
Status,482,13083006724,/g3t1_2,,success
Status,483,13083077145,/g3t1_3,,running
Status,484,13083982468,/g3t1_3,,success
Status,485,13090255299,/g4t1,,fail
Status,486,13110611896,/g4t1,,success
Status,487,13130727500,/g4t1,,success
Status,488,13151015805,/g4t1,,success
Status,489,13170348077,/g4t1,,success
Status,490,13180475557,/g3t1_1,,running
Status,491,13180497116,/g3t1_1,,success
Status,492,13181285498,/g3t1_2,,running
Status,493,13181431041,/g3t1_2,,success
Status,494,13182305036,/g3t1_3,,running
Status,495,13182451134,/g3t1_3,,success
Status,496,13190237396,/g4t1,,fail
Status,497,13210458699,/g4t1,,success
Status,498,13230451337,/g4t1,,success
Status,499,13250561363,/g4t1,,success
Status,500,13270671733,/g4t1,,success
Status,501,13280749627,/g3t1_1,,running
Status,502,13280966727,/g3t1_1,,success
Status,503,13281638563,/g3t1_2,,running
Status,504,13281777066,/g3t1_2,,success
Status,505,13282540344,/g3t1_3,,running
Status,506,13282671877,/g3t1_3,,success
Status,507,13291363337,/g4t1,,fail
Status,508,13311312962,/g4t1,,success
Status,509,13331403498,/g4t1,,success
Status,510,13351560603,/g4t1,,success
Status,511,13371576117,/g4t1,,success
Status,512,13380784968,/g3t1_1,,running
Status,513,13381324024,/g3t1_1,,success
Status,514,13381627191,/g3t1_2,,running
Status,515,13382051147,/g3t1_2,,success
Status,516,13382709448,/g3t1_3,,running
Status,517,13382908325,/g3t1_3,,success
Status,518,13391710745,/g4t1,,fail
Status,519,13412095762,/g4t1,,success
Status,520,13432426235,/g4t1,,success
Status,521,13452069116,/g4t1,,success
Status,522,13472348119,/g4t1,,success
Status,523,13481260477,/g3t1_1,,running
Status,524,13481494331,/g3t1_1,,success
Status,525,13482144244,/g3t1_2,,running
Status,526,13482561609,/g3t1_2,,success
Status,527,13483068582,/g3t1_3,,running
Status,528,13483470354,/g3t1_3,,success
Status,529,13492560937,/g4t1,,fail
Status,530,13512591986,/g4t1,,success
Status,531,13532926012,/g4t1,,success
Status,532,13552969495,/g4t1,,success
Status,533,13573138334,/g4t1,,success
Status,534,13581502440,/g3t1_1,,running
Status,535,13581590499,/g3t1_1,,success
Status,536,13582653382,/g3t1_2,,running
Status,537,13583686526,/g3t1_2,,success
Status,538,13583727776,/g3t1_3,,running
Status,539,13583754330,/g3t1_3,,success
Status,540,13593247425,/g4t1,,fail
Status,541,13613369419,/g4t1,,success
Status,542,13633649659,/g4t1,,success
Status,543,13653655100,/g4t1,,success
Status,544,13673885198,/g4t1,,success
Status,545,13681579565,/g3t1_1,,running
Status,546,13681821168,/g3t1_1,,success
Status,547,13682155243,/g3t1_2,,running
Status,548,13682747666,/g3t1_2,,success
Status,549,13683578771,/g3t1_3,,running
Status,550,13683890211,/g3t1_3,,success
Status,551,13693766016,/g4t1,,fail
Status,552,13713940299,/g4t1,,success
Status,553,13734582523,/g4t1,,success
Status,554,13753860242,/g4t1,,success
Status,555,13773589836,/g4t1,,success
Status,556,13781020685,/g3t1_1,,running
Status,557,13781182412,/g3t1_1,,success
Status,558,13781853766,/g3t1_2,,running
Status,559,13782034850,/g3t1_2,,success
Status,560,13782880934,/g3t1_3,,running
Status,561,13782898832,/g3t1_3,,success
Status,562,13793720426,/g4t1,,fail
Status,563,13813686659,/g4t1,,success
Status,564,13833963500,/g4t1,,success
Status,565,13854789534,/g4t1,,success
Status,566,13874360895,/g4t1,,success
Status,567,13881210381,/g3t1_1,,running
Status,568,13881353667,/g3t1_1,,success
Status,569,13881916298,/g3t1_2,,running
Status,570,13882092944,/g3t1_2,,success
Status,571,13882831525,/g3t1_3,,running
Status,572,13883095382,/g3t1_3,,success
Status,573,13894370054,/g4t1,,fail
Status,574,13915254055,/g4t1,,success
Status,575,13935367231,/g4t1,,success
Status,576,13955281532,/g4t1,,success
Status,577,13975126429,/g4t1,,success
Status,578,13981650673,/g3t1_1,,running
Status,579,13982155068,/g3t1_1,,success
Status,580,13982524899,/g3t1_2,,running
Status,581,13983428197,/g3t1_2,,success
Status,582,13983507548,/g3t1_3,,running
Status,583,13983945235,/g3t1_3,,success
Status,584,13995649864,/g4t1,,fail
Status,585,14015738447,/g4t1,,success
Status,586,14035946001,/g4t1,,success
Status,587,14056206549,/g4t1,,success
Status,588,14076028894,/g4t1,,success
Status,589,14081980468,/g3t1_1,,running
Status,590,14082436025,/g3t1_1,,success
Status,591,14082983190,/g3t1_2,,running
Status,592,14084020588,/g3t1_2,,success
Status,593,14084093213,/g3t1_3,,running
Status,594,14084421782,/g3t1_3,,success
Status,595,14096129169,/g4t1,,fail
Status,596,14115935040,/g4t1,,success
Status,597,14136188484,/g4t1,,success
Status,598,14156342328,/g4t1,,success
Status,599,14176440977,/g4t1,,success
Status,600,14181879536,/g3t1_1,,running
Status,601,14181924570,/g3t1_1,,success
Status,602,14182705280,/g3t1_2,,running
Status,603,14182827771,/g3t1_2,,success
Status,604,14183527442,/g3t1_3,,running
Status,605,14183635164,/g3t1_3,,success
Status,606,14196451432,/g4t1,,fail
Status,607,14216535929,/g4t1,,success
Status,608,14236542122,/g4t1,,success
Status,609,14256657217,/g4t1,,success
Status,610,14276895539,/g4t1,,success
Status,611,14281803881,/g3t1_1,,running
Status,612,14281980692,/g3t1_1,,success
Status,613,14282622913,/g3t1_2,,running
Status,614,14282903302,/g3t1_2,,success
Status,615,14283367261,/g3t1_3,,running
Status,616,14283769285,/g3t1_3,,success
Status,617,14296986755,/g4t1,,fail
Status,618,14317062934,/g4t1,,success
Status,619,14337070123,/g4t1,,success
Status,620,14357013515,/g4t1,,success
Status,621,14377197535,/g4t1,,success
Status,622,14381823714,/g3t1_1,,running
Status,623,14381852284,/g3t1_1,,success
Status,624,14382646595,/g3t1_2,,running
Status,625,14382851812,/g3t1_2,,success
Status,626,14383416383,/g3t1_3,,running
Status,627,14383602598,/g3t1_3,,success
Status,628,14397436685,/g4t1,,fail
Status,629,14417395409,/g4t1,,success
Status,630,14437970524,/g4t1,,success
Status,631,14457939754,/g4t1,,success
Status,632,14478182605,/g4t1,,success
Status,633,14482810806,/g3t1_1,,running
Status,634,14482903185,/g3t1_1,,success
Status,635,14483002119,/g3t1_2,,running
Status,636,14484274072,/g3t1_2,,success
Status,637,14484509578,/g3t1_3,,running
Status,638,14485181233,/g3t1_3,,success
Status,639,14498274719,/g4t1,,fail
Status,640,14518562132,/g4t1,,success
Status,641,14538113823,/g4t1,,success
Status,642,14558460928,/g4t1,,success
Status,643,14578369318,/g4t1,,success
Status,644,14582217936,/g3t1_1,,running
Status,645,14582461856,/g3t1_1,,success
Status,646,14582860784,/g3t1_2,,running
Status,647,14583329422,/g3t1_2,,success
Status,648,14583636572,/g3t1_3,,running
Status,649,14584106058,/g3t1_3,,success
Status,650,14598841916,/g4t1,,fail
Status,651,14619050795,/g4t1,,success
Status,652,14639024428,/g4t1,,success
Status,653,14659390488,/g4t1,,success
Status,654,14679634393,/g4t1,,success
Status,655,14682506068,/g3t1_1,,running
Status,656,14683615709,/g3t1_1,,success
Status,657,14683680828,/g3t1_2,,running
Status,658,14684032960,/g3t1_2,,success
Status,659,14684085500,/g3t1_3,,running
Status,660,14684430656,/g3t1_3,,success
Status,661,14699776872,/g4t1,,fail
Status,662,14719709228,/g4t1,,success
Status,663,14739829150,/g4t1,,success
Status,664,14760057763,/g4t1,,success
Status,665,14780173286,/g4t1,,success
Status,666,14782872940,/g3t1_1,,running
Status,667,14783337337,/g3t1_1,,success
Status,668,14783415534,/g3t1_2,,running
Status,669,14784231493,/g3t1_2,,success
Status,670,14784656402,/g3t1_3,,running
Status,671,14784755301,/g3t1_3,,success
Status,672,14800434740,/g4t1,,fail
Status,673,14820310008,/g4t1,,success
Status,674,14840513972,/g4t1,,success
Status,675,14860748876,/g4t1,,success
Status,676,14880785986,/g4t1,,success
Status,677,14882803294,/g3t1_1,,running
Status,678,14883337326,/g3t1_1,,success
Status,679,14883438783,/g3t1_2,,running
Status,680,14884554287,/g3t1_3,,running
Status,681,14884603671,/g3t1_2,,success
Status,682,14884653393,/g3t1_3,,success
Status,683,14900773053,/g4t1,,fail
Status,684,14920900260,/g4t1,,success
Status,685,14941040256,/g4t1,,success
Status,686,14961181641,/g4t1,,success
Status,687,14981252919,/g4t1,,success
Status,688,14983083113,/g3t1_1,,running
Status,689,14983304470,/g3t1_1,,success
Status,690,14984199977,/g3t1_2,,running
Status,691,14984352738,/g3t1_2,,success
Status,692,14984401702,/g3t1_3,,running
Status,693,14984720266,/g3t1_3,,success
Status,694,15001437416,/g4t1,,fail
Status,695,15021675770,/g4t1,,success
Status,696,15041786586,/g4t1,,success
Status,697,15061915653,/g4t1,,success
Status,698,15082086428,/g4t1,,success
Status,699,15083334818,/g3t1_1,,running
Status,700,15083524639,/g3t1_1,,success
Status,701,15083654140,/g3t1_2,,running
Status,702,15084515293,/g3t1_2,,success
Status,703,15084730266,/g3t1_3,,running
Status,704,15084905543,/g3t1_3,,success
Status,705,15102173208,/g4t1,,fail
Status,706,15122377566,/g4t1,,success
Status,707,15142463364,/g4t1,,success
Status,708,15162778293,/g4t1,,success
Status,709,15182790547,/g4t1,,success
Status,710,15184026041,/g3t1_1,,running
Status,711,15184108471,/g3t1_1,,success
Status,712,15184135518,/g3t1_2,,running
Status,713,15185368253,/g3t1_2,,success
Status,714,15185464394,/g3t1_3,,running
Status,715,15185597202,/g3t1_3,,success
Status,716,15202833329,/g4t1,,fail
Status,717,15223018797,/g4t1,,success
Status,718,15242478251,/g4t1,,success
Status,719,15262432332,/g4t1,,success
Status,720,15282687238,/g4t1,,success
Status,721,15282720973,/g3t1_1,,running
Status,722,15282959596,/g3t1_1,,success
Status,723,15283311536,/g3t1_2,,running
Status,724,15283492325,/g3t1_2,,success
Status,725,15284058682,/g3t1_3,,running
Status,726,15284352516,/g3t1_3,,success
Status,727,15303062469,/g4t1,,fail
Status,728,15323373087,/g4t1,,success
Status,729,15343635859,/g4t1,,success
Status,730,15363731429,/g4t1,,success
Status,731,15383763975,/g3t1_1,,running
Status,732,15384449917,/g3t1_2,,running
Status,733,15384519536,/g4t1,,success
Status,734,15385109476,/g3t1_1,,success
Status,735,15385179306,/g3t1_3,,running
Status,736,15385532640,/g3t1_3,,success
Status,737,15385594135,/g3t1_2,,success
Status,738,15404073724,/g4t1,,fail
Status,739,15424296475,/g4t1,,success
Status,740,15444346377,/g4t1,,success
Status,741,15464510537,/g4t1,,success
Status,742,15483984180,/g3t1_1,,running
Status,743,15484135881,/g3t1_1,,success
Status,744,15484239198,/g3t1_2,,running
Status,745,15485166763,/g4t1,,success
Status,746,15485248230,/g3t1_2,,success
Status,747,15485380477,/g3t1_3,,running
Status,748,15485731425,/g3t1_3,,success
Status,749,15504724010,/g4t1,,fail
Status,750,15525243401,/g4t1,,success
Status,751,15544889645,/g4t1,,success
Status,752,15565154208,/g4t1,,success
Status,753,15583698533,/g3t1_1,,running
Status,754,15584298774,/g3t1_1,,success
Status,755,15584366772,/g3t1_2,,running
Status,756,15585163419,/g4t1,,fail
Status,757,15585203629,/g3t1_2,,success
Status,758,15585243668,/g3t1_3,,running
Status,759,15585635031,/g3t1_3,,success
Status,760,15605394977,/g4t1,,fail
Status,761,15625404298,/g4t1,,success
Status,762,15645796989,/g4t1,,success
Status,763,15665775358,/g4t1,,success
Status,764,15684733559,/g3t1_1,,running
Status,765,15684820850,/g3t1_1,,success
Status,766,15684857589,/g3t1_2,,running
Status,767,15685721524,/g3t1_3,,running
Status,768,15685769148,/g3t1_2,,success
Status,769,15685791523,/g3t1_3,,success
Status,770,15685869417,/g4t1,,success
Status,771,15706235798,/g4t1,,fail
Status,772,15726357634,/g4t1,,success
Status,773,15746505049,/g4t1,,success
Status,774,15767243404,/g4t1,,success
Status,775,15784107231,/g3t1_1,,running
Status,776,15784654507,/g3t1_1,,success
Status,777,15785592011,/g3t1_2,,running
Status,778,15785678250,/g3t1_3,,running
Status,779,15786110662,/g3t1_3,,success
Status,780,15786180575,/g3t1_2,,success
Status,781,15786840095,/g4t1,,fail
Status,782,15807327160,/g4t1,,success
Status,783,15827186853,/g4t1,,success
Status,784,15847532276,/g4t1,,success
Status,785,15867661774,/g4t1,,success
Status,786,15884230616,/g3t1_1,,running
Status,787,15885212124,/g3t1_1,,success
Status,788,15885354814,/g3t1_2,,running
Status,789,15885899631,/g3t1_3,,running
Status,790,15885973579,/g3t1_3,,success
Status,791,15886035024,/g3t1_2,,success
Status,792,15887227887,/g4t1,,fail
Status,793,15907434135,/g4t1,,success
Status,794,15927793508,/g4t1,,success
Status,795,15947999881,/g4t1,,success
Status,796,15968099102,/g4t1,,success
Status,797,15984365620,/g3t1_1,,running
Status,798,15984442160,/g3t1_1,,success
Status,799,15985818460,/g3t1_2,,running
Status,800,15985922699,/g3t1_3,,running
Status,801,15985942241,/g3t1_2,,success
Status,802,15985963892,/g3t1_3,,success
Status,803,15987992393,/g4t1,,fail
Status,804,16008278921,/g4t1,,success
Status,805,16028616520,/g4t1,,success
Status,806,16048466352,/g4t1,,success
Status,807,16068704489,/g4t1,,success
Status,808,16084720289,/g3t1_1,,running
Status,809,16085721348,/g3t1_2,,running
Status,810,16085848625,/g3t1_1,,success
Status,811,16085910439,/g3t1_3,,running
Status,812,16086008719,/g3t1_3,,success
Status,813,16086207254,/g3t1_2,,success
Status,814,16088301169,/g4t1,,fail
Status,815,16108849856,/g4t1,,success
Status,816,16128912459,/g4t1,,success
Status,817,16149059316,/g4t1,,success
Status,818,16168758004,/g4t1,,success
Status,819,16183934195,/g3t1_1,,running
Status,820,16184083005,/g3t1_1,,success
Status,821,16184842569,/g3t1_2,,running
Status,822,16185204444,/g3t1_2,,success
Status,823,16185224481,/g3t1_3,,running
Status,824,16185518702,/g3t1_3,,success
Status,825,16188429218,/g4t1,,fail
Status,826,16208607397,/g4t1,,success
Status,827,16228732847,/g4t1,,success
Status,828,16248884401,/g4t1,,success
Status,829,16269675889,/g4t1,,success
Status,830,16284461955,/g3t1_1,,running
Status,831,16284704340,/g3t1_1,,success
Status,832,16285924852,/g3t1_2,,running
Status,833,16286004021,/g3t1_3,,running
Status,834,16286497591,/g3t1_2,,success
Status,835,16287022966,/g3t1_3,,success
Status,836,16289419294,/g4t1,,fail
Status,837,16309993279,/g4t1,,success
Status,838,16330111654,/g4t1,,success
Status,839,16350041842,/g4t1,,success
Status,840,16370208861,/g4t1,,success
Status,841,16384287981,/g3t1_1,,running
Status,842,16384314712,/g3t1_1,,success
Status,843,16385139437,/g3t1_2,,running
Status,844,16385322753,/g3t1_2,,success
Status,845,16385479635,/g3t1_3,,running
Status,846,16385859694,/g3t1_3,,success
Status,847,16389512305,/g4t1,,fail
Status,848,16409613568,/g4t1,,success
Status,849,16429823942,/g4t1,,success
Status,850,16449976098,/g4t1,,success
Status,851,16469913135,/g4t1,,success
Status,852,16484269236,/g3t1_1,,running
Status,853,16484293637,/g3t1_1,,success
Status,854,16485284473,/g3t1_2,,running
Status,855,16485541162,/g3t1_2,,success
Status,856,16485557969,/g3t1_3,,running
Status,857,16485945054,/g3t1_3,,success
Status,858,16490167007,/g4t1,,fail
Status,859,16510196051,/g4t1,,success
Status,860,16530356441,/g4t1,,success
Status,861,16550379859,/g4t1,,success
Status,862,16570327944,/g4t1,,success
Status,863,16584270348,/g3t1_1,,running
Status,864,16585579378,/g3t1_1,,success
Status,865,16585608880,/g3t1_2,,running
Status,866,16585621772,/g3t1_2,,success
Status,867,16585641305,/g3t1_3,,running
Status,868,16585651238,/g3t1_3,,success
Status,869,16590343981,/g4t1,,fail
Status,870,16610526665,/g4t1,,success
Status,871,16630623656,/g4t1,,success
Status,872,16650986863,/g4t1,,success
Status,873,16670688926,/g4t1,,success
Status,874,16684338956,/g3t1_1,,running
Status,875,16684369024,/g3t1_1,,success
Status,876,16685438974,/g3t1_2,,running
Status,877,16685777974,/g3t1_3,,running
Status,878,16685796281,/g3t1_2,,success
Status,879,16685884231,/g3t1_3,,success
Status,880,16690795221,/g4t1,,fail
Status,881,16711034148,/g4t1,,success
Status,882,16731045062,/g4t1,,success
Status,883,16751084333,/g4t1,,success
Status,884,16771129448,/g4t1,,success
Status,885,16784326083,/g3t1_1,,running
Status,886,16784446578,/g3t1_1,,success
Status,887,16785295023,/g3t1_2,,running
Status,888,16785419186,/g3t1_2,,success
Status,889,16785735248,/g3t1_3,,running
Status,890,16785806035,/g3t1_3,,success
Status,891,16791336807,/g4t1,,fail
Status,892,16811565951,/g4t1,,success
Status,893,16831538245,/g4t1,,success
Status,894,16851601463,/g4t1,,success
Status,895,16871637182,/g4t1,,success
Status,896,16884414711,/g3t1_1,,running
Status,897,16884708577,/g3t1_1,,success
Status,898,16885312684,/g3t1_2,,running
Status,899,16885406920,/g3t1_2,,success
Status,900,16885683976,/g3t1_3,,running
Status,901,16885929047,/g3t1_3,,success
Status,902,16891762768,/g4t1,,fail
Status,903,16911899658,/g4t1,,success
Status,904,16931930563,/g4t1,,success
Status,905,16952048179,/g4t1,,success
Status,906,16971975650,/g4t1,,success
Status,907,16984589883,/g3t1_1,,running
Status,908,16984620045,/g3t1_1,,success
Status,909,16985397723,/g3t1_2,,running
Status,910,16985547267,/g3t1_2,,success
Status,911,16985775993,/g3t1_3,,running
Status,912,16985939451,/g3t1_3,,success
Status,913,16992317540,/g4t1,,fail
Status,914,17012322190,/g4t1,,success
Status,915,17032557318,/g4t1,,success
Status,916,17052927432,/g4t1,,success
Status,917,17073056620,/g4t1,,success
Status,918,17085293302,/g3t1_1,,running
Status,919,17085966181,/g3t1_1,,success
Status,920,17086317471,/g3t1_2,,running
Status,921,17086361386,/g3t1_3,,running
Status,922,17086585288,/g3t1_2,,success
Status,923,17086852043,/g3t1_3,,success
Status,924,17093342689,/g4t1,,fail
Status,925,17113597093,/g4t1,,success
Status,926,17133918264,/g4t1,,success
Status,927,17153784155,/g4t1,,success
Status,928,17173705634,/g4t1,,success
Status,929,17184979699,/g3t1_1,,running
Status,930,17185308367,/g3t1_1,,success
Status,931,17185954868,/g3t1_2,,running
Status,932,17186462285,/g3t1_3,,running
Status,933,17186494808,/g3t1_2,,success
Status,934,17186536888,/g3t1_3,,success
Status,935,17194373962,/g4t1,,fail
Status,936,17214156172,/g4t1,,success
Status,937,17233729224,/g4t1,,success
Status,938,17253757911,/g4t1,,success
Status,939,17274264715,/g4t1,,success
Status,940,17284970734,/g3t1_1,,running
Status,941,17285126413,/g3t1_1,,success
Status,942,17285786407,/g3t1_2,,running
Status,943,17285893689,/g3t1_2,,success
Status,944,17286198499,/g3t1_3,,running
Status,945,17286219628,/g3t1_3,,success
Status,946,17294160256,/g4t1,,fail
Status,947,17314591847,/g4t1,,success
Status,948,17334645856,/g4t1,,success
Status,949,17354753328,/g4t1,,success
Status,950,17375118270,/g4t1,,success
Status,951,17386149056,/g3t1_1,,running
Status,952,17386211509,/g3t1_1,,success
Status,953,17386694810,/g3t1_2,,running
Status,954,17387235669,/g3t1_3,,running
Status,955,17387335478,/g3t1_3,,success
Status,956,17387443969,/g3t1_2,,success
Status,957,17395519859,/g4t1,,fail
Status,958,17415244274,/g4t1,,success
Status,959,17435708728,/g4t1,,success
Status,960,17455722921,/g4t1,,success
Status,961,17475912751,/g4t1,,success
Status,962,17485581833,/g3t1_1,,running
Status,963,17486431621,/g3t1_1,,success
Status,964,17486483391,/g3t1_2,,running
Status,965,17486779092,/g3t1_3,,running
Status,966,17487389848,/g3t1_2,,success
Status,967,17487527319,/g3t1_3,,success
Status,968,17496282663,/g4t1,,fail
Status,969,17516203218,/g4t1,,success
Status,970,17536432411,/g4t1,,success
Status,971,17556520142,/g4t1,,success
Status,972,17576573724,/g4t1,,success
Status,973,17585899973,/g3t1_1,,running
Status,974,17586577682,/g3t1_1,,success
Status,975,17586634458,/g3t1_2,,running
Status,976,17586971638,/g3t1_3,,running
Status,977,17587495797,/g3t1_2,,success
Status,978,17587585877,/g3t1_3,,success
Status,979,17596629212,/g4t1,,fail
Status,980,17616696680,/g4t1,,success
Status,981,17637040359,/g4t1,,success
Status,982,17656963321,/g4t1,,success
Status,983,17677334167,/g4t1,,success
Status,984,17686255813,/g3t1_1,,running
Status,985,17686331989,/g3t1_1,,success
Status,986,17686919719,/g3t1_2,,running
Status,987,17687331351,/g3t1_3,,running
Status,988,17687391912,/g3t1_2,,success
Status,989,17687917222,/g3t1_3,,success
Status,990,17697173522,/g4t1,,fail
Status,991,17717595657,/g4t1,,success
Status,992,17737314553,/g4t1,,success
Status,993,17757527220,/g4t1,,success
Status,994,17777680406,/g4t1,,success
Status,995,17786145702,/g3t1_1,,running
Status,996,17786791037,/g3t1_1,,success
Status,997,17786920660,/g3t1_2,,running
Status,998,17787272828,/g3t1_3,,running
Status,999,17787324348,/g3t1_2,,success
Status,1000,17787750609,/g3t1_3,,success
Status,1001,17797905114,/g4t1,,fail
Status,1002,17818031252,/g4t1,,success
Status,1003,17838004323,/g4t1,,success
Status,1004,17858098644,/g4t1,,success
Status,1005,17878423451,/g4t1,,success
Status,1006,17886212500,/g3t1_1,,running
Status,1007,17886566248,/g3t1_1,,success
Status,1008,17887745147,/g3t1_2,,running
Status,1009,17887817784,/g3t1_3,,running
Status,1010,17887842402,/g3t1_2,,success
Status,1011,17888408219,/g3t1_3,,success
Status,1012,17898298914,/g4t1,,fail
Status,1013,17918580190,/g4t1,,success
Status,1014,17938510377,/g4t1,,success
Status,1015,17958865730,/g4t1,,success
Status,1016,17978352049,/g4t1,,success
Status,1017,17985843482,/g3t1_1,,running
Status,1018,17985898511,/g3t1_1,,success
Status,1019,17986622121,/g3t1_2,,running
Status,1020,17986653690,/g3t1_2,,success
Status,1021,17986789969,/g3t1_3,,running
Status,1022,17986993471,/g3t1_3,,success
Status,1023,17998419566,/g4t1,,fail
Status,1024,18018517628,/g4t1,,success
Status,1025,18038466286,/g4t1,,success
Status,1026,18058552571,/g4t1,,success
Status,1027,18078650177,/g4t1,,success
Status,1028,18085755830,/g3t1_1,,running
Status,1029,18085776506,/g3t1_1,,success
Status,1030,18086366686,/g3t1_2,,running
Status,1031,18086452903,/g3t1_2,,success
Status,1032,18086725905,/g3t1_3,,running
Status,1033,18086907654,/g3t1_3,,success
Status,1034,18098736380,/g4t1,,fail
Status,1035,18118796958,/g4t1,,success
Status,1036,18138902675,/g4t1,,success
Status,1037,18158982511,/g4t1,,success
Status,1038,18179144762,/g4t1,,success
Status,1039,18185904230,/g3t1_1,,running
Status,1040,18185935319,/g3t1_1,,success
Status,1041,18186379555,/g3t1_2,,running
Status,1042,18186514808,/g3t1_2,,success
Status,1043,18186921226,/g3t1_3,,running
Status,1044,18186942657,/g3t1_3,,success
Status,1045,18199213642,/g4t1,,fail
Status,1046,18219381667,/g4t1,,success
Status,1047,18239774055,/g4t1,,success
Status,1048,18260707259,/g4t1,,success
Status,1049,18280589444,/g4t1,,success
Status,1050,18286592337,/g3t1_1,,running
Status,1051,18287884538,/g3t1_1,,success
Status,1052,18287934454,/g3t1_2,,running
Status,1053,18288000111,/g3t1_3,,running
Status,1054,18288027354,/g3t1_2,,success
Status,1055,18288047804,/g3t1_3,,success
Status,1057,18300733992,/g4t1,,fail
Status,1058,18320905892,/g4t1,,success
Status,1059,18341126219,/g4t1,,success
Status,1060,18361057875,/g4t1,,success
Status,1061,18380673964,/g4t1,,success
Status,1062,18386229019,/g3t1_1,,running
Status,1063,18386328505,/g3t1_1,,fail
Status,1064,18386744261,/g3t1_2,,running
Status,1065,18386908124,/g3t1_2,,success
Status,1066,18387320146,/g3t1_3,,running
Status,1067,18387425935,/g3t1_3,,success
Status,1068,18400887277,/g4t1,,fail
Status,1069,18420576203,/g4t1,,success
Status,1070,18440788051,/g4t1,,success
Status,1071,18460862645,/g4t1,,success
Status,1072,18481744551,/g4t1,,success
Status,1073,18486850226,/g3t1_1,,running
Status,1074,18487031354,/g3t1_1,,fail
Status,1075,18487255819,/g3t1_2,,running
Status,1076,18487992294,/g3t1_2,,success
Status,1077,18488526659,/g3t1_3,,running
Status,1078,18488624743,/g3t1_3,,success
Status,1080,18501818075,/g4t1,,success
Status,1081,18521923330,/g4t1,,success
Status,1082,18541786121,/g4t1,,success
Status,1083,18562072098,/g4t1,,success
Status,1084,18582383619,/g4t1,,success
Status,1085,18587219264,/g3t1_1,,running
Status,1086,18587305784,/g3t1_1,,fail
Status,1087,18587342113,/g3t1_2,,running
Status,1088,18588091599,/g3t1_3,,running
Status,1089,18588156879,/g3t1_2,,success
Status,1090,18588449525,/g3t1_3,,success
Status,1091,18602409562,/g4t1,,success
Status,1092,18622526105,/g4t1,,success
Status,1093,18642561749,/g4t1,,success
Status,1094,18662907595,/g4t1,,success
Status,1095,18682940875,/g4t1,,success
Status,1096,18687029368,/g3t1_1,,running
Status,1097,18687098893,/g3t1_1,,fail
Status,1098,18687807770,/g3t1_2,,running
Status,1099,18687947887,/g3t1_3,,running
Status,1100,18688440730,/g3t1_2,,success
Status,1101,18688505637,/g3t1_3,,success
Status,1103,18702912046,/g4t1,,success
Status,1104,18723148019,/g4t1,,success
Status,1105,18743354660,/g4t1,,success
Status,1106,18763786937,/g4t1,,success
Status,1107,18783506607,/g4t1,,success
Status,1108,18787541268,/g3t1_1,,running
Status,1109,18787627639,/g3t1_1,,fail
Status,1110,18788891679,/g3t1_2,,running
Status,1111,18789348924,/g3t1_3,,running
Status,1112,18789533397,/g3t1_2,,success
Status,1113,18789694554,/g3t1_3,,success
Status,1114,18803460423,/g4t1,,success
Status,1115,18823832858,/g4t1,,success
Status,1116,18844369689,/g4t1,,success
Status,1117,18863995131,/g4t1,,success
Status,1118,18884203607,/g4t1,,success
Status,1119,18887050016,/g3t1_1,,running
Status,1120,18887108589,/g3t1_1,,fail
Status,1121,18887740984,/g3t1_2,,running
Status,1122,18888583381,/g3t1_3,,running
Status,1123,18888934056,/g3t1_2,,success
Status,1124,18888996652,/g3t1_3,,success
Status,1126,18904294330,/g4t1,,success
Status,1127,18924465187,/g4t1,,success
Status,1128,18944551690,/g4t1,,success
Status,1129,18964661786,/g4t1,,success
Status,1130,18984810036,/g4t1,,success
Status,1131,18987386700,/g3t1_1,,running
Status,1132,18987468598,/g3t1_1,,fail
Status,1133,18987894456,/g3t1_2,,running
Status,1134,18988751200,/g3t1_3,,running
Status,1135,18988796086,/g3t1_2,,success
Status,1136,18988831330,/g3t1_3,,success
Status,1137,19004723716,/g4t1,,success
Status,1138,19024935970,/g4t1,,success
Status,1139,19045182078,/g4t1,,success
Status,1140,19065264564,/g4t1,,success
Status,1141,19085488695,/g4t1,,success
Status,1142,19087522191,/g3t1_1,,running
Status,1143,19087587572,/g3t1_1,,fail
Status,1144,19087988776,/g3t1_2,,running
Status,1145,19088798686,/g3t1_3,,running
Status,1146,19088851980,/g3t1_2,,success
Status,1147,19089227592,/g3t1_3,,success
Status,1149,19105752323,/g4t1,,success
Status,1150,19125794533,/g4t1,,success
Status,1151,19145929751,/g4t1,,success
Status,1152,19166065681,/g4t1,,success
Status,1153,19185479557,/g4t1,,success
Status,1154,19186993170,/g3t1_1,,running
Status,1155,19187017860,/g3t1_1,,fail
Status,1156,19187557354,/g3t1_2,,running
Status,1157,19187581680,/g3t1_2,,success
Status,1158,19187834544,/g3t1_3,,running
Status,1159,19188086592,/g3t1_3,,success
Status,1160,19205567600,/g4t1,,success
Status,1161,19225606625,/g4t1,,success
Status,1162,19245832380,/g4t1,,success
Status,1163,19265852867,/g4t1,,success
Status,1164,19285877556,/g4t1,,success
Status,1165,19287008857,/g3t1_1,,running
Status,1166,19287029393,/g3t1_1,,fail
Status,1167,19287482902,/g3t1_2,,running
Status,1168,19287753752,/g3t1_2,,success
Status,1169,19288296011,/g3t1_3,,running
Status,1170,19288635381,/g3t1_3,,success
Status,1172,19305910812,/g4t1,,success
Status,1173,19326148023,/g4t1,,success
Status,1174,19346221094,/g4t1,,success
Status,1175,19366367146,/g4t1,,success
Status,1176,19386791507,/g4t1,,success
Status,1177,19387494004,/g3t1_1,,running
Status,1178,19387842856,/g3t1_1,,fail
Status,1179,19388377423,/g3t1_2,,running
Status,1180,19388709299,/g3t1_3,,running
Status,1181,19388737430,/g3t1_2,,success
Status,1182,19388752592,/g3t1_3,,success
Status,1183,19406898783,/g4t1,,success
Status,1184,19427566679,/g4t1,,success
Status,1185,19447080471,/g4t1,,success
Status,1186,19467098055,/g4t1,,success
Status,1187,19487260614,/g4t1,,success
Status,1188,19487859627,/g3t1_1,,running
Status,1189,19487900152,/g3t1_1,,fail
Status,1190,19487928653,/g3t1_2,,running
Status,1191,19488413253,/g3t1_2,,success
Status,1192,19488458533,/g3t1_3,,running
Status,1193,19489092194,/g3t1_3,,success
Status,1195,19507285706,/g4t1,,success
Status,1196,19527370464,/g4t1,,success
Status,1197,19548036754,/g4t1,,success
Status,1198,19568204929,/g4t1,,success
Status,1199,19588471046,/g3t1_1,,running
Status,1200,19588850049,/g3t1_2,,running
Status,1201,19588905059,/g4t1,,success
Status,1202,19589151835,/g3t1_1,,fail
Status,1203,19589193639,/g3t1_3,,running
Status,1204,19589408173,/g3t1_3,,success
Status,1205,19589539786,/g3t1_2,,success
Status,1206,19608349352,/g4t1,,success
Status,1207,19628684892,/g4t1,,success
Status,1208,19648650433,/g4t1,,success
Status,1209,19668694556,/g4t1,,success
Status,1210,19688213001,/g3t1_1,,running
Status,1211,19688652684,/g3t1_1,,fail
Status,1212,19688703199,/g3t1_2,,running
Status,1213,19689283723,/g4t1,,success
Status,1214,19689935778,/g3t1_3,,running
Status,1215,19690004837,/g3t1_2,,success
Status,1216,19690112185,/g3t1_3,,success
Status,1218,19708866192,/g4t1,,success
Status,1219,19728645520,/g4t1,,success
Status,1220,19748871077,/g4t1,,success
Status,1221,19769273261,/g4t1,,success
Status,1222,19788577537,/g3t1_1,,running
Status,1223,19788645499,/g3t1_1,,fail
Status,1224,19789812814,/g3t1_2,,running
Status,1225,19789880159,/g3t1_2,,success
Status,1226,19789930587,/g3t1_3,,running
Status,1227,19789954411,/g4t1,,success
Status,1228,19790112301,/g3t1_3,,success
Status,1229,19809614839,/g4t1,,success
Status,1230,19829976265,/g4t1,,success
Status,1231,19850062986,/g4t1,,success
Status,1232,19869974714,/g4t1,,success
Status,1233,19888434339,/g3t1_1,,running
Status,1234,19888762239,/g3t1_1,,fail
Status,1235,19888812844,/g3t1_2,,running
Status,1236,19889574709,/g3t1_3,,running
Status,1237,19890008307,/g4t1,,success
Status,1238,19890061225,/g3t1_3,,success
Status,1239,19890092629,/g3t1_2,,success
Status,1241,19910401164,/g4t1,,success
Status,1242,19930483372,/g4t1,,success
Status,1243,19950736160,/g4t1,,success
Status,1244,19970721122,/g4t1,,success
Status,1245,19988700156,/g3t1_1,,running
Status,1246,19989860908,/g3t1_1,,fail
Status,1247,19989917240,/g3t1_2,,running
Status,1248,19989950678,/g3t1_2,,success
Status,1249,19989993858,/g3t1_3,,running
Status,1250,19990029967,/g3t1_3,,success
Status,1251,19990320014,/g4t1,,success
Status,1252,20010956001,/g4t1,,success
Status,1253,20031336935,/g4t1,,success
Status,1254,20051469293,/g4t1,,success
Status,1255,20071456484,/g4t1,,success
Status,1256,20088621303,/g3t1_1,,running
Status,1257,20088711254,/g3t1_1,,fail
Status,1258,20089017742,/g3t1_2,,running
Status,1259,20089664313,/g3t1_3,,running
Status,1260,20089888241,/g3t1_2,,success
Status,1261,20090312072,/g3t1_3,,success
Status,1262,20091131657,/g4t1,,success
Status,1264,20111749531,/g4t1,,success
Status,1265,20131752834,/g4t1,,success
Status,1266,20151857003,/g4t1,,success
Status,1267,20172141799,/g4t1,,success
Status,1268,20188908127,/g3t1_1,,running
Status,1269,20188990366,/g3t1_1,,fail
Status,1270,20189183754,/g3t1_2,,running
Status,1271,20189793935,/g3t1_3,,running
Status,1272,20189914265,/g3t1_2,,success
Status,1273,20190284164,/g3t1_3,,success
Status,1274,20191679996,/g4t1,,success
Status,1275,20213009357,/g4t1,,success
Status,1276,20232357491,/g4t1,,success
Status,1277,20252561116,/g4t1,,success
Status,1278,20272461527,/g4t1,,success
Status,1279,20289171499,/g3t1_1,,running
Status,1280,20289271375,/g3t1_1,,fail
Status,1281,20289404801,/g3t1_2,,running
Status,1282,20290007859,/g3t1_3,,running
Status,1283,20290072358,/g3t1_2,,success
Status,1284,20290580268,/g3t1_3,,success
Status,1285,20292234423,/g4t1,,success
Status,1287,20312816671,/g4t1,,success
Status,1288,20332533109,/g4t1,,success
Status,1289,20352977212,/g4t1,,success
Status,1290,20373159014,/g4t1,,success
Status,1291,20389031202,/g3t1_1,,running
Status,1292,20389091437,/g3t1_1,,fail
Status,1293,20389500108,/g3t1_2,,running
Status,1294,20390991515,/g3t1_2,,success
Status,1295,20391048042,/g3t1_3,,running
Status,1296,20391109203,/g3t1_3,,success
Status,1297,20392637091,/g4t1,,success
Status,1298,20413265711,/g4t1,,success
Status,1299,20433378267,/g4t1,,success
Status,1300,20453792359,/g4t1,,success
Status,1301,20473754923,/g4t1,,success
Status,1302,20489535802,/g3t1_1,,running
Status,1303,20489610507,/g3t1_1,,fail
Status,1304,20489719221,/g3t1_2,,running
Status,1305,20490505640,/g3t1_3,,running
Status,1306,20490544195,/g3t1_2,,success
Status,1307,20490641129,/g3t1_3,,success
Status,1308,20493584566,/g4t1,,success
Status,1310,20513823273,/g4t1,,success
Status,1311,20533926037,/g4t1,,success
Status,1312,20590064554,/g3t1_1,,running
Status,1313,20590663547,/g3t1_2,,running
Status,1314,20590728110,/g3t1_1,,fail
Status,1315,20590793226,/g3t1_3,,running
Status,1316,20591248250,/g3t1_3,,success
Status,1317,20591311034,/g3t1_2,,success
Status,1318,20689889804,/g3t1_1,,running
Status,1319,20689971015,/g3t1_2,,running
Status,1320,20690002878,/g3t1_1,,fail
Status,1321,20690635641,/g3t1_3,,running
Status,1322,20690701226,/g3t1_2,,success
Status,1323,20690781343,/g3t1_3,,success
Status,1325,20790993805,/g3t1_1,,running
Status,1326,20791074827,/g3t1_2,,running
Status,1327,20791111170,/g3t1_1,,fail
Status,1328,20791136614,/g3t1_3,,running
Status,1329,20791229796,/g3t1_2,,success
Status,1330,20791529034,/g3t1_3,,success
Status,1331,20890304646,/g3t1_1,,running
Status,1332,20890369667,/g3t1_2,,running
Status,1333,20890731177,/g3t1_1,,fail
Status,1334,20890867916,/g3t1_3,,running
Status,1335,20891391003,/g3t1_3,,success
Status,1336,20891480735,/g3t1_2,,success
Status,1338,20990177464,/g3t1_1,,running
Status,1339,20990267094,/g3t1_2,,running
Status,1340,20990819746,/g3t1_1,,fail
Status,1341,20990894790,/g3t1_3,,running
Status,1342,20991218934,/g3t1_3,,success
Status,1343,20991280516,/g3t1_2,,success
Status,1344,21090604359,/g3t1_1,,running
Status,1345,21090669738,/g3t1_2,,running
Status,1346,21090947022,/g3t1_3,,running
Status,1347,21091009708,/g3t1_1,,fail
Status,1348,21091053342,/g3t1_2,,success
Status,1349,21091459410,/g3t1_3,,success
Status,1351,21190498474,/g3t1_1,,running
Status,1352,21190576632,/g3t1_2,,running
Status,1353,21190613991,/g3t1_1,,fail
Status,1354,21190945850,/g3t1_3,,running
Status,1355,21190996265,/g3t1_2,,success
Status,1356,21191473459,/g3t1_3,,success
Status,1357,21291208136,/g3t1_1,,running
Status,1358,21291310913,/g3t1_2,,running
Status,1359,21291384249,/g3t1_1,,fail
Status,1360,21291403464,/g3t1_2,,success
Status,1361,21291420174,/g3t1_3,,running
Status,1362,21291617401,/g3t1_3,,success
Status,1364,21391488092,/g3t1_1,,running
Status,1365,21391622106,/g3t1_2,,running
Status,1366,21391834295,/g3t1_3,,running
Status,1367,21391878544,/g3t1_1,,fail
Status,1368,21391911829,/g3t1_2,,success
Status,1369,21391947381,/g3t1_3,,success
Status,1370,21490785456,/g3t1_1,,running
Status,1371,21490864528,/g3t1_2,,running
Status,1372,21491474951,/g3t1_1,,fail
Status,1373,21491522520,/g3t1_3,,running
Status,1374,21491835518,/g3t1_2,,success
Status,1375,21491988410,/g3t1_3,,success
Status,1377,21590202594,/g3t1_1,,running
Status,1378,21590230568,/g3t1_2,,running
Status,1379,21590312198,/g3t1_1,,fail
Status,1380,21590325131,/g3t1_2,,success
Status,1381,21590807528,/g3t1_3,,running
Status,1382,21590945716,/g3t1_3,,success
Status,1383,21690459916,/g3t1_1,,running
Status,1384,21690484048,/g3t1_2,,running
Status,1385,21690500398,/g3t1_1,,fail
Status,1386,21690506293,/g3t1_2,,success
Status,1387,21690858184,/g3t1_3,,running
Status,1388,21690999816,/g3t1_3,,success
Status,1390,21790732494,/g3t1_2,,running
Status,1391,21790762649,/g3t1_1,,running
Status,1392,21792132223,/g3t1_2,,success
Status,1393,21792163047,/g3t1_3,,running
Status,1394,21792181434,/g3t1_3,,success
Status,1395,21792189362,/g3t1_1,,fail
Status,1396,21890667703,/g3t1_1,,running
Status,1397,21890685401,/g3t1_1,,fail
Status,1398,21890693232,/g3t1_2,,running
Status,1399,21890710691,/g3t1_2,,success
Status,1400,21890996562,/g3t1_3,,running
Status,1401,21891192271,/g3t1_3,,success
Status,1403,21990977999,/g3t1_2,,running
Status,1404,21991008902,/g3t1_2,,success
Status,1405,21991033016,/g3t1_1,,running
Status,1406,21991040561,/g3t1_1,,fail
Status,1407,21991721705,/g3t1_3,,running
Status,1408,21991767350,/g3t1_3,,success
Status,1409,22090795145,/g3t1_1,,running
Status,1410,22090815145,/g3t1_2,,running
Status,1411,22090837347,/g3t1_2,,success
Status,1412,22090843370,/g3t1_1,,fail
Status,1413,22091323513,/g3t1_3,,running
Status,1414,22091444666,/g3t1_3,,success
Status,1416,22191121464,/g3t1_2,,running
Status,1417,22191210616,/g3t1_1,,running
Status,1418,22191237901,/g3t1_1,,fail
Status,1419,22191248972,/g3t1_2,,success
Status,1420,22191618395,/g3t1_3,,running
Status,1421,22191639620,/g3t1_3,,success
Status,1422,22291040769,/g3t1_1,,running
Status,1423,22291064937,/g3t1_2,,running
Status,1424,22291084115,/g3t1_1,,fail
Status,1425,22291091731,/g3t1_2,,success
Status,1426,22291313845,/g3t1_3,,running
Status,1427,22291410497,/g3t1_3,,success
Status,1429,22390998524,/g3t1_1,,running
Status,1430,22391024245,/g3t1_2,,running
Status,1431,22391032975,/g3t1_1,,fail
Status,1432,22391206251,/g3t1_2,,success
Status,1433,22391434363,/g3t1_3,,running
Status,1434,22391543661,/g3t1_3,,success
Status,1435,22491080443,/g3t1_1,,running
Status,1436,22491107440,/g3t1_2,,running
Status,1437,22491116826,/g3t1_1,,fail
Status,1438,22491423864,/g3t1_2,,success
Status,1439,22491444380,/g3t1_3,,running
Status,1440,22491507562,/g3t1_3,,success
Status,1442,22592082670,/g3t1_1,,running
Status,1443,22592162563,/g3t1_2,,running
Status,1444,22592788869,/g3t1_3,,running
Status,1445,22592841223,/g3t1_1,,fail
Status,1446,22593105100,/g3t1_2,,success
Status,1447,22593194226,/g3t1_3,,success
Status,1448,22691169373,/g3t1_1,,running
Status,1449,22691190360,/g3t1_1,,fail
Status,1450,22691295865,/g3t1_2,,running
Status,1451,22691309800,/g3t1_2,,success
Status,1452,22691650666,/g3t1_3,,running
Status,1453,22691783128,/g3t1_3,,success
Status,1455,22791320763,/g3t1_1,,running
Status,1456,22791344290,/g3t1_2,,running
Status,1457,22791357307,/g3t1_1,,fail
Status,1458,22791460393,/g3t1_2,,success
Status,1459,22791743769,/g3t1_3,,running
Status,1460,22791848614,/g3t1_3,,success
Status,1461,22891404178,/g3t1_1,,running
Status,1462,22891447235,/g3t1_1,,fail
Status,1463,22891455445,/g3t1_2,,running
Status,1464,22891460990,/g3t1_2,,success
Status,1465,22891814331,/g3t1_3,,running
Status,1466,22891925516,/g3t1_3,,success
Status,1468,22991428622,/g3t1_1,,running
Status,1469,22991525628,/g3t1_1,,fail
Status,1470,22991576656,/g3t1_2,,running
Status,1471,22991671666,/g3t1_2,,success
Status,1472,22991929081,/g3t1_3,,running
Status,1473,22992007140,/g3t1_3,,success
Status,1474,23091413347,/g3t1_1,,running
Status,1475,23091430426,/g3t1_1,,fail
Status,1476,23091503148,/g3t1_2,,running
Status,1477,23091514676,/g3t1_2,,success
Status,1478,23091866807,/g3t1_3,,running
Status,1479,23092042996,/g3t1_3,,success
Status,1481,23191504709,/g3t1_1,,running
Status,1482,23191527440,/g3t1_1,,fail
Status,1483,23191541788,/g3t1_2,,running
Status,1484,23191570164,/g3t1_2,,success
Status,1485,23191958178,/g3t1_3,,running
Status,1486,23192068723,/g3t1_3,,success
Status,1487,23292412072,/g3t1_1,,running
Status,1488,23292561991,/g3t1_2,,running
Status,1489,23292602433,/g3t1_1,,fail
Status,1490,23293375492,/g3t1_3,,running
Status,1491,23293495559,/g3t1_3,,success
Status,1492,23293542752,/g3t1_2,,success
Status,1496,23391708477,/g3t1_1,,running
Status,1497,23391857509,/g3t1_1,,fail
Status,1498,23391875839,/g3t1_2,,running
Status,1499,23391984640,/g3t1_2,,fail
Status,1500,23392308943,/g3t1_3,,running
Status,1501,23392423617,/g3t1_3,,fail
Status,1502,23491825510,/g3t1_1,,running
Status,1503,23491845652,/g3t1_1,,fail
Status,1504,23491872666,/g3t1_2,,running
Status,1505,23491940242,/g3t1_2,,fail
Status,1506,23492275195,/g3t1_3,,running
Status,1507,23492444581,/g3t1_3,,fail
Status,1511,23591862174,/g3t1_1,,running
Status,1512,23591921379,/g3t1_1,,fail
Status,1513,23591956460,/g3t1_2,,running
Status,1514,23592037526,/g3t1_2,,fail
Status,1515,23592312415,/g3t1_3,,running
Status,1516,23592473057,/g3t1_3,,fail
Status,1517,23692318597,/g3t1_1,,running
Status,1518,23692351695,/g3t1_2,,running
Status,1519,23692363264,/g3t1_2,,fail
Status,1520,23692371010,/g3t1_1,,fail
Status,1521,23692554932,/g3t1_3,,running
Status,1522,23692643022,/g3t1_3,,fail
Status,1526,23792103984,/g3t1_1,,running
Status,1527,23792152620,/g3t1_2,,running
Status,1528,23792164420,/g3t1_1,,fail
Status,1529,23792243656,/g3t1_2,,fail
Status,1530,23792686197,/g3t1_3,,running
Status,1531,23792712794,/g3t1_3,,fail
Status,1532,23892122772,/g3t1_1,,running
Status,1533,23892297927,/g3t1_2,,running
Status,1534,23892317869,/g3t1_1,,fail
Status,1535,23892426318,/g3t1_2,,fail
Status,1536,23892570117,/g3t1_3,,running
Status,1537,23892904422,/g3t1_3,,fail
Status,1541,23993477390,/g3t1_1,,running
Status,1542,23993597914,/g3t1_2,,running
Status,1543,23993822294,/g3t1_2,,fail
Status,1544,23993865461,/g3t1_1,,fail
Status,1545,23993931647,/g3t1_3,,running
Status,1546,23994056513,/g3t1_3,,fail
Status,1547,24093329003,/g3t1_1,,running
Status,1548,24093395181,/g3t1_2,,running
Status,1549,24093731303,/g3t1_2,,fail
Status,1550,24093822821,/g3t1_3,,running
Status,1551,24093860720,/g3t1_1,,fail
Status,1552,24094081198,/g3t1_3,,fail
Status,1556,24192561490,/g3t1_1,,running
Status,1557,24192589004,/g3t1_1,,fail
Status,1558,24192613487,/g3t1_2,,running
Status,1559,24192638763,/g3t1_2,,fail
Status,1560,24193172725,/g3t1_3,,running
Status,1561,24193317377,/g3t1_3,,fail
Status,1562,24292682914,/g3t1_1,,running
Status,1563,24292702020,/g3t1_2,,running
Status,1564,24292710992,/g3t1_1,,fail
Status,1565,24292722371,/g3t1_2,,fail
Status,1566,24293129150,/g3t1_3,,running
Status,1567,24293227557,/g3t1_3,,fail
Status,1571,24393000786,/g3t1_1,,running
Status,1572,24393037728,/g3t1_2,,running
Status,1573,24393055487,/g3t1_2,,fail
Status,1574,24393179024,/g3t1_1,,fail
Status,1575,24393482325,/g3t1_3,,running
Status,1576,24393512086,/g3t1_3,,fail
Status,1577,24493238741,/g3t1_2,,running
Status,1578,24493272852,/g3t1_1,,running
Status,1579,24493283686,/g3t1_1,,fail
Status,1580,24493413179,/g3t1_2,,fail
Status,1581,24493428012,/g3t1_3,,running
Status,1582,24493759243,/g3t1_3,,fail
