
Status,2,20473696774,/g4t1,,init
Status,3,25686106941,/g3t1_1,,init
Status,5,25690142750,/g3t1_1,,init
Status,6,25690155663,/g3t1_1,,running
Status,7,25691214936,/g3t1_1,,success
Status,8,25886432130,/g3t1_2,,init
Status,10,25890170985,/g3t1_1,,running
Status,11,25890289340,/g3t1_1,,success
Status,12,25892596838,/g3t1_2,,init
Status,13,25892606316,/g3t1_2,,running
Status,14,25893559420,/g3t1_2,,success
Status,15,25990242364,/g3t1_3,,init
Status,17,25994806908,/g3t1_3,,init
Status,18,25994821724,/g3t1_3,,running
Status,19,25995712432,/g3t1_3,,success
Status,20,26090363990,/g3t1_1,,running
Status,21,26090526702,/g3t1_1,,success
Status,23,26090755640,/g3t1_4,,init
Status,24,26092726325,/g3t1_2,,running
Status,25,26092839009,/g3t1_2,,success
Status,26,26096343826,/g3t1_4,,init
Status,27,26096355838,/g3t1_4,,running
Status,28,26098237720,/g3t1_4,,success
Status,29,26291259776,/g3t1_1,,running
Status,30,26291923101,/g3t1_1,,success
Status,31,26293520302,/g3t1_2,,running
Status,32,26294527691,/g3t1_2,,success
Status,33,26483624899,/g4t1,,success
Status,34,26491107079,/g3t1_1,,running
Status,35,26491696996,/g3t1_1,,success
Status,36,26493505880,/g3t1_2,,running
Status,37,26494084167,/g3t1_2,,success
Status,38,26691572677,/g3t1_1,,running
Status,39,26692439252,/g3t1_1,,success
Status,40,26693757834,/g3t1_2,,running
Status,41,26694400099,/g3t1_2,,success
Status,42,26891832305,/g3t1_1,,running
Status,43,26892439162,/g3t1_1,,success
Status,44,26893819342,/g3t1_2,,running
Status,45,26894379897,/g3t1_2,,success
Status,46,26995796349,/g3t1_3,,running
Status,47,26996568933,/g3t1_3,,success
Status,48,27092262953,/g3t1_1,,running
Status,49,27092517132,/g3t1_1,,success
Status,50,27093844002,/g3t1_2,,running
Status,51,27094587501,/g3t1_2,,success
Status,52,27097330050,/g3t1_4,,running
Status,53,27112038310,/g3t1_4,,success
Status,54,27292013998,/g3t1_1,,running
Status,55,27292393968,/g3t1_1,,success
Status,56,27293921391,/g3t1_2,,running
Status,57,27294566685,/g3t1_2,,success
Status,58,27483647100,/g4t1,,success
Status,59,27491969165,/g3t1_1,,running
Status,60,27492507010,/g3t1_1,,success
Status,61,27494174260,/g3t1_2,,running
Status,62,27494928832,/g3t1_2,,success
Status,63,27692405599,/g3t1_1,,running
Status,64,27692695878,/g3t1_1,,success
Status,65,27694179683,/g3t1_2,,running
Status,66,27694585920,/g3t1_2,,success
Status,67,27892963541,/g3t1_1,,running
Status,68,27893049681,/g3t1_1,,success
Status,69,27894355053,/g3t1_2,,running
Status,70,27894915527,/g3t1_2,,success
Status,71,27995795744,/g3t1_3,,running
Status,72,27996237400,/g3t1_3,,success
Status,73,28092760075,/g3t1_1,,running
Status,74,28093477948,/g3t1_1,,success
Status,75,28094421950,/g3t1_2,,running
Status,76,28094740475,/g3t1_2,,success
Status,77,28097248592,/g3t1_4,,running
Status,78,28105700007,/g3t1_4,,success
Status,79,28292880111,/g3t1_1,,running
Status,80,28293301280,/g3t1_1,,success
Status,81,28294477001,/g3t1_2,,running
Status,82,28294975276,/g3t1_2,,success
Status,83,28483821627,/g4t1,,success
Status,84,28493176363,/g3t1_1,,running
Status,85,28493609775,/g3t1_1,,success
Status,86,28494613153,/g3t1_2,,running
Status,87,28495292047,/g3t1_2,,success
Status,88,28693146262,/g3t1_1,,running
Status,89,28693773654,/g3t1_1,,success
Status,90,28694802745,/g3t1_2,,running
Status,91,28695616359,/g3t1_2,,success
Status,92,28893480689,/g3t1_1,,running
Status,93,28894008848,/g3t1_1,,success
Status,94,28894827107,/g3t1_2,,running
Status,95,28895282593,/g3t1_2,,success
Status,96,28996079700,/g3t1_3,,running
Status,97,28996487115,/g3t1_3,,success
Status,98,29093709836,/g3t1_1,,running
Status,99,29094314264,/g3t1_1,,success
Status,100,29094966778,/g3t1_2,,running
Status,101,29095315932,/g3t1_2,,success
Status,102,29097668098,/g3t1_4,,running
Status,103,29109603611,/g3t1_4,,success
Status,104,29294033720,/g3t1_1,,running
Status,105,29294362154,/g3t1_1,,success
Status,106,29295447099,/g3t1_2,,running
Status,107,29296101746,/g3t1_2,,success
Status,108,29483888130,/g4t1,,success
Status,109,29494104526,/g3t1_1,,running
Status,110,29494409437,/g3t1_1,,success
Status,111,29494997017,/g3t1_2,,running
Status,112,29495529796,/g3t1_2,,success
Status,113,29693553215,/g3t1_1,,running
Status,114,29693577683,/g3t1_1,,success
Status,115,29694661595,/g3t1_2,,running
Status,116,29694879822,/g3t1_2,,success
Status,117,29894189049,/g3t1_1,,running
Status,118,29894535453,/g3t1_1,,success
Status,119,29895331241,/g3t1_2,,running
Status,120,29895604628,/g3t1_2,,success
Status,121,29995652526,/g3t1_3,,running
Status,122,29996007173,/g3t1_3,,success
Status,123,30094526066,/g3t1_1,,running
Status,124,30094861746,/g3t1_1,,success
Status,125,30095356731,/g3t1_2,,running
Status,126,30096196000,/g3t1_2,,success
Status,127,30097492262,/g3t1_4,,running
Status,128,30109449662,/g3t1_4,,success
Status,129,30294431328,/g3t1_1,,running
Status,130,30294836103,/g3t1_1,,success
Status,131,30295478352,/g3t1_2,,running
Status,132,30296241488,/g3t1_2,,success
Status,133,30484089872,/g4t1,,success
Status,134,30494580347,/g3t1_1,,running
Status,135,30495371766,/g3t1_1,,success
Status,136,30495833191,/g3t1_2,,running
Status,137,30496249561,/g3t1_2,,success
Status,138,30695564912,/g3t1_1,,running
Status,139,30695682057,/g3t1_1,,success
Status,140,30695795761,/g3t1_2,,running
Status,141,30696423606,/g3t1_2,,success
Status,142,30894966437,/g3t1_1,,running
Status,143,30895940680,/g3t1_1,,success
Status,144,30896015378,/g3t1_2,,running
Status,145,30896735694,/g3t1_2,,success
Status,146,30996183481,/g3t1_3,,running
Status,147,30996845105,/g3t1_3,,success
Status,148,31095070855,/g3t1_1,,running
Status,149,31096090586,/g3t1_2,,running
Status,150,31096160787,/g3t1_1,,success
Status,151,31096796314,/g3t1_2,,success
Status,152,31097607553,/g3t1_4,,running
Status,153,31105726426,/g3t1_4,,success
Status,154,31295519896,/g3t1_1,,running
Status,155,31295610586,/g3t1_1,,success
Status,156,31296644292,/g3t1_2,,running
Status,157,31297364480,/g3t1_2,,success
Status,158,31484602932,/g4t1,,success
Status,159,31495580088,/g3t1_1,,running
Status,160,31496363950,/g3t1_1,,success
Status,161,31496437216,/g3t1_2,,running
Status,162,31497260635,/g3t1_2,,success
Status,163,31695556953,/g3t1_1,,running
Status,164,31695962141,/g3t1_1,,success
Status,165,31696376950,/g3t1_2,,running
Status,166,31697040965,/g3t1_2,,success
Status,167,31895959437,/g3t1_1,,running
Status,168,31896477929,/g3t1_1,,success
Status,169,31896592141,/g3t1_2,,running
Status,170,31897629206,/g3t1_2,,success
Status,171,31996450152,/g3t1_3,,running
Status,172,31997050879,/g3t1_3,,success
Status,173,32096073747,/g3t1_1,,running
Status,174,32096523783,/g3t1_1,,success
Status,175,32096898094,/g3t1_2,,running
Status,176,32097748454,/g3t1_2,,success
Status,177,32098040329,/g3t1_4,,running
Status,178,32106289234,/g3t1_4,,success
Status,179,32296376684,/g3t1_1,,running
Status,180,32297173331,/g3t1_1,,success
Status,181,32297240431,/g3t1_2,,running
Status,182,32297744889,/g3t1_2,,success
Status,183,32484459744,/g4t1,,success
Status,184,32496588869,/g3t1_1,,running
Status,185,32496656330,/g3t1_1,,success
Status,186,32496688529,/g3t1_2,,running
Status,187,32497684005,/g3t1_2,,success
Status,188,32696341259,/g3t1_1,,running
Status,189,32697070951,/g3t1_1,,success
Status,190,32697209416,/g3t1_2,,running
Status,191,32697497081,/g3t1_2,,success
Status,192,32896724168,/g3t1_1,,running
Status,193,32898172119,/g3t1_2,,running
Status,194,32898253311,/g3t1_1,,success
Status,195,32899086399,/g3t1_2,,success
Status,196,32996490863,/g3t1_3,,running
Status,197,32997315529,/g3t1_3,,success
Status,198,33096628108,/g3t1_1,,running
Status,199,33097445997,/g3t1_1,,success
Status,200,33097520333,/g3t1_2,,running
Status,201,33098330812,/g3t1_4,,running
Status,202,33098601607,/g3t1_2,,success
Status,203,33107390461,/g3t1_4,,success
Status,204,33297720232,/g3t1_1,,running
Status,205,33298094343,/g3t1_2,,running
Status,206,33298133741,/g3t1_1,,success
Status,207,33298905585,/g3t1_2,,success
Status,208,33484980886,/g4t1,,success
Status,209,33496949278,/g3t1_1,,running
Status,210,33497398647,/g3t1_1,,success
Status,211,33497879311,/g3t1_2,,running
Status,212,33498317099,/g3t1_2,,success
Status,213,33697356289,/g3t1_1,,running
Status,214,33698096454,/g3t1_1,,success
Status,215,33698161072,/g3t1_2,,running
Status,216,33698804972,/g3t1_2,,success
Status,217,33897911771,/g3t1_1,,running
Status,218,33898260498,/g3t1_2,,running
Status,219,33898466883,/g3t1_1,,success
Status,220,33899201039,/g3t1_2,,success
Status,221,33996844494,/g3t1_3,,running
Status,222,33997074561,/g3t1_3,,success
Status,223,34098747587,/g3t1_1,,running
Status,224,34098864599,/g3t1_2,,running
Status,225,34098986117,/g3t1_4,,running
Status,226,34099024671,/g3t1_1,,success
Status,227,34099519160,/g3t1_2,,success
Status,228,34106921396,/g3t1_4,,success
Status,229,34298497141,/g3t1_1,,running
Status,230,34298874898,/g3t1_2,,running
Status,231,34298946864,/g3t1_1,,success
Status,232,34299699382,/g3t1_2,,success
Status,233,34485374389,/g4t1,,success
Status,234,34498575227,/g3t1_1,,running
Status,235,34498669822,/g3t1_2,,running
Status,236,34499019866,/g3t1_1,,success
Status,237,34499077508,/g3t1_2,,success
Status,238,34698350958,/g3t1_1,,running
Status,239,34698448832,/g3t1_2,,running
Status,240,34698823014,/g3t1_1,,success
Status,241,34699518971,/g3t1_2,,success
Status,242,34899032268,/g3t1_1,,running
Status,243,34899130462,/g3t1_2,,running
Status,244,34899713590,/g3t1_1,,success
Status,245,34900038747,/g3t1_2,,success
Status,246,34996946918,/g3t1_3,,running
Status,247,34997378384,/g3t1_3,,success
Status,248,35098847891,/g3t1_1,,running
Status,249,35098920691,/g3t1_4,,running
Status,250,35099093590,/g3t1_2,,running
Status,251,35100056341,/g3t1_1,,success
Status,252,35100124313,/g3t1_2,,success
Status,253,35106607746,/g3t1_4,,success
Status,254,35298643914,/g3t1_1,,running
Status,255,35299892912,/g3t1_2,,running
Status,256,35299947868,/g3t1_1,,success
Status,257,35299967013,/g3t1_2,,success
Status,258,35485272629,/g4t1,,success
Status,259,35499193056,/g3t1_1,,running
Status,260,35499315627,/g3t1_2,,running
Status,261,35499341758,/g3t1_1,,success
Status,262,35499821151,/g3t1_2,,success
Status,263,35699562873,/g3t1_1,,running
Status,264,35699630250,/g3t1_2,,running
Status,265,35699704000,/g3t1_1,,success
Status,266,35699889045,/g3t1_2,,success
Status,267,35899519739,/g3t1_1,,running
Status,268,35899649336,/g3t1_2,,running
Status,269,35900429523,/g3t1_2,,success
Status,270,35900648056,/g3t1_1,,success
Status,271,35997296608,/g3t1_3,,running
Status,272,35997903021,/g3t1_3,,success
Status,273,36099593946,/g3t1_4,,running
Status,274,36099966732,/g3t1_1,,running
Status,275,36100134956,/g3t1_2,,running
Status,276,36100548496,/g3t1_2,,success
Status,277,36100627992,/g3t1_1,,success
Status,278,36107702632,/g3t1_4,,success
Status,279,36299982575,/g3t1_1,,running
Status,280,36300076859,/g3t1_2,,running
Status,281,36300537772,/g3t1_1,,success
Status,282,36300602636,/g3t1_2,,success
Status,283,36485713179,/g4t1,,success
Status,284,36499793325,/g3t1_1,,running
Status,285,36499928470,/g3t1_2,,running
Status,286,36500468405,/g3t1_2,,success
Status,287,36500541718,/g3t1_1,,success
Status,288,36700146843,/g3t1_1,,running
Status,289,36700369865,/g3t1_2,,running
Status,290,36701286787,/g3t1_2,,success
Status,291,36701744500,/g3t1_1,,success
Status,292,36900190120,/g3t1_2,,running
Status,293,36900314610,/g3t1_1,,running
Status,294,36900792582,/g3t1_1,,success
Status,295,36900852403,/g3t1_2,,success
Status,296,36997462883,/g3t1_3,,running
Status,297,36998125041,/g3t1_3,,success
Status,298,37098871978,/g3t1_4,,running
Status,299,37100247345,/g3t1_1,,running
Status,300,37100328819,/g3t1_2,,running
Status,301,37100722266,/g3t1_1,,success
Status,302,37101165048,/g3t1_2,,success
Status,303,37107744486,/g3t1_4,,success
Status,304,37300702941,/g3t1_2,,running
Status,305,37300777736,/g3t1_1,,running
Status,306,37301337636,/g3t1_2,,success
Status,307,37301412753,/g3t1_1,,success
Status,308,37485833777,/g4t1,,success
Status,309,37500451205,/g3t1_1,,running
Status,310,37500532646,/g3t1_2,,running
Status,311,37500816000,/g3t1_2,,success
Status,312,37501168668,/g3t1_1,,success
Status,313,37701019734,/g3t1_1,,running
Status,314,37701190374,/g3t1_2,,running
Status,315,37702023024,/g3t1_2,,success
Status,316,37702110915,/g3t1_1,,success
Status,317,37900973171,/g3t1_1,,running
Status,318,37901073679,/g3t1_2,,running
Status,319,37901315010,/g3t1_1,,success
Status,320,37901709301,/g3t1_2,,success
Status,321,37997639143,/g3t1_3,,running
Status,322,37998305789,/g3t1_3,,success
Status,323,38098859075,/g3t1_4,,running
Status,324,38100710653,/g3t1_1,,running
Status,325,38101201304,/g3t1_2,,running
Status,326,38101281838,/g3t1_1,,success
Status,327,38101324496,/g3t1_2,,success
Status,328,38107534524,/g3t1_4,,success
Status,329,38301566650,/g3t1_2,,running
Status,330,38301807355,/g3t1_1,,running
Status,331,38302132352,/g3t1_1,,success
Status,332,38302211433,/g3t1_2,,success
Status,333,38486222409,/g4t1,,success
Status,334,38501325948,/g3t1_1,,running
Status,335,38501409275,/g3t1_2,,running
Status,336,38501737943,/g3t1_2,,success
Status,337,38502196547,/g3t1_1,,success
Status,338,38701486502,/g3t1_2,,running
Status,339,38701867856,/g3t1_1,,running
Status,340,38701930116,/g3t1_1,,success
Status,341,38702152782,/g3t1_2,,success
Status,342,38902142120,/g3t1_1,,running
Status,343,38902235822,/g3t1_2,,running
Status,344,38902263969,/g3t1_1,,success
Status,345,38902649097,/g3t1_2,,success
Status,346,38997885157,/g3t1_3,,running
Status,347,38998610371,/g3t1_3,,success
Status,348,39099185083,/g3t1_4,,running
Status,349,39101499167,/g3t1_1,,running
Status,350,39101567460,/g3t1_2,,running
Status,351,39102433940,/g3t1_2,,success
Status,352,39102504035,/g3t1_1,,success
Status,353,39106864179,/g3t1_4,,success
Status,354,39302488453,/g3t1_2,,running
Status,355,39302588701,/g3t1_1,,running
Status,356,39302909731,/g3t1_1,,success
Status,357,39302996175,/g3t1_2,,success
Status,358,39486449519,/g4t1,,success
Status,359,39502315224,/g3t1_2,,running
Status,360,39502391477,/g3t1_1,,running
Status,361,39502420682,/g3t1_2,,success
Status,362,39502795014,/g3t1_1,,success
Status,363,39701574137,/g3t1_2,,running
Status,364,39701606837,/g3t1_1,,running
Status,365,39701704306,/g3t1_1,,success
Status,366,39701937183,/g3t1_2,,success
Status,367,39902344867,/g3t1_2,,running
Status,368,39902454171,/g3t1_1,,running
Status,369,39903273846,/g3t1_1,,success
Status,370,39903415437,/g3t1_2,,success
Status,371,39997414761,/g3t1_3,,running
Status,372,39997562628,/g3t1_3,,success
Status,373,40098950635,/g3t1_4,,running
Status,374,40102259880,/g3t1_2,,running
Status,375,40102361621,/g3t1_1,,running
Status,376,40103113859,/g3t1_1,,success
Status,377,40103134767,/g3t1_2,,success
Status,378,40104494910,/g3t1_4,,success
Status,379,40302464844,/g3t1_1,,running
Status,380,40302674172,/g3t1_2,,running
Status,381,40302927968,/g3t1_2,,success
Status,382,40302994437,/g3t1_1,,success
Status,383,40486588553,/g4t1,,success
Status,384,40502705477,/g3t1_1,,running
Status,385,40503174759,/g3t1_2,,running
Status,386,40503226897,/g3t1_1,,success
Status,387,40503257144,/g3t1_2,,success
Status,388,40702740256,/g3t1_2,,running
Status,389,40702835108,/g3t1_1,,running
Status,390,40703274091,/g3t1_2,,success
Status,391,40703328415,/g3t1_1,,success
Status,392,40903272896,/g3t1_2,,running
Status,393,40903756118,/g3t1_1,,running
Status,394,40903842754,/g3t1_1,,success
Status,395,40904307985,/g3t1_2,,success
Status,396,40998327188,/g3t1_3,,running
Status,397,40998906758,/g3t1_3,,success
Status,408,41098582422,/g3t1_4,,running
Status,410,41102398483,/g3t1_1,,running
Status,411,41102426179,/g3t1_2,,running
Status,412,41102448247,/g3t1_4,,success
Status,413,41102456946,/g3t1_2,,success
Status,414,41102523650,/g3t1_1,,success
Status,434,41303052887,/g3t1_2,,running
Status,435,41303142334,/g3t1_1,,running
Status,436,41303400254,/g3t1_2,,success
Status,437,41303479852,/g3t1_1,,success
Status,457,41486254194,/g4t1,,success
Status,459,41503091793,/g3t1_2,,running
Status,460,41503237763,/g3t1_1,,running
Status,461,41503655999,/g3t1_1,,success
Status,462,41503758235,/g3t1_2,,success
Status,483,41703135271,/g3t1_2,,running
Status,484,41703252056,/g3t1_1,,running
Status,485,41703793139,/g3t1_1,,success
Status,486,41703853814,/g3t1_2,,success
Status,507,41903020824,/g3t1_2,,running
Status,508,41903057850,/g3t1_1,,running
Status,509,41903079425,/g3t1_2,,success
Status,510,41903419819,/g3t1_1,,success
Status,520,41998408721,/g3t1_3,,running
Status,521,41998637940,/g3t1_3,,fail
Status,532,42099125269,/g3t1_4,,running
Status,533,42103720070,/g3t1_1,,running
Status,534,42103787721,/g3t1_2,,running
Status,535,42104113805,/g3t1_2,,success
Status,536,42104164241,/g3t1_1,,success
Status,538,42107593646,/g3t1_4,,success
Status,558,42303592638,/g3t1_1,,running
Status,559,42303662844,/g3t1_2,,running
Status,560,42303959166,/g3t1_1,,success
Status,561,42304304826,/g3t1_2,,success
Status,580,42486603300,/g4t1,,success
Status,583,42504191822,/g3t1_1,,running
Status,584,42504250061,/g3t1_2,,running
Status,585,42504269141,/g3t1_1,,success
Status,586,42504285378,/g3t1_2,,success
Status,607,42703915072,/g3t1_2,,running
Status,608,42704028961,/g3t1_1,,running
Status,609,42704323919,/g3t1_2,,success
Status,610,42704865996,/g3t1_1,,success
Status,631,42904460424,/g3t1_1,,running
Status,632,42904506808,/g3t1_2,,running
Status,633,42904677153,/g3t1_2,,success
Status,634,42904726675,/g3t1_1,,success
Status,644,42998524539,/g3t1_3,,running
Status,645,42998866649,/g3t1_3,,fail
Status,656,43098773011,/g3t1_4,,running
Status,657,43102909346,/g3t1_4,,success
Status,658,43103746301,/g3t1_1,,running
Status,659,43103780799,/g3t1_2,,running
Status,660,43103799910,/g3t1_2,,success
Status,661,43103868185,/g3t1_1,,success
Status,682,43304891810,/g3t1_2,,running
Status,683,43304956093,/g3t1_1,,running
Status,684,43304975962,/g3t1_2,,success
Status,685,43305363451,/g3t1_1,,success
Status,704,43485799904,/g4t1,,success
Status,707,43503932476,/g3t1_2,,running
Status,708,43503963997,/g3t1_1,,running
Status,709,43504129821,/g3t1_1,,success
Status,710,43504270283,/g3t1_2,,success
Status,731,43704501650,/g3t1_2,,running
Status,732,43704588901,/g3t1_1,,running
Status,733,43704842015,/g3t1_2,,success
Status,734,43705157526,/g3t1_1,,success
Status,754,43904773288,/g3t1_1,,running
Status,755,43904856304,/g3t1_2,,running
Status,756,43904941449,/g3t1_1,,success
Status,757,43905248919,/g3t1_2,,success
Status,768,43998771820,/g3t1_3,,running
Status,769,43998831544,/g3t1_3,,fail
Status,780,44098982147,/g3t1_4,,running
Status,781,44104458757,/g3t1_4,,success
Status,782,44104483184,/g3t1_2,,running
Status,783,44104494007,/g3t1_1,,running
Status,784,44104529928,/g3t1_2,,success
Status,785,44104538965,/g3t1_1,,success
Status,806,44304881188,/g3t1_2,,running
Status,807,44304999085,/g3t1_1,,running
Status,808,44305381530,/g3t1_2,,success
Status,809,44305444038,/g3t1_1,,success
Status,828,44486570585,/g4t1,,success
Status,831,44505134056,/g3t1_2,,running
Status,832,44505354791,/g3t1_1,,running
Status,833,44505442176,/g3t1_2,,success
Status,834,44506057448,/g3t1_1,,success
Status,854,44705179346,/g3t1_2,,running
Status,855,44705517741,/g3t1_1,,running
Status,856,44705677494,/g3t1_2,,success
Status,858,44706091715,/g3t1_1,,success
Status,878,44905836384,/g3t1_2,,running
Status,879,44905963475,/g3t1_1,,running
Status,880,44906003779,/g3t1_2,,success
Status,881,44906030516,/g3t1_1,,success
Status,891,44998792925,/g3t1_3,,running
Status,892,44999126485,/g3t1_3,,fail
Status,903,45099474367,/g3t1_4,,running
Status,905,45105274971,/g3t1_2,,running
Status,906,45105356384,/g3t1_1,,running
Status,907,45106063171,/g3t1_2,,success
Status,908,45106409620,/g3t1_1,,success
Status,909,45108380597,/g3t1_4,,success
Status,930,45305136283,/g3t1_2,,running
Status,931,45305186769,/g3t1_1,,running
Status,932,45305587663,/g3t1_2,,success
Status,933,45305635919,/g3t1_1,,success
Status,952,45486778481,/g4t1,,success
Status,954,45505681155,/g3t1_2,,running
Status,955,45505761039,/g3t1_1,,running
Status,956,45506169084,/g3t1_2,,success
Status,958,45506396136,/g3t1_1,,success
Status,978,45705955017,/g3t1_2,,running
Status,979,45706025576,/g3t1_1,,running
Status,980,45706240963,/g3t1_1,,success
Status,981,45706376301,/g3t1_2,,success
Status,1002,45905887199,/g3t1_2,,running
Status,1003,45906351666,/g3t1_1,,running
Status,1004,45906461939,/g3t1_2,,success
Status,1005,45906550878,/g3t1_1,,success
Status,1015,45998357034,/g3t1_3,,running
Status,1016,45998398051,/g3t1_3,,fail
Status,1029,46099834614,/g3t1_4,,running
Status,1031,46106035948,/g3t1_2,,running
Status,1032,46106143058,/g3t1_1,,running
Status,1033,46106376701,/g3t1_2,,success
Status,1034,46106719716,/g3t1_1,,success
Status,1035,46108333182,/g3t1_4,,success
Status,1056,46306549567,/g3t1_2,,running
Status,1057,46306721416,/g3t1_1,,running
Status,1058,46306883423,/g3t1_2,,success
Status,1059,46307743458,/g3t1_1,,success
Status,1077,46486979298,/g4t1,,success
Status,1080,46506190269,/g3t1_2,,running
Status,1081,46506265621,/g3t1_1,,running
Status,1082,46507069832,/g3t1_2,,success
Status,1083,46507152679,/g3t1_1,,success
Status,1104,46706339595,/g3t1_2,,running
Status,1105,46706417554,/g3t1_1,,running
Status,1106,46706725091,/g3t1_2,,success
Status,1107,46707355650,/g3t1_1,,success
Status,1128,46906453243,/g3t1_2,,running
Status,1129,46906534161,/g3t1_1,,running
Status,1130,46906971861,/g3t1_2,,success
Status,1131,46907080387,/g3t1_1,,success
Status,1141,46999026712,/g3t1_3,,running
Status,1142,46999501049,/g3t1_3,,success
Status,1153,47099966236,/g3t1_4,,running
Status,1155,47107026427,/g3t1_1,,running
Status,1156,47107084345,/g3t1_2,,running
Status,1157,47107114782,/g3t1_2,,success
Status,1158,47107167310,/g3t1_1,,success
Status,1159,47109258019,/g3t1_4,,success
Status,1179,47306829954,/g3t1_1,,running
Status,1180,47306900852,/g3t1_2,,running
Status,1181,47307516697,/g3t1_1,,success
Status,1182,47307607423,/g3t1_2,,success
Status,1201,47486921531,/g4t1,,success
Status,1204,47506893991,/g3t1_1,,running
Status,1205,47507145062,/g3t1_2,,running
Status,1206,47507276955,/g3t1_1,,success
Status,1207,47507513272,/g3t1_2,,success
Status,1228,47707022054,/g3t1_1,,running
Status,1229,47707081827,/g3t1_2,,running
Status,1230,47707319688,/g3t1_1,,success
Status,1231,47707724994,/g3t1_2,,success
Status,1252,47906492886,/g3t1_1,,running
Status,1253,47906553980,/g3t1_2,,running
Status,1254,47906651498,/g3t1_1,,success
Status,1255,47906671868,/g3t1_2,,success
Status,1265,47998801070,/g3t1_3,,running
Status,1266,47999234882,/g3t1_3,,success
Status,1277,48099928625,/g3t1_4,,running
Status,1278,48106890780,/g3t1_1,,running
Status,1279,48107536696,/g3t1_2,,running
Status,1280,48107593568,/g3t1_1,,success
Status,1281,48107957192,/g3t1_2,,success
Status,1283,48109181633,/g3t1_4,,success
Status,1303,48307260177,/g3t1_1,,running
Status,1304,48307338190,/g3t1_2,,running
Status,1305,48307979669,/g3t1_2,,success
Status,1306,48308039820,/g3t1_1,,success
Status,1325,48487090585,/g4t1,,success
Status,1328,48507239107,/g3t1_1,,running
Status,1329,48507411627,/g3t1_2,,running
Status,1330,48507745569,/g3t1_2,,success
Status,1331,48507801384,/g3t1_1,,success
Status,1352,48707550653,/g3t1_2,,running
Status,1353,48707625394,/g3t1_1,,running
Status,1354,48708200644,/g3t1_2,,success
Status,1355,48708268676,/g3t1_1,,success
Status,1375,48907660903,/g3t1_2,,running
Status,1376,48907788780,/g3t1_1,,running
Status,1377,48908084279,/g3t1_2,,success
Status,1378,48908137134,/g3t1_1,,success
Status,1388,48998893773,/g3t1_3,,running
Status,1390,48999713350,/g3t1_3,,success
Status,1400,49100145457,/g3t1_4,,running
Status,1402,49107859434,/g3t1_1,,running
Status,1403,49107957460,/g3t1_2,,running
Status,1404,49108234255,/g3t1_1,,success
Status,1405,49108301150,/g3t1_2,,success
Status,1407,49113421150,/g3t1_4,,success
Status,1427,49307786428,/g3t1_1,,running
Status,1428,49307858027,/g3t1_2,,running
Status,1429,49308363271,/g3t1_2,,success
Status,1430,49308427199,/g3t1_1,,success
Status,1449,49486509062,/g4t1,,success
Status,1452,49507205160,/g3t1_1,,running
Status,1453,49507242552,/g3t1_2,,running
Status,1454,49507411871,/g3t1_1,,success
Status,1455,49507436593,/g3t1_2,,success
Status,1476,49708012942,/g3t1_2,,running
Status,1477,49708096192,/g3t1_1,,running
Status,1478,49708579980,/g3t1_1,,success
Status,1479,49709462349,/g3t1_2,,success
Status,1499,49908140725,/g3t1_1,,running
Status,1500,49908216431,/g3t1_2,,running
Status,1501,49908462034,/g3t1_1,,success
Status,1502,49910033635,/g3t1_2,,success
Status,1512,49998833570,/g3t1_3,,running
Status,1513,49999401853,/g3t1_3,,success
Status,1524,50100302372,/g3t1_4,,running
Status,1526,50105256940,/g3t1_4,,fail
Status,1527,50109254576,/g3t1_2,,running
Status,1528,50109308227,/g3t1_1,,running
Status,1529,50109340631,/g3t1_1,,success
Status,1530,50109412929,/g3t1_2,,success
Status,1551,50308479158,/g3t1_2,,running
Status,1552,50308550904,/g3t1_1,,running
Status,1553,50308759129,/g3t1_1,,success
Status,1554,50308917704,/g3t1_2,,success
Status,1573,50486955175,/g4t1,,success
Status,1576,50507986452,/g3t1_2,,running
Status,1577,50508037227,/g3t1_1,,running
Status,1578,50508457249,/g3t1_2,,success
Status,1579,50508483927,/g3t1_1,,success
Status,1599,50707950397,/g3t1_1,,running
Status,1600,50708002544,/g3t1_2,,running
Status,1601,50708255576,/g3t1_2,,success
Status,1602,50708349991,/g3t1_1,,success
Status,1623,50908834994,/g3t1_1,,running
Status,1624,50908902744,/g3t1_2,,running
Status,1625,50908970906,/g3t1_2,,success
Status,1626,50909003705,/g3t1_1,,success
Status,1636,50999185829,/g3t1_3,,running
Status,1637,50999986432,/g3t1_3,,success
Status,1648,51100642524,/g3t1_4,,running
Status,1650,51105725445,/g3t1_4,,success
Status,1651,51109507462,/g3t1_2,,running
Status,1652,51109630094,/g3t1_1,,running
Status,1653,51109668896,/g3t1_1,,success
Status,1654,51109714748,/g3t1_2,,success
Status,1675,51309004466,/g3t1_2,,running
Status,1676,51309265615,/g3t1_1,,running
Status,1677,51309898767,/g3t1_1,,success
Status,1678,51309972758,/g3t1_2,,success
Status,1696,51487614205,/g4t1,,success
Status,1700,51509237857,/g3t1_2,,running
Status,1701,51509313895,/g3t1_1,,running
Status,1702,51509556680,/g3t1_1,,success
Status,1703,51509636176,/g3t1_2,,success
Status,1723,51708800968,/g3t1_2,,running
Status,1724,51708836510,/g3t1_1,,running
Status,1725,51709189522,/g3t1_1,,success
Status,1726,51709220045,/g3t1_2,,success
Status,1747,51909510204,/g3t1_1,,running
Status,1748,51909637421,/g3t1_2,,running
Status,1749,51910107823,/g3t1_1,,success
Status,1750,51910180595,/g3t1_2,,success
Status,1760,51998513362,/g3t1_3,,running
Status,1761,51998621583,/g3t1_3,,success
Status,1772,52100653622,/g3t1_4,,running
Status,1773,52101245569,/g3t1_4,,fail
Status,1775,52109581808,/g3t1_1,,running
Status,1776,52109698957,/g3t1_2,,running
Status,1777,52110441824,/g3t1_1,,success
Status,1778,52110499201,/g3t1_2,,success
Status,1799,52309543364,/g3t1_1,,running
Status,1800,52309649882,/g3t1_2,,running
Status,1801,52310174467,/g3t1_1,,success
Status,1802,52310550052,/g3t1_2,,success
Status,1820,52487818628,/g4t1,,success
Status,1823,52510089167,/g3t1_1,,running
Status,1824,52510163775,/g3t1_2,,running
Status,1826,52510597688,/g3t1_1,,success
Status,1827,52510663996,/g3t1_2,,success
Status,1847,52709791176,/g3t1_1,,running
Status,1848,52709871599,/g3t1_2,,running
Status,1849,52710391735,/g3t1_2,,success
Status,1850,52710454214,/g3t1_1,,success
Status,1871,52909349322,/g3t1_1,,running
Status,1872,52909381756,/g3t1_2,,running
Status,1873,52909660289,/g3t1_1,,success
Status,1874,52909695132,/g3t1_2,,success
Status,1884,52999272548,/g3t1_3,,running
Status,1885,52999882060,/g3t1_3,,success
Status,1896,53100797575,/g3t1_4,,running
Status,1897,53101685953,/g3t1_4,,fail
Status,1899,53110071456,/g3t1_1,,running
Status,1900,53110146419,/g3t1_2,,running
Status,1901,53110822326,/g3t1_1,,success
Status,1902,53110900828,/g3t1_2,,success
Status,1923,53309782716,/g3t1_1,,running
Status,1924,53309891290,/g3t1_2,,running
Status,1925,53309958564,/g3t1_2,,success
Status,1926,53310196138,/g3t1_1,,success
Status,1944,53487753265,/g4t1,,success
Status,1947,53510423215,/g3t1_1,,running
Status,1948,53510491485,/g3t1_2,,running
Status,1949,53510803974,/g3t1_1,,success
Status,1950,53510901755,/g3t1_2,,success
Status,1971,53710467424,/g3t1_1,,running
Status,1972,53710575134,/g3t1_2,,running
Status,1973,53710752581,/g3t1_1,,success
Status,1974,53710805085,/g3t1_2,,success
Status,1995,53910007134,/g3t1_1,,running
Status,1996,53910078103,/g3t1_2,,running
Status,1997,53910312410,/g3t1_2,,success
Status,1998,53910377928,/g3t1_1,,success
Status,2008,53999000105,/g3t1_3,,running
Status,2009,53999078846,/g3t1_3,,success
Status,2020,54100909333,/g3t1_4,,running
Status,2021,54101880057,/g3t1_4,,fail
Status,2023,54110597540,/g3t1_1,,running
Status,2024,54110889104,/g3t1_2,,running
Status,2025,54111075996,/g3t1_1,,success
Status,2026,54111725814,/g3t1_2,,success
Status,2046,54310856369,/g3t1_1,,running
Status,2047,54310935337,/g3t1_2,,running
Status,2048,54310961211,/g3t1_1,,success
Status,2049,54311648925,/g3t1_2,,success
Status,2068,54487391662,/g4t1,,success
Status,2071,54510218021,/g3t1_1,,running
Status,2072,54510959525,/g3t1_2,,running
Status,2073,54511016769,/g3t1_1,,success
Status,2074,54511191298,/g3t1_2,,success
Status,2095,54711190467,/g3t1_1,,running
Status,2096,54711298444,/g3t1_2,,running
Status,2097,54711594862,/g3t1_1,,success
Status,2098,54711656259,/g3t1_2,,success
Status,2119,54911191528,/g3t1_1,,running
Status,2120,54911240196,/g3t1_2,,running
Status,2121,54911325522,/g3t1_1,,success
Status,2122,54911833631,/g3t1_2,,success
Status,2131,54999693428,/g3t1_3,,running
Status,2132,55000278324,/g3t1_3,,success
Status,2143,55101221085,/g3t1_4,,running
Status,2145,55102835179,/g3t1_4,,fail
Status,2146,55110457177,/g3t1_1,,running
Status,2147,55110593295,/g3t1_1,,success
Status,2148,55110757758,/g3t1_2,,running
Status,2149,55111032999,/g3t1_2,,success
Status,2170,55311327664,/g3t1_1,,running
Status,2171,55311486739,/g3t1_2,,running
Status,2172,55311710633,/g3t1_1,,success
Status,2173,55311792362,/g3t1_2,,success
Status,2192,55488027063,/g4t1,,success
Status,2195,55511282208,/g3t1_1,,running
Status,2196,55511549635,/g3t1_2,,running
Status,2197,55511837627,/g3t1_1,,success
Status,2198,55512179895,/g3t1_2,,success
Status,2219,55710886723,/g3t1_1,,running
Status,2220,55711148679,/g3t1_2,,running
Status,2221,55711527771,/g3t1_1,,success
Status,2222,55711604116,/g3t1_2,,success
Status,2243,55912002553,/g3t1_1,,running
Status,2244,55912118041,/g3t1_2,,running
Status,2245,55912153446,/g3t1_1,,success
Status,2246,55913140726,/g3t1_2,,success
Status,2255,55999870640,/g3t1_3,,running
Status,2256,56000435274,/g3t1_3,,success
Status,2267,56100680194,/g3t1_4,,running
Status,2268,56101043407,/g3t1_4,,fail
Status,2270,56111262020,/g3t1_1,,running
Status,2271,56111299827,/g3t1_2,,running
Status,2272,56111313276,/g3t1_1,,success
Status,2273,56111599301,/g3t1_2,,success
Status,2309,56312137681,/g3t1_1,,running
Status,2310,56312361123,/g3t1_2,,running
Status,2311,56312466959,/g3t1_1,,success
Status,2312,56312749876,/g3t1_2,,success
Status,2349,56487953986,/g4t1,,success
Status,2354,56511993693,/g3t1_1,,running
Status,2355,56512399743,/g3t1_2,,running
Status,2356,56512455024,/g3t1_1,,success
Status,2357,56512754047,/g3t1_2,,fail
Status,2398,56712059040,/g3t1_1,,running
Status,2399,56712123164,/g3t1_2,,running
Status,2400,56712331878,/g3t1_1,,success
Status,2401,56712351615,/g3t1_2,,fail
Status,2440,56911746586,/g3t1_1,,running
Status,2441,56911795459,/g3t1_2,,running
Status,2442,56911812796,/g3t1_1,,success
Status,2443,56912133447,/g3t1_2,,success
Status,2462,56999868004,/g3t1_3,,running
Status,2463,57000114640,/g3t1_3,,fail
Status,2484,57101311892,/g3t1_4,,running
Status,2487,57106037655,/g3t1_4,,success
Status,2488,57112382369,/g3t1_1,,running
Status,2489,57112514261,/g3t1_2,,running
Status,2490,57112540170,/g3t1_1,,success
Status,2491,57112880538,/g3t1_2,,fail
Status,2532,57312137267,/g3t1_1,,running
Status,2533,57312251853,/g3t1_2,,running
Status,2534,57312316672,/g3t1_1,,success
Status,2535,57312454237,/g3t1_2,,fail
Status,2570,57488360151,/g4t1,,success
Status,2577,57512764767,/g3t1_1,,running
Status,2578,57512813654,/g3t1_2,,running
Status,2579,57512873338,/g3t1_1,,success
Status,2580,57512892927,/g3t1_2,,fail
Status,2620,57713224211,/g3t1_1,,running
Status,2621,57713276383,/g3t1_2,,running
Status,2622,57713485641,/g3t1_1,,success
Status,2623,57713754209,/g3t1_2,,fail
Status,2663,57912403764,/g3t1_1,,running
Status,2664,57912439960,/g3t1_2,,running
Status,2665,57912453761,/g3t1_2,,fail
Status,2666,57912625824,/g3t1_1,,success
Status,2685,58000201127,/g3t1_3,,running
Status,2686,58000560236,/g3t1_3,,fail
Status,2707,58101228223,/g3t1_4,,running
Status,2710,58109976227,/g3t1_4,,success
Status,2711,58112864884,/g3t1_1,,running
Status,2712,58112982339,/g3t1_2,,running
Status,2713,58113001253,/g3t1_1,,success
Status,2714,58113289749,/g3t1_2,,fail
Status,2755,58313196106,/g3t1_1,,running
Status,2756,58313302851,/g3t1_2,,running
Status,2757,58313587761,/g3t1_1,,success
Status,2758,58313641374,/g3t1_2,,fail
Status,2793,58488198120,/g4t1,,success
Status,2800,58513407692,/g3t1_1,,running
Status,2801,58513510605,/g3t1_2,,running
Status,2802,58514116451,/g3t1_2,,fail
Status,2803,58514171575,/g3t1_1,,success
Status,2842,58712991309,/g3t1_1,,running
Status,2843,58713255241,/g3t1_2,,running
Status,2844,58713411504,/g3t1_1,,success
Status,2845,58713452690,/g3t1_2,,fail
Status,2886,58913809715,/g3t1_1,,running
Status,2887,58913886907,/g3t1_2,,running
Status,2888,58914242955,/g3t1_2,,fail
Status,2889,58914297435,/g3t1_1,,success
Status,2908,59000393400,/g3t1_3,,running
Status,2909,59000471863,/g3t1_3,,fail
Status,2930,59101273401,/g3t1_4,,running
Status,2933,59109826482,/g3t1_4,,success
Status,2934,59114177114,/g3t1_1,,running
Status,2935,59114223648,/g3t1_2,,running
Status,2936,59114282067,/g3t1_2,,fail
Status,2937,59114303540,/g3t1_1,,success
Status,2978,59313777586,/g3t1_1,,running
Status,2979,59313856242,/g3t1_2,,running
Status,2980,59314206279,/g3t1_2,,fail
Status,2981,59314516416,/g3t1_1,,success
Status,3016,59488484640,/g4t1,,success
Status,3021,59514345030,/g3t1_1,,running
Status,3022,59514581782,/g3t1_2,,running
Status,3023,59514631094,/g3t1_2,,fail
Status,3024,59514652074,/g3t1_1,,success
Status,3065,59714119404,/g3t1_1,,running
Status,3066,59714202262,/g3t1_2,,running
Status,3067,59714508513,/g3t1_2,,fail
Status,3068,59714568651,/g3t1_1,,success
Status,3109,59914253293,/g3t1_1,,running
Status,3110,59914333979,/g3t1_2,,running
Status,3111,59914828667,/g3t1_1,,success
Status,3112,59914884468,/g3t1_2,,fail
Status,3129,60000478176,/g3t1_3,,running
Status,3132,60000966214,/g3t1_3,,fail
Status,3151,60101170249,/g3t1_4,,running
Status,3154,60106622216,/g3t1_4,,success
Status,3157,60113642870,/g3t1_2,,running
Status,3158,60113666796,/g3t1_1,,running
Status,3159,60113677959,/g3t1_2,,fail
Status,3160,60113781764,/g3t1_1,,success
Status,3199,60314489999,/g3t1_1,,running
Status,3200,60314635054,/g3t1_2,,running
Status,3203,60315062994,/g3t1_2,,fail
Status,3204,60315091164,/g3t1_1,,success
Status,3239,60488372830,/g4t1,,success
Status,3244,60514447260,/g3t1_1,,running
Status,3245,60514530176,/g3t1_2,,running
Status,3246,60514858628,/g3t1_2,,fail
Status,3247,60514934868,/g3t1_1,,success
Status,3288,60714059245,/g3t1_1,,running
Status,3289,60714135176,/g3t1_2,,running
Status,3290,60714176251,/g3t1_1,,success
Status,3291,60714190602,/g3t1_2,,fail
Status,3332,60914640680,/g3t1_1,,running
Status,3333,60914785292,/g3t1_2,,running
Status,3334,60915054805,/g3t1_1,,success
Status,3335,60915134093,/g3t1_2,,fail
Status,3352,61000450386,/g3t1_3,,running
Status,3353,61000496497,/g3t1_3,,fail
Status,3374,61101503573,/g3t1_4,,running
Status,3377,61108450590,/g3t1_4,,success
Status,3380,61114646834,/g3t1_2,,running
Status,3381,61114711626,/g3t1_1,,running
Status,3382,61115137547,/g3t1_2,,fail
Status,3383,61115395086,/g3t1_1,,success
Status,3417,61314943351,/g3t1_2,,running
Status,3418,61315264352,/g3t1_1,,running
Status,3419,61315324974,/g3t1_2,,fail
Status,3420,61315402591,/g3t1_1,,success
Status,3439,61488885973,/g4t1,,success
Status,3442,61514986681,/g3t1_2,,running
Status,3443,61515085611,/g3t1_1,,running
Status,3444,61515348048,/g3t1_2,,fail
Status,3445,61515537527,/g3t1_1,,success
Status,3466,61714314146,/g3t1_2,,running
Status,3467,61714348729,/g3t1_2,,fail
Status,3468,61714356407,/g3t1_1,,running
Status,3469,61714674568,/g3t1_1,,success
Status,3490,61915249335,/g3t1_1,,running
Status,3491,61915368374,/g3t1_2,,running
Status,3492,61915855325,/g3t1_2,,fail
Status,3493,61915917602,/g3t1_1,,success
Status,3502,62000308182,/g3t1_3,,running
Status,3503,62000609278,/g3t1_3,,success
Status,3514,62101598327,/g3t1_4,,running
Status,3516,62109610458,/g3t1_4,,success
Status,3517,62115449151,/g3t1_1,,running
Status,3518,62115511232,/g3t1_2,,running
Status,3519,62115545200,/g3t1_2,,fail
Status,3520,62115612780,/g3t1_1,,success
Status,3541,62315515011,/g3t1_2,,running
Status,3542,62315644063,/g3t1_1,,running
Status,3543,62315941723,/g3t1_2,,fail
Status,3544,62316032891,/g3t1_1,,success
Status,3562,62488949834,/g4t1,,success
Status,3566,62515498141,/g3t1_1,,running
Status,3567,62515578465,/g3t1_2,,running
Status,3568,62516124641,/g3t1_1,,success
Status,3569,62516193371,/g3t1_2,,fail
Status,3590,62715810782,/g3t1_2,,running
Status,3591,62715883777,/g3t1_1,,running
Status,3592,62716565106,/g3t1_2,,fail
Status,3593,62716855658,/g3t1_1,,success
Status,3613,62916223402,/g3t1_2,,running
Status,3614,62916269575,/g3t1_1,,running
Status,3615,62916293705,/g3t1_2,,fail
Status,3617,62916528325,/g3t1_1,,success
Status,3626,63000763526,/g3t1_3,,running
Status,3627,63001166495,/g3t1_3,,success
Status,3638,63101204006,/g3t1_4,,running
Status,3639,63105034379,/g3t1_4,,success
Status,3641,63115254491,/g3t1_2,,running
Status,3642,63115440612,/g3t1_1,,running
Status,3643,63115458076,/g3t1_2,,fail
Status,3644,63115705800,/g3t1_1,,success
Status,3665,63316448919,/g3t1_2,,running
Status,3666,63316513099,/g3t1_1,,running
Status,3667,63316532195,/g3t1_2,,fail
Status,3668,63316563031,/g3t1_1,,success
Status,3686,63489366350,/g4t1,,success
Status,3690,63516094103,/g3t1_2,,running
Status,3691,63516168441,/g3t1_1,,running
Status,3692,63516205271,/g3t1_2,,fail
Status,3693,63516613191,/g3t1_1,,success
Status,3714,63717016883,/g3t1_2,,running
Status,3715,63717148038,/g3t1_1,,running
Status,3716,63717235004,/g3t1_1,,success
Status,3717,63717428849,/g3t1_2,,fail
Status,3737,63916526736,/g3t1_2,,running
Status,3738,63917053967,/g3t1_1,,running
Status,3739,63917243442,/g3t1_2,,fail
Status,3740,63917474849,/g3t1_1,,success
Status,3750,64000295786,/g3t1_3,,running
Status,3751,64000334116,/g3t1_3,,success
Status,3762,64101430135,/g3t1_4,,running
Status,3763,64107017124,/g3t1_4,,success
Status,3765,64115844018,/g3t1_2,,running
Status,3766,64115885295,/g3t1_1,,running
Status,3767,64115896413,/g3t1_2,,fail
Status,3768,64115962814,/g3t1_1,,success
Status,3789,64316036612,/g3t1_2,,running
Status,3790,64316087412,/g3t1_1,,running
Status,3791,64316206134,/g3t1_2,,fail
Status,3792,64316251376,/g3t1_1,,success
Status,3810,64489172655,/g4t1,,success
Status,3814,64516183772,/g3t1_2,,running
Status,3815,64516206349,/g3t1_1,,running
Status,3816,64516219881,/g3t1_2,,fail
Status,3817,64516228645,/g3t1_1,,success
Status,3838,64717235684,/g3t1_1,,running
Status,3839,64717338627,/g3t1_2,,running
Status,3840,64717371344,/g3t1_2,,fail
Status,3841,64717571885,/g3t1_1,,success
Status,3861,64916510480,/g3t1_1,,running
Status,3862,64916608337,/g3t1_2,,running
Status,3863,64916741040,/g3t1_1,,success
Status,3864,64916766064,/g3t1_2,,fail
Status,3874,65000770102,/g3t1_3,,running
Status,3875,65001372323,/g3t1_3,,success
Status,3886,65101558496,/g3t1_4,,running
Status,3887,65107438065,/g3t1_4,,success
Status,3889,65116953914,/g3t1_1,,running
Status,3890,65117070994,/g3t1_2,,running
Status,3891,65117401651,/g3t1_2,,fail
Status,3892,65117477273,/g3t1_1,,success
Status,3913,65317065557,/g3t1_1,,running
Status,3914,65317357030,/g3t1_2,,running
Status,3915,65317737219,/g3t1_2,,fail
Status,3916,65317810825,/g3t1_1,,success
Status,3934,65489300731,/g4t1,,success
Status,3938,65517462766,/g3t1_1,,running
Status,3939,65517559108,/g3t1_2,,running
Status,3940,65518132979,/g3t1_2,,fail
Status,3941,65518401491,/g3t1_1,,success
Status,3961,65717442033,/g3t1_1,,running
Status,3962,65717519283,/g3t1_2,,running
Status,3963,65718269702,/g3t1_1,,success
Status,3964,65718831407,/g3t1_2,,fail
Status,3985,65917526660,/g3t1_1,,running
Status,3986,65917606936,/g3t1_2,,running
Status,3987,65917956464,/g3t1_1,,success
Status,3988,65918635649,/g3t1_2,,fail
Status,3997,66000478562,/g3t1_3,,running
Status,3998,66000820995,/g3t1_3,,success
Status,4009,66101692473,/g3t1_4,,running
Status,4011,66107029541,/g3t1_4,,success
Status,4013,66117303742,/g3t1_1,,running
Status,4014,66117347252,/g3t1_2,,running
Status,4015,66117636242,/g3t1_2,,fail
Status,4016,66117678876,/g3t1_1,,success
Status,4039,66317677260,/g3t1_1,,running
Status,4040,66318020527,/g3t1_2,,running
Status,4041,66318497615,/g3t1_1,,success
Status,4042,66318988245,/g3t1_2,,success
Status,4060,66489452234,/g4t1,,success
Status,4063,66518339713,/g3t1_2,,running
Status,4064,66518406547,/g3t1_1,,running
Status,4065,66518489613,/g3t1_1,,success
Status,4067,66518538847,/g3t1_2,,success
Status,4087,66717530836,/g3t1_1,,running
Status,4088,66717848823,/g3t1_2,,running
Status,4089,66717891779,/g3t1_2,,success
Status,4090,66718381450,/g3t1_1,,success
Status,4111,66918123916,/g3t1_1,,running
Status,4112,66918183912,/g3t1_2,,running
Status,4113,66918902109,/g3t1_1,,success
Status,4114,66918964642,/g3t1_2,,success
Status,4123,67000660073,/g3t1_3,,running
Status,4124,67000808796,/g3t1_3,,success
Status,4135,67102553632,/g3t1_4,,running
Status,4137,67109253039,/g3t1_4,,success
Status,4139,67118160188,/g3t1_1,,running
Status,4140,67118219607,/g3t1_2,,running
Status,4141,67118320686,/g3t1_1,,success
Status,4142,67118339529,/g3t1_2,,success
Status,4163,67318447633,/g3t1_1,,running
Status,4164,67318512363,/g3t1_2,,running
Status,4165,67318953300,/g3t1_1,,success
Status,4166,67319024843,/g3t1_2,,success
Status,4183,67489492907,/g4t1,,success
Status,4187,67518647471,/g3t1_1,,running
Status,4188,67518847282,/g3t1_2,,running
Status,4189,67519185320,/g3t1_1,,success
Status,4190,67519354573,/g3t1_2,,success
Status,4211,67718380806,/g3t1_1,,running
Status,4212,67718455947,/g3t1_2,,running
Status,4213,67719033380,/g3t1_2,,success
Status,4214,67719106388,/g3t1_1,,success
Status,4235,67918541262,/g3t1_1,,running
Status,4236,67918751297,/g3t1_2,,running
Status,4237,67919310583,/g3t1_1,,success
Status,4238,67919362478,/g3t1_2,,success
Status,4247,68001179307,/g3t1_3,,running
Status,4248,68001920683,/g3t1_3,,success
Status,4259,68101857420,/g3t1_4,,running
Status,4260,68106094162,/g3t1_4,,success
Status,4263,68118249939,/g3t1_2,,running
Status,4264,68118292787,/g3t1_1,,running
Status,4265,68118515801,/g3t1_2,,success
Status,4266,68118548400,/g3t1_1,,success
Status,4286,68318402445,/g3t1_2,,running
Status,4287,68318463496,/g3t1_1,,running
Status,4288,68318652910,/g3t1_1,,success
Status,4289,68318688111,/g3t1_2,,success
Status,4307,68490121034,/g4t1,,success
Status,4311,68519172230,/g3t1_1,,running
Status,4312,68519290526,/g3t1_2,,running
Status,4313,68519623654,/g3t1_2,,success
Status,4314,68519866383,/g3t1_1,,success
Status,4335,68719122549,/g3t1_1,,running
Status,4336,68719306604,/g3t1_2,,running
Status,4337,68719508681,/g3t1_2,,success
Status,4338,68719872884,/g3t1_1,,success
Status,4359,68918822886,/g3t1_2,,running
Status,4360,68918886747,/g3t1_1,,running
Status,4361,68919326983,/g3t1_2,,success
Status,4362,68919364822,/g3t1_1,,success
Status,4371,69001275563,/g3t1_3,,running
Status,4372,69002101244,/g3t1_3,,success
Status,4383,69102529477,/g3t1_4,,running
Status,4385,69110558016,/g3t1_4,,success
Status,4386,69119355857,/g3t1_2,,running
Status,4387,69119479844,/g3t1_1,,running
Status,4388,69119831217,/g3t1_2,,success
Status,4389,69119894680,/g3t1_1,,success
Status,4410,69319561783,/g3t1_2,,running
Status,4411,69319704114,/g3t1_1,,running
Status,4412,69320238222,/g3t1_1,,success
Status,4413,69320379043,/g3t1_2,,success
Status,4431,69489741587,/g4t1,,success
Status,4435,69519665238,/g3t1_1,,running
Status,4436,69519743052,/g3t1_2,,running
Status,4437,69520253374,/g3t1_1,,success
Status,4438,69520551601,/g3t1_2,,success
Status,4459,69719782343,/g3t1_1,,running
Status,4460,69719961500,/g3t1_2,,running
Status,4461,69720169225,/g3t1_1,,success
Status,4462,69720226213,/g3t1_2,,success
Status,4482,69919693460,/g3t1_2,,running
Status,4483,69919762731,/g3t1_1,,running
Status,4484,69920196268,/g3t1_2,,success
Status,4485,69920252767,/g3t1_1,,success
Status,4494,70001343853,/g3t1_3,,running
Status,4496,70001911401,/g3t1_3,,success
Status,4506,70101979470,/g3t1_4,,running
Status,4508,70106826334,/g3t1_4,,success
Status,4510,70119561557,/g3t1_2,,running
Status,4511,70119740042,/g3t1_1,,running
Status,4512,70119771999,/g3t1_1,,success
Status,4513,70119874927,/g3t1_2,,success
Status,4534,70319994876,/g3t1_1,,running
Status,4535,70320120949,/g3t1_2,,running
Status,4536,70320733839,/g3t1_2,,success
Status,4537,70320788503,/g3t1_1,,success
Status,4555,70490117259,/g4t1,,success
Status,4559,70520209972,/g3t1_1,,running
Status,4560,70520329932,/g3t1_2,,running
Status,4561,70520933047,/g3t1_2,,success
Status,4562,70520996498,/g3t1_1,,success
Status,4582,70720861406,/g3t1_2,,running
Status,4583,70720935225,/g3t1_1,,running
Status,4584,70721192658,/g3t1_1,,success
Status,4586,70721503551,/g3t1_2,,success
Status,4606,70920410632,/g3t1_1,,running
Status,4607,70921058837,/g3t1_2,,running
Status,4608,70921168001,/g3t1_1,,success
Status,4609,70921190663,/g3t1_2,,success
Status,4618,71001259403,/g3t1_3,,running
Status,4619,71001510298,/g3t1_3,,success
Status,4630,71102504035,/g3t1_4,,running
Status,4632,71107307883,/g3t1_4,,fail
Status,4634,71120586885,/g3t1_1,,running
Status,4635,71120689647,/g3t1_2,,running
Status,4636,71121250485,/g3t1_1,,success
Status,4637,71121328081,/g3t1_2,,success
Status,4658,71320985057,/g3t1_1,,running
Status,4659,71321036909,/g3t1_2,,running
Status,4660,71321206627,/g3t1_1,,success
Status,4661,71321263624,/g3t1_2,,success
Status,4692,71490106735,/g4t1,,success
Status,4699,71520955627,/g3t1_1,,running
Status,4700,71521194993,/g3t1_2,,running
Status,4701,71521558842,/g3t1_2,,success
Status,4702,71521615277,/g3t1_1,,success
Status,4741,71720558384,/g3t1_1,,running
Status,4742,71720655871,/g3t1_2,,running
Status,4743,71720829813,/g3t1_2,,success
Status,4744,71720880486,/g3t1_1,,success
Status,4785,71921472165,/g3t1_1,,running
Status,4786,71921549446,/g3t1_2,,running
Status,4787,71921583004,/g3t1_1,,success
Status,4788,71921848082,/g3t1_2,,success
Status,4805,72002088092,/g3t1_3,,running
Status,4806,72002379383,/g3t1_3,,fail
Status,4827,72102509986,/g3t1_4,,running
Status,4828,72103233985,/g3t1_4,,fail
Status,4833,72121342618,/g3t1_2,,running
Status,4834,72121413342,/g3t1_1,,running
Status,4835,72121990221,/g3t1_2,,success
Status,4836,72122056524,/g3t1_1,,success
Status,4877,72321424461,/g3t1_2,,running
Status,4878,72321597167,/g3t1_1,,running
Status,4879,72321846662,/g3t1_2,,success
Status,4880,72321904959,/g3t1_1,,success
Status,4913,72489971354,/g4t1,,success
Status,4920,72521031738,/g3t1_1,,running
Status,4921,72521116098,/g3t1_2,,running
Status,4922,72521292433,/g3t1_1,,success
Status,4923,72521479923,/g3t1_2,,success
Status,4964,72720927297,/g3t1_1,,running
Status,4965,72721027553,/g3t1_2,,running
Status,4966,72721318227,/g3t1_1,,success
Status,4967,72721354103,/g3t1_2,,success
Status,5008,72921556365,/g3t1_1,,running
Status,5009,72921821186,/g3t1_2,,running
Status,5010,72922364238,/g3t1_1,,success
Status,5011,72922418822,/g3t1_2,,success
Status,5028,73001708566,/g3t1_3,,running
Status,5029,73001744335,/g3t1_3,,fail
Status,5050,73102672100,/g3t1_4,,running
Status,5051,73107300606,/g3t1_4,,success
Status,5056,73121782945,/g3t1_1,,running
Status,5057,73121877622,/g3t1_2,,running
Status,5058,73122198479,/g3t1_1,,success
Status,5059,73122280040,/g3t1_2,,success
Status,5098,73321174127,/g3t1_1,,running
Status,5099,73321301559,/g3t1_2,,running
Status,5100,73321390645,/g3t1_1,,success
Status,5103,73321496673,/g3t1_2,,success
Status,5136,73489895299,/g4t1,,success
Status,5143,73521964491,/g3t1_1,,running
Status,5144,73522042279,/g3t1_2,,running
Status,5145,73522468258,/g3t1_2,,success
Status,5146,73522524897,/g3t1_1,,success
Status,5187,73722428241,/g3t1_1,,running
Status,5188,73722542898,/g3t1_2,,running
Status,5189,73722798276,/g3t1_2,,success
Status,5190,73722913992,/g3t1_1,,success
Status,5231,73921752250,/g3t1_1,,running
Status,5232,73921879663,/g3t1_2,,running
Status,5233,73922106082,/g3t1_1,,success
Status,5234,73922172901,/g3t1_2,,success
Status,5251,74001886357,/g3t1_3,,running
Status,5252,74002058000,/g3t1_3,,fail
Status,5273,74102520028,/g3t1_4,,running
Status,5274,74102868638,/g3t1_4,,fail
Status,5279,74122287971,/g3t1_1,,running
Status,5280,74122394806,/g3t1_2,,running
Status,5281,74122862974,/g3t1_2,,success
Status,5282,74123064694,/g3t1_1,,success
Status,5321,74322462715,/g3t1_1,,running
Status,5322,74322584670,/g3t1_2,,running
Status,5323,74322843466,/g3t1_1,,success
Status,5324,74323107609,/g3t1_2,,success
Status,5359,74490374664,/g4t1,,success
Status,5366,74522789134,/g3t1_1,,running
Status,5367,74522863684,/g3t1_2,,running
Status,5368,74523201024,/g3t1_1,,success
Status,5369,74523496546,/g3t1_2,,success
Status,5410,74722528237,/g3t1_1,,running
Status,5411,74722613901,/g3t1_2,,running
Status,5412,74722920187,/g3t1_1,,success
Status,5413,74722997774,/g3t1_2,,success
Status,5454,74922423297,/g3t1_1,,running
Status,5455,74922482671,/g3t1_2,,running
Status,5456,74922880734,/g3t1_1,,success
Status,5457,74922941758,/g3t1_2,,success
Status,5472,75002255275,/g3t1_3,,running
Status,5475,75002670391,/g3t1_3,,fail
Status,5494,75102976952,/g3t1_4,,running
Status,5497,75107614855,/g3t1_4,,fail
Status,5500,75123109884,/g3t1_1,,running
Status,5501,75123189795,/g3t1_2,,running
Status,5502,75123636926,/g3t1_1,,success
Status,5503,75123681324,/g3t1_2,,success
Status,5544,75322852613,/g3t1_1,,running
Status,5545,75323029101,/g3t1_2,,running
Status,5546,75323248798,/g3t1_1,,success
Status,5547,75323291776,/g3t1_2,,success
Status,5582,75490161819,/g4t1,,success
Status,5589,75522380513,/g3t1_1,,running
Status,5590,75522402115,/g3t1_2,,running
Status,5591,75522427823,/g3t1_1,,success
Status,5592,75522613634,/g3t1_2,,success
Status,5633,75723240784,/g3t1_1,,running
Status,5634,75723333196,/g3t1_2,,running
Status,5635,75723831275,/g3t1_1,,success
Status,5636,75723903970,/g3t1_2,,success
Status,5675,75923532501,/g3t1_1,,running
Status,5676,75923642060,/g3t1_2,,running
Status,5677,75923909685,/g3t1_1,,success
Status,5678,75923970842,/g3t1_2,,success
Status,5695,76002455988,/g3t1_3,,running
Status,5696,76002792225,/g3t1_3,,fail
Status,5717,76103041297,/g3t1_4,,running
Status,5718,76104021996,/g3t1_4,,fail
Status,5723,76123624554,/g3t1_1,,running
Status,5724,76123731055,/g3t1_2,,running
Status,5725,76124052721,/g3t1_2,,success
Status,5726,76124169046,/g3t1_1,,success
Status,5767,76323845261,/g3t1_1,,running
Status,5768,76323930542,/g3t1_2,,running
Status,5769,76323978392,/g3t1_1,,success
Status,5770,76324347915,/g3t1_2,,success
Status,5795,76490203460,/g4t1,,success
Status,5796,76523414469,/g3t1_1,,running
Status,5797,76523504717,/g3t1_2,,running
Status,5798,76523537540,/g3t1_1,,success
Status,5799,76523913437,/g3t1_2,,success
Status,5800,76724219524,/g3t1_1,,running
Status,5801,76724322400,/g3t1_2,,running
Status,5802,76724723509,/g3t1_2,,success
Status,5803,76724851494,/g3t1_1,,success
Status,5804,76924610822,/g3t1_1,,running
Status,5805,76924808839,/g3t1_2,,running
Status,5806,76925348522,/g3t1_2,,success
Status,5807,76925418952,/g3t1_1,,success
Status,5808,77002721470,/g3t1_3,,running
Status,5809,77003355289,/g3t1_3,,success
Status,5810,77103206971,/g3t1_4,,running
Status,5811,77106099159,/g3t1_4,,success
Status,5812,77123970652,/g3t1_1,,running
Status,5813,77124025451,/g3t1_2,,running
Status,5814,77124255287,/g3t1_1,,success
Status,5815,77124407546,/g3t1_2,,success
Status,5816,77324712690,/g3t1_2,,running
Status,5817,77324817075,/g3t1_1,,running
Status,5818,77325273847,/g3t1_2,,success
Status,5819,77325742858,/g3t1_1,,success
Status,5820,77491156894,/g4t1,,success
Status,5821,77524549278,/g3t1_1,,running
Status,5822,77524632127,/g3t1_2,,running
Status,5823,77524959409,/g3t1_1,,success
Status,5824,77525002967,/g3t1_2,,success
Status,5825,77724755503,/g3t1_2,,running
Status,5826,77724849745,/g3t1_1,,running
Status,5827,77725702313,/g3t1_2,,success
Status,5828,77725759691,/g3t1_1,,success
Status,5829,77925230744,/g3t1_2,,running
Status,5830,77925347877,/g3t1_1,,running
Status,5831,77925580838,/g3t1_1,,success
Status,5832,77925858029,/g3t1_2,,success
Status,5833,78002058713,/g3t1_3,,running
Status,5834,78002386845,/g3t1_3,,success
Status,5835,78103595249,/g3t1_4,,running
Status,5836,78111241596,/g3t1_4,,success
Status,5837,78124812432,/g3t1_2,,running
Status,5838,78124889908,/g3t1_1,,running
Status,5839,78125674793,/g3t1_1,,success
Status,5840,78125750932,/g3t1_2,,success
Status,5841,78325332708,/g3t1_2,,running
Status,5842,78325412441,/g3t1_1,,running
Status,5843,78325690609,/g3t1_2,,success
Status,5844,78325748257,/g3t1_1,,success
Status,5845,78491327759,/g4t1,,success
Status,5846,78525569139,/g3t1_2,,running
Status,5847,78525648269,/g3t1_1,,running
Status,5848,78525683381,/g3t1_2,,success
Status,5849,78525707761,/g3t1_1,,success
Status,5850,78725714418,/g3t1_1,,running
Status,5851,78725782236,/g3t1_2,,running
Status,5852,78725934573,/g3t1_1,,success
Status,5853,78726255912,/g3t1_2,,success
Status,5854,78925435785,/g3t1_1,,running
Status,5855,78925525193,/g3t1_2,,running
Status,5856,78926244351,/g3t1_1,,success
Status,5857,78926361755,/g3t1_2,,success
Status,5858,79002290657,/g3t1_3,,running
Status,5859,79002628814,/g3t1_3,,success
Status,5860,79103813702,/g3t1_4,,running
Status,5861,79112423561,/g3t1_4,,success
Status,5862,79125701157,/g3t1_1,,running
Status,5863,79125776906,/g3t1_2,,running
Status,5864,79125941233,/g3t1_1,,success
Status,5865,79125966718,/g3t1_2,,success
Status,5866,79326141383,/g3t1_2,,running
Status,5867,79326222210,/g3t1_1,,running
Status,5868,79326745286,/g3t1_1,,success
Status,5869,79326800465,/g3t1_2,,success
Status,5870,79491286412,/g4t1,,success
Status,5871,79525847050,/g3t1_1,,running
Status,5872,79526313589,/g3t1_2,,running
Status,5873,79526367131,/g3t1_2,,success
Status,5874,79526894304,/g3t1_1,,success
Status,5875,79726224942,/g3t1_2,,running
Status,5876,79726311835,/g3t1_1,,running
Status,5877,79726612208,/g3t1_2,,success
Status,5878,79726666364,/g3t1_1,,success
Status,5879,79926708193,/g3t1_1,,running
Status,5880,79926881529,/g3t1_2,,running
Status,5881,79927353601,/g3t1_1,,success
Status,5882,79927427934,/g3t1_2,,success
Status,5883,80002730718,/g3t1_3,,running
Status,5884,80003271066,/g3t1_3,,success
Status,5885,80103938997,/g3t1_4,,running
Status,5886,80112193660,/g3t1_4,,success
Status,5887,80126624813,/g3t1_1,,running
Status,5888,80126706713,/g3t1_2,,running
Status,5889,80126740006,/g3t1_1,,success
Status,5890,80127158414,/g3t1_2,,success
Status,5891,80326774099,/g3t1_1,,running
Status,5892,80326872382,/g3t1_2,,running
Status,5893,80327487870,/g3t1_1,,success
Status,5894,80328113242,/g3t1_2,,success
Status,5895,80491349607,/g4t1,,success
Status,5896,80526465662,/g3t1_1,,running
Status,5897,80526559472,/g3t1_2,,running
Status,5898,80526901391,/g3t1_1,,success
Status,5899,80527395231,/g3t1_2,,success
Status,5900,80727176287,/g3t1_1,,running
Status,5901,80727285585,/g3t1_2,,running
Status,5902,80727927967,/g3t1_2,,success
Status,5903,80728105613,/g3t1_1,,success
Status,5904,80927105639,/g3t1_1,,running
Status,5905,80927467520,/g3t1_2,,running
Status,5906,80927950876,/g3t1_1,,success
Status,5907,80928039660,/g3t1_2,,success
Status,5908,81003009923,/g3t1_3,,running
Status,5909,81003551604,/g3t1_3,,success
Status,5910,81104074558,/g3t1_4,,running
Status,5911,81115170151,/g3t1_4,,success
Status,5912,81127129979,/g3t1_2,,running
Status,5913,81127200707,/g3t1_1,,running
Status,5914,81127576578,/g3t1_1,,success
Status,5915,81127641905,/g3t1_2,,success
Status,5916,81327817687,/g3t1_2,,running
Status,5917,81327912783,/g3t1_1,,running
Status,5918,81328319554,/g3t1_2,,success
Status,5919,81328389978,/g3t1_1,,success
Status,5920,81491490052,/g4t1,,success
Status,5921,81527367897,/g3t1_2,,running
Status,5922,81527455983,/g3t1_1,,running
Status,5923,81527676106,/g3t1_1,,success
Status,5924,81528254939,/g3t1_2,,success
Status,5925,81727966776,/g3t1_2,,running
Status,5926,81728059324,/g3t1_1,,running
Status,5927,81728680203,/g3t1_1,,success
Status,5928,81728767824,/g3t1_2,,success
Status,5929,81927711907,/g3t1_1,,running
Status,5930,81927814457,/g3t1_2,,running
Status,5931,81928103481,/g3t1_2,,success
Status,5932,81928164923,/g3t1_1,,success
Status,5933,82002568123,/g3t1_3,,running
Status,5934,82002601856,/g3t1_3,,success
Status,5935,82104124418,/g3t1_4,,running
Status,5936,82111781075,/g3t1_4,,success
Status,5937,82128032220,/g3t1_2,,running
Status,5938,82128106297,/g3t1_1,,running
Status,5939,82128347072,/g3t1_1,,success
Status,5940,82128982005,/g3t1_2,,success
Status,5941,82328472246,/g3t1_2,,running
Status,5942,82328564779,/g3t1_1,,running
Status,5943,82329260621,/g3t1_1,,success
Status,5944,82329330091,/g3t1_2,,success
Status,5945,82492053915,/g4t1,,success
Status,5946,82528899690,/g3t1_1,,running
Status,5947,82528956964,/g3t1_2,,running
Status,5948,82528975431,/g3t1_2,,success
Status,5949,82528991931,/g3t1_1,,success
Status,5950,82727613699,/g3t1_2,,running
Status,5951,82727670464,/g3t1_1,,running
Status,5952,82727736202,/g3t1_1,,success
Status,5953,82727891187,/g3t1_2,,success
Status,5954,82929065616,/g3t1_2,,running
Status,5955,82929233659,/g3t1_1,,running
Status,5956,82929665946,/g3t1_1,,success
Status,5957,82929735156,/g3t1_2,,success
Status,5958,83003285796,/g3t1_3,,running
Status,5959,83003977975,/g3t1_3,,success
Status,5960,83104158270,/g3t1_4,,running
Status,5961,83111992242,/g3t1_4,,success
Status,5962,83128804490,/g3t1_2,,running
Status,5963,83128901340,/g3t1_1,,running
Status,5964,83129554160,/g3t1_1,,success
Status,5965,83129636020,/g3t1_2,,success
Status,5966,83328925521,/g3t1_2,,running
Status,5967,83329001165,/g3t1_1,,running
Status,5968,83329424138,/g3t1_1,,success
Status,5969,83329478970,/g3t1_2,,success
Status,5970,83492248636,/g4t1,,success
Status,5971,83528979384,/g3t1_1,,running
Status,5972,83529299878,/g3t1_2,,running
Status,5973,83529547012,/g3t1_1,,success
Status,5974,83529622498,/g3t1_2,,success
Status,5975,83729632414,/g3t1_2,,running
Status,5976,83729704072,/g3t1_1,,running
Status,5977,83730034177,/g3t1_2,,success
Status,5978,83730118028,/g3t1_1,,success
Status,5979,83929912250,/g3t1_1,,running
Status,5980,83929991353,/g3t1_2,,running
Status,5981,83930326279,/g3t1_2,,success
Status,5982,83930401691,/g3t1_1,,success
Status,5983,84003437119,/g3t1_3,,running
Status,5984,84004258324,/g3t1_3,,success
Status,5985,84104612970,/g3t1_4,,running
Status,5986,84112190225,/g3t1_4,,success
Status,5987,84129872567,/g3t1_2,,running
Status,5988,84129950746,/g3t1_1,,running
Status,5989,84130197176,/g3t1_1,,success
Status,5990,84130413517,/g3t1_2,,success
Status,5991,84330005334,/g3t1_1,,running
Status,5992,84330650654,/g3t1_2,,running
Status,5993,84330700096,/g3t1_2,,success
Status,5994,84330755148,/g3t1_1,,success
Status,5995,84492508890,/g4t1,,success
Status,5996,84530044430,/g3t1_1,,running
Status,5997,84530126395,/g3t1_2,,running
Status,5998,84530652964,/g3t1_1,,success
Status,5999,84530716927,/g3t1_2,,success
Status,6000,84730368749,/g3t1_2,,running
Status,6001,84730496134,/g3t1_1,,running
Status,6002,84730902691,/g3t1_2,,success
Status,6003,84730967013,/g3t1_1,,success
Status,6004,84930530861,/g3t1_1,,running
