
Status,2,3355732073,/g4t1,,init
Status,3,8568973567,/g3t1_1,,init
Status,5,8589213605,/g3t1_1,,init
Status,6,8589251944,/g3t1_1,,running
Status,7,8590457369,/g3t1_1,,success
Status,8,8639367617,/g3t1_1,,running
Status,9,8639851381,/g3t1_1,,success
Status,10,8689576746,/g3t1_1,,running
Status,11,8689808581,/g3t1_1,,success
Status,12,8739540514,/g3t1_1,,running
Status,13,8739594714,/g3t1_1,,success
Status,14,8789523385,/g3t1_1,,running
Status,15,8789851612,/g3t1_1,,success
Status,16,8839859256,/g3t1_1,,running
Status,17,8840544214,/g3t1_1,,success
Status,18,8875575272,/g3t1_2,,init
Status,20,8890399325,/g3t1_1,,running
Status,21,8890578634,/g3t1_1,,success
Status,22,8903941475,/g3t1_2,,init
Status,23,8903985297,/g3t1_2,,running
Status,24,8906144528,/g3t1_2,,success
Status,25,8939847233,/g3t1_1,,running
Status,26,8939954232,/g3t1_1,,success
Status,27,8954234770,/g3t1_2,,running
Status,28,8954269657,/g3t1_2,,success
Status,29,8978610001,/g4t1,,success
Status,30,8989813193,/g3t1_1,,running
Status,31,8990032778,/g3t1_1,,success
Status,32,9004086271,/g3t1_2,,running
Status,33,9004272458,/g3t1_2,,success
Status,34,9040196802,/g3t1_1,,running
Status,35,9040390570,/g3t1_1,,success
Status,36,9054219508,/g3t1_2,,running
Status,37,9054523186,/g3t1_2,,success
Status,38,9077997740,/g4t1,,success
Status,39,9090149728,/g3t1_1,,running
Status,40,9090359809,/g3t1_1,,success
Status,41,9104272181,/g3t1_2,,running
Status,42,9104534227,/g3t1_2,,success
Status,43,9140230923,/g3t1_1,,running
Status,44,9140294341,/g3t1_1,,success
Status,45,9154396499,/g3t1_2,,running
Status,46,9154435130,/g3t1_2,,success
Status,47,9173601216,/g3t1_3,,init
Status,49,9177985241,/g4t1,,success
Status,50,9190225138,/g3t1_1,,running
Status,51,9190318115,/g3t1_1,,success
Status,52,9192917804,/g3t1_3,,init
Status,53,9192951426,/g3t1_3,,running
Status,54,9193886992,/g3t1_3,,success
Status,55,9204561502,/g3t1_2,,running
Status,56,9204851522,/g3t1_2,,success
Status,57,9240319601,/g3t1_1,,running
Status,58,9240497535,/g3t1_1,,success
Status,59,9243058401,/g3t1_3,,running
Status,60,9243357938,/g3t1_3,,success
Status,61,9254552641,/g3t1_2,,running
Status,62,9254702286,/g3t1_2,,success
Status,63,9278339124,/g4t1,,fail
Status,64,9290680261,/g3t1_1,,running
Status,65,9290725911,/g3t1_1,,success
Status,66,9293171655,/g3t1_3,,running
Status,67,9293365535,/g3t1_3,,success
Status,68,9304794820,/g3t1_2,,running
Status,69,9304841681,/g3t1_2,,success
Status,70,9340547769,/g3t1_1,,running
Status,71,9340666920,/g3t1_1,,success
Status,72,9343217331,/g3t1_3,,running
Status,73,9343368482,/g3t1_3,,success
Status,74,9355303460,/g3t1_2,,running
Status,75,9355456592,/g3t1_2,,success
Status,76,9378341057,/g4t1,,fail
Status,77,9390581735,/g3t1_1,,running
Status,78,9390750730,/g3t1_1,,success
Status,79,9393188046,/g3t1_3,,running
Status,80,9393399227,/g3t1_3,,success
Status,81,9404986479,/g3t1_2,,running
Status,82,9405020126,/g3t1_2,,success
Status,83,9440656615,/g3t1_1,,running
Status,84,9440699092,/g3t1_1,,success
Status,85,9443310638,/g3t1_3,,running
Status,86,9443560353,/g3t1_3,,success
Status,87,9455019258,/g3t1_2,,running
Status,88,9455335795,/g3t1_2,,success
Status,89,9478645928,/g4t1,,fail
Status,90,9490688750,/g3t1_1,,running
Status,91,9490904532,/g3t1_1,,success
Status,92,9493369176,/g3t1_3,,running
Status,93,9493673211,/g3t1_3,,success
Status,94,9505068265,/g3t1_2,,running
Status,95,9505216513,/g3t1_2,,success
Status,96,9540855615,/g3t1_1,,running
Status,97,9540885791,/g3t1_1,,success
Status,98,9544087242,/g3t1_3,,running
Status,99,9544582294,/g3t1_3,,success
Status,100,9555127788,/g3t1_2,,running
Status,101,9555401138,/g3t1_2,,success
Status,102,9578671083,/g4t1,,fail
Status,103,9590907003,/g3t1_1,,running
Status,104,9591091070,/g3t1_1,,success
Status,105,9593545791,/g3t1_3,,running
Status,106,9593853635,/g3t1_3,,success
Status,107,9605304356,/g3t1_2,,running
Status,108,9605335847,/g3t1_2,,success
Status,109,9640874021,/g3t1_1,,running
Status,110,9640988360,/g3t1_1,,success
Status,111,9643685342,/g3t1_3,,running
Status,112,9643929671,/g3t1_3,,success
Status,113,9655329469,/g3t1_2,,running
Status,114,9655534028,/g3t1_2,,success
Status,115,9678808415,/g4t1,,fail
Status,116,9690961725,/g3t1_1,,running
Status,117,9691112834,/g3t1_1,,success
Status,118,9693773706,/g3t1_3,,running
Status,119,9693931613,/g3t1_3,,success
Status,120,9705487100,/g3t1_2,,running
Status,121,9705517639,/g3t1_2,,success
Status,122,9741117708,/g3t1_1,,running
Status,123,9741146919,/g3t1_1,,success
Status,124,9743894142,/g3t1_3,,running
Status,125,9744053230,/g3t1_3,,success
Status,126,9755497824,/g3t1_2,,running
Status,127,9755761696,/g3t1_2,,success
Status,128,9778583659,/g4t1,,fail
Status,129,9791115867,/g3t1_1,,running
Status,130,9791228627,/g3t1_1,,success
Status,131,9793849217,/g3t1_3,,running
Status,132,9794081096,/g3t1_3,,success
Status,133,9805672904,/g3t1_2,,running
Status,134,9805704012,/g3t1_2,,success
Status,135,9841258948,/g3t1_1,,running
Status,136,9841398054,/g3t1_1,,success
Status,137,9844013571,/g3t1_3,,running
Status,138,9844408116,/g3t1_3,,success
Status,139,9855743264,/g3t1_2,,running
Status,140,9855773164,/g3t1_2,,success
Status,141,9878716319,/g4t1,,fail
Status,142,9891357321,/g3t1_1,,running
Status,143,9891387117,/g3t1_1,,success
Status,144,9894243776,/g3t1_3,,running
Status,145,9894301673,/g3t1_3,,success
Status,146,9905928873,/g3t1_2,,running
Status,147,9905965796,/g3t1_2,,success
Status,148,9941455126,/g3t1_1,,running
Status,149,9941491426,/g3t1_1,,success
Status,150,9944172244,/g3t1_3,,running
Status,151,9944326784,/g3t1_3,,success
Status,152,9955949558,/g3t1_2,,running
Status,153,9955979778,/g3t1_2,,success
Status,154,9978803087,/g4t1,,fail
Status,155,9991510188,/g3t1_1,,running
Status,156,9991663540,/g3t1_1,,success
Status,157,9994248049,/g3t1_3,,running
Status,158,9994472465,/g3t1_3,,success
Status,159,10006079491,/g3t1_2,,running
Status,160,10006109681,/g3t1_2,,success
Status,161,10041604404,/g3t1_1,,running
Status,162,10041738507,/g3t1_1,,success
Status,163,10044385834,/g3t1_3,,running
Status,164,10044404323,/g3t1_3,,success
Status,165,10056148383,/g3t1_2,,running
Status,166,10056183990,/g3t1_2,,success
Status,167,10078837724,/g4t1,,fail
Status,168,10091827535,/g3t1_1,,running
Status,169,10091862534,/g3t1_1,,success
Status,170,10094369337,/g3t1_3,,running
Status,171,10094588856,/g3t1_3,,success
Status,172,10106179120,/g3t1_2,,running
Status,173,10106322746,/g3t1_2,,success
Status,174,10141768127,/g3t1_1,,running
Status,175,10141903860,/g3t1_1,,success
Status,176,10144490531,/g3t1_3,,running
Status,177,10144684471,/g3t1_3,,success
Status,178,10156299839,/g3t1_2,,running
Status,179,10156507200,/g3t1_2,,success
Status,180,10179071973,/g4t1,,fail
Status,181,10191952007,/g3t1_1,,running
Status,182,10191982588,/g3t1_1,,success
Status,183,10194606075,/g3t1_3,,running
Status,184,10194723756,/g3t1_3,,success
Status,185,10206345047,/g3t1_2,,running
Status,186,10206618523,/g3t1_2,,success
Status,187,10242053162,/g3t1_1,,running
Status,188,10242086965,/g3t1_1,,success
Status,189,10244660200,/g3t1_3,,running
Status,190,10244695748,/g3t1_3,,success
Status,191,10256525181,/g3t1_2,,running
Status,192,10256668735,/g3t1_2,,success
Status,193,10279516397,/g4t1,,fail
Status,194,10292086517,/g3t1_1,,running
Status,195,10292119443,/g3t1_1,,success
Status,196,10294678262,/g3t1_3,,running
Status,197,10294914675,/g3t1_3,,success
Status,198,10306817002,/g3t1_2,,running
Status,199,10306842812,/g3t1_2,,success
Status,200,10342247974,/g3t1_1,,running
Status,201,10342274802,/g3t1_1,,success
Status,202,10344824900,/g3t1_3,,running
Status,203,10344945586,/g3t1_3,,success
Status,204,10356788137,/g3t1_2,,running
Status,205,10356898881,/g3t1_2,,success
Status,206,10379160536,/g4t1,,fail
Status,207,10392223017,/g3t1_1,,running
Status,208,10392437240,/g3t1_1,,success
Status,209,10394785066,/g3t1_3,,running
Status,210,10395018316,/g3t1_3,,success
Status,211,10406870628,/g3t1_2,,running
Status,212,10406923340,/g3t1_2,,success
Status,213,10442363774,/g3t1_1,,running
Status,214,10442504527,/g3t1_1,,success
Status,215,10444969320,/g3t1_3,,running
Status,216,10445391203,/g3t1_3,,success
Status,217,10456854760,/g3t1_2,,running
Status,218,10456937316,/g3t1_2,,success
Status,219,10479176271,/g4t1,,fail
Status,220,10492507114,/g3t1_1,,running
Status,221,10492537613,/g3t1_1,,success
Status,222,10494932683,/g3t1_3,,running
Status,223,10495065777,/g3t1_3,,success
Status,224,10506967761,/g3t1_2,,running
Status,225,10507000141,/g3t1_2,,success
Status,226,10542542862,/g3t1_1,,running
Status,227,10542666424,/g3t1_1,,success
Status,228,10544975754,/g3t1_3,,running
Status,229,10545134653,/g3t1_3,,success
Status,230,10557119511,/g3t1_2,,running
Status,231,10557223018,/g3t1_2,,success
Status,232,10579260642,/g4t1,,fail
Status,233,10592673564,/g3t1_1,,running
Status,234,10592705310,/g3t1_1,,success
Status,235,10595126832,/g3t1_3,,running
Status,236,10595300381,/g3t1_3,,success
Status,237,10607141530,/g3t1_2,,running
Status,238,10607274709,/g3t1_2,,success
Status,239,10642786582,/g3t1_1,,running
Status,240,10642837685,/g3t1_1,,success
Status,241,10645185163,/g3t1_3,,running
Status,242,10645340974,/g3t1_3,,success
Status,243,10657235788,/g3t1_2,,running
Status,244,10657289170,/g3t1_2,,success
Status,245,10679285247,/g4t1,,fail
Status,246,10692834655,/g3t1_1,,running
Status,247,10692902268,/g3t1_1,,success
Status,248,10695326499,/g3t1_3,,running
Status,249,10695462949,/g3t1_3,,success
Status,250,10707334738,/g3t1_2,,running
Status,251,10707462286,/g3t1_2,,success
Status,252,10743043741,/g3t1_1,,running
Status,253,10743074759,/g3t1_1,,success
Status,254,10745626644,/g3t1_3,,running
Status,255,10745658103,/g3t1_3,,success
Status,256,10757307016,/g3t1_2,,running
Status,257,10757473674,/g3t1_2,,success
Status,258,10779439322,/g4t1,,fail
Status,259,10793050683,/g3t1_1,,running
Status,260,10793243192,/g3t1_1,,success
Status,261,10795434565,/g3t1_3,,running
Status,262,10795628106,/g3t1_3,,success
Status,263,10807457133,/g3t1_2,,running
Status,264,10807595799,/g3t1_2,,success
Status,265,10843138265,/g3t1_1,,running
Status,266,10843169716,/g3t1_1,,success
Status,267,10845619970,/g3t1_3,,running
Status,268,10845785331,/g3t1_3,,success
Status,269,10857569927,/g3t1_2,,running
Status,270,10857693150,/g3t1_2,,success
Status,271,10880100295,/g4t1,,fail
Status,272,10893182809,/g3t1_1,,running
Status,273,10893215322,/g3t1_1,,success
Status,274,10895610005,/g3t1_3,,running
Status,275,10895743950,/g3t1_3,,success
Status,276,10907674764,/g3t1_2,,running
Status,277,10907704460,/g3t1_2,,success
Status,278,10943271592,/g3t1_1,,running
Status,279,10943395373,/g3t1_1,,success
Status,280,10946143731,/g3t1_3,,running
Status,281,10946322630,/g3t1_3,,success
Status,282,10957791324,/g3t1_2,,running
Status,283,10957817663,/g3t1_2,,success
Status,284,10979638043,/g4t1,,fail
Status,285,10993392716,/g3t1_1,,running
Status,286,10993417488,/g3t1_1,,success
Status,287,10995859369,/g3t1_3,,running
Status,288,10996088420,/g3t1_3,,success
Status,289,11007844614,/g3t1_2,,running
Status,290,11007870751,/g3t1_2,,success
Status,291,11043586963,/g3t1_1,,running
Status,292,11043614246,/g3t1_1,,success
Status,293,11045944377,/g3t1_3,,running
Status,294,11046056518,/g3t1_3,,success
Status,295,11058021790,/g3t1_2,,running
Status,296,11058049043,/g3t1_2,,success
Status,297,11079701150,/g4t1,,fail
Status,298,11093621178,/g3t1_1,,running
Status,299,11093748064,/g3t1_1,,success
Status,300,11096683430,/g3t1_3,,running
Status,301,11096798229,/g3t1_3,,success
Status,302,11107947198,/g3t1_2,,running
Status,303,11108122297,/g3t1_2,,success
Status,304,11143612951,/g3t1_1,,running
Status,305,11143753643,/g3t1_1,,success
Status,306,11146214750,/g3t1_3,,running
Status,307,11146330860,/g3t1_3,,success
Status,308,11158126785,/g3t1_2,,running
Status,309,11158199559,/g3t1_2,,success
Status,310,11179820678,/g4t1,,fail
Status,311,11193752814,/g3t1_1,,running
Status,312,11194048941,/g3t1_1,,success
Status,313,11196285184,/g3t1_3,,running
Status,314,11196548619,/g3t1_3,,success
Status,315,11208213641,/g3t1_2,,running
Status,316,11208244181,/g3t1_2,,success
Status,317,11243887517,/g3t1_1,,running
Status,318,11243918911,/g3t1_1,,success
Status,319,11246327445,/g3t1_3,,running
Status,320,11246428939,/g3t1_3,,success
Status,321,11258328699,/g3t1_2,,running
Status,322,11258360819,/g3t1_2,,success
Status,323,11280062356,/g4t1,,fail
Status,324,11293987745,/g3t1_1,,running
Status,325,11294060607,/g3t1_1,,success
Status,326,11296383998,/g3t1_3,,running
Status,327,11296478477,/g3t1_3,,success
Status,328,11308352062,/g3t1_2,,running
Status,329,11308630777,/g3t1_2,,success
Status,330,11344049690,/g3t1_1,,running
Status,331,11344073752,/g3t1_1,,success
Status,332,11346673221,/g3t1_3,,running
Status,333,11346700826,/g3t1_3,,success
Status,334,11358425873,/g3t1_2,,running
Status,335,11358572349,/g3t1_2,,success
Status,336,11380560825,/g4t1,,fail
Status,337,11394156752,/g3t1_1,,running
Status,338,11394284698,/g3t1_1,,success
Status,339,11396538021,/g3t1_3,,running
Status,340,11396690951,/g3t1_3,,success
Status,341,11408634174,/g3t1_2,,running
Status,342,11408663006,/g3t1_2,,success
Status,343,11444270496,/g3t1_1,,running
Status,344,11444398194,/g3t1_1,,success
Status,345,11447432398,/g3t1_3,,running
Status,346,11447838894,/g3t1_3,,success
Status,347,11458721547,/g3t1_2,,running
Status,348,11458816098,/g3t1_2,,success
Status,349,11480654722,/g4t1,,fail
Status,350,11494407793,/g3t1_1,,running
Status,351,11494434013,/g3t1_1,,success
Status,352,11496886776,/g3t1_3,,running
Status,353,11497004816,/g3t1_3,,success
Status,354,11508776488,/g3t1_2,,running
Status,355,11508801145,/g3t1_2,,success
Status,356,11544382043,/g3t1_1,,running
Status,357,11544505259,/g3t1_1,,success
Status,358,11547123670,/g3t1_3,,running
Status,359,11547155819,/g3t1_3,,success
Status,360,11558971403,/g3t1_2,,running
Status,361,11558999760,/g3t1_2,,success
Status,362,11580284058,/g4t1,,fail
Status,363,11594471097,/g3t1_1,,running
Status,364,11594744060,/g3t1_1,,success
Status,365,11597162685,/g3t1_3,,running
Status,366,11597296828,/g3t1_3,,success
Status,367,11608932501,/g3t1_2,,running
Status,368,11609037626,/g3t1_2,,success
Status,369,11644555241,/g3t1_1,,running
Status,370,11644662365,/g3t1_1,,success
Status,371,11647050523,/g3t1_3,,running
Status,372,11647161327,/g3t1_3,,success
Status,373,11659000331,/g3t1_2,,running
Status,374,11659128026,/g3t1_2,,success
Status,375,11680381009,/g4t1,,fail
Status,376,11694611928,/g3t1_1,,running
Status,377,11694688956,/g3t1_1,,success
Status,378,11697480391,/g3t1_3,,running
Status,379,11697507241,/g3t1_3,,success
Status,380,11709108437,/g3t1_2,,running
Status,381,11709270566,/g3t1_2,,success
Status,382,11744768346,/g3t1_1,,running
Status,383,11744914007,/g3t1_1,,success
Status,384,11747253619,/g3t1_3,,running
Status,385,11747425914,/g3t1_3,,success
Status,386,11759371324,/g3t1_2,,running
Status,387,11759396423,/g3t1_2,,success
Status,388,11780579641,/g4t1,,fail
Status,389,11794822211,/g3t1_1,,running
Status,390,11794865390,/g3t1_1,,success
Status,391,11797350875,/g3t1_3,,running
Status,392,11797457907,/g3t1_3,,success
Status,393,11809422630,/g3t1_2,,running
Status,394,11809506624,/g3t1_2,,success
Status,395,11845035848,/g3t1_1,,running
Status,396,11845064287,/g3t1_1,,success
Status,397,11847612550,/g3t1_3,,running
Status,398,11847636838,/g3t1_3,,success
Status,399,11859491392,/g3t1_2,,running
Status,400,11859516470,/g3t1_2,,success
Status,401,11881201722,/g4t1,,fail
Status,402,11894953288,/g3t1_1,,running
Status,403,11894976791,/g3t1_1,,success
Status,404,11897557205,/g3t1_3,,running
Status,405,11897690018,/g3t1_3,,success
Status,406,11909468551,/g3t1_2,,running
Status,407,11909577585,/g3t1_2,,success
Status,408,11945244490,/g3t1_1,,running
Status,409,11945294625,/g3t1_1,,success
Status,410,11948466825,/g3t1_3,,running
Status,411,11948511641,/g3t1_3,,success
Status,412,11959591780,/g3t1_2,,running
Status,413,11959714847,/g3t1_2,,success
Status,414,11980852702,/g4t1,,fail
Status,415,11995242750,/g3t1_1,,running
Status,416,11995268697,/g3t1_1,,success
Status,417,11997729274,/g3t1_3,,running
Status,418,11997840393,/g3t1_3,,success
Status,419,12009667296,/g3t1_2,,running
Status,420,12009691104,/g3t1_2,,success
Status,421,12045539623,/g3t1_1,,running
Status,422,12045582024,/g3t1_1,,success
Status,423,12047981309,/g3t1_3,,running
Status,424,12048005597,/g3t1_3,,success
Status,425,12059846275,/g3t1_2,,running
Status,426,12059874824,/g3t1_2,,success
Status,427,12080844089,/g4t1,,fail
Status,428,12095375908,/g3t1_1,,running
Status,429,12095402199,/g3t1_1,,success
Status,430,12098144571,/g3t1_3,,running
Status,431,12098172490,/g3t1_3,,success
Status,432,12109912111,/g3t1_2,,running
Status,433,12109937179,/g3t1_2,,success
Status,434,12145426659,/g3t1_1,,running
Status,435,12145451227,/g3t1_1,,success
Status,436,12147920710,/g3t1_3,,running
Status,437,12148046106,/g3t1_3,,success
Status,438,12159955677,/g3t1_2,,running
Status,439,12160230718,/g3t1_2,,success
Status,440,12180915082,/g4t1,,fail
Status,441,12195467787,/g3t1_1,,running
Status,442,12195599760,/g3t1_1,,success
Status,443,12198214686,/g3t1_3,,running
Status,444,12198251216,/g3t1_3,,success
Status,445,12210133883,/g3t1_2,,running
Status,446,12210159171,/g3t1_2,,success
Status,447,12245642095,/g3t1_1,,running
Status,448,12245666483,/g3t1_1,,success
Status,449,12248178560,/g3t1_3,,running
Status,450,12248320887,/g3t1_3,,success
Status,451,12260177010,/g3t1_2,,running
Status,452,12260200206,/g3t1_2,,success
Status,453,12281060976,/g4t1,,fail
Status,454,12295813121,/g3t1_1,,running
Status,455,12295917263,/g3t1_1,,success
Status,456,12298561674,/g3t1_3,,running
Status,457,12298587760,/g3t1_3,,success
Status,458,12310194697,/g3t1_2,,running
Status,459,12310309938,/g3t1_2,,success
Status,460,12345873683,/g3t1_1,,running
Status,461,12345896870,/g3t1_1,,success
Status,462,12348548543,/g3t1_3,,running
Status,463,12348580549,/g3t1_3,,success
Status,464,12360331218,/g3t1_2,,running
Status,465,12360357123,/g3t1_2,,success
Status,466,12381648864,/g4t1,,fail
Status,467,12395871985,/g3t1_1,,running
Status,468,12395897163,/g3t1_1,,success
Status,469,12398355345,/g3t1_3,,running
Status,470,12398563638,/g3t1_3,,success
Status,471,12410388167,/g3t1_2,,running
Status,472,12410449633,/g3t1_2,,success
Status,473,12446468927,/g3t1_1,,running
Status,474,12446782545,/g3t1_1,,success
Status,475,12448528948,/g3t1_3,,running
Status,476,12448557349,/g3t1_3,,success
Status,477,12460499836,/g3t1_2,,running
Status,478,12460527098,/g3t1_2,,success
Status,479,12481508811,/g4t1,,fail
Status,480,12496018452,/g3t1_1,,running
Status,481,12496190150,/g3t1_1,,success
Status,482,12498619222,/g3t1_3,,running
Status,483,12498655500,/g3t1_3,,success
Status,484,12510638250,/g3t1_2,,running
Status,485,12510661927,/g3t1_2,,success
Status,486,12546294818,/g3t1_1,,running
Status,487,12546328933,/g3t1_1,,success
Status,488,12548683909,/g3t1_3,,running
Status,489,12548806033,/g3t1_3,,success
Status,490,12560787083,/g3t1_2,,running
Status,491,12560811880,/g3t1_2,,success
Status,492,12581598128,/g4t1,,fail
Status,493,12596433358,/g3t1_1,,running
Status,494,12596573336,/g3t1_1,,success
Status,495,12598794481,/g3t1_3,,running
Status,496,12598877483,/g3t1_3,,success
Status,497,12610840138,/g3t1_2,,running
Status,498,12611004376,/g3t1_2,,success
Status,499,12646324613,/g3t1_1,,running
Status,500,12646520974,/g3t1_1,,success
Status,501,12648656230,/g3t1_3,,running
Status,502,12648829840,/g3t1_3,,success
Status,503,12660949668,/g3t1_2,,running
Status,504,12660978760,/g3t1_2,,success
Status,505,12681540049,/g4t1,,fail
Status,506,12696629659,/g3t1_1,,running
Status,507,12696855142,/g3t1_1,,success
Status,508,12698846329,/g3t1_3,,running
Status,509,12698964490,/g3t1_3,,success
Status,510,12710993936,/g3t1_2,,running
Status,511,12711017619,/g3t1_2,,success
Status,512,12746638692,/g3t1_1,,running
Status,513,12746669532,/g3t1_1,,success
Status,514,12748931667,/g3t1_3,,running
Status,515,12748977230,/g3t1_3,,success
Status,516,12760986612,/g3t1_2,,running
Status,517,12761110139,/g3t1_2,,success
Status,518,12781776235,/g4t1,,fail
Status,519,12796854987,/g3t1_1,,running
Status,520,12796954819,/g3t1_1,,success
Status,521,12799080030,/g3t1_3,,running
Status,522,12799105415,/g3t1_3,,success
Status,523,12811120175,/g3t1_2,,running
Status,524,12811147002,/g3t1_2,,success
Status,525,12846902963,/g3t1_1,,running
Status,526,12847039530,/g3t1_1,,success
Status,527,12849342829,/g3t1_3,,running
Status,528,12849370635,/g3t1_3,,success
Status,529,12861274912,/g3t1_2,,running
Status,530,12861299909,/g3t1_2,,success
Status,531,12881853221,/g4t1,,fail
Status,532,12896834714,/g3t1_1,,running
Status,533,12897147624,/g3t1_1,,success
Status,534,12899186122,/g3t1_3,,running
Status,535,12899207825,/g3t1_3,,success
Status,536,12911535993,/g3t1_2,,running
Status,537,12911587618,/g3t1_2,,success
Status,538,12947778481,/g3t1_1,,running
Status,539,12947819848,/g3t1_1,,success
Status,540,12949397135,/g3t1_3,,running
Status,541,12949420700,/g3t1_3,,success
Status,542,12961436972,/g3t1_2,,running
Status,543,12961462539,/g3t1_2,,success
Status,544,12981921896,/g4t1,,fail
Status,545,12997224927,/g3t1_1,,running
Status,546,12997256787,/g3t1_1,,success
Status,547,12999331278,/g3t1_3,,running
Status,548,12999425091,/g3t1_3,,success
Status,549,13011484441,/g3t1_2,,running
Status,550,13011518724,/g3t1_2,,success
Status,551,13047292560,/g3t1_1,,running
Status,552,13047391455,/g3t1_1,,success
Status,553,13049458450,/g3t1_3,,running
Status,554,13049565202,/g3t1_3,,success
Status,555,13061613876,/g3t1_2,,running
Status,556,13061637401,/g3t1_2,,success
Status,557,13082016575,/g4t1,,fail
Status,558,13097475518,/g3t1_1,,running
Status,559,13097508296,/g3t1_1,,success
Status,560,13099583699,/g3t1_3,,running
Status,561,13099700613,/g3t1_3,,success
Status,562,13111631740,/g3t1_2,,running
Status,563,13111826198,/g3t1_2,,success
Status,564,13147511016,/g3t1_1,,running
Status,565,13147535230,/g3t1_1,,success
Status,566,13149646060,/g3t1_3,,running
Status,567,13149669364,/g3t1_3,,success
Status,568,13161869631,/g3t1_2,,running
Status,569,13161894794,/g3t1_2,,success
Status,570,13182070852,/g4t1,,fail
Status,571,13197682269,/g3t1_1,,running
Status,572,13197708273,/g3t1_1,,success
Status,573,13199841611,/g3t1_3,,running
Status,574,13199863107,/g3t1_3,,success
Status,575,13211917188,/g3t1_2,,running
Status,576,13212064594,/g3t1_2,,success
Status,577,13247635441,/g3t1_1,,running
Status,578,13247659497,/g3t1_1,,success
Status,579,13249784133,/g3t1_3,,running
Status,580,13249895078,/g3t1_3,,success
Status,581,13262043631,/g3t1_2,,running
Status,582,13262067319,/g3t1_2,,success
Status,583,13282230785,/g4t1,,fail
Status,584,13297894855,/g3t1_1,,running
Status,585,13297922087,/g3t1_1,,success
Status,586,13299972292,/g3t1_3,,running
Status,587,13300064908,/g3t1_3,,success
Status,588,13312155686,/g3t1_2,,running
Status,589,13312423286,/g3t1_2,,success
Status,590,13347899791,/g3t1_1,,running
Status,591,13347926860,/g3t1_1,,success
Status,592,13350212176,/g3t1_3,,running
Status,593,13350335361,/g3t1_3,,success
Status,594,13362172868,/g3t1_2,,running
Status,595,13362284555,/g3t1_2,,success
Status,596,13382278448,/g4t1,,fail
Status,597,13398028136,/g3t1_1,,running
Status,598,13398050806,/g3t1_1,,success
Status,599,13400072667,/g3t1_3,,running
Status,600,13400185306,/g3t1_3,,success
Status,601,13412471475,/g3t1_2,,running
Status,602,13412517994,/g3t1_2,,success
Status,603,13448048320,/g3t1_1,,running
Status,604,13448161191,/g3t1_1,,success
Status,605,13450219130,/g3t1_3,,running
Status,606,13450324198,/g3t1_3,,success
Status,607,13462445168,/g3t1_2,,running
Status,608,13462469700,/g3t1_2,,success
Status,609,13482394755,/g4t1,,fail
Status,610,13498251981,/g3t1_1,,running
Status,611,13498409993,/g3t1_1,,success
Status,612,13500249503,/g3t1_3,,running
Status,613,13500412345,/g3t1_3,,success
Status,614,13513049191,/g3t1_2,,running
Status,615,13513094559,/g3t1_2,,success
Status,616,13548542461,/g3t1_1,,running
Status,617,13548568966,/g3t1_1,,success
Status,618,13550425124,/g3t1_3,,running
Status,619,13550458497,/g3t1_3,,success
Status,620,13562919752,/g3t1_2,,running
Status,621,13562947868,/g3t1_2,,success
Status,622,13582432604,/g4t1,,fail
Status,623,13598408148,/g3t1_1,,running
Status,624,13598446739,/g3t1_1,,success
Status,625,13600471386,/g3t1_3,,running
Status,626,13600495484,/g3t1_3,,success
Status,627,13612770185,/g3t1_2,,running
Status,628,13612799418,/g3t1_2,,success
Status,629,13648450959,/g3t1_1,,running
Status,630,13648557345,/g3t1_1,,success
Status,631,13650577130,/g3t1_3,,running
Status,632,13650659295,/g3t1_3,,success
Status,633,13663040215,/g3t1_2,,running
Status,634,13663096512,/g3t1_2,,success
Status,635,13682521071,/g4t1,,fail
Status,636,13698662724,/g3t1_1,,running
Status,637,13698688474,/g3t1_1,,success
Status,638,13700641762,/g3t1_3,,running
Status,639,13700754089,/g3t1_3,,success
Status,640,13712913062,/g3t1_2,,running
Status,641,13713043418,/g3t1_2,,success
Status,642,13748658405,/g3t1_1,,running
Status,643,13748703111,/g3t1_1,,success
Status,644,13750724538,/g3t1_3,,running
Status,645,13750809973,/g3t1_3,,success
Status,646,13763104253,/g3t1_2,,running
Status,647,13763199022,/g3t1_2,,success
Status,648,13782719278,/g4t1,,fail
Status,649,13798843148,/g3t1_1,,running
Status,650,13798870812,/g3t1_1,,success
Status,651,13800805249,/g3t1_3,,running
Status,652,13800905333,/g3t1_3,,success
Status,653,13813243432,/g3t1_2,,running
Status,654,13813389603,/g3t1_2,,success
Status,655,13848998370,/g3t1_1,,running
Status,656,13849028548,/g3t1_1,,success
Status,657,13850932820,/g3t1_3,,running
Status,658,13851019580,/g3t1_3,,success
Status,659,13863151937,/g3t1_2,,running
Status,660,13863287304,/g3t1_2,,success
Status,661,13882927527,/g4t1,,fail
Status,662,13898960201,/g3t1_1,,running
Status,663,13898989576,/g3t1_1,,success
Status,664,13900889434,/g3t1_3,,running
Status,665,13901078900,/g3t1_3,,success
Status,666,13913347519,/g3t1_2,,running
Status,667,13913373073,/g3t1_2,,success
Status,668,13949230426,/g3t1_1,,running
Status,669,13949257301,/g3t1_1,,success
Status,670,13951067727,/g3t1_3,,running
Status,671,13951168805,/g3t1_3,,success
Status,672,13963343428,/g3t1_2,,running
Status,673,13963436286,/g3t1_2,,success
Status,674,13982852018,/g4t1,,fail
Status,675,13999187093,/g3t1_1,,running
Status,676,13999216500,/g3t1_1,,success
Status,677,14001061926,/g3t1_3,,running
Status,678,14001166701,/g3t1_3,,success
Status,679,14013451930,/g3t1_2,,running
Status,680,14013476105,/g3t1_2,,success
Status,681,14049302396,/g3t1_1,,running
Status,682,14049409672,/g3t1_1,,success
Status,683,14051282103,/g3t1_3,,running
Status,684,14051438346,/g3t1_3,,success
Status,685,14063588432,/g3t1_2,,running
Status,686,14063614833,/g3t1_2,,success
Status,687,14083047019,/g4t1,,fail
Status,688,14099297056,/g3t1_1,,running
Status,689,14099426132,/g3t1_1,,success
Status,690,14101240413,/g3t1_3,,running
Status,691,14101488596,/g3t1_3,,success
Status,692,14113515595,/g3t1_2,,running
Status,693,14113717673,/g3t1_2,,success
Status,694,14149477564,/g3t1_1,,running
Status,695,14149588203,/g3t1_1,,success
Status,696,14151432584,/g3t1_3,,running
Status,697,14151555600,/g3t1_3,,success
Status,698,14163917184,/g3t1_2,,running
Status,699,14163942345,/g3t1_2,,success
Status,700,14183039891,/g4t1,,fail
Status,701,14199478392,/g3t1_1,,running
Status,702,14199626316,/g3t1_1,,success
Status,703,14201568843,/g3t1_3,,running
Status,704,14201663404,/g3t1_3,,success
Status,705,14213741874,/g3t1_2,,running
Status,706,14213915376,/g3t1_2,,success
Status,707,14249630727,/g3t1_1,,running
Status,708,14249657150,/g3t1_1,,success
Status,709,14251612325,/g3t1_3,,running
Status,710,14251636311,/g3t1_3,,success
Status,711,14263957931,/g3t1_2,,running
Status,712,14263989031,/g3t1_2,,success
Status,713,14283211937,/g4t1,,fail
Status,714,14299765500,/g3t1_1,,running
Status,715,14299789998,/g3t1_1,,success
Status,716,14301693208,/g3t1_3,,running
Status,717,14301819901,/g3t1_3,,success
Status,718,14313991179,/g3t1_2,,running
Status,719,14314023640,/g3t1_2,,success
Status,720,14349882585,/g3t1_1,,running
Status,721,14349914377,/g3t1_1,,success
Status,722,14351725498,/g3t1_3,,running
Status,723,14351893101,/g3t1_3,,success
Status,724,14364044943,/g3t1_2,,running
Status,725,14364194390,/g3t1_2,,success
Status,726,14383330761,/g4t1,,fail
Status,727,14399943736,/g3t1_1,,running
Status,728,14399971449,/g3t1_1,,success
Status,729,14401828778,/g3t1_3,,running
Status,730,14401945088,/g3t1_3,,success
Status,731,14414690719,/g3t1_2,,running
Status,732,14414715955,/g3t1_2,,success
Status,733,14449963006,/g3t1_1,,running
Status,734,14450084736,/g3t1_1,,success
Status,735,14451797220,/g3t1_3,,running
Status,736,14451949535,/g3t1_3,,success
Status,737,14464206444,/g3t1_2,,running
Status,738,14464243510,/g3t1_2,,success
Status,739,14483310850,/g4t1,,fail
Status,740,14500079222,/g3t1_1,,running
Status,741,14500215020,/g3t1_1,,success
Status,742,14501922260,/g3t1_3,,running
Status,743,14502026707,/g3t1_3,,success
Status,744,14514399056,/g3t1_2,,running
Status,745,14514422262,/g3t1_2,,success
Status,746,14550160765,/g3t1_1,,running
Status,747,14550269756,/g3t1_1,,success
Status,748,14551968708,/g3t1_3,,running
Status,749,14552065058,/g3t1_3,,success
Status,750,14564421475,/g3t1_2,,running
Status,751,14564550292,/g3t1_2,,success
Status,752,14583374134,/g4t1,,fail
Status,753,14600314639,/g3t1_1,,running
Status,754,14600338465,/g3t1_1,,success
Status,755,14602018234,/g3t1_3,,running
Status,756,14602145423,/g3t1_3,,success
Status,757,14614767761,/g3t1_2,,running
Status,758,14614798080,/g3t1_2,,success
Status,759,14650396894,/g3t1_1,,running
Status,760,14650426940,/g3t1_1,,success
Status,761,14652233623,/g3t1_3,,running
Status,762,14652256324,/g3t1_3,,success
Status,763,14664697789,/g3t1_2,,running
Status,764,14664725680,/g3t1_2,,success
Status,765,14683381780,/g4t1,,fail
Status,766,14700502835,/g3t1_1,,running
Status,767,14700596380,/g3t1_1,,success
Status,768,14702284636,/g3t1_3,,running
Status,769,14702358078,/g3t1_3,,success
Status,770,14714708870,/g3t1_2,,running
Status,771,14714737656,/g3t1_2,,success
Status,772,14750556438,/g3t1_1,,running
Status,773,14750697836,/g3t1_1,,success
Status,774,14752249602,/g3t1_3,,running
Status,775,14752348688,/g3t1_3,,success
Status,776,14764711408,/g3t1_2,,running
Status,777,14764817422,/g3t1_2,,success
Status,778,14783460138,/g4t1,,fail
Status,779,14800625280,/g3t1_1,,running
Status,780,14800654449,/g3t1_1,,success
Status,781,14802402071,/g3t1_3,,running
Status,782,14802539167,/g3t1_3,,success
Status,783,14814950309,/g3t1_2,,running
Status,784,14815144059,/g3t1_2,,success
Status,785,14850806872,/g3t1_1,,running
Status,786,14850897184,/g3t1_1,,success
Status,787,14852382519,/g3t1_3,,running
Status,788,14852508591,/g3t1_3,,success
Status,789,14865125518,/g3t1_2,,running
Status,790,14865153521,/g3t1_2,,success
Status,791,14883759253,/g4t1,,fail
Status,792,14900870957,/g3t1_1,,running
Status,793,14900899000,/g3t1_1,,success
Status,794,14902542179,/g3t1_3,,running
Status,795,14902711609,/g3t1_3,,success
Status,796,14914941463,/g3t1_2,,running
Status,797,14915038283,/g3t1_2,,success
Status,798,14951039248,/g3t1_1,,running
Status,799,14951088506,/g3t1_1,,success
Status,800,14952547264,/g3t1_3,,running
Status,801,14952762027,/g3t1_3,,success
Status,802,14964967040,/g3t1_2,,running
Status,803,14965218817,/g3t1_2,,success
Status,804,14983712548,/g4t1,,fail
Status,805,15001106677,/g3t1_1,,running
Status,806,15001130986,/g3t1_1,,success
Status,807,15002793587,/g3t1_3,,running
Status,808,15002934427,/g3t1_3,,success
Status,809,15015142555,/g3t1_2,,running
Status,810,15015167341,/g3t1_2,,success
Status,811,15051141543,/g3t1_1,,running
Status,812,15051166681,/g3t1_1,,success
Status,813,15052809223,/g3t1_3,,running
Status,814,15053026713,/g3t1_3,,success
Status,815,15065126884,/g3t1_2,,running
Status,816,15065300919,/g3t1_2,,success
Status,817,15083824828,/g4t1,,fail
Status,818,15101240726,/g3t1_1,,running
Status,819,15101265213,/g3t1_1,,success
Status,820,15102879053,/g3t1_3,,running
Status,821,15103016701,/g3t1_3,,success
Status,822,15115327038,/g3t1_2,,running
Status,823,15115376774,/g3t1_2,,success
Status,824,15151298342,/g3t1_1,,running
Status,825,15151355603,/g3t1_1,,success
Status,826,15153114024,/g3t1_3,,running
Status,827,15153233757,/g3t1_3,,success
Status,828,15165372304,/g3t1_2,,running
Status,829,15165502466,/g3t1_2,,success
Status,830,15183944328,/g4t1,,fail
Status,831,15201415691,/g3t1_1,,running
Status,832,15201539337,/g3t1_1,,success
Status,833,15203045626,/g3t1_3,,running
Status,834,15203212651,/g3t1_3,,success
Status,835,15215505296,/g3t1_2,,running
Status,836,15215530068,/g3t1_2,,success
Status,837,15251513662,/g3t1_1,,running
Status,838,15251647819,/g3t1_1,,success
Status,839,15253151515,/g3t1_3,,running
Status,840,15253258011,/g3t1_3,,success
Status,841,15265611103,/g3t1_2,,running
Status,842,15265634288,/g3t1_2,,success
Status,843,15284007509,/g4t1,,fail
Status,844,15301611864,/g3t1_1,,running
Status,845,15301638049,/g3t1_1,,success
Status,846,15303171977,/g3t1_3,,running
Status,847,15303314898,/g3t1_3,,success
Status,848,15315681245,/g3t1_2,,running
Status,849,15315707416,/g3t1_2,,success
Status,850,15351690924,/g3t1_1,,running
Status,851,15351722371,/g3t1_1,,success
Status,852,15353424455,/g3t1_3,,running
Status,853,15353533146,/g3t1_3,,success
Status,854,15365927303,/g3t1_2,,running
Status,855,15365954672,/g3t1_2,,success
Status,856,15384052305,/g4t1,,fail
Status,857,15401789617,/g3t1_1,,running
Status,858,15401815923,/g3t1_1,,success
Status,859,15403372701,/g3t1_3,,running
Status,860,15403501052,/g3t1_3,,success
Status,861,15415830401,/g3t1_2,,running
Status,862,15415855695,/g3t1_2,,success
Status,863,15451847236,/g3t1_1,,running
Status,864,15451994515,/g3t1_1,,success
Status,865,15453468109,/g3t1_3,,running
Status,866,15453581178,/g3t1_3,,success
Status,867,15465957515,/g3t1_2,,running
Status,868,15465980413,/g3t1_2,,success
Status,869,15484176374,/g4t1,,fail
Status,870,15502204244,/g3t1_1,,running
Status,871,15502229150,/g3t1_1,,success
Status,872,15503551984,/g3t1_3,,running
Status,873,15503662518,/g3t1_3,,success
Status,874,15515987577,/g3t1_2,,running
Status,875,15516124431,/g3t1_2,,success
Status,876,15552129909,/g3t1_1,,running
Status,877,15552157478,/g3t1_1,,success
Status,878,15553656466,/g3t1_3,,running
Status,879,15553769883,/g3t1_3,,success
Status,880,15566204788,/g3t1_2,,running
Status,881,15566292946,/g3t1_2,,success
Status,882,15584198840,/g4t1,,fail
Status,883,15602222490,/g3t1_1,,running
Status,884,15602246104,/g3t1_1,,success
Status,885,15603714656,/g3t1_3,,running
Status,886,15603843307,/g3t1_3,,success
Status,887,15616309545,/g3t1_2,,running
Status,888,15616345836,/g3t1_2,,success
Status,889,15652345514,/g3t1_1,,running
Status,890,15652370390,/g3t1_1,,success
Status,891,15653906152,/g3t1_3,,running
Status,892,15653932977,/g3t1_3,,success
Status,893,15666336398,/g3t1_2,,running
Status,894,15666366060,/g3t1_2,,success
Status,895,15684352535,/g4t1,,fail
Status,896,15702431330,/g3t1_1,,running
Status,897,15702455284,/g3t1_1,,success
Status,898,15703864814,/g3t1_3,,running
Status,899,15704021806,/g3t1_3,,success
Status,900,15716432882,/g3t1_2,,running
Status,901,15716569168,/g3t1_2,,success
Status,902,15752485424,/g3t1_1,,running
Status,903,15752510753,/g3t1_1,,success
Status,904,15753959044,/g3t1_3,,running
Status,905,15754255734,/g3t1_3,,success
Status,906,15766538579,/g3t1_2,,running
Status,907,15766645568,/g3t1_2,,success
Status,908,15784410281,/g4t1,,fail
Status,909,15802638782,/g3t1_1,,running
Status,910,15802664912,/g3t1_1,,success
Status,911,15804101253,/g3t1_3,,running
Status,912,15804296465,/g3t1_3,,success
Status,913,15816696658,/g3t1_2,,running
Status,914,15816722411,/g3t1_2,,success
Status,915,15852718023,/g3t1_1,,running
Status,916,15852749652,/g3t1_1,,success
Status,917,15854309970,/g3t1_3,,running
Status,918,15854417206,/g3t1_3,,success
Status,919,15866741828,/g3t1_2,,running
Status,920,15866952769,/g3t1_2,,success
Status,921,15884489542,/g4t1,,fail
Status,922,15902794380,/g3t1_1,,running
Status,923,15902817647,/g3t1_1,,success
Status,924,15904284093,/g3t1_3,,running
Status,925,15904471024,/g3t1_3,,success
Status,926,15916822110,/g3t1_2,,running
Status,927,15916966684,/g3t1_2,,success
Status,928,15952921661,/g3t1_1,,running
Status,929,15952949290,/g3t1_1,,success
Status,930,15954568178,/g3t1_3,,running
Status,931,15954590681,/g3t1_3,,success
Status,932,15966987325,/g3t1_2,,running
Status,933,15967011687,/g3t1_2,,success
Status,934,15984569165,/g4t1,,fail
Status,935,16002943190,/g3t1_1,,running
Status,936,16002974120,/g3t1_1,,success
Status,937,16004650456,/g3t1_3,,running
Status,938,16004796053,/g3t1_3,,success
Status,939,16017074778,/g3t1_2,,running
Status,940,16017244914,/g3t1_2,,success
Status,941,16053040142,/g3t1_1,,running
Status,942,16053240940,/g3t1_1,,success
Status,943,16054591329,/g3t1_3,,running
Status,944,16054697244,/g3t1_3,,success
Status,945,16067103107,/g3t1_2,,running
Status,946,16067239228,/g3t1_2,,success
Status,947,16084661574,/g4t1,,fail
Status,948,16103078476,/g3t1_1,,running
Status,949,16103213837,/g3t1_1,,success
Status,950,16104642954,/g3t1_3,,running
Status,951,16104796011,/g3t1_3,,success
Status,952,16117274893,/g3t1_2,,running
Status,953,16117303061,/g3t1_2,,success
Status,954,16153211432,/g3t1_1,,running
Status,955,16153349083,/g3t1_1,,success
Status,956,16154743652,/g3t1_3,,running
Status,957,16154900991,/g3t1_3,,success
Status,958,16167334426,/g3t1_2,,running
Status,959,16167360341,/g3t1_2,,success
Status,960,16184841436,/g4t1,,fail
Status,961,16203303159,/g3t1_1,,running
Status,962,16203458188,/g3t1_1,,success
Status,963,16204923522,/g3t1_3,,running
Status,964,16204952909,/g3t1_3,,success
Status,965,16217390406,/g3t1_2,,running
Status,966,16217414831,/g3t1_2,,success
Status,967,16253471753,/g3t1_1,,running
Status,968,16253496326,/g3t1_1,,success
Status,969,16254981569,/g3t1_3,,running
Status,970,16255092781,/g3t1_3,,success
Status,971,16267416466,/g3t1_2,,running
Status,972,16267561438,/g3t1_2,,success
Status,973,16284911872,/g4t1,,fail
Status,974,16303406811,/g3t1_1,,running
Status,975,16303500735,/g3t1_1,,success
Status,976,16304953311,/g3t1_3,,running
Status,977,16305072755,/g3t1_3,,success
Status,978,16317604469,/g3t1_2,,running
Status,979,16317630132,/g3t1_2,,success
Status,980,16353678380,/g3t1_1,,running
Status,981,16353702961,/g3t1_1,,success
Status,982,16355105087,/g3t1_3,,running
Status,983,16355286133,/g3t1_3,,success
Status,984,16367700298,/g3t1_2,,running
Status,985,16367725990,/g3t1_2,,success
Status,986,16384984206,/g4t1,,fail
Status,987,16403671538,/g3t1_1,,running
Status,988,16403701484,/g3t1_1,,success
Status,989,16405303280,/g3t1_3,,running
Status,990,16405338563,/g3t1_3,,success
Status,991,16417742874,/g3t1_2,,running
Status,992,16417920783,/g3t1_2,,success
Status,993,16453887708,/g3t1_1,,running
Status,994,16453912929,/g3t1_1,,success
Status,995,16455279129,/g3t1_3,,running
Status,996,16455468174,/g3t1_3,,success
Status,997,16467795508,/g3t1_2,,running
Status,998,16467874059,/g3t1_2,,success
Status,999,16485100449,/g4t1,,fail
Status,1000,16503924031,/g3t1_1,,running
Status,1001,16503949265,/g3t1_1,,success
Status,1002,16505406302,/g3t1_3,,running
Status,1003,16505509219,/g3t1_3,,success
Status,1004,16517960303,/g3t1_2,,running
Status,1005,16517986090,/g3t1_2,,success
Status,1006,16553945041,/g3t1_1,,running
Status,1007,16554067924,/g3t1_1,,success
Status,1008,16555435714,/g3t1_3,,running
Status,1009,16555633549,/g3t1_3,,success
Status,1010,16568027907,/g3t1_2,,running
Status,1011,16568254065,/g3t1_2,,success
Status,1012,16585200228,/g4t1,,fail
Status,1013,16604027046,/g3t1_1,,running
Status,1014,16604166018,/g3t1_1,,success
Status,1015,16605542929,/g3t1_3,,running
Status,1016,16605666009,/g3t1_3,,success
Status,1017,16618143338,/g3t1_2,,running
Status,1018,16618168358,/g3t1_2,,success
Status,1019,16654265421,/g3t1_1,,running
Status,1020,16654289996,/g3t1_1,,success
Status,1021,16655684412,/g3t1_3,,running
Status,1022,16655825399,/g3t1_3,,success
Status,1023,16668215597,/g3t1_2,,running
Status,1024,16668249289,/g3t1_2,,success
Status,1025,16685338087,/g4t1,,fail
Status,1026,16704358147,/g3t1_1,,running
Status,1027,16704382924,/g3t1_1,,success
Status,1028,16705802599,/g3t1_3,,running
Status,1029,16705975579,/g3t1_3,,success
Status,1030,16718250792,/g3t1_2,,running
Status,1031,16718419367,/g3t1_2,,success
Status,1032,16754422881,/g3t1_1,,running
Status,1033,16754447150,/g3t1_1,,success
Status,1034,16755813206,/g3t1_3,,running
Status,1035,16755978584,/g3t1_3,,success
Status,1036,16768433945,/g3t1_2,,running
Status,1037,16768465521,/g3t1_2,,success
Status,1038,16785397303,/g4t1,,fail
Status,1039,16804504601,/g3t1_1,,running
Status,1040,16804536980,/g3t1_1,,success
Status,1041,16806002019,/g3t1_3,,running
Status,1042,16806141600,/g3t1_3,,success
Status,1043,16818455750,/g3t1_2,,running
Status,1044,16818646016,/g3t1_2,,success
Status,1045,16854612694,/g3t1_1,,running
Status,1046,16854636020,/g3t1_1,,success
Status,1047,16856065005,/g3t1_3,,running
Status,1048,16856174409,/g3t1_3,,success
Status,1049,16868618321,/g3t1_2,,running
Status,1050,16868643369,/g3t1_2,,success
Status,1051,16885544347,/g4t1,,fail
Status,1052,16904727003,/g3t1_1,,running
Status,1053,16904850680,/g3t1_1,,success
Status,1054,16906064578,/g3t1_3,,running
Status,1055,16906204513,/g3t1_3,,success
Status,1056,16918738461,/g3t1_2,,running
Status,1057,16918770301,/g3t1_2,,success
Status,1058,16954831921,/g3t1_1,,running
Status,1059,16954865431,/g3t1_1,,success
Status,1060,16956160129,/g3t1_3,,running
Status,1061,16956420922,/g3t1_3,,success
Status,1062,16968830058,/g3t1_2,,running
Status,1063,16968860727,/g3t1_2,,success
Status,1064,16985633104,/g4t1,,fail
Status,1065,17004856337,/g3t1_1,,running
Status,1066,17004885717,/g3t1_1,,success
Status,1067,17006265145,/g3t1_3,,running
Status,1068,17006356368,/g3t1_3,,success
Status,1069,17018877213,/g3t1_2,,running
Status,1070,17019002890,/g3t1_2,,success
Status,1071,17054980798,/g3t1_1,,running
Status,1072,17055003991,/g3t1_1,,success
Status,1073,17056367214,/g3t1_3,,running
Status,1074,17056483998,/g3t1_3,,success
Status,1075,17069070931,/g3t1_2,,running
Status,1076,17069223601,/g3t1_2,,success
Status,1077,17085761113,/g4t1,,fail
Status,1078,17105099379,/g3t1_1,,running
Status,1079,17105130431,/g3t1_1,,success
Status,1080,17106452489,/g3t1_3,,running
Status,1081,17106594826,/g3t1_3,,success
Status,1082,17119047633,/g3t1_2,,running
Status,1083,17119120722,/g3t1_2,,success
Status,1084,17155158800,/g3t1_1,,running
Status,1085,17155190638,/g3t1_1,,success
Status,1086,17156542631,/g3t1_3,,running
Status,1087,17156712311,/g3t1_3,,success
Status,1088,17169193462,/g3t1_2,,running
Status,1089,17169401753,/g3t1_2,,success
Status,1090,17185855728,/g4t1,,fail
Status,1091,17205289079,/g3t1_1,,running
Status,1092,17205319940,/g3t1_1,,success
Status,1093,17206667504,/g3t1_3,,running
Status,1094,17206797597,/g3t1_3,,success
Status,1095,17219253374,/g3t1_2,,running
Status,1096,17219363149,/g3t1_2,,success
Status,1097,17255290815,/g3t1_1,,running
Status,1098,17255419054,/g3t1_1,,success
Status,1099,17256690690,/g3t1_3,,running
Status,1100,17256803292,/g3t1_3,,success
Status,1101,17269356938,/g3t1_2,,running
Status,1102,17269477687,/g3t1_2,,success
Status,1103,17285887495,/g4t1,,fail
Status,1104,17305350702,/g3t1_1,,running
Status,1105,17305381591,/g3t1_1,,success
Status,1106,17306732103,/g3t1_3,,running
Status,1107,17306832524,/g3t1_3,,success
Status,1108,17319493964,/g3t1_2,,running
Status,1109,17319592136,/g3t1_2,,success
Status,1110,17355559203,/g3t1_1,,running
Status,1111,17355586170,/g3t1_1,,success
Status,1112,17356776146,/g3t1_3,,running
Status,1113,17356877891,/g3t1_3,,success
Status,1114,17369620266,/g3t1_2,,running
Status,1115,17369646498,/g3t1_2,,success
Status,1116,17386048567,/g4t1,,fail
Status,1117,17405562179,/g3t1_1,,running
Status,1118,17405714134,/g3t1_1,,success
Status,1119,17406884069,/g3t1_3,,running
Status,1120,17406961546,/g3t1_3,,success
Status,1121,17419741776,/g3t1_2,,running
Status,1122,17419852185,/g3t1_2,,success
Status,1123,17455774751,/g3t1_1,,running
Status,1124,17455818647,/g3t1_1,,success
Status,1125,17456945620,/g3t1_3,,running
Status,1126,17457094215,/g3t1_3,,success
Status,1127,17469834381,/g3t1_2,,running
Status,1128,17469866928,/g3t1_2,,success
Status,1129,17486134355,/g4t1,,fail
Status,1130,17505832443,/g3t1_1,,running
Status,1131,17505940479,/g3t1_1,,success
Status,1132,17507036953,/g3t1_3,,running
Status,1133,17507163553,/g3t1_3,,success
Status,1134,17519971472,/g3t1_2,,running
Status,1135,17520107595,/g3t1_2,,success
Status,1136,17555925171,/g3t1_1,,running
Status,1137,17555950019,/g3t1_1,,success
Status,1138,17557037079,/g3t1_3,,running
Status,1139,17557305839,/g3t1_3,,success
Status,1140,17569995728,/g3t1_2,,running
Status,1141,17570268636,/g3t1_2,,success
Status,1142,17586245164,/g4t1,,fail
Status,1143,17605975073,/g3t1_1,,running
Status,1144,17606008154,/g3t1_1,,success
Status,1145,17607217680,/g3t1_3,,running
Status,1146,17607242130,/g3t1_3,,success
Status,1147,17620051171,/g3t1_2,,running
Status,1148,17620192793,/g3t1_2,,success
Status,1149,17655972872,/g3t1_1,,running
Status,1150,17656106796,/g3t1_1,,success
Status,1151,17657327904,/g3t1_3,,running
Status,1152,17657457295,/g3t1_3,,success
Status,1153,17670129931,/g3t1_2,,running
Status,1154,17670204213,/g3t1_2,,success
Status,1155,17686345365,/g4t1,,fail
Status,1156,17706160371,/g3t1_1,,running
Status,1157,17706185160,/g3t1_1,,success
Status,1158,17707305233,/g3t1_3,,running
Status,1159,17707599866,/g3t1_3,,success
Status,1160,17720283211,/g3t1_2,,running
Status,1161,17720366712,/g3t1_2,,success
Status,1162,17756285113,/g3t1_1,,running
Status,1163,17756312355,/g3t1_1,,success
Status,1164,17757406960,/g3t1_3,,running
Status,1165,17757543657,/g3t1_3,,success
Status,1166,17770336176,/g3t1_2,,running
Status,1167,17770461942,/g3t1_2,,success
Status,1168,17786447577,/g4t1,,fail
Status,1169,17806304800,/g3t1_1,,running
Status,1170,17806327740,/g3t1_1,,success
Status,1171,17807414461,/g3t1_3,,running
Status,1172,17807544903,/g3t1_3,,success
Status,1173,17820480306,/g3t1_2,,running
Status,1174,17820596144,/g3t1_2,,success
Status,1175,17856385490,/g3t1_1,,running
Status,1176,17856526966,/g3t1_1,,success
Status,1177,17857503507,/g3t1_3,,running
Status,1178,17857595855,/g3t1_3,,success
Status,1179,17870567980,/g3t1_2,,running
Status,1180,17870601759,/g3t1_2,,success
Status,1181,17886514651,/g4t1,,fail
Status,1182,17906452206,/g3t1_1,,running
Status,1183,17906740289,/g3t1_1,,success
Status,1184,17907572913,/g3t1_3,,running
Status,1185,17907767234,/g3t1_3,,success
Status,1186,17920695535,/g3t1_2,,running
Status,1187,17920828449,/g3t1_2,,success
Status,1188,17956643473,/g3t1_1,,running
Status,1189,17956754618,/g3t1_1,,success
Status,1190,17957653143,/g3t1_3,,running
Status,1191,17957788413,/g3t1_3,,success
Status,1192,17970763971,/g3t1_2,,running
Status,1193,17970957507,/g3t1_2,,success
Status,1194,17986662710,/g4t1,,fail
Status,1195,18006700317,/g3t1_1,,running
Status,1196,18006872775,/g3t1_1,,success
Status,1197,18007771042,/g3t1_3,,running
Status,1198,18007890518,/g3t1_3,,success
Status,1199,18020819066,/g3t1_2,,running
Status,1200,18020969802,/g3t1_2,,success
Status,1201,18056788174,/g3t1_1,,running
Status,1202,18056912910,/g3t1_1,,success
Status,1203,18057876819,/g3t1_3,,running
Status,1204,18057991023,/g3t1_3,,success
Status,1205,18071096423,/g3t1_2,,running
Status,1206,18071122376,/g3t1_2,,success
Status,1207,18086786275,/g4t1,,fail
Status,1208,18106940744,/g3t1_1,,running
Status,1209,18106965829,/g3t1_1,,success
Status,1210,18107879481,/g3t1_3,,running
Status,1211,18107975764,/g3t1_3,,success
Status,1212,18121092808,/g3t1_2,,running
Status,1213,18121118113,/g3t1_2,,success
Status,1214,18156828879,/g3t1_1,,running
Status,1215,18156902483,/g3t1_1,,success
Status,1216,18158007978,/g3t1_3,,running
Status,1217,18158029451,/g3t1_3,,success
Status,1218,18171124052,/g3t1_2,,running
Status,1219,18171252078,/g3t1_2,,success
Status,1220,18186848217,/g4t1,,fail
Status,1221,18206996929,/g3t1_1,,running
Status,1222,18207131605,/g3t1_1,,success
Status,1223,18208080505,/g3t1_3,,running
Status,1224,18208186248,/g3t1_3,,success
Status,1225,18221250772,/g3t1_2,,running
Status,1226,18221436441,/g3t1_2,,success
Status,1227,18257094620,/g3t1_1,,running
Status,1228,18257122231,/g3t1_1,,success
Status,1229,18258147295,/g3t1_3,,running
Status,1230,18258279045,/g3t1_3,,success
Status,1231,18271385946,/g3t1_2,,running
Status,1232,18271414461,/g3t1_2,,success
Status,1233,18286927497,/g4t1,,fail
Status,1234,18307042309,/g3t1_1,,running
Status,1235,18307143453,/g3t1_1,,success
Status,1236,18308222615,/g3t1_3,,running
Status,1237,18308313469,/g3t1_3,,success
Status,1238,18321542709,/g3t1_2,,running
Status,1239,18321567261,/g3t1_2,,success
Status,1240,18357121423,/g3t1_1,,running
Status,1241,18357255761,/g3t1_1,,success
Status,1242,18358269592,/g3t1_3,,running
Status,1243,18358372758,/g3t1_3,,success
Status,1244,18371654381,/g3t1_2,,running
Status,1245,18371679266,/g3t1_2,,success
Status,1246,18387137842,/g4t1,,fail
Status,1247,18407269105,/g3t1_1,,running
Status,1248,18407294724,/g3t1_1,,success
Status,1249,18408430025,/g3t1_3,,running
Status,1250,18408592079,/g3t1_3,,success
Status,1251,18421659027,/g3t1_2,,running
Status,1252,18421683605,/g3t1_2,,success
Status,1253,18457374518,/g3t1_1,,running
Status,1254,18457399598,/g3t1_1,,success
Status,1255,18458530508,/g3t1_3,,running
Status,1256,18458647871,/g3t1_3,,success
Status,1257,18471717831,/g3t1_2,,running
Status,1258,18471741054,/g3t1_2,,success
Status,1259,18487086800,/g4t1,,fail
Status,1260,18507366906,/g3t1_1,,running
Status,1261,18507392366,/g3t1_1,,success
Status,1262,18508548076,/g3t1_3,,running
Status,1263,18508777108,/g3t1_3,,success
Status,1264,18521785728,/g3t1_2,,running
Status,1265,18521933470,/g3t1_2,,success
Status,1266,18557461547,/g3t1_1,,running
Status,1267,18557546937,/g3t1_1,,success
Status,1268,18558714662,/g3t1_3,,running
Status,1269,18558809065,/g3t1_3,,success
Status,1270,18572219677,/g3t1_2,,running
Status,1271,18572255704,/g3t1_2,,success
Status,1272,18587176542,/g4t1,,fail
Status,1273,18608579559,/g3t1_1,,running
Status,1274,18608634912,/g3t1_1,,success
Status,1275,18609040311,/g3t1_3,,running
Status,1276,18609395345,/g3t1_3,,success
Status,1277,18622021397,/g3t1_2,,running
Status,1278,18622321940,/g3t1_2,,success
Status,1279,18658196621,/g3t1_1,,running
Status,1280,18658240008,/g3t1_1,,success
Status,1281,18659409419,/g3t1_3,,running
Status,1282,18659471402,/g3t1_3,,success
Status,1283,18672238309,/g3t1_2,,running
Status,1284,18672270005,/g3t1_2,,success
Status,1285,18687235259,/g4t1,,fail
Status,1286,18707751304,/g3t1_1,,running
Status,1287,18707782898,/g3t1_1,,success
Status,1288,18709024371,/g3t1_3,,running
Status,1289,18709222964,/g3t1_3,,success
Status,1290,18722806736,/g3t1_2,,running
Status,1291,18722947001,/g3t1_2,,success
Status,1292,18757856168,/g3t1_1,,running
Status,1293,18757885736,/g3t1_1,,success
Status,1294,18759089446,/g3t1_3,,running
Status,1295,18759129715,/g3t1_3,,success
Status,1296,18772327464,/g3t1_2,,running
Status,1297,18772442355,/g3t1_2,,success
Status,1298,18787250757,/g4t1,,fail
Status,1299,18808565624,/g3t1_1,,running
Status,1300,18808637993,/g3t1_1,,success
Status,1301,18809680992,/g3t1_3,,running
Status,1302,18809754348,/g3t1_3,,success
Status,1303,18822521224,/g3t1_2,,running
Status,1304,18822546414,/g3t1_2,,success
Status,1305,18858011220,/g3t1_1,,running
Status,1306,18858171626,/g3t1_1,,success
Status,1307,18859309070,/g3t1_3,,running
Status,1308,18859478381,/g3t1_3,,success
Status,1309,18872601236,/g3t1_2,,running
Status,1310,18872658202,/g3t1_2,,success
Status,1311,18887386911,/g4t1,,fail
Status,1312,18908158525,/g3t1_1,,running
Status,1313,18908237431,/g3t1_1,,success
Status,1314,18909380278,/g3t1_3,,running
Status,1315,18909508564,/g3t1_3,,success
Status,1316,18922664160,/g3t1_2,,running
Status,1317,18922695875,/g3t1_2,,success
Status,1318,18958186140,/g3t1_1,,running
Status,1319,18958321619,/g3t1_1,,success
Status,1320,18959411999,/g3t1_3,,running
Status,1321,18959558994,/g3t1_3,,success
Status,1322,18972645642,/g3t1_2,,running
Status,1323,18972670784,/g3t1_2,,success
Status,1324,18987427531,/g4t1,,fail
Status,1325,19008369880,/g3t1_1,,running
Status,1326,19008392744,/g3t1_1,,success
Status,1327,19009505360,/g3t1_3,,running
Status,1328,19009620618,/g3t1_3,,success
Status,1329,19022750295,/g3t1_2,,running
Status,1330,19022775720,/g3t1_2,,success
Status,1331,19058521237,/g3t1_1,,running
Status,1332,19058546908,/g3t1_1,,success
Status,1333,19059537391,/g3t1_3,,running
Status,1334,19059636569,/g3t1_3,,success
Status,1335,19072791433,/g3t1_2,,running
Status,1336,19072821882,/g3t1_2,,success
Status,1337,19087606101,/g4t1,,fail
Status,1338,19108508677,/g3t1_1,,running
Status,1339,19108584684,/g3t1_1,,success
Status,1340,19109690777,/g3t1_3,,running
Status,1341,19109818419,/g3t1_3,,success
Status,1342,19122891142,/g3t1_2,,running
Status,1343,19123000764,/g3t1_2,,success
Status,1344,19158639410,/g3t1_1,,running
Status,1345,19158731376,/g3t1_1,,success
Status,1346,19159854851,/g3t1_3,,running
Status,1347,19159878641,/g3t1_3,,success
Status,1348,19173119481,/g3t1_2,,running
Status,1349,19173146623,/g3t1_2,,success
Status,1350,19187708517,/g4t1,,fail
Status,1351,19208859141,/g3t1_1,,running
Status,1352,19208887316,/g3t1_1,,success
Status,1353,19209780806,/g3t1_3,,running
Status,1354,19209959969,/g3t1_3,,success
Status,1355,19223107245,/g3t1_2,,running
Status,1356,19223244013,/g3t1_2,,success
Status,1357,19258863819,/g3t1_1,,running
Status,1358,19258894039,/g3t1_1,,success
Status,1359,19259856998,/g3t1_3,,running
Status,1360,19259986874,/g3t1_3,,success
Status,1361,19273199272,/g3t1_2,,running
Status,1362,19273225172,/g3t1_2,,success
Status,1363,19287811086,/g4t1,,fail
Status,1364,19308838704,/g3t1_1,,running
Status,1365,19308967481,/g3t1_1,,success
Status,1366,19309906156,/g3t1_3,,running
Status,1367,19310099445,/g3t1_3,,success
Status,1368,19323284745,/g3t1_2,,running
Status,1369,19323309761,/g3t1_2,,success
Status,1370,19358960677,/g3t1_1,,running
Status,1371,19359043185,/g3t1_1,,success
Status,1372,19359983796,/g3t1_3,,running
Status,1373,19360173491,/g3t1_3,,success
Status,1374,19373371977,/g3t1_2,,running
Status,1375,19373402138,/g3t1_2,,success
Status,1376,19387857550,/g4t1,,fail
Status,1377,19409052097,/g3t1_1,,running
Status,1378,19409384659,/g3t1_1,,success
Status,1379,19410021854,/g3t1_3,,running
Status,1380,19410151517,/g3t1_3,,success
Status,1381,19423496967,/g3t1_2,,running
Status,1382,19423636821,/g3t1_2,,success
Status,1383,19459114278,/g3t1_1,,running
Status,1384,19459283783,/g3t1_1,,success
Status,1385,19460063472,/g3t1_3,,running
Status,1386,19460185820,/g3t1_3,,success
Status,1387,19473609158,/g3t1_2,,running
Status,1388,19473634422,/g3t1_2,,success
Status,1389,19487954364,/g4t1,,fail
Status,1390,19509191283,/g3t1_1,,running
Status,1391,19509325630,/g3t1_1,,success
Status,1392,19510138168,/g3t1_3,,running
Status,1393,19510332526,/g3t1_3,,success
Status,1394,19523654810,/g3t1_2,,running
Status,1395,19523680112,/g3t1_2,,success
Status,1396,19559299507,/g3t1_1,,running
Status,1397,19559527975,/g3t1_1,,success
Status,1398,19560202574,/g3t1_3,,running
Status,1399,19560453638,/g3t1_3,,success
Status,1400,19573703282,/g3t1_2,,running
Status,1401,19573788899,/g3t1_2,,success
Status,1402,19588019262,/g4t1,,fail
Status,1403,19609449998,/g3t1_1,,running
Status,1404,19609484828,/g3t1_1,,success
Status,1405,19610346804,/g3t1_3,,running
Status,1406,19610410719,/g3t1_3,,success
Status,1407,19624099312,/g3t1_2,,running
Status,1408,19624125573,/g3t1_2,,success
Status,1409,19659531910,/g3t1_1,,running
Status,1410,19659649544,/g3t1_1,,success
Status,1411,19660376235,/g3t1_3,,running
Status,1412,19660545752,/g3t1_3,,success
Status,1413,19673940133,/g3t1_2,,running
Status,1414,19674090719,/g3t1_2,,success
Status,1415,19688145933,/g4t1,,fail
Status,1416,19709580158,/g3t1_1,,running
Status,1417,19709738938,/g3t1_1,,success
Status,1418,19710381652,/g3t1_3,,running
Status,1419,19710654699,/g3t1_3,,success
Status,1420,19724114306,/g3t1_2,,running
Status,1421,19724145176,/g3t1_2,,success
Status,1422,19759774517,/g3t1_1,,running
Status,1423,19759896856,/g3t1_1,,success
Status,1424,19760446164,/g3t1_3,,running
Status,1425,19760715726,/g3t1_3,,success
Status,1426,19774215823,/g3t1_2,,running
Status,1427,19774240787,/g3t1_2,,success
Status,1428,19788237316,/g4t1,,fail
Status,1429,19809892271,/g3t1_1,,running
Status,1430,19809916595,/g3t1_1,,success
Status,1431,19810692847,/g3t1_3,,running
Status,1432,19810714278,/g3t1_3,,success
Status,1433,19824335162,/g3t1_2,,running
Status,1434,19824360885,/g3t1_2,,success
Status,1435,19859938654,/g3t1_1,,running
Status,1436,19860050928,/g3t1_1,,success
Status,1437,19860652269,/g3t1_3,,running
Status,1438,19860673802,/g3t1_3,,success
Status,1439,19874394478,/g3t1_2,,running
Status,1440,19874418035,/g3t1_2,,success
Status,1441,19888385268,/g4t1,,fail
Status,1442,19909936678,/g3t1_1,,running
Status,1443,19910109284,/g3t1_1,,success
Status,1444,19911002613,/g3t1_3,,running
Status,1445,19911173610,/g3t1_3,,success
Status,1446,19924489928,/g3t1_2,,running
Status,1447,19924514529,/g3t1_2,,success
Status,1448,19960100008,/g3t1_1,,running
Status,1449,19960305538,/g3t1_1,,success
Status,1450,19961111573,/g3t1_3,,running
Status,1451,19961270839,/g3t1_3,,success
Status,1452,19974553719,/g3t1_2,,running
Status,1453,19974583006,/g3t1_2,,success
Status,1454,19988457496,/g4t1,,fail
Status,1455,20010217961,/g3t1_1,,running
Status,1456,20010241974,/g3t1_1,,success
Status,1457,20010908298,/g3t1_3,,running
Status,1458,20010939811,/g3t1_3,,success
Status,1459,20024678343,/g3t1_2,,running
Status,1460,20024704499,/g3t1_2,,success
Status,1461,20060249651,/g3t1_1,,running
Status,1462,20060349360,/g3t1_1,,success
Status,1463,20060954003,/g3t1_3,,running
Status,1464,20061094926,/g3t1_3,,success
Status,1465,20074757169,/g3t1_2,,running
Status,1466,20074785574,/g3t1_2,,success
Status,1467,20088531690,/g4t1,,fail
Status,1468,20110419601,/g3t1_1,,running
Status,1469,20110444995,/g3t1_1,,success
Status,1470,20111003273,/g3t1_3,,running
Status,1471,20111141880,/g3t1_3,,success
Status,1472,20124881647,/g3t1_2,,running
Status,1473,20125081914,/g3t1_2,,success
Status,1474,20160440929,/g3t1_1,,running
Status,1475,20160554305,/g3t1_1,,success
Status,1476,20161064383,/g3t1_3,,running
Status,1477,20161199640,/g3t1_3,,success
Status,1478,20174992270,/g3t1_2,,running
Status,1479,20175019690,/g3t1_2,,success
Status,1480,20188693939,/g4t1,,fail
Status,1481,20211299905,/g3t1_1,,running
Status,1482,20211487954,/g3t1_3,,running
Status,1483,20211524190,/g3t1_1,,success
Status,1484,20211895138,/g3t1_3,,success
Status,1485,20225044990,/g3t1_2,,running
Status,1486,20225075419,/g3t1_2,,success
Status,1487,20260713308,/g3t1_1,,running
Status,1488,20260761775,/g3t1_1,,success
Status,1489,20261306973,/g3t1_3,,running
Status,1490,20261326408,/g3t1_3,,success
Status,1491,20275249833,/g3t1_2,,running
Status,1492,20275276421,/g3t1_2,,success
Status,1493,20288779072,/g4t1,,fail
Status,1494,20311349326,/g3t1_1,,running
Status,1495,20311404357,/g3t1_1,,success
Status,1496,20311650568,/g3t1_3,,running
Status,1497,20311854781,/g3t1_3,,success
Status,1498,20325207965,/g3t1_2,,running
Status,1499,20325232515,/g3t1_2,,success
Status,1500,20360931456,/g3t1_1,,running
Status,1501,20360955057,/g3t1_1,,success
Status,1502,20361513284,/g3t1_3,,running
Status,1503,20361846886,/g3t1_3,,success
Status,1504,20375348550,/g3t1_2,,running
Status,1505,20375374469,/g3t1_2,,success
Status,1506,20388811262,/g4t1,,fail
Status,1507,20410953903,/g3t1_1,,running
Status,1508,20410979243,/g3t1_1,,success
Status,1509,20411501924,/g3t1_3,,running
Status,1510,20411609148,/g3t1_3,,success
Status,1511,20425391894,/g3t1_2,,running
Status,1512,20425636313,/g3t1_2,,success
