
Status,2,3422452944,/g4t1,,init
Status,3,8634576531,/g3t1_1,,init
Status,5,8641221671,/g3t1_1,,init
Status,6,8641238086,/g3t1_1,,running
Status,7,8641652563,/g3t1_1,,success
Status,8,8691680524,/g3t1_1,,running
Status,9,8691715504,/g3t1_1,,success
Status,11,8736636459,/g3t1_2,,init
Status,12,8741362331,/g3t1_1,,running
Status,13,8741444430,/g3t1_1,,success
Status,14,8743482087,/g3t1_2,,init
Status,15,8743493896,/g3t1_2,,running
Status,16,8743925195,/g3t1_2,,success
Status,17,8791576844,/g3t1_1,,running
Status,18,8791592023,/g3t1_1,,success
Status,19,8793607951,/g3t1_2,,running
Status,20,8793787264,/g3t1_2,,success
Status,22,8837094413,/g3t1_3,,init
Status,23,8841596408,/g3t1_1,,running
Status,24,8841610223,/g3t1_1,,success
Status,25,8843689537,/g3t1_2,,running
Status,26,8843800995,/g3t1_2,,success
Status,27,8844302333,/g3t1_3,,init
Status,28,8844316699,/g3t1_3,,running
Status,29,8844717525,/g3t1_3,,success
Status,30,8892960687,/g3t1_1,,running
Status,31,8893687672,/g3t1_1,,success
Status,32,8895277743,/g3t1_2,,running
Status,33,8895828259,/g3t1_2,,success
Status,34,8895880813,/g3t1_3,,running
Status,35,8896021202,/g3t1_3,,success
Status,36,8942356598,/g3t1_1,,running
Status,37,8942835240,/g3t1_1,,success
Status,38,8944382149,/g3t1_2,,running
Status,39,8945011699,/g3t1_2,,success
Status,40,8945095469,/g3t1_3,,running
Status,41,8945770271,/g3t1_3,,success
Status,42,8993015684,/g3t1_1,,running
Status,43,8993568068,/g3t1_1,,success
Status,44,8994431644,/g3t1_2,,running
Status,45,8994967890,/g3t1_2,,success
Status,46,8995186905,/g3t1_3,,running
Status,47,8995496553,/g3t1_3,,success
Status,48,9041875390,/g4t1,,success
Status,49,9042707952,/g3t1_1,,running
Status,50,9043542897,/g3t1_1,,success
Status,51,9044632945,/g3t1_2,,running
Status,52,9044983032,/g3t1_2,,success
Status,53,9045295668,/g3t1_3,,running
Status,54,9046068209,/g3t1_3,,success
Status,55,9092869567,/g3t1_1,,running
Status,56,9093333827,/g3t1_1,,success
Status,57,9094663584,/g3t1_2,,running
Status,58,9094955188,/g3t1_2,,success
Status,59,9095713534,/g3t1_3,,running
Status,60,9095998996,/g3t1_3,,success
Status,61,9141629914,/g4t1,,success
Status,62,9142985269,/g3t1_1,,running
Status,63,9143432551,/g3t1_1,,success
Status,64,9144803297,/g3t1_2,,running
Status,65,9145318185,/g3t1_2,,success
Status,66,9146078186,/g3t1_3,,running
Status,67,9146333559,/g3t1_3,,success
Status,68,9193471679,/g3t1_1,,running
Status,69,9193935789,/g3t1_1,,success
Status,70,9195125860,/g3t1_2,,running
Status,71,9195623486,/g3t1_2,,success
Status,72,9196289123,/g3t1_3,,running
Status,73,9196352697,/g3t1_3,,success
Status,74,9242361040,/g4t1,,success
Status,75,9244012576,/g3t1_1,,running
Status,76,9244274520,/g3t1_1,,success
Status,77,9245853066,/g3t1_2,,running
Status,78,9245953048,/g3t1_2,,success
Status,79,9246035256,/g3t1_3,,running
Status,80,9247238263,/g3t1_3,,success
Status,81,9294247929,/g3t1_1,,running
Status,82,9294989699,/g3t1_1,,success
Status,83,9295855935,/g3t1_2,,running
Status,84,9296218419,/g3t1_2,,success
Status,85,9296276748,/g3t1_3,,running
Status,86,9297508277,/g3t1_3,,success
Status,87,9342254931,/g4t1,,fail
Status,88,9343495424,/g3t1_1,,running
Status,89,9343874165,/g3t1_1,,success
Status,90,9345384397,/g3t1_2,,running
Status,91,9345875776,/g3t1_2,,success
Status,92,9346503426,/g3t1_3,,running
Status,93,9346948543,/g3t1_3,,success
Status,94,9394631765,/g3t1_1,,running
Status,95,9394724850,/g3t1_1,,success
Status,96,9396141207,/g3t1_2,,running
Status,97,9396589164,/g3t1_3,,running
Status,98,9396712139,/g3t1_2,,success
Status,99,9397825297,/g3t1_3,,success
Status,100,9442107953,/g4t1,,fail
Status,101,9443731879,/g3t1_1,,running
Status,102,9444257095,/g3t1_1,,success
Status,103,9445596751,/g3t1_2,,running
Status,104,9446205261,/g3t1_2,,success
Status,105,9446910053,/g3t1_3,,running
Status,106,9447798667,/g3t1_3,,success
Status,107,9494044414,/g3t1_1,,running
Status,108,9494697721,/g3t1_1,,success
Status,109,9495723146,/g3t1_2,,running
Status,110,9496686062,/g3t1_2,,success
Status,111,9496758049,/g3t1_3,,running
Status,112,9497115642,/g3t1_3,,success
Status,113,9542539128,/g4t1,,fail
Status,114,9543987416,/g3t1_1,,running
Status,115,9544292044,/g3t1_1,,success
Status,116,9545783343,/g3t1_2,,running
Status,117,9546206237,/g3t1_2,,success
Status,118,9546594113,/g3t1_3,,running
Status,119,9547122741,/g3t1_3,,success
Status,120,9594205484,/g3t1_1,,running
Status,121,9594662710,/g3t1_1,,success
Status,122,9595837933,/g3t1_2,,running
Status,123,9596870664,/g3t1_3,,running
Status,124,9596955672,/g3t1_2,,success
Status,125,9597436247,/g3t1_3,,success
Status,126,9642486602,/g4t1,,fail
Status,127,9644130555,/g3t1_1,,running
Status,128,9644753494,/g3t1_1,,success
Status,129,9646004761,/g3t1_2,,running
Status,130,9647285797,/g3t1_2,,success
Status,131,9647417147,/g3t1_3,,running
Status,132,9647459280,/g3t1_3,,success
Status,133,9694587818,/g3t1_1,,running
Status,134,9695055572,/g3t1_1,,success
Status,135,9696234882,/g3t1_2,,running
Status,136,9696983423,/g3t1_2,,success
Status,137,9697144139,/g3t1_3,,running
Status,138,9697700594,/g3t1_3,,success
Status,139,9742447332,/g4t1,,fail
Status,140,9744277337,/g3t1_1,,running
Status,141,9744722358,/g3t1_1,,success
Status,142,9746169382,/g3t1_2,,running
Status,143,9746822661,/g3t1_2,,success
Status,144,9746913401,/g3t1_3,,running
Status,145,9747303973,/g3t1_3,,success
Status,146,9794563421,/g3t1_1,,running
Status,147,9794997824,/g3t1_1,,success
Status,148,9796152116,/g3t1_2,,running
Status,149,9796581387,/g3t1_2,,success
Status,150,9796940182,/g3t1_3,,running
Status,151,9797387091,/g3t1_3,,success
Status,152,9842567156,/g4t1,,fail
Status,153,9844638402,/g3t1_1,,running
Status,154,9845317135,/g3t1_1,,success
Status,155,9846371839,/g3t1_2,,running
Status,156,9847100978,/g3t1_2,,success
Status,157,9847188469,/g3t1_3,,running
Status,158,9847645074,/g3t1_3,,success
Status,159,9895097568,/g3t1_1,,running
Status,160,9895612443,/g3t1_1,,success
Status,161,9896604817,/g3t1_2,,running
Status,162,9897190260,/g3t1_2,,success
Status,163,9897352828,/g3t1_3,,running
Status,164,9897833585,/g3t1_3,,success
Status,165,9942652759,/g4t1,,fail
Status,166,9944880926,/g3t1_1,,running
Status,167,9945309564,/g3t1_1,,success
Status,168,9946594437,/g3t1_2,,running
Status,169,9947373764,/g3t1_2,,success
Status,170,9947426664,/g3t1_3,,running
Status,171,9947834508,/g3t1_3,,success
Status,172,9995233598,/g3t1_1,,running
Status,173,9995572400,/g3t1_1,,success
Status,174,9996842925,/g3t1_2,,running
Status,175,9997664097,/g3t1_2,,success
Status,176,9997735388,/g3t1_3,,running
Status,177,9998079990,/g3t1_3,,success
Status,178,10042932283,/g4t1,,fail
Status,179,10045250802,/g3t1_1,,running
Status,180,10045604151,/g3t1_1,,success
Status,181,10046871110,/g3t1_2,,running
Status,182,10047835591,/g3t1_2,,success
Status,183,10047978273,/g3t1_3,,running
Status,184,10048150896,/g3t1_3,,success
Status,185,10095344104,/g3t1_1,,running
Status,186,10095650646,/g3t1_1,,success
Status,187,10096856070,/g3t1_2,,running
Status,188,10097588713,/g3t1_2,,success
Status,189,10097658941,/g3t1_3,,running
Status,190,10098159185,/g3t1_3,,success
Status,191,10142958647,/g4t1,,fail
Status,192,10145588229,/g3t1_1,,running
Status,193,10146038279,/g3t1_1,,success
Status,194,10147090259,/g3t1_2,,running
Status,195,10147451293,/g3t1_2,,success
Status,196,10147648156,/g3t1_3,,running
Status,197,10148350995,/g3t1_3,,success
Status,198,10195640474,/g3t1_1,,running
Status,199,10196320646,/g3t1_1,,success
Status,200,10197326949,/g3t1_2,,running
Status,201,10198174381,/g3t1_2,,success
Status,202,10198291714,/g3t1_3,,running
Status,203,10198333687,/g3t1_3,,success
Status,204,10242905296,/g4t1,,fail
Status,205,10245780671,/g3t1_1,,running
Status,206,10246516909,/g3t1_1,,success
Status,207,10247419224,/g3t1_2,,running
Status,208,10248103111,/g3t1_2,,success
Status,209,10248173772,/g3t1_3,,running
Status,210,10248672056,/g3t1_3,,success
Status,211,10296158203,/g3t1_1,,running
Status,212,10296547752,/g3t1_1,,success
Status,213,10297382787,/g3t1_2,,running
Status,214,10298252929,/g3t1_2,,success
Status,215,10298437221,/g3t1_3,,running
Status,216,10298757114,/g3t1_3,,success
Status,217,10343021171,/g4t1,,fail
Status,218,10346062131,/g3t1_1,,running
Status,219,10346485602,/g3t1_1,,success
Status,220,10347742971,/g3t1_2,,running
Status,221,10348459149,/g3t1_3,,running
Status,222,10348820978,/g3t1_2,,success
Status,223,10348934887,/g3t1_3,,success
Status,224,10396346121,/g3t1_1,,running
Status,225,10396876412,/g3t1_1,,success
Status,226,10397602719,/g3t1_2,,running
Status,227,10398344422,/g3t1_2,,success
Status,228,10398436959,/g3t1_3,,running
Status,229,10398779448,/g3t1_3,,success
Status,230,10443378109,/g4t1,,fail
Status,231,10446477987,/g3t1_1,,running
Status,232,10446862378,/g3t1_1,,success
Status,233,10447582128,/g3t1_2,,running
Status,234,10448351605,/g3t1_2,,success
Status,235,10448447955,/g3t1_3,,running
Status,236,10449007879,/g3t1_3,,success
Status,237,10496660147,/g3t1_1,,running
Status,238,10497109762,/g3t1_1,,success
Status,239,10497779036,/g3t1_2,,running
Status,240,10498256450,/g3t1_2,,success
Status,241,10498315830,/g3t1_3,,running
Status,242,10499084579,/g3t1_3,,success
Status,243,10543715411,/g4t1,,fail
Status,244,10546573044,/g3t1_1,,running
Status,245,10547123450,/g3t1_1,,success
Status,246,10547777379,/g3t1_2,,running
Status,247,10548211660,/g3t1_2,,success
Status,248,10548542593,/g3t1_3,,running
Status,249,10548931037,/g3t1_3,,success
Status,250,10596944767,/g3t1_1,,running
Status,251,10597254424,/g3t1_1,,success
Status,252,10597956384,/g3t1_2,,running
Status,253,10598680765,/g3t1_2,,success
Status,254,10599155825,/g3t1_3,,running
Status,255,10599432417,/g3t1_3,,success
Status,256,10643511914,/g4t1,,fail
Status,257,10646851722,/g3t1_1,,running
Status,258,10647312642,/g3t1_1,,success
Status,259,10647871662,/g3t1_2,,running
Status,260,10648894255,/g3t1_2,,success
Status,261,10648965701,/g3t1_3,,running
Status,262,10649361995,/g3t1_3,,success
Status,263,10697603871,/g3t1_1,,running
Status,264,10697678890,/g3t1_1,,success
Status,265,10698172695,/g3t1_2,,running
Status,266,10698893529,/g3t1_2,,success
Status,267,10698955377,/g3t1_3,,running
Status,268,10699635238,/g3t1_3,,success
Status,269,10743639576,/g4t1,,fail
Status,270,10747108891,/g3t1_1,,running
Status,271,10747719292,/g3t1_1,,success
Status,272,10748119496,/g3t1_2,,running
Status,273,10749049701,/g3t1_2,,success
Status,274,10749181292,/g3t1_3,,running
Status,275,10749567536,/g3t1_3,,success
Status,276,10797529947,/g3t1_1,,running
Status,277,10798511730,/g3t1_1,,success
Status,278,10798698498,/g3t1_2,,running
Status,279,10799196775,/g3t1_2,,success
Status,280,10799291660,/g3t1_3,,running
Status,281,10799815051,/g3t1_3,,success
Status,282,10843658678,/g4t1,,fail
Status,283,10847508170,/g3t1_1,,running
Status,284,10847710189,/g3t1_1,,success
Status,285,10848484718,/g3t1_2,,running
Status,286,10848840255,/g3t1_2,,success
Status,287,10849166865,/g3t1_3,,running
Status,288,10849700917,/g3t1_3,,success
Status,289,10897359236,/g3t1_1,,running
Status,290,10897539771,/g3t1_1,,success
Status,291,10898257713,/g3t1_2,,running
Status,292,10898474125,/g3t1_2,,success
Status,293,10899096445,/g3t1_3,,running
Status,294,10899308574,/g3t1_3,,success
Status,295,10943711608,/g4t1,,fail
Status,296,10947682693,/g3t1_1,,running
Status,297,10948134020,/g3t1_1,,success
Status,298,10948562367,/g3t1_2,,running
Status,299,10949238998,/g3t1_2,,success
Status,300,10949356860,/g3t1_3,,running
Status,301,10949692835,/g3t1_3,,success
Status,302,10998092691,/g3t1_1,,running
Status,303,10998969501,/g3t1_2,,running
Status,304,10999046651,/g3t1_1,,success
Status,305,10999328473,/g3t1_2,,success
Status,306,11000051750,/g3t1_3,,running
Status,307,11000432251,/g3t1_3,,success
Status,308,11044151322,/g4t1,,fail
Status,309,11048069234,/g3t1_1,,running
Status,310,11048642986,/g3t1_1,,success
Status,311,11048995567,/g3t1_2,,running
Status,312,11049529890,/g3t1_2,,success
Status,313,11049599161,/g3t1_3,,running
Status,314,11050166426,/g3t1_3,,success
Status,315,11098288350,/g3t1_1,,running
Status,316,11099001374,/g3t1_1,,success
Status,317,11099082123,/g3t1_2,,running
Status,318,11099612549,/g3t1_2,,success
Status,319,11099688951,/g3t1_3,,running
Status,320,11100178223,/g3t1_3,,success
Status,321,11144166314,/g4t1,,fail
Status,322,11148453976,/g3t1_1,,running
Status,323,11148904746,/g3t1_1,,success
Status,324,11148985848,/g3t1_2,,running
Status,325,11149969979,/g3t1_2,,success
Status,326,11150051321,/g3t1_3,,running
Status,327,11150404639,/g3t1_3,,success
Status,328,11198977954,/g3t1_1,,running
Status,329,11199481265,/g3t1_2,,running
Status,330,11200319553,/g3t1_1,,success
Status,331,11200374115,/g3t1_2,,success
Status,332,11200400204,/g3t1_3,,running
Status,333,11200720584,/g3t1_3,,success
Status,334,11244572964,/g4t1,,fail
Status,335,11248779778,/g3t1_1,,running
Status,336,11249766888,/g3t1_1,,success
Status,337,11249837704,/g3t1_2,,running
Status,338,11250082173,/g3t1_2,,success
Status,339,11251673619,/g3t1_3,,running
Status,340,11251751123,/g3t1_3,,success
Status,341,11299425611,/g3t1_1,,running
Status,342,11299692881,/g3t1_1,,success
Status,343,11299747623,/g3t1_2,,running
Status,344,11300529950,/g3t1_2,,success
Status,345,11300593610,/g3t1_3,,running
Status,346,11301592513,/g3t1_3,,success
Status,347,11344420922,/g4t1,,fail
Status,348,11349290374,/g3t1_1,,running
Status,349,11349588138,/g3t1_2,,running
Status,350,11350270408,/g3t1_1,,success
Status,351,11350355163,/g3t1_2,,success
Status,352,11350865757,/g3t1_3,,running
Status,353,11350936700,/g3t1_3,,success
Status,354,11399558487,/g3t1_1,,running
Status,355,11399655487,/g3t1_2,,running
Status,356,11399800606,/g3t1_1,,success
Status,357,11400291052,/g3t1_2,,success
Status,358,11401131324,/g3t1_3,,running
Status,359,11401210058,/g3t1_3,,success
Status,360,11445046819,/g4t1,,fail
Status,361,11449343968,/g3t1_1,,running
Status,362,11449496201,/g3t1_1,,success
Status,363,11450487388,/g3t1_2,,running
Status,364,11450747274,/g3t1_2,,success
Status,365,11450810083,/g3t1_3,,running
Status,366,11451011126,/g3t1_3,,success
Status,367,11500535423,/g3t1_1,,running
Status,368,11500662306,/g3t1_2,,running
Status,369,11500823500,/g3t1_1,,success
Status,370,11500876166,/g3t1_2,,success
Status,371,11501221762,/g3t1_3,,running
Status,372,11501955992,/g3t1_3,,success
Status,373,11544940365,/g4t1,,fail
Status,374,11550288539,/g3t1_1,,running
Status,375,11550372580,/g3t1_1,,success
Status,376,11550664279,/g3t1_2,,running
Status,377,11550718890,/g3t1_2,,success
Status,378,11550855463,/g3t1_3,,running
Status,379,11552392318,/g3t1_3,,success
Status,380,11600146953,/g3t1_1,,running
Status,381,11600438223,/g3t1_2,,running
Status,382,11600599734,/g3t1_1,,success
Status,383,11600930118,/g3t1_2,,success
Status,384,11601076761,/g3t1_3,,running
Status,385,11601801470,/g3t1_3,,success
Status,386,11644992216,/g4t1,,fail
Status,387,11650090146,/g3t1_1,,running
Status,388,11650227318,/g3t1_2,,running
Status,389,11650383693,/g3t1_1,,success
Status,390,11650729422,/g3t1_2,,success
Status,391,11651118406,/g3t1_3,,running
Status,392,11652160166,/g3t1_3,,success
Status,393,11700407808,/g3t1_1,,running
Status,394,11700535612,/g3t1_2,,running
Status,395,11701081020,/g3t1_1,,success
Status,396,11701275977,/g3t1_2,,success
Status,397,11701624340,/g3t1_3,,running
Status,398,11702087042,/g3t1_3,,success
Status,399,11745236809,/g4t1,,fail
Status,400,11750212426,/g3t1_1,,running
Status,401,11750705527,/g3t1_2,,running
Status,402,11750762455,/g3t1_1,,success
Status,403,11751552764,/g3t1_2,,success
Status,404,11751615573,/g3t1_3,,running
Status,405,11752214939,/g3t1_3,,success
Status,406,11800785214,/g3t1_1,,running
Status,407,11800871689,/g3t1_2,,running
Status,408,11801032657,/g3t1_1,,success
Status,409,11802007447,/g3t1_2,,success
Status,410,11802089426,/g3t1_3,,running
Status,411,11802154001,/g3t1_3,,success
Status,412,11845239444,/g4t1,,fail
Status,413,11850601714,/g3t1_1,,running
Status,414,11850708783,/g3t1_2,,running
Status,415,11851113667,/g3t1_1,,success
Status,416,11851212572,/g3t1_2,,success
Status,417,11851740884,/g3t1_3,,running
Status,418,11852522742,/g3t1_3,,success
Status,419,11901075071,/g3t1_1,,running
Status,420,11901423194,/g3t1_2,,running
Status,421,11901530756,/g3t1_1,,success
Status,422,11902057600,/g3t1_3,,running
Status,423,11902123667,/g3t1_2,,success
Status,424,11902220681,/g3t1_3,,success
Status,425,11945379593,/g4t1,,fail
Status,426,11950880213,/g3t1_1,,running
Status,427,11951998188,/g3t1_2,,running
Status,428,11952166424,/g3t1_1,,success
Status,429,11952231840,/g3t1_3,,running
Status,430,11952609949,/g3t1_2,,success
Status,431,11952721461,/g3t1_3,,success
Status,432,12001637889,/g3t1_1,,running
Status,433,12001719480,/g3t1_2,,running
Status,434,12002147000,/g3t1_1,,success
Status,435,12002279434,/g3t1_2,,success
Status,436,12002312634,/g3t1_3,,running
Status,437,12002733172,/g3t1_3,,success
Status,438,12045531582,/g4t1,,fail
Status,439,12051638697,/g3t1_1,,running
Status,440,12051737941,/g3t1_2,,running
Status,441,12051780373,/g3t1_1,,success
Status,442,12051813143,/g3t1_2,,success
Status,443,12052035980,/g3t1_3,,running
Status,444,12052819552,/g3t1_3,,success
Status,445,12101720020,/g3t1_1,,running
Status,446,12101809386,/g3t1_2,,running
Status,447,12102611283,/g3t1_2,,success
Status,448,12103099808,/g3t1_1,,success
Status,449,12103189791,/g3t1_3,,running
Status,450,12103853102,/g3t1_3,,success
Status,451,12145602511,/g4t1,,fail
Status,452,12151599764,/g3t1_1,,running
Status,453,12151722302,/g3t1_2,,running
Status,454,12151834812,/g3t1_1,,success
Status,455,12152403998,/g3t1_2,,success
Status,456,12152483782,/g3t1_3,,running
Status,457,12152858728,/g3t1_3,,success
Status,458,12201566888,/g3t1_1,,running
Status,459,12202213696,/g3t1_2,,running
Status,460,12202481014,/g3t1_2,,success
Status,461,12202667412,/g3t1_1,,success
Status,462,12202703410,/g3t1_3,,running
Status,463,12203304287,/g3t1_3,,success
Status,464,12245751248,/g4t1,,fail
Status,465,12251596298,/g3t1_1,,running
Status,466,12251678124,/g3t1_2,,running
Status,467,12251795581,/g3t1_1,,success
Status,468,12252379884,/g3t1_2,,success
Status,469,12252539675,/g3t1_3,,running
Status,470,12253243962,/g3t1_3,,success
Status,471,12301964065,/g3t1_1,,running
Status,472,12302039994,/g3t1_1,,success
Status,473,12302294201,/g3t1_2,,running
Status,474,12302985395,/g3t1_3,,running
Status,475,12303109877,/g3t1_2,,success
Status,476,12303479874,/g3t1_3,,success
Status,477,12345880083,/g4t1,,fail
Status,478,12352506155,/g3t1_1,,running
Status,479,12352773691,/g3t1_2,,running
Status,480,12353479826,/g3t1_3,,running
Status,481,12353549973,/g3t1_1,,success
Status,482,12353625037,/g3t1_3,,success
Status,483,12353649213,/g3t1_2,,success
Status,484,12402780173,/g3t1_1,,running
Status,485,12402923559,/g3t1_2,,running
Status,486,12403077028,/g3t1_1,,success
Status,487,12403684475,/g3t1_2,,success
Status,488,12403771185,/g3t1_3,,running
Status,489,12403873368,/g3t1_3,,success
Status,490,12445931390,/g4t1,,fail
Status,491,12452623785,/g3t1_1,,running
Status,492,12452688429,/g3t1_2,,running
Status,493,12452729478,/g3t1_1,,success
Status,494,12453609422,/g3t1_3,,running
Status,495,12453654433,/g3t1_3,,success
Status,496,12453764463,/g3t1_2,,success
Status,497,12503087299,/g3t1_1,,running
Status,498,12503183680,/g3t1_1,,success
Status,499,12503226224,/g3t1_2,,running
Status,500,12503517968,/g3t1_2,,success
Status,501,12503571705,/g3t1_3,,running
Status,502,12503775553,/g3t1_3,,success
Status,503,12545991137,/g4t1,,fail
Status,504,12554220032,/g3t1_1,,running
Status,505,12554300859,/g3t1_1,,success
Status,506,12554335442,/g3t1_3,,running
Status,507,12554365327,/g3t1_2,,running
Status,508,12554397798,/g3t1_2,,success
Status,509,12554507020,/g3t1_3,,success
Status,510,12602138504,/g3t1_1,,running
Status,511,12602393214,/g3t1_2,,running
Status,512,12602419702,/g3t1_1,,success
Status,513,12602619108,/g3t1_2,,success
Status,514,12602806982,/g3t1_3,,running
Status,515,12603078678,/g3t1_3,,success
Status,516,12646067535,/g4t1,,fail
Status,517,12652922851,/g3t1_1,,running
Status,518,12653424620,/g3t1_2,,running
Status,519,12653525297,/g3t1_1,,success
Status,520,12653566581,/g3t1_2,,success
Status,521,12653921169,/g3t1_3,,running
Status,522,12653989905,/g3t1_3,,success
Status,523,12703222113,/g3t1_1,,running
Status,524,12703505139,/g3t1_2,,running
Status,525,12703632112,/g3t1_1,,success
Status,526,12703685352,/g3t1_3,,running
Status,527,12703717689,/g3t1_2,,success
Status,528,12704330168,/g3t1_3,,success
Status,529,12746335338,/g4t1,,fail
Status,530,12753226561,/g3t1_1,,running
Status,531,12753326118,/g3t1_2,,running
Status,532,12753876379,/g3t1_1,,success
Status,533,12753940550,/g3t1_2,,success
Status,534,12753976240,/g3t1_3,,running
Status,535,12754061601,/g3t1_3,,success
Status,536,12804218617,/g3t1_1,,running
Status,537,12804275596,/g3t1_2,,running
Status,538,12804456846,/g3t1_3,,running
Status,539,12804529948,/g3t1_2,,success
Status,540,12804555031,/g3t1_1,,success
Status,541,12804644750,/g3t1_3,,success
Status,542,12846598158,/g4t1,,fail
Status,543,12853717652,/g3t1_1,,running
Status,544,12853799429,/g3t1_1,,success
Status,545,12853927935,/g3t1_2,,running
Status,546,12854030293,/g3t1_2,,success
Status,547,12854076903,/g3t1_3,,running
Status,548,12854544680,/g3t1_3,,success
Status,549,12903513676,/g3t1_1,,running
Status,550,12903584229,/g3t1_2,,running
Status,551,12903604327,/g3t1_1,,success
Status,552,12903958788,/g3t1_3,,running
Status,553,12904230391,/g3t1_2,,success
Status,554,12904493973,/g3t1_3,,success
Status,555,12946534960,/g4t1,,fail
Status,556,12953730499,/g3t1_1,,running
Status,557,12953821088,/g3t1_2,,running
Status,558,12954211263,/g3t1_1,,success
Status,559,12954329441,/g3t1_3,,running
Status,560,12954859705,/g3t1_2,,success
Status,561,12954926997,/g3t1_3,,success
Status,562,13004062663,/g3t1_1,,running
Status,563,13004251774,/g3t1_2,,running
Status,564,13004780925,/g3t1_3,,running
Status,565,13004812352,/g3t1_3,,success
Status,566,13004925768,/g3t1_2,,success
Status,567,13005171295,/g3t1_1,,success
Status,568,13046811772,/g4t1,,fail
Status,569,13054291128,/g3t1_1,,running
Status,570,13054814566,/g3t1_2,,running
Status,571,13054871851,/g3t1_1,,success
Status,572,13054902815,/g3t1_3,,running
Status,573,13055068142,/g3t1_2,,success
Status,574,13055096183,/g3t1_3,,success
Status,575,13104134979,/g3t1_1,,running
Status,576,13104224207,/g3t1_2,,running
Status,577,13105190675,/g3t1_1,,success
Status,578,13105281331,/g3t1_3,,running
Status,579,13105344037,/g3t1_2,,success
Status,580,13105435538,/g3t1_3,,success
Status,581,13146849847,/g4t1,,fail
Status,582,13154128903,/g3t1_1,,running
Status,583,13154235488,/g3t1_2,,running
Status,584,13155019254,/g3t1_1,,success
Status,585,13155085475,/g3t1_2,,success
Status,586,13155401186,/g3t1_3,,running
Status,587,13155517596,/g3t1_3,,success
Status,588,13204034240,/g3t1_1,,running
Status,589,13204346027,/g3t1_2,,running
Status,590,13204452307,/g3t1_1,,success
Status,591,13204478994,/g3t1_2,,success
Status,592,13204547236,/g3t1_3,,running
Status,593,13204954522,/g3t1_3,,success
Status,594,13246157164,/g4t1,,fail
Status,595,13253788812,/g3t1_1,,running
Status,596,13253818042,/g3t1_2,,running
Status,597,13253831247,/g3t1_1,,success
Status,598,13253925435,/g3t1_2,,success
Status,599,13254313727,/g3t1_3,,running
Status,600,13254430002,/g3t1_3,,success
Status,601,13305018657,/g3t1_1,,running
Status,602,13305106716,/g3t1_2,,running
Status,603,13305144113,/g3t1_3,,running
Status,604,13305439741,/g3t1_1,,success
Status,605,13305502959,/g3t1_2,,success
Status,606,13306003076,/g3t1_3,,success
Status,607,13347085345,/g4t1,,fail
Status,608,13355388474,/g3t1_2,,running
Status,609,13355510795,/g3t1_1,,running
Status,610,13355837468,/g3t1_3,,running
Status,611,13355882576,/g3t1_2,,success
Status,612,13356389830,/g3t1_1,,success
Status,613,13356463965,/g3t1_3,,success
Status,614,13405708932,/g3t1_1,,running
Status,615,13405796523,/g3t1_2,,running
Status,616,13405831239,/g3t1_2,,success
Status,617,13405999623,/g3t1_3,,running
Status,618,13406044779,/g3t1_1,,success
Status,619,13406079351,/g3t1_3,,success
Status,620,13447064514,/g4t1,,fail
Status,621,13455164760,/g3t1_1,,running
Status,622,13455851991,/g3t1_2,,running
Status,623,13455969283,/g3t1_3,,running
Status,624,13456142721,/g3t1_2,,success
Status,625,13456252461,/g3t1_3,,success
Status,626,13456285609,/g3t1_1,,success
Status,627,13505373317,/g3t1_1,,running
Status,628,13505483749,/g3t1_2,,running
Status,629,13505644802,/g3t1_1,,success
Status,630,13506305363,/g3t1_3,,running
Status,631,13506390901,/g3t1_2,,success
Status,632,13506651945,/g3t1_3,,success
Status,633,13547292633,/g4t1,,fail
Status,634,13555634436,/g3t1_1,,running
Status,635,13555706194,/g3t1_2,,running
Status,636,13555802817,/g3t1_1,,success
Status,637,13555834597,/g3t1_2,,success
Status,638,13555866703,/g3t1_3,,running
Status,639,13555932275,/g3t1_3,,success
Status,640,13605499619,/g3t1_1,,running
Status,641,13606021342,/g3t1_2,,running
Status,642,13606107740,/g3t1_3,,running
Status,643,13606208821,/g3t1_2,,success
Status,644,13606236268,/g3t1_1,,success
Status,645,13606259825,/g3t1_3,,success
Status,646,13647440553,/g4t1,,fail
Status,647,13655537307,/g3t1_1,,running
Status,648,13656275759,/g3t1_2,,running
Status,649,13656381087,/g3t1_1,,success
Status,650,13656439389,/g3t1_3,,running
Status,651,13656479931,/g3t1_2,,success
Status,652,13656529965,/g3t1_3,,success
Status,653,13705968719,/g3t1_1,,running
Status,654,13706040851,/g3t1_2,,running
Status,655,13706130274,/g3t1_2,,success
Status,656,13706305213,/g3t1_3,,running
Status,657,13706358329,/g3t1_1,,success
Status,658,13706384888,/g3t1_3,,success
Status,659,13747567484,/g4t1,,fail
Status,660,13756080540,/g3t1_1,,running
Status,661,13756234583,/g3t1_2,,running
Status,662,13756280270,/g3t1_1,,success
Status,663,13756380838,/g3t1_3,,running
Status,664,13756931295,/g3t1_2,,success
Status,665,13757292456,/g3t1_3,,success
Status,666,13806570643,/g3t1_1,,running
Status,667,13806686664,/g3t1_2,,running
Status,668,13806938823,/g3t1_1,,success
Status,669,13807017984,/g3t1_3,,running
Status,670,13807102431,/g3t1_2,,success
Status,671,13807134680,/g3t1_3,,success
Status,672,13847743560,/g4t1,,fail
Status,673,13856315264,/g3t1_1,,running
Status,674,13856463810,/g3t1_2,,running
Status,675,13856507881,/g3t1_1,,success
Status,676,13856621111,/g3t1_3,,running
Status,677,13857203210,/g3t1_3,,success
Status,678,13857267834,/g3t1_2,,success
Status,679,13906790762,/g3t1_2,,running
Status,680,13906864217,/g3t1_1,,running
Status,681,13906950215,/g3t1_2,,success
Status,682,13906975689,/g3t1_3,,running
Status,683,13906999689,/g3t1_1,,success
Status,684,13907028277,/g3t1_3,,success
Status,685,13947820665,/g4t1,,fail
Status,686,13956476014,/g3t1_1,,running
Status,687,13956573889,/g3t1_2,,running
Status,688,13957131585,/g3t1_1,,success
Status,689,13957197638,/g3t1_3,,running
Status,690,13957676154,/g3t1_3,,success
Status,691,13957768206,/g3t1_2,,success
Status,692,14006972124,/g3t1_1,,running
Status,693,14007073510,/g3t1_2,,running
Status,694,14007115382,/g3t1_1,,success
Status,695,14007415413,/g3t1_3,,running
Status,696,14007473757,/g3t1_2,,success
Status,697,14007865515,/g3t1_3,,success
Status,698,14047990854,/g4t1,,fail
Status,699,14056857485,/g3t1_2,,running
Status,700,14056945977,/g3t1_1,,running
Status,701,14057474446,/g3t1_2,,success
Status,702,14057526900,/g3t1_3,,running
Status,703,14057550744,/g3t1_1,,success
Status,704,14057942560,/g3t1_3,,success
Status,705,14106748779,/g3t1_1,,running
Status,706,14106854186,/g3t1_2,,running
Status,707,14107300259,/g3t1_2,,success
Status,708,14107642914,/g3t1_1,,success
Status,709,14107796266,/g3t1_3,,running
Status,710,14108222342,/g3t1_3,,success
Status,711,14148152366,/g4t1,,fail
Status,712,14157273795,/g3t1_1,,running
Status,713,14157403548,/g3t1_2,,running
Status,714,14157610769,/g3t1_2,,success
Status,715,14157674691,/g3t1_3,,running
Status,716,14157705943,/g3t1_1,,success
Status,717,14158168153,/g3t1_3,,success
Status,718,14207293600,/g3t1_2,,running
Status,719,14207383075,/g3t1_1,,running
Status,720,14207423920,/g3t1_1,,success
Status,721,14207853167,/g3t1_2,,success
Status,722,14208118510,/g3t1_3,,running
Status,723,14208590807,/g3t1_3,,success
Status,724,14248253121,/g4t1,,fail
Status,725,14257320961,/g3t1_1,,running
Status,726,14257413860,/g3t1_2,,running
Status,727,14257505914,/g3t1_2,,success
Status,728,14257952363,/g3t1_1,,success
Status,729,14258016879,/g3t1_3,,running
Status,730,14258505650,/g3t1_3,,success
Status,731,14307575092,/g3t1_1,,running
Status,732,14307709949,/g3t1_2,,running
Status,733,14308752951,/g3t1_1,,success
Status,734,14308922651,/g3t1_2,,success
Status,735,14308972312,/g3t1_3,,running
Status,736,14309382666,/g3t1_3,,success
Status,737,14348407266,/g4t1,,fail
Status,738,14358417175,/g3t1_1,,running
Status,739,14358627640,/g3t1_2,,running
Status,740,14358785421,/g3t1_1,,success
Status,741,14359574153,/g3t1_3,,running
Status,742,14360058232,/g3t1_2,,success
Status,743,14360210602,/g3t1_3,,success
Status,744,14407104730,/g3t1_1,,running
Status,745,14407213689,/g3t1_2,,running
Status,746,14407658127,/g3t1_1,,success
Status,747,14407684705,/g3t1_2,,success
Status,748,14408114610,/g3t1_3,,running
Status,749,14408283667,/g3t1_3,,success
Status,750,14448679769,/g4t1,,fail
Status,751,14458572842,/g3t1_2,,running
Status,752,14458663473,/g3t1_1,,running
Status,753,14458695267,/g3t1_1,,success
Status,754,14458735113,/g3t1_2,,success
Status,755,14458800149,/g3t1_3,,running
Status,756,14460370375,/g3t1_3,,success
Status,757,14507870174,/g3t1_2,,running
Status,758,14508042262,/g3t1_1,,running
Status,759,14508131981,/g3t1_2,,success
Status,760,14508537644,/g3t1_1,,success
Status,761,14509476957,/g3t1_3,,running
Status,762,14509557849,/g3t1_3,,success
Status,763,14548535219,/g4t1,,fail
Status,764,14557378026,/g3t1_2,,running
Status,765,14557410546,/g3t1_1,,running
Status,766,14557525202,/g3t1_2,,success
Status,767,14557542940,/g3t1_1,,success
Status,768,14558227509,/g3t1_3,,running
Status,769,14558353697,/g3t1_3,,success
Status,770,14609328528,/g3t1_1,,running
Status,771,14609412958,/g3t1_2,,running
Status,772,14609451773,/g3t1_2,,success
Status,773,14609571240,/g3t1_3,,running
Status,774,14609788064,/g3t1_1,,success
Status,775,14610265294,/g3t1_3,,success
Status,776,14648987161,/g4t1,,fail
Status,777,14658476855,/g3t1_2,,running
Status,778,14658624121,/g3t1_1,,running
Status,779,14659177182,/g3t1_2,,success
Status,780,14659263051,/g3t1_1,,success
Status,781,14659298945,/g3t1_3,,running
Status,782,14660195138,/g3t1_3,,success
Status,783,14708845216,/g3t1_2,,running
Status,784,14709276171,/g3t1_1,,running
Status,785,14709477164,/g3t1_3,,running
Status,786,14709651506,/g3t1_1,,success
Status,787,14709770051,/g3t1_2,,success
Status,788,14710040814,/g3t1_3,,success
Status,789,14749024456,/g4t1,,fail
Status,790,14758717156,/g3t1_1,,running
Status,791,14758967525,/g3t1_2,,running
Status,792,14759960671,/g3t1_1,,success
Status,793,14760012337,/g3t1_3,,running
Status,794,14760300105,/g3t1_2,,success
Status,795,14760473042,/g3t1_3,,success
Status,796,14809200478,/g3t1_1,,running
Status,797,14809310814,/g3t1_2,,running
Status,798,14810173636,/g3t1_1,,success
Status,799,14810251919,/g3t1_3,,running
Status,800,14810292647,/g3t1_3,,success
Status,801,14810542346,/g3t1_2,,success
Status,802,14849179157,/g4t1,,fail
Status,803,14859355131,/g3t1_1,,running
Status,804,14860313477,/g3t1_2,,running
Status,805,14860402081,/g3t1_2,,success
Status,806,14860633303,/g3t1_3,,running
Status,807,14860712309,/g3t1_1,,success
Status,808,14860737721,/g3t1_3,,success
Status,809,14910407170,/g3t1_1,,running
Status,810,14910513856,/g3t1_2,,running
Status,811,14910975410,/g3t1_1,,success
Status,812,14911032071,/g3t1_2,,success
Status,813,14911067327,/g3t1_3,,running
Status,814,14911425760,/g3t1_3,,success
Status,815,14949410693,/g4t1,,fail
Status,816,14960103772,/g3t1_2,,running
Status,817,14960230277,/g3t1_1,,running
Status,818,14960275713,/g3t1_1,,success
Status,819,14961185279,/g3t1_3,,running
Status,820,14961822394,/g3t1_2,,success
Status,821,14961951420,/g3t1_3,,success
Status,822,15009574313,/g3t1_2,,running
Status,823,15010604585,/g3t1_1,,running
Status,824,15010703954,/g3t1_1,,success
Status,825,15010753784,/g3t1_2,,success
Status,826,15010997944,/g3t1_3,,running
Status,827,15011513011,/g3t1_3,,success
Status,828,15049571687,/g4t1,,fail
Status,829,15060108834,/g3t1_1,,running
Status,830,15060342613,/g3t1_2,,running
Status,831,15060379275,/g3t1_1,,success
Status,832,15060765647,/g3t1_2,,success
Status,833,15060840459,/g3t1_3,,running
Status,834,15061395230,/g3t1_3,,success
Status,835,15109837240,/g3t1_1,,running
Status,836,15109955830,/g3t1_2,,running
Status,837,15110427768,/g3t1_2,,success
Status,838,15110699527,/g3t1_3,,running
Status,839,15110834333,/g3t1_1,,success
Status,840,15111572378,/g3t1_3,,success
Status,841,15149639914,/g4t1,,fail
Status,842,15160164974,/g3t1_1,,running
Status,843,15160268902,/g3t1_2,,running
Status,844,15160865972,/g3t1_2,,success
Status,845,15161092711,/g3t1_1,,success
Status,846,15161236824,/g3t1_3,,running
Status,847,15161574570,/g3t1_3,,success
Status,848,15210416420,/g3t1_2,,running
Status,849,15210565316,/g3t1_1,,running
Status,850,15211134902,/g3t1_1,,success
Status,851,15211267342,/g3t1_3,,running
Status,852,15211396669,/g3t1_2,,success
Status,853,15212056157,/g3t1_3,,success
Status,854,15249848080,/g4t1,,fail
Status,855,15260725773,/g3t1_1,,running
Status,856,15260820428,/g3t1_2,,running
Status,857,15260861871,/g3t1_2,,success
Status,858,15261776546,/g3t1_3,,running
Status,859,15261849285,/g3t1_1,,success
Status,860,15261986415,/g3t1_3,,success
Status,861,15310763584,/g3t1_1,,running
Status,862,15310850653,/g3t1_2,,running
Status,863,15311431853,/g3t1_2,,success
Status,864,15311979245,/g3t1_1,,success
Status,865,15312058664,/g3t1_3,,running
Status,866,15312105115,/g3t1_3,,success
Status,867,15349864067,/g4t1,,fail
Status,868,15360621215,/g3t1_1,,running
Status,869,15360712857,/g3t1_2,,running
Status,870,15361675082,/g3t1_2,,success
Status,871,15361759998,/g3t1_1,,success
Status,872,15361897472,/g3t1_3,,running
Status,873,15362728873,/g3t1_3,,success
Status,874,15410774841,/g3t1_1,,running
Status,875,15410864604,/g3t1_2,,running
Status,876,15411600097,/g3t1_1,,success
Status,877,15412040591,/g3t1_3,,running
Status,878,15412143014,/g3t1_2,,success
Status,879,15412310241,/g3t1_3,,success
Status,880,15449885616,/g4t1,,fail
Status,881,15462033196,/g3t1_2,,running
Status,882,15462313794,/g3t1_1,,running
Status,883,15462433664,/g3t1_1,,success
Status,884,15462461874,/g3t1_2,,success
Status,885,15462530941,/g3t1_3,,running
Status,886,15463028419,/g3t1_3,,success
Status,887,15510787876,/g3t1_2,,running
Status,888,15511446387,/g3t1_1,,running
Status,889,15511544940,/g3t1_1,,success
Status,890,15511586249,/g3t1_2,,success
Status,891,15512159711,/g3t1_3,,running
Status,892,15512307743,/g3t1_3,,success
Status,893,15550028449,/g4t1,,fail
Status,894,15561117141,/g3t1_1,,running
Status,895,15561196353,/g3t1_2,,running
Status,896,15562142038,/g3t1_1,,success
Status,897,15562322370,/g3t1_2,,success
Status,898,15562392453,/g3t1_3,,running
Status,899,15562434666,/g3t1_3,,success
Status,900,15611641481,/g3t1_1,,running
Status,901,15611726160,/g3t1_2,,running
Status,902,15611869050,/g3t1_1,,success
Status,903,15612255427,/g3t1_3,,running
Status,904,15612682735,/g3t1_2,,success
Status,905,15612724718,/g3t1_3,,success
Status,906,15650418974,/g4t1,,fail
Status,907,15661583681,/g3t1_1,,running
Status,908,15661664470,/g3t1_2,,running
Status,909,15662270038,/g3t1_1,,success
Status,910,15662334880,/g3t1_2,,success
Status,911,15662467968,/g3t1_3,,running
Status,912,15663082864,/g3t1_3,,success
Status,913,15711421483,/g3t1_2,,running
Status,914,15711560325,/g3t1_1,,running
Status,915,15712049525,/g3t1_2,,success
Status,916,15712193695,/g3t1_1,,success
Status,917,15712930286,/g3t1_3,,running
Status,918,15713015739,/g3t1_3,,success
Status,919,15750365646,/g4t1,,fail
Status,920,15761748505,/g3t1_1,,running
Status,921,15761836570,/g3t1_2,,running
Status,922,15762687273,/g3t1_1,,success
Status,923,15762751402,/g3t1_3,,running
Status,924,15762936387,/g3t1_2,,success
Status,925,15762982245,/g3t1_3,,success
Status,926,15812906864,/g3t1_1,,running
Status,927,15813117077,/g3t1_2,,running
Status,928,15813483552,/g3t1_1,,success
Status,929,15813594065,/g3t1_3,,running
Status,930,15813644245,/g3t1_2,,success
Status,931,15813754824,/g3t1_3,,success
Status,932,15850673743,/g4t1,,fail
Status,933,15861935491,/g3t1_1,,running
Status,934,15862056024,/g3t1_2,,running
Status,935,15862674459,/g3t1_1,,success
Status,936,15862754319,/g3t1_2,,success
Status,937,15863154470,/g3t1_3,,running
Status,938,15863619417,/g3t1_3,,success
Status,939,15911821591,/g3t1_1,,running
Status,940,15911976604,/g3t1_2,,running
Status,941,15912418395,/g3t1_1,,success
Status,942,15912480378,/g3t1_2,,success
Status,943,15912597143,/g3t1_3,,running
Status,944,15913467408,/g3t1_3,,success
Status,945,15950805235,/g4t1,,fail
Status,946,15962711905,/g3t1_1,,running
Status,947,15962807605,/g3t1_2,,running
Status,948,15963236672,/g3t1_2,,success
Status,949,15963284253,/g3t1_3,,running
Status,950,15963333601,/g3t1_1,,success
Status,951,15963408371,/g3t1_3,,success
Status,952,16012374006,/g3t1_1,,running
Status,953,16013060009,/g3t1_2,,running
Status,954,16013838125,/g3t1_2,,success
Status,955,16013915728,/g3t1_1,,success
Status,956,16014048290,/g3t1_3,,running
Status,957,16014080428,/g3t1_3,,success
Status,958,16050885789,/g4t1,,fail
Status,959,16062476998,/g3t1_1,,running
Status,960,16062566729,/g3t1_2,,running
Status,961,16063079741,/g3t1_2,,success
Status,962,16063205896,/g3t1_3,,running
Status,963,16063359682,/g3t1_1,,success
Status,964,16063786862,/g3t1_3,,success
Status,965,16112785865,/g3t1_1,,running
Status,966,16113256834,/g3t1_2,,running
Status,967,16113331381,/g3t1_1,,success
Status,968,16113472917,/g3t1_3,,running
Status,969,16113517364,/g3t1_2,,success
Status,970,16113770744,/g3t1_3,,success
Status,971,16150889273,/g4t1,,fail
Status,972,16163311813,/g3t1_2,,running
Status,973,16163428323,/g3t1_1,,running
Status,974,16163790670,/g3t1_3,,running
Status,975,16163843946,/g3t1_2,,success
Status,976,16163984081,/g3t1_1,,success
Status,977,16164020643,/g3t1_3,,success
Status,978,16213678014,/g3t1_2,,running
Status,979,16213834234,/g3t1_1,,running
Status,980,16213880664,/g3t1_3,,running
Status,981,16213914055,/g3t1_2,,success
Status,982,16214018416,/g3t1_1,,success
Status,983,16214054884,/g3t1_3,,success
Status,984,16251044210,/g4t1,,fail
Status,985,16263611448,/g3t1_2,,running
Status,986,16263768476,/g3t1_1,,running
Status,987,16264097791,/g3t1_2,,success
Status,988,16264172916,/g3t1_3,,running
Status,989,16264210129,/g3t1_1,,success
Status,990,16264415535,/g3t1_3,,success
Status,991,16313482412,/g3t1_2,,running
Status,992,16313789355,/g3t1_1,,running
Status,993,16314389504,/g3t1_3,,running
Status,994,16314467605,/g3t1_1,,success
Status,995,16314508529,/g3t1_2,,success
Status,996,16314784790,/g3t1_3,,success
Status,997,16350996626,/g4t1,,fail
Status,998,16364378303,/g3t1_2,,running
Status,999,16364516005,/g3t1_1,,running
Status,1000,16364583165,/g3t1_2,,success
Status,1001,16364667068,/g3t1_1,,success
Status,1002,16364702348,/g3t1_3,,running
Status,1003,16364736624,/g3t1_3,,success
Status,1004,16413572217,/g3t1_1,,running
Status,1005,16413733723,/g3t1_2,,running
Status,1006,16414406453,/g3t1_2,,success
Status,1007,16414542577,/g3t1_1,,success
Status,1008,16415087879,/g3t1_3,,running
Status,1009,16415983550,/g3t1_3,,success
Status,1010,16451270181,/g4t1,,fail
Status,1011,16464357109,/g3t1_2,,running
Status,1012,16464525585,/g3t1_1,,running
Status,1013,16464633402,/g3t1_1,,success
Status,1014,16464679533,/g3t1_3,,running
Status,1015,16464789619,/g3t1_2,,success
Status,1016,16465126529,/g3t1_3,,success
Status,1017,16514377080,/g3t1_1,,running
Status,1018,16514447449,/g3t1_2,,running
Status,1019,16514584281,/g3t1_1,,success
Status,1020,16514618024,/g3t1_3,,running
Status,1021,16514649393,/g3t1_3,,success
Status,1022,16515040686,/g3t1_2,,success
Status,1023,16551551833,/g4t1,,fail
Status,1024,16564343837,/g3t1_1,,running
Status,1025,16564431916,/g3t1_2,,running
Status,1026,16564547169,/g3t1_3,,running
Status,1027,16564582787,/g3t1_1,,success
Status,1028,16565025521,/g3t1_3,,success
Status,1029,16565406529,/g3t1_2,,success
Status,1030,16614802203,/g3t1_2,,running
Status,1031,16614860337,/g3t1_1,,running
Status,1032,16614886820,/g3t1_3,,running
Status,1033,16614912057,/g3t1_2,,success
Status,1034,16614935266,/g3t1_1,,success
Status,1035,16615030400,/g3t1_3,,success
Status,1036,16651515747,/g4t1,,fail
Status,1037,16665034806,/g3t1_2,,running
Status,1038,16665138426,/g3t1_1,,running
Status,1039,16665168109,/g3t1_1,,success
Status,1040,16665191598,/g3t1_3,,running
Status,1041,16665212812,/g3t1_2,,success
Status,1042,16665667055,/g3t1_3,,success
Status,1043,16714660424,/g3t1_1,,running
Status,1044,16714878419,/g3t1_2,,running
Status,1045,16714930781,/g3t1_3,,running
Status,1046,16714969365,/g3t1_1,,success
Status,1047,16715434944,/g3t1_3,,success
Status,1048,16715500531,/g3t1_2,,success
Status,1049,16751742880,/g4t1,,fail
Status,1050,16765221207,/g3t1_2,,running
Status,1051,16765319998,/g3t1_1,,running
Status,1052,16765570738,/g3t1_3,,running
Status,1053,16765747107,/g3t1_1,,success
Status,1054,16765776227,/g3t1_2,,success
Status,1055,16765802479,/g3t1_3,,success
Status,1056,16815124143,/g3t1_2,,running
Status,1057,16815202820,/g3t1_1,,running
Status,1058,16815292503,/g3t1_2,,success
Status,1059,16815459809,/g3t1_3,,running
Status,1060,16815488854,/g3t1_1,,success
Status,1061,16816369034,/g3t1_3,,success
Status,1062,16851161135,/g4t1,,fail
Status,1063,16864327072,/g3t1_2,,running
Status,1064,16864371774,/g3t1_1,,running
Status,1065,16864579862,/g3t1_2,,success
Status,1066,16864653250,/g3t1_1,,success
Status,1067,16864895775,/g3t1_3,,running
Status,1068,16865308082,/g3t1_3,,success
Status,1069,16915175283,/g3t1_2,,running
Status,1070,16915866408,/g3t1_1,,running
Status,1071,16916060032,/g3t1_1,,success
Status,1072,16916899409,/g3t1_3,,running
Status,1073,16917081571,/g3t1_2,,success
Status,1074,16917135347,/g3t1_3,,success
Status,1075,16952001360,/g4t1,,fail
Status,1076,16965204807,/g3t1_2,,running
Status,1077,16965356320,/g3t1_1,,running
Status,1078,16966007551,/g3t1_1,,success
Status,1079,16966345313,/g3t1_3,,running
Status,1080,16966423020,/g3t1_3,,success
Status,1081,16966617277,/g3t1_2,,success
Status,1082,17015376670,/g3t1_2,,running
Status,1083,17015457166,/g3t1_1,,running
Status,1084,17015591255,/g3t1_3,,running
Status,1085,17015631380,/g3t1_2,,success
Status,1086,17016508913,/g3t1_3,,success
Status,1087,17016716786,/g3t1_1,,success
Status,1088,17052271138,/g4t1,,fail
Status,1089,17065433420,/g3t1_2,,running
Status,1090,17066166152,/g3t1_1,,running
Status,1091,17066515994,/g3t1_2,,success
Status,1092,17066581862,/g3t1_3,,running
Status,1093,17066689352,/g3t1_1,,success
Status,1094,17066726610,/g3t1_3,,success
Status,1095,17115499482,/g3t1_2,,running
Status,1096,17115723515,/g3t1_1,,running
Status,1097,17116808389,/g3t1_1,,success
Status,1098,17116867373,/g3t1_2,,success
Status,1099,17116961476,/g3t1_3,,running
Status,1100,17116986112,/g3t1_3,,success
Status,1101,17152374207,/g4t1,,fail
Status,1102,17165764082,/g3t1_1,,running
Status,1103,17165863441,/g3t1_2,,running
Status,1104,17166656771,/g3t1_2,,success
Status,1105,17166766873,/g3t1_1,,success
Status,1106,17166886649,/g3t1_3,,running
Status,1107,17166923677,/g3t1_3,,success
Status,1108,17216105863,/g3t1_1,,running
Status,1109,17216285645,/g3t1_2,,running
Status,1110,17217205813,/g3t1_3,,running
Status,1111,17217264835,/g3t1_3,,success
Status,1112,17217355196,/g3t1_1,,success
Status,1113,17217376890,/g3t1_2,,success
Status,1114,17252558045,/g4t1,,fail
Status,1115,17266362907,/g3t1_1,,running
Status,1116,17266472759,/g3t1_2,,running
Status,1117,17266527681,/g3t1_3,,running
Status,1118,17266566117,/g3t1_1,,success
Status,1119,17266600931,/g3t1_2,,success
Status,1120,17266955297,/g3t1_3,,success
Status,1121,17316413593,/g3t1_2,,running
Status,1122,17316507039,/g3t1_1,,running
Status,1123,17317033402,/g3t1_2,,success
Status,1124,17317158576,/g3t1_1,,success
Status,1125,17317291256,/g3t1_3,,running
Status,1126,17318189896,/g3t1_3,,success
Status,1127,17352580751,/g4t1,,fail
Status,1128,17367065609,/g3t1_2,,running
Status,1129,17367143119,/g3t1_1,,running
Status,1130,17367191104,/g3t1_1,,success
Status,1131,17367320825,/g3t1_2,,success
Status,1132,17367361742,/g3t1_3,,running
Status,1133,17367664392,/g3t1_3,,success
Status,1134,17416343584,/g3t1_1,,running
Status,1135,17416385493,/g3t1_2,,running
Status,1136,17416447738,/g3t1_2,,success
Status,1137,17416471341,/g3t1_1,,success
Status,1138,17416695304,/g3t1_3,,running
Status,1139,17416867582,/g3t1_3,,success
Status,1140,17452857269,/g4t1,,fail
Status,1141,17466568044,/g3t1_2,,running
Status,1142,17467049246,/g3t1_1,,running
Status,1143,17467120957,/g3t1_2,,success
Status,1144,17467248316,/g3t1_3,,running
Status,1145,17467604053,/g3t1_1,,success
Status,1146,17467806095,/g3t1_3,,success
Status,1147,17517116933,/g3t1_2,,running
Status,1148,17517193929,/g3t1_1,,running
Status,1149,17517390844,/g3t1_2,,success
Status,1150,17517529889,/g3t1_1,,success
Status,1151,17517640188,/g3t1_3,,running
Status,1152,17517992817,/g3t1_3,,success
Status,1153,17552571231,/g4t1,,fail
Status,1154,17567215553,/g3t1_1,,running
Status,1155,17567386154,/g3t1_2,,running
Status,1156,17567722790,/g3t1_1,,success
Status,1157,17567787626,/g3t1_2,,success
Status,1158,17568288217,/g3t1_3,,running
Status,1159,17568466288,/g3t1_3,,success
Status,1160,17617501044,/g3t1_1,,running
Status,1161,17617634179,/g3t1_2,,running
Status,1162,17617871641,/g3t1_1,,success
Status,1163,17617922240,/g3t1_3,,running
Status,1164,17617957336,/g3t1_2,,success
Status,1165,17618322416,/g3t1_3,,success
Status,1166,17652852790,/g4t1,,fail
Status,1167,17667715201,/g3t1_1,,running
Status,1168,17667872853,/g3t1_2,,running
Status,1169,17667959332,/g3t1_3,,running
Status,1170,17668285041,/g3t1_2,,success
Status,1171,17668342891,/g3t1_1,,success
Status,1172,17668693299,/g3t1_3,,success
Status,1173,17717398032,/g3t1_1,,running
Status,1174,17717465023,/g3t1_1,,success
Status,1175,17717615103,/g3t1_2,,running
Status,1176,17717645460,/g3t1_2,,success
Status,1177,17717838519,/g3t1_3,,running
Status,1178,17718239729,/g3t1_3,,success
Status,1179,17752546906,/g4t1,,fail
Status,1180,17767527315,/g3t1_2,,running
Status,1181,17767586382,/g3t1_1,,running
Status,1182,17767930827,/g3t1_3,,running
Status,1183,17767971133,/g3t1_2,,success
Status,1184,17768301275,/g3t1_1,,success
Status,1185,17768348076,/g3t1_3,,success
Status,1186,17818126510,/g3t1_2,,running
Status,1187,17818337153,/g3t1_1,,running
Status,1188,17818760037,/g3t1_3,,running
Status,1189,17818840264,/g3t1_1,,success
Status,1190,17818889161,/g3t1_2,,success
Status,1191,17819306010,/g3t1_3,,success
Status,1192,17853144945,/g4t1,,fail
Status,1193,17868539434,/g3t1_2,,running
Status,1194,17868618401,/g3t1_1,,running
Status,1195,17868737169,/g3t1_2,,success
Status,1196,17868771609,/g3t1_3,,running
Status,1197,17868801305,/g3t1_1,,success
Status,1198,17869119658,/g3t1_3,,success
Status,1199,17918500944,/g3t1_1,,running
Status,1200,17918719695,/g3t1_3,,running
Status,1201,17918968601,/g3t1_2,,running
Status,1202,17919024695,/g3t1_2,,success
Status,1203,17919050150,/g3t1_1,,success
Status,1204,17919378056,/g3t1_3,,success
Status,1205,17953182458,/g4t1,,fail
Status,1206,17968758703,/g3t1_1,,running
Status,1207,17969477147,/g3t1_3,,running
Status,1208,17969541280,/g3t1_1,,success
Status,1209,17969602909,/g3t1_2,,running
Status,1210,17969626219,/g3t1_3,,success
Status,1211,17969650313,/g3t1_2,,success
Status,1212,18018641031,/g3t1_1,,running
Status,1213,18019047205,/g3t1_3,,running
Status,1214,18019239038,/g3t1_1,,success
Status,1215,18019299823,/g3t1_2,,running
Status,1216,18019336692,/g3t1_3,,success
Status,1217,18019445900,/g3t1_2,,success
Status,1218,18053212986,/g4t1,,fail
Status,1219,18069306540,/g3t1_1,,running
Status,1220,18069449415,/g3t1_2,,running
Status,1221,18069551945,/g3t1_3,,running
Status,1222,18069576695,/g3t1_1,,success
Status,1223,18069947684,/g3t1_2,,success
Status,1224,18070090084,/g3t1_3,,success
Status,1225,18119248225,/g3t1_1,,running
Status,1226,18119435545,/g3t1_3,,running
Status,1227,18119486349,/g3t1_1,,success
Status,1228,18119522425,/g3t1_2,,running
Status,1229,18119972950,/g3t1_2,,success
Status,1230,18120031904,/g3t1_3,,success
Status,1231,18153292810,/g4t1,,fail
Status,1232,18169716820,/g3t1_1,,running
Status,1233,18169858690,/g3t1_2,,running
Status,1234,18169902142,/g3t1_3,,running
Status,1235,18170119337,/g3t1_1,,success
Status,1236,18170244634,/g3t1_2,,success
Status,1237,18170887910,/g3t1_3,,success
Status,1238,18219416002,/g3t1_1,,running
Status,1239,18219856357,/g3t1_2,,running
Status,1240,18219982427,/g3t1_3,,running
Status,1241,18220623265,/g3t1_1,,success
Status,1242,18220774390,/g3t1_3,,success
Status,1243,18221230178,/g3t1_2,,success
Status,1244,18253695337,/g4t1,,fail
Status,1245,18269706156,/g3t1_1,,running
Status,1246,18269902678,/g3t1_2,,running
Status,1247,18269949237,/g3t1_3,,running
Status,1248,18270148591,/g3t1_1,,success
Status,1249,18270893320,/g3t1_3,,success
Status,1250,18270942243,/g3t1_2,,success
Status,1251,18319632512,/g3t1_1,,running
Status,1252,18320220051,/g3t1_2,,running
Status,1253,18320309457,/g3t1_3,,running
Status,1254,18320457268,/g3t1_1,,success
Status,1255,18320942394,/g3t1_3,,success
Status,1256,18321433290,/g3t1_2,,success
Status,1257,18353466167,/g4t1,,fail
Status,1258,18370059416,/g3t1_1,,running
Status,1259,18370140853,/g3t1_2,,running
Status,1260,18370173249,/g3t1_3,,running
Status,1261,18370547356,/g3t1_1,,success
Status,1262,18370619498,/g3t1_2,,success
Status,1263,18370925917,/g3t1_3,,success
Status,1264,18420344260,/g3t1_1,,running
Status,1265,18420442131,/g3t1_2,,running
Status,1266,18420583792,/g3t1_3,,running
Status,1267,18421197291,/g3t1_1,,success
Status,1268,18421583712,/g3t1_2,,success
Status,1269,18421668246,/g3t1_3,,success
Status,1270,18453715714,/g4t1,,fail
Status,1271,18470363249,/g3t1_1,,running
Status,1272,18470449991,/g3t1_3,,running
Status,1273,18470653584,/g3t1_2,,running
Status,1274,18471102608,/g3t1_3,,success
Status,1275,18471160212,/g3t1_2,,success
Status,1276,18472075107,/g3t1_1,,success
Status,1277,18520603824,/g3t1_1,,running
Status,1278,18520694392,/g3t1_2,,running
Status,1279,18520918589,/g3t1_3,,running
Status,1280,18520966105,/g3t1_3,,success
Status,1281,18521300627,/g3t1_2,,success
Status,1282,18521695691,/g3t1_1,,success
Status,1283,18553501673,/g4t1,,fail
Status,1284,18570733676,/g3t1_1,,running
Status,1285,18570795487,/g3t1_2,,running
Status,1286,18570824304,/g3t1_3,,running
Status,1287,18570907819,/g3t1_1,,success
Status,1288,18570930576,/g3t1_2,,success
Status,1289,18570952789,/g3t1_3,,success
Status,1290,18620892012,/g3t1_1,,running
Status,1291,18620978587,/g3t1_2,,running
Status,1292,18621274911,/g3t1_3,,running
Status,1293,18621325680,/g3t1_3,,success
Status,1294,18621352238,/g3t1_2,,success
Status,1295,18621427071,/g3t1_1,,success
Status,1296,18653637816,/g4t1,,fail
Status,1297,18670856532,/g3t1_1,,running
Status,1298,18670948782,/g3t1_2,,running
Status,1299,18670994348,/g3t1_3,,running
Status,1300,18671100004,/g3t1_1,,success
Status,1301,18671289215,/g3t1_3,,success
Status,1302,18671342252,/g3t1_2,,success
Status,1303,18721333059,/g3t1_1,,running
Status,1304,18721425099,/g3t1_2,,running
Status,1305,18721490863,/g3t1_1,,success
Status,1306,18721679098,/g3t1_3,,running
Status,1307,18721714203,/g3t1_2,,success
Status,1308,18721744236,/g3t1_3,,success
Status,1309,18754021971,/g4t1,,fail
Status,1310,18771028859,/g3t1_2,,running
Status,1311,18771324070,/g3t1_1,,running
Status,1312,18771383373,/g3t1_3,,running
Status,1313,18771422118,/g3t1_1,,success
Status,1314,18771827245,/g3t1_3,,success
Status,1315,18772231254,/g3t1_2,,success
Status,1316,18821143219,/g3t1_1,,running
Status,1317,18821494028,/g3t1_2,,running
Status,1318,18821682377,/g3t1_3,,running
Status,1319,18821718047,/g3t1_3,,success
Status,1320,18821741931,/g3t1_2,,success
Status,1321,18821764699,/g3t1_1,,success
Status,1322,18854213741,/g4t1,,fail
Status,1323,18872160600,/g3t1_1,,running
Status,1324,18872218117,/g3t1_1,,success
Status,1325,18872398073,/g3t1_3,,running
Status,1326,18872430667,/g3t1_3,,success
Status,1327,18872487073,/g3t1_2,,running
Status,1328,18872509499,/g3t1_2,,success
Status,1329,18921216936,/g3t1_1,,running
Status,1330,18921442980,/g3t1_3,,running
Status,1331,18921605037,/g3t1_2,,running
Status,1332,18922051100,/g3t1_3,,success
Status,1333,18922123534,/g3t1_1,,success
Status,1334,18922235949,/g3t1_2,,success
Status,1335,18954227785,/g4t1,,fail
Status,1336,18971849895,/g3t1_3,,running
Status,1337,18972046104,/g3t1_2,,running
Status,1338,18972090840,/g3t1_2,,success
Status,1339,18972176253,/g3t1_1,,running
Status,1340,18972206331,/g3t1_3,,success
Status,1341,18972305828,/g3t1_1,,success
Status,1342,19021842078,/g3t1_1,,running
Status,1343,19022076238,/g3t1_2,,running
Status,1344,19022266583,/g3t1_3,,running
Status,1345,19022508719,/g3t1_1,,success
Status,1346,19022557123,/g3t1_2,,success
Status,1347,19022974757,/g3t1_3,,success
Status,1348,19054349815,/g4t1,,fail
Status,1349,19072024326,/g3t1_3,,running
Status,1350,19072083097,/g3t1_1,,running
Status,1351,19072196059,/g3t1_2,,running
Status,1352,19072220596,/g3t1_1,,success
Status,1353,19072244617,/g3t1_3,,success
Status,1354,19072268345,/g3t1_2,,success
Status,1355,19121754993,/g3t1_1,,running
Status,1356,19122188858,/g3t1_3,,running
Status,1357,19122540116,/g3t1_2,,running
Status,1358,19122724473,/g3t1_1,,success
Status,1359,19122855788,/g3t1_3,,success
Status,1360,19123641145,/g3t1_2,,success
Status,1361,19154542093,/g4t1,,fail
Status,1362,19172259350,/g3t1_1,,running
Status,1363,19172339958,/g3t1_3,,running
Status,1364,19172408333,/g3t1_2,,running
Status,1365,19172514404,/g3t1_2,,success
Status,1366,19172811521,/g3t1_3,,success
Status,1367,19172879120,/g3t1_1,,success
Status,1368,19222787292,/g3t1_2,,running
Status,1369,19222897533,/g3t1_3,,running
Status,1370,19223074827,/g3t1_1,,running
Status,1371,19223142013,/g3t1_2,,success
Status,1372,19223163863,/g3t1_1,,success
Status,1373,19223248801,/g3t1_3,,success
Status,1374,19254580642,/g4t1,,fail
Status,1375,19272686856,/g3t1_1,,running
Status,1376,19272772537,/g3t1_2,,running
Status,1377,19272884246,/g3t1_3,,running
Status,1378,19272942312,/g3t1_3,,success
Status,1379,19272978305,/g3t1_2,,success
Status,1380,19273279241,/g3t1_1,,success
Status,1381,19322670871,/g3t1_1,,running
Status,1382,19322754790,/g3t1_3,,running
Status,1383,19322871718,/g3t1_2,,running
Status,1384,19322908725,/g3t1_1,,success
Status,1385,19323194893,/g3t1_2,,success
Status,1386,19323265434,/g3t1_3,,success
Status,1387,19354899523,/g4t1,,fail
Status,1388,19373149435,/g3t1_1,,running
Status,1389,19373295025,/g3t1_2,,running
Status,1390,19373595681,/g3t1_1,,success
Status,1391,19373740865,/g3t1_2,,success
Status,1392,19373769681,/g3t1_3,,running
Status,1393,19373817075,/g3t1_3,,success
Status,1394,19422541713,/g3t1_1,,running
Status,1395,19422638314,/g3t1_2,,running
Status,1396,19422978642,/g3t1_3,,running
Status,1397,19423021619,/g3t1_1,,success
Status,1398,19423050790,/g3t1_2,,success
Status,1399,19423175418,/g3t1_3,,success
Status,1400,19455109843,/g4t1,,fail
Status,1401,19473143653,/g3t1_2,,running
Status,1402,19473256006,/g3t1_1,,running
Status,1403,19473366026,/g3t1_3,,running
Status,1404,19473409276,/g3t1_2,,success
Status,1405,19473768169,/g3t1_1,,success
Status,1406,19473855772,/g3t1_3,,success
Status,1407,19523339646,/g3t1_2,,running
Status,1408,19523453078,/g3t1_3,,running
Status,1409,19523494274,/g3t1_1,,running
Status,1410,19523625951,/g3t1_1,,success
Status,1411,19524086881,/g3t1_3,,success
Status,1412,19524202063,/g3t1_2,,success
Status,1413,19555182654,/g4t1,,fail
Status,1414,19573196607,/g3t1_2,,running
Status,1415,19573373449,/g3t1_3,,running
Status,1416,19573525339,/g3t1_1,,running
Status,1417,19573895565,/g3t1_1,,success
Status,1418,19573963682,/g3t1_2,,success
Status,1419,19574653838,/g3t1_3,,success
Status,1420,19623570733,/g3t1_2,,running
Status,1421,19623697195,/g3t1_3,,running
Status,1422,19623833616,/g3t1_1,,running
Status,1423,19624255032,/g3t1_3,,success
Status,1424,19624362674,/g3t1_1,,success
Status,1425,19624518834,/g3t1_2,,success
Status,1426,19655258054,/g4t1,,fail
Status,1427,19673854775,/g3t1_2,,running
Status,1428,19673990624,/g3t1_3,,running
Status,1429,19674044074,/g3t1_1,,running
Status,1430,19674072324,/g3t1_1,,success
Status,1431,19674157420,/g3t1_2,,success
Status,1432,19674187581,/g3t1_3,,success
Status,1433,19724506644,/g3t1_2,,running
Status,1434,19724616285,/g3t1_3,,running
Status,1435,19724656307,/g3t1_1,,running
Status,1436,19724811389,/g3t1_1,,success
Status,1437,19724862068,/g3t1_3,,success
Status,1438,19724890176,/g3t1_2,,success
Status,1439,19755421152,/g4t1,,fail
Status,1440,19774152945,/g3t1_3,,running
Status,1441,19774226759,/g3t1_2,,running
Status,1442,19774251122,/g3t1_1,,running
Status,1443,19774298361,/g3t1_3,,success
Status,1444,19774332680,/g3t1_1,,success
Status,1445,19774929560,/g3t1_2,,success
Status,1446,19824600300,/g3t1_3,,running
Status,1447,19824663546,/g3t1_1,,running
Status,1448,19824790666,/g3t1_2,,running
Status,1449,19824813141,/g3t1_3,,success
Status,1450,19824833285,/g3t1_1,,success
Status,1451,19825170641,/g3t1_2,,success
Status,1452,19855426063,/g4t1,,fail
Status,1453,19874275398,/g3t1_3,,running
Status,1454,19874473176,/g3t1_1,,running
Status,1455,19874516002,/g3t1_2,,running
Status,1456,19874819022,/g3t1_1,,success
Status,1457,19874876060,/g3t1_2,,success
Status,1458,19874902030,/g3t1_3,,success
Status,1459,19924783050,/g3t1_3,,running
Status,1460,19924872949,/g3t1_1,,running
Status,1461,19924923579,/g3t1_2,,running
Status,1462,19924956712,/g3t1_2,,success
Status,1463,19924990847,/g3t1_1,,success
Status,1464,19925295181,/g3t1_3,,success
Status,1465,19955607477,/g4t1,,fail
Status,1466,19974713933,/g3t1_2,,running
Status,1467,19974813470,/g3t1_1,,running
Status,1468,19974852908,/g3t1_3,,running
Status,1469,19975327669,/g3t1_1,,success
Status,1470,19975418960,/g3t1_3,,success
Status,1471,19975446734,/g3t1_2,,success
Status,1472,20024848430,/g3t1_2,,running
Status,1473,20024958977,/g3t1_3,,running
Status,1474,20025431539,/g3t1_1,,running
Status,1475,20025527561,/g3t1_3,,success
Status,1476,20025566889,/g3t1_2,,success
Status,1477,20025598818,/g3t1_1,,success
Status,1478,20055698094,/g4t1,,fail
Status,1479,20074877182,/g3t1_2,,running
Status,1480,20075543296,/g3t1_3,,running
Status,1481,20075616028,/g3t1_1,,running
Status,1482,20075731367,/g3t1_3,,success
Status,1483,20075766604,/g3t1_2,,success
Status,1484,20075803912,/g3t1_1,,success
Status,1485,20125431125,/g3t1_1,,running
Status,1486,20125582453,/g3t1_2,,running
Status,1487,20125734246,/g3t1_3,,running
Status,1488,20125804944,/g3t1_3,,success
Status,1489,20125898804,/g3t1_1,,success
Status,1490,20127230325,/g3t1_2,,success
Status,1491,20155941172,/g4t1,,fail
Status,1492,20175290919,/g3t1_3,,running
Status,1493,20175383203,/g3t1_1,,running
Status,1494,20175427240,/g3t1_2,,running
Status,1495,20175634463,/g3t1_3,,success
Status,1496,20175685927,/g3t1_2,,success
Status,1497,20175932201,/g3t1_1,,success
Status,1498,20225462588,/g3t1_1,,running
Status,1499,20225572485,/g3t1_2,,running
Status,1500,20225663134,/g3t1_3,,running
Status,1501,20225701875,/g3t1_2,,success
Status,1502,20225727294,/g3t1_3,,success
Status,1503,20226136689,/g3t1_1,,success
Status,1504,20256140849,/g4t1,,fail
Status,1505,20275632808,/g3t1_2,,running
Status,1506,20275728849,/g3t1_1,,running
Status,1507,20275772204,/g3t1_3,,running
Status,1508,20275977227,/g3t1_1,,success
Status,1509,20276026066,/g3t1_3,,success
Status,1510,20277282729,/g3t1_2,,success
Status,1511,20325796153,/g3t1_1,,running
Status,1512,20325869302,/g3t1_3,,running
