
Status,1,3272419997,/g4t1,,init
Status,3,8537264294,/g3t1_1,,init
Status,5,8550863402,/g3t1_1,,init
Status,6,8550899022,/g3t1_1,,running
Status,7,8551739178,/g3t1_1,,success
Status,8,8601036698,/g3t1_1,,running
Status,9,8601119937,/g3t1_1,,success
Status,10,8651062244,/g3t1_1,,running
Status,11,8651329351,/g3t1_1,,success
Status,12,8701084804,/g3t1_1,,running
Status,13,8701222909,/g3t1_1,,success
Status,14,8745964781,/g3t1_2,,init
Status,16,8751209181,/g3t1_1,,running
Status,17,8751423001,/g3t1_1,,success
Status,18,8758546507,/g3t1_2,,init
Status,19,8758573705,/g3t1_2,,running
Status,20,8759483666,/g3t1_2,,success
Status,21,8801366072,/g3t1_1,,running
Status,22,8801627609,/g3t1_1,,success
Status,23,8808870626,/g3t1_2,,running
Status,24,8809067872,/g3t1_2,,success
Status,25,8846577028,/g3t1_3,,init
Status,27,8851387253,/g3t1_1,,running
Status,28,8851576948,/g3t1_1,,success
Status,29,8858889437,/g3t1_2,,running
Status,30,8859033776,/g3t1_2,,success
Status,31,8861641486,/g3t1_3,,init
Status,32,8861675385,/g3t1_3,,running
Status,33,8862455224,/g3t1_3,,success
Status,34,8892434946,/g4t1,,success
Status,35,8901755551,/g3t1_1,,running
Status,36,8902032714,/g3t1_1,,success
Status,37,8909063205,/g3t1_2,,running
Status,38,8909306608,/g3t1_2,,success
Status,39,8911995503,/g3t1_3,,running
Status,40,8912276405,/g3t1_3,,success
Status,44,8952398294,/g3t1_1,,running
Status,45,8952853059,/g3t1_1,,success
Status,46,8960014624,/g3t1_2,,running
Status,47,8960323115,/g3t1_2,,success
Status,48,8962310960,/g3t1_3,,running
Status,49,8962933967,/g3t1_3,,success
Status,50,8993067501,/g4t1,,success
Status,51,9002555117,/g3t1_1,,running
Status,52,9003067083,/g3t1_1,,success
Status,53,9010086500,/g3t1_2,,running
Status,54,9010603881,/g3t1_2,,success
Status,55,9012546697,/g3t1_3,,running
Status,56,9013051619,/g3t1_3,,success
Status,57,9053268603,/g3t1_1,,running
Status,58,9053337387,/g3t1_1,,success
Status,59,9060397819,/g3t1_2,,running
Status,60,9061044362,/g3t1_2,,success
Status,61,9062503287,/g3t1_3,,running
Status,62,9063054810,/g3t1_3,,success
Status,63,9093366245,/g4t1,,success
Status,64,9102619922,/g3t1_1,,running
Status,65,9103040333,/g3t1_1,,success
Status,66,9110815094,/g3t1_2,,running
Status,67,9110972280,/g3t1_2,,success
Status,68,9112778104,/g3t1_3,,running
Status,69,9112844808,/g3t1_3,,success
Status,73,9153332865,/g3t1_1,,running
Status,74,9153419237,/g3t1_1,,success
Status,75,9160688788,/g3t1_2,,running
Status,76,9161052996,/g3t1_2,,success
Status,77,9163000041,/g3t1_3,,running
Status,78,9163668764,/g3t1_3,,success
Status,79,9195849794,/g4t1,,fail
Status,80,9202655275,/g3t1_1,,running
Status,81,9202698378,/g3t1_1,,success
Status,82,9210080578,/g3t1_2,,running
Status,83,9210191593,/g3t1_2,,success
Status,84,9212407204,/g3t1_3,,running
Status,85,9212438357,/g3t1_3,,success
Status,86,9252510866,/g3t1_1,,running
Status,87,9252659777,/g3t1_1,,success
Status,88,9260408221,/g3t1_2,,running
Status,89,9260578665,/g3t1_2,,success
Status,90,9262963337,/g3t1_3,,running
Status,91,9262999625,/g3t1_3,,success
Status,92,9293729059,/g4t1,,fail
Status,93,9302671298,/g3t1_1,,running
Status,94,9302698016,/g3t1_1,,success
Status,95,9310576041,/g3t1_2,,running
Status,96,9310734679,/g3t1_2,,success
Status,97,9312606171,/g3t1_3,,running
Status,98,9312744759,/g3t1_3,,success
Status,102,9352840153,/g3t1_1,,running
Status,103,9352882336,/g3t1_1,,success
Status,104,9360445748,/g3t1_2,,running
Status,105,9360471264,/g3t1_2,,success
Status,106,9362637184,/g3t1_3,,running
Status,107,9362882993,/g3t1_3,,success
Status,108,9394056090,/g4t1,,fail
Status,109,9403387810,/g3t1_1,,running
Status,110,9403859269,/g3t1_1,,success
Status,111,9411111255,/g3t1_2,,running
Status,112,9411428650,/g3t1_2,,success
Status,113,9413207140,/g3t1_3,,running
Status,114,9413611704,/g3t1_3,,success
Status,115,9453690518,/g3t1_1,,running
Status,116,9454088319,/g3t1_1,,success
Status,117,9460818995,/g3t1_2,,running
Status,118,9461178073,/g3t1_2,,success
Status,119,9463182018,/g3t1_3,,running
Status,120,9463568094,/g3t1_3,,success
Status,121,9494268271,/g4t1,,fail
Status,122,9503729269,/g3t1_1,,running
Status,123,9504177880,/g3t1_1,,success
Status,124,9511615231,/g3t1_2,,running
Status,125,9512174084,/g3t1_2,,success
Status,126,9513448523,/g3t1_3,,running
Status,127,9514051843,/g3t1_3,,success
Status,131,9553319608,/g3t1_1,,running
Status,132,9553343435,/g3t1_1,,success
Status,133,9560756593,/g3t1_2,,running
Status,134,9560967145,/g3t1_2,,success
Status,135,9563122337,/g3t1_3,,running
Status,136,9563146528,/g3t1_3,,success
Status,137,9593654768,/g4t1,,fail
Status,138,9603297313,/g3t1_1,,running
Status,139,9603409360,/g3t1_1,,success
Status,140,9610791914,/g3t1_2,,running
Status,141,9610959453,/g3t1_2,,success
Status,142,9613007802,/g3t1_3,,running
Status,143,9613185503,/g3t1_3,,success
Status,144,9654270907,/g3t1_1,,running
Status,145,9654369139,/g3t1_1,,success
Status,146,9661990510,/g3t1_2,,running
Status,147,9662060634,/g3t1_2,,success
Status,148,9664275462,/g3t1_3,,running
Status,149,9664602863,/g3t1_3,,success
Status,150,9694498330,/g4t1,,fail
Status,151,9704097320,/g3t1_1,,running
Status,152,9704435033,/g3t1_1,,success
Status,153,9711701022,/g3t1_2,,running
Status,154,9712102152,/g3t1_2,,success
Status,155,9713812017,/g3t1_3,,running
Status,156,9714179723,/g3t1_3,,success
Status,160,9754630366,/g3t1_1,,running
Status,161,9754699792,/g3t1_1,,success
Status,162,9762223814,/g3t1_2,,running
Status,163,9762734717,/g3t1_2,,success
Status,164,9764040684,/g3t1_3,,running
Status,165,9764620288,/g3t1_3,,success
Status,166,9794537707,/g4t1,,fail
Status,167,9804519578,/g3t1_1,,running
Status,168,9804590217,/g3t1_1,,success
Status,169,9811947758,/g3t1_2,,running
Status,170,9812601408,/g3t1_2,,success
Status,171,9814008553,/g3t1_3,,running
Status,172,9814562451,/g3t1_3,,success
Status,173,9854615248,/g3t1_1,,running
Status,174,9854713674,/g3t1_1,,success
Status,175,9862194015,/g3t1_2,,running
Status,176,9862264439,/g3t1_2,,success
Status,177,9864031210,/g3t1_3,,running
Status,178,9864614281,/g3t1_3,,success
Status,179,9894058087,/g4t1,,fail
Status,180,9903868686,/g3t1_1,,running
Status,181,9903893566,/g3t1_1,,success
Status,182,9911635438,/g3t1_2,,running
Status,183,9911736761,/g3t1_2,,success
Status,184,9913737780,/g3t1_3,,running
Status,185,9913927464,/g3t1_3,,success
Status,189,9954661991,/g3t1_1,,running
Status,190,9955509553,/g3t1_1,,success
Status,191,9962426701,/g3t1_2,,running
Status,192,9962861549,/g3t1_2,,success
Status,193,9964376664,/g3t1_3,,running
Status,194,9965133248,/g3t1_3,,success
Status,195,9995226277,/g4t1,,fail
Status,196,10004567140,/g3t1_1,,running
Status,197,10005250231,/g3t1_1,,success
Status,198,10012620017,/g3t1_2,,running
Status,199,10012692292,/g3t1_2,,success
Status,200,10014418509,/g3t1_3,,running
Status,201,10014787055,/g3t1_3,,success
Status,202,10054802870,/g3t1_1,,running
Status,203,10055125556,/g3t1_1,,success
Status,204,10062751038,/g3t1_2,,running
Status,205,10063093262,/g3t1_2,,success
Status,206,10064637963,/g3t1_3,,running
Status,207,10065312190,/g3t1_3,,success
Status,208,10095243542,/g4t1,,fail
Status,209,10104951682,/g3t1_1,,running
Status,210,10105412546,/g3t1_1,,success
Status,211,10112760376,/g3t1_2,,running
Status,212,10113122692,/g3t1_2,,success
Status,213,10114600304,/g3t1_3,,running
Status,214,10114991462,/g3t1_3,,success
Status,218,10155415590,/g3t1_1,,running
Status,219,10155488312,/g3t1_1,,success
Status,220,10163095758,/g3t1_2,,running
Status,221,10163885653,/g3t1_2,,success
Status,222,10165616950,/g3t1_3,,running
Status,223,10165691681,/g3t1_3,,success
Status,224,10194696246,/g4t1,,fail
Status,225,10204845312,/g3t1_1,,running
Status,226,10205095212,/g3t1_1,,success
Status,227,10213107050,/g3t1_2,,running
Status,228,10213547466,/g3t1_2,,success
Status,229,10214867367,/g3t1_3,,running
Status,230,10215417203,/g3t1_3,,success
Status,231,10255324966,/g3t1_1,,running
Status,232,10255988280,/g3t1_1,,success
Status,233,10263051425,/g3t1_2,,running
Status,234,10263793065,/g3t1_2,,success
Status,235,10264856087,/g3t1_3,,running
Status,236,10265486394,/g3t1_3,,success
Status,237,10295483150,/g4t1,,fail
Status,238,10305320278,/g3t1_1,,running
Status,239,10305588900,/g3t1_1,,success
Status,240,10313622759,/g3t1_2,,running
Status,241,10313899223,/g3t1_2,,success
Status,242,10315148664,/g3t1_3,,running
Status,243,10315997378,/g3t1_3,,success
Status,247,10355714898,/g3t1_1,,running
Status,248,10355797945,/g3t1_1,,success
Status,249,10363530456,/g3t1_2,,running
Status,250,10363906607,/g3t1_2,,success
Status,251,10365221488,/g3t1_3,,running
Status,252,10365790130,/g3t1_3,,success
Status,253,10395831574,/g4t1,,fail
Status,254,10405558727,/g3t1_1,,running
Status,255,10406175119,/g3t1_1,,success
Status,256,10413827290,/g3t1_2,,running
Status,257,10413895468,/g3t1_2,,success
Status,258,10415244536,/g3t1_3,,running
Status,259,10415853596,/g3t1_3,,success
Status,260,10455822592,/g3t1_1,,running
Status,261,10456335114,/g3t1_1,,success
Status,262,10463862926,/g3t1_2,,running
Status,263,10464196005,/g3t1_2,,success
Status,264,10465336291,/g3t1_3,,running
Status,265,10465673918,/g3t1_3,,success
Status,266,10495841809,/g4t1,,fail
Status,267,10505795222,/g3t1_1,,running
Status,268,10506197132,/g3t1_1,,success
Status,269,10513795406,/g3t1_2,,running
Status,270,10514216834,/g3t1_2,,success
Status,271,10515646184,/g3t1_3,,running
Status,272,10516001721,/g3t1_3,,success
Status,276,10556448806,/g3t1_1,,running
Status,277,10556766305,/g3t1_1,,success
Status,278,10564233305,/g3t1_2,,running
Status,279,10564718400,/g3t1_2,,success
Status,280,10565761027,/g3t1_3,,running
Status,281,10566116292,/g3t1_3,,success
Status,282,10595393999,/g4t1,,fail
Status,283,10605872061,/g3t1_1,,running
Status,284,10605933824,/g3t1_1,,success
Status,285,10614013005,/g3t1_2,,running
Status,286,10614056623,/g3t1_2,,success
Status,287,10615363561,/g3t1_3,,running
Status,288,10615583424,/g3t1_3,,success
Status,289,10656233476,/g3t1_1,,running
Status,290,10656502531,/g3t1_1,,success
Status,291,10664479869,/g3t1_2,,running
Status,292,10664899082,/g3t1_2,,success
Status,293,10665946109,/g3t1_3,,running
Status,294,10666324817,/g3t1_3,,success
Status,295,10696253434,/g4t1,,fail
Status,296,10706245329,/g3t1_1,,running
Status,297,10706587776,/g3t1_1,,success
Status,298,10714912620,/g3t1_2,,running
Status,299,10715712668,/g3t1_2,,success
Status,300,10716226468,/g3t1_3,,running
Status,301,10716673899,/g3t1_3,,success
Status,305,10756168713,/g3t1_1,,running
Status,306,10756606140,/g3t1_1,,success
Status,307,10764461534,/g3t1_2,,running
Status,308,10764743187,/g3t1_2,,success
Status,309,10765603241,/g3t1_3,,running
Status,310,10765996392,/g3t1_3,,success
Status,311,10795409916,/g4t1,,fail
Status,312,10806102460,/g3t1_1,,running
Status,313,10806140008,/g3t1_1,,success
Status,314,10814356214,/g3t1_2,,running
Status,315,10814388004,/g3t1_2,,success
Status,316,10815603927,/g3t1_3,,running
Status,317,10815859178,/g3t1_3,,success
Status,318,10855997166,/g3t1_1,,running
Status,319,10856197030,/g3t1_1,,fail
Status,320,10864483056,/g3t1_2,,running
Status,321,10864517022,/g3t1_2,,success
Status,322,10865632038,/g3t1_3,,running
Status,323,10865761460,/g3t1_3,,success
Status,324,10895818596,/g4t1,,fail
Status,325,10906087568,/g3t1_1,,running
Status,326,10906208831,/g3t1_1,,success
Status,327,10914511952,/g3t1_2,,running
Status,328,10914558333,/g3t1_2,,success
Status,329,10915876131,/g3t1_3,,running
Status,330,10915913576,/g3t1_3,,success
Status,334,10956945911,/g3t1_1,,running
Status,335,10957040753,/g3t1_1,,success
Status,336,10965740884,/g3t1_2,,running
Status,337,10966759443,/g3t1_2,,success
Status,338,10966852606,/g3t1_3,,running
Status,339,10967821365,/g3t1_3,,success
Status,340,10995633175,/g4t1,,fail
Status,341,11006470559,/g3t1_1,,running
Status,342,11006824182,/g3t1_1,,fail
Status,343,11014599371,/g3t1_2,,running
Status,344,11014677749,/g3t1_2,,success
Status,345,11016058509,/g3t1_3,,running
Status,346,11016084172,/g3t1_3,,success
Status,347,11056655578,/g3t1_1,,running
Status,348,11056721928,/g3t1_1,,success
Status,349,11065098086,/g3t1_2,,running
Status,350,11065544826,/g3t1_2,,success
Status,351,11066346763,/g3t1_3,,running
Status,352,11066812425,/g3t1_3,,success
Status,353,11096595449,/g4t1,,fail
Status,354,11106830429,/g3t1_1,,running
Status,355,11107117197,/g3t1_1,,success
Status,356,11115104549,/g3t1_2,,running
Status,357,11115537018,/g3t1_2,,success
Status,358,11116439150,/g3t1_3,,running
Status,359,11117084232,/g3t1_3,,success
Status,363,11156762696,/g3t1_1,,running
Status,364,11156951165,/g3t1_1,,success
Status,365,11165177229,/g3t1_2,,running
Status,366,11165357278,/g3t1_2,,success
Status,367,11166248030,/g3t1_3,,running
Status,368,11166481065,/g3t1_3,,success
Status,369,11196121138,/g4t1,,fail
Status,370,11206808800,/g3t1_1,,running
Status,371,11206845386,/g3t1_1,,success
Status,372,11215228981,/g3t1_2,,running
Status,373,11215412831,/g3t1_2,,success
Status,374,11216358741,/g3t1_3,,running
Status,375,11216387970,/g3t1_3,,success
Status,376,11256822544,/g3t1_1,,running
Status,377,11256998391,/g3t1_1,,success
Status,378,11265728210,/g3t1_2,,running
Status,379,11266130161,/g3t1_2,,success
Status,380,11266658175,/g3t1_3,,running
Status,381,11267571061,/g3t1_3,,success
Status,382,11297112511,/g4t1,,fail
Status,383,11307470111,/g3t1_1,,running
Status,384,11307797784,/g3t1_1,,success
Status,385,11316276400,/g3t1_2,,running
Status,386,11316736352,/g3t1_2,,success
Status,387,11317505691,/g3t1_3,,running
Status,388,11317570900,/g3t1_3,,success
Status,392,11357376213,/g3t1_1,,running
Status,393,11357920030,/g3t1_1,,success
Status,394,11365943495,/g3t1_2,,running
Status,395,11366364050,/g3t1_2,,success
Status,396,11367202428,/g3t1_3,,running
Status,397,11367251304,/g3t1_3,,success
Status,398,11396813593,/g4t1,,fail
Status,399,11408026569,/g3t1_1,,running
Status,400,11408299612,/g3t1_1,,success
Status,401,11416088451,/g3t1_2,,running
Status,402,11416252635,/g3t1_2,,success
Status,403,11416946664,/g3t1_3,,running
Status,404,11417273304,/g3t1_3,,success
Status,405,11457637019,/g3t1_1,,running
Status,406,11458154183,/g3t1_1,,success
Status,407,11465915022,/g3t1_2,,running
Status,408,11466288145,/g3t1_2,,success
Status,409,11467204182,/g3t1_3,,running
Status,410,11467526189,/g3t1_3,,success
Status,411,11496865765,/g4t1,,fail
Status,412,11507957371,/g3t1_1,,running
Status,413,11508562171,/g3t1_1,,success
Status,414,11516349058,/g3t1_2,,running
Status,415,11516851960,/g3t1_2,,success
Status,416,11517315992,/g3t1_3,,running
Status,417,11517787962,/g3t1_3,,success
Status,421,11557662675,/g3t1_1,,running
Status,422,11557706521,/g3t1_1,,success
Status,423,11566063823,/g3t1_2,,running
Status,424,11566097533,/g3t1_2,,success
Status,425,11566916171,/g3t1_3,,running
Status,426,11567179878,/g3t1_3,,success
Status,427,11596678363,/g4t1,,fail
Status,428,11607780629,/g3t1_1,,running
Status,429,11608123985,/g3t1_1,,success
Status,430,11616158912,/g3t1_2,,running
Status,431,11616206879,/g3t1_2,,success
Status,432,11617012282,/g3t1_3,,running
Status,433,11617195128,/g3t1_3,,success
Status,434,11658392273,/g3t1_1,,running
Status,435,11658892480,/g3t1_1,,success
Status,436,11667499452,/g3t1_2,,running
Status,437,11667687224,/g3t1_2,,success
Status,438,11667731114,/g3t1_3,,running
Status,439,11668251003,/g3t1_3,,success
Status,440,11697352183,/g4t1,,fail
Status,441,11708375942,/g3t1_1,,running
Status,442,11708443250,/g3t1_1,,success
Status,443,11716925170,/g3t1_2,,running
Status,444,11717822557,/g3t1_2,,success
Status,445,11717949577,/g3t1_3,,running
Status,446,11718514793,/g3t1_3,,success
Status,450,11758658418,/g3t1_1,,running
Status,451,11758988085,/g3t1_1,,success
Status,452,11766845133,/g3t1_2,,running
Status,453,11767124171,/g3t1_2,,success
Status,454,11767646067,/g3t1_3,,running
Status,455,11768190824,/g3t1_3,,success
Status,456,11796615555,/g4t1,,fail
Status,457,11808508150,/g3t1_1,,running
Status,458,11808580618,/g3t1_1,,fail
Status,459,11817127038,/g3t1_2,,running
Status,460,11818027373,/g3t1_2,,success
Status,461,11818088978,/g3t1_3,,running
Status,462,11818701992,/g3t1_3,,success
Status,463,11858610441,/g3t1_1,,running
Status,464,11858656001,/g3t1_1,,success
Status,465,11867379293,/g3t1_2,,running
Status,466,11867447876,/g3t1_2,,success
Status,467,11868089478,/g3t1_3,,running
Status,468,11868541247,/g3t1_3,,success
Status,469,11897489439,/g4t1,,fail
Status,470,11908744459,/g3t1_1,,running
Status,471,11908803659,/g3t1_1,,success
Status,472,11917457038,/g3t1_2,,running
Status,473,11917654101,/g3t1_2,,success
Status,474,11918296030,/g3t1_3,,running
Status,475,11918694027,/g3t1_3,,success
Status,479,11958610870,/g3t1_1,,running
Status,480,11958636782,/g3t1_1,,success
Status,481,11966798201,/g3t1_2,,running
Status,482,11966821147,/g3t1_2,,success
Status,483,11967566136,/g3t1_3,,running
Status,484,11967770568,/g3t1_3,,success
Status,485,11996806662,/g4t1,,fail
Status,486,12008975076,/g3t1_1,,running
Status,487,12009108835,/g3t1_1,,success
Status,488,12016949104,/g3t1_2,,running
Status,489,12017186886,/g3t1_2,,success
Status,490,12017672495,/g3t1_3,,running
Status,491,12017758699,/g3t1_3,,success
Status,492,12059330423,/g3t1_1,,running
Status,493,12059410419,/g3t1_1,,fail
Status,494,12067912854,/g3t1_2,,running
Status,495,12068200543,/g3t1_3,,running
Status,496,12068342862,/g3t1_2,,success
Status,497,12068643711,/g3t1_3,,success
Status,498,12097800421,/g4t1,,fail
Status,499,12109664929,/g3t1_1,,running
Status,500,12109967445,/g3t1_1,,success
Status,501,12117519955,/g3t1_2,,running
Status,502,12117564254,/g3t1_2,,success
Status,503,12118233866,/g3t1_3,,running
Status,504,12118484146,/g3t1_3,,success
Status,508,12159625576,/g3t1_1,,running
Status,509,12159891171,/g3t1_1,,success
Status,510,12167522115,/g3t1_2,,running
Status,511,12167617081,/g3t1_2,,success
Status,512,12168139978,/g3t1_3,,running
Status,513,12168290456,/g3t1_3,,success
Status,514,12197869484,/g4t1,,fail
Status,515,12209501256,/g3t1_1,,running
Status,516,12210102264,/g3t1_1,,success
Status,517,12217785389,/g3t1_2,,running
Status,518,12218068807,/g3t1_2,,success
Status,519,12218408517,/g3t1_3,,running
Status,520,12219373842,/g3t1_3,,success
Status,521,12259864857,/g3t1_1,,running
Status,522,12260383512,/g3t1_1,,success
Status,523,12268857629,/g3t1_2,,running
Status,524,12268986555,/g3t1_2,,success
Status,525,12269029386,/g3t1_3,,running
Status,526,12269886608,/g3t1_3,,success
Status,527,12298175293,/g4t1,,fail
Status,528,12309882482,/g3t1_1,,running
Status,529,12310495302,/g3t1_1,,success
Status,530,12317991605,/g3t1_2,,running
Status,531,12318405060,/g3t1_2,,success
Status,532,12318798986,/g3t1_3,,running
Status,533,12319575824,/g3t1_3,,success
Status,537,12360279782,/g3t1_1,,running
Status,538,12360742705,/g3t1_1,,success
Status,539,12368333800,/g3t1_2,,running
Status,540,12368985800,/g3t1_2,,success
Status,541,12369125281,/g3t1_3,,running
Status,542,12369237721,/g3t1_3,,success
Status,543,12398233847,/g4t1,,fail
Status,544,12410170291,/g3t1_1,,running
Status,545,12410236796,/g3t1_1,,fail
Status,546,12418316264,/g3t1_2,,running
Status,547,12419006432,/g3t1_2,,success
Status,548,12419189203,/g3t1_3,,running
Status,549,12419817084,/g3t1_3,,success
Status,550,12460605398,/g3t1_1,,running
Status,551,12460806103,/g3t1_1,,success
Status,552,12470153929,/g3t1_2,,running
Status,553,12470309611,/g3t1_2,,success
Status,554,12470407836,/g3t1_3,,running
Status,555,12470448357,/g3t1_3,,success
Status,556,12498499796,/g4t1,,fail
Status,557,12510413877,/g3t1_1,,running
Status,558,12510919989,/g3t1_1,,success
Status,559,12518576540,/g3t1_2,,running
Status,560,12519454821,/g3t1_2,,success
Status,561,12519549488,/g3t1_3,,running
Status,562,12519933911,/g3t1_3,,success
Status,566,12560906783,/g3t1_1,,running
Status,567,12561005001,/g3t1_1,,success
Status,568,12568694223,/g3t1_2,,running
Status,569,12568921993,/g3t1_2,,success
Status,570,12569564235,/g3t1_3,,running
Status,571,12570106505,/g3t1_3,,success
Status,572,12598104901,/g4t1,,fail
Status,573,12610655383,/g3t1_1,,running
Status,574,12610693287,/g3t1_1,,fail
Status,575,12618305361,/g3t1_2,,running
Status,576,12618334386,/g3t1_2,,success
Status,577,12619072437,/g3t1_3,,running
Status,578,12619285690,/g3t1_3,,success
Status,579,12661178431,/g3t1_1,,running
Status,580,12661262737,/g3t1_1,,success
Status,581,12669018777,/g3t1_2,,running
Status,582,12669104919,/g3t1_2,,success
Status,583,12669736577,/g3t1_3,,running
Status,584,12670445517,/g3t1_3,,success
Status,585,12698400616,/g4t1,,fail
Status,586,12711193960,/g3t1_1,,running
Status,587,12711352861,/g3t1_1,,success
Status,588,12718949392,/g3t1_2,,running
Status,589,12720087694,/g3t1_2,,success
Status,590,12720156934,/g3t1_3,,running
Status,591,12720339196,/g3t1_3,,success
Status,595,12761039007,/g3t1_1,,running
Status,596,12761606229,/g3t1_1,,success
Status,597,12769445298,/g3t1_2,,running
Status,598,12770024227,/g3t1_3,,running
Status,599,12770529241,/g3t1_2,,success
Status,600,12770636444,/g3t1_3,,success
Status,601,12798526331,/g4t1,,fail
Status,602,12811501564,/g3t1_1,,running
Status,603,12812123562,/g3t1_1,,success
Status,604,12819290817,/g3t1_2,,running
Status,605,12819730629,/g3t1_2,,success
Status,606,12820157589,/g3t1_3,,running
Status,607,12821051395,/g3t1_3,,success
Status,608,12861618923,/g3t1_1,,running
Status,609,12861684643,/g3t1_1,,success
Status,610,12869475867,/g3t1_2,,running
Status,611,12870058620,/g3t1_2,,success
Status,612,12870402338,/g3t1_3,,running
Status,613,12870493917,/g3t1_3,,success
Status,614,12898664509,/g4t1,,fail
Status,615,12911793366,/g3t1_1,,running
Status,616,12911889066,/g3t1_1,,success
Status,617,12919606826,/g3t1_2,,running
Status,618,12920284393,/g3t1_2,,success
Status,619,12920376690,/g3t1_3,,running
Status,620,12920919027,/g3t1_3,,success
Status,624,12962008284,/g3t1_1,,running
Status,625,12962226536,/g3t1_1,,success
Status,626,12970686142,/g3t1_2,,running
Status,627,12970804398,/g3t1_2,,success
Status,628,12970894844,/g3t1_3,,running
Status,629,12971496985,/g3t1_3,,success
Status,630,12998839124,/g4t1,,fail
Status,631,13011507674,/g3t1_1,,running
Status,632,13011712124,/g3t1_1,,fail
Status,633,13019314753,/g3t1_2,,running
Status,634,13019404378,/g3t1_2,,success
Status,635,13020018485,/g3t1_3,,running
Status,636,13020409563,/g3t1_3,,success
Status,637,13061206176,/g3t1_1,,running
Status,638,13061233816,/g3t1_1,,success
Status,639,13070003014,/g3t1_2,,running
Status,640,13070428277,/g3t1_2,,success
Status,641,13070503381,/g3t1_3,,running
Status,642,13071243666,/g3t1_3,,success
Status,643,13098980263,/g4t1,,fail
Status,644,13111882029,/g3t1_1,,running
Status,645,13112283598,/g3t1_1,,success
Status,646,13120208495,/g3t1_2,,running
Status,647,13120723101,/g3t1_2,,success
Status,648,13120800695,/g3t1_3,,running
Status,649,13121171449,/g3t1_3,,success
Status,653,13162916427,/g3t1_1,,running
Status,654,13163013193,/g3t1_1,,success
Status,655,13170169248,/g3t1_2,,running
Status,656,13170849043,/g3t1_3,,running
Status,657,13170929944,/g3t1_2,,success
Status,658,13171409568,/g3t1_3,,success
Status,659,13199518474,/g4t1,,fail
Status,660,13212260929,/g3t1_1,,running
Status,661,13212631436,/g3t1_1,,success
Status,662,13220436251,/g3t1_2,,running
Status,663,13221160738,/g3t1_2,,success
Status,664,13221233166,/g3t1_3,,running
Status,665,13221802683,/g3t1_3,,success
Status,666,13261747772,/g3t1_1,,running
Status,667,13261775442,/g3t1_1,,fail
Status,668,13269803150,/g3t1_2,,running
Status,669,13269942354,/g3t1_2,,success
Status,670,13270280833,/g3t1_3,,running
Status,671,13270429576,/g3t1_3,,success
Status,672,13298350353,/g4t1,,fail
Status,673,13311788091,/g3t1_1,,running
Status,674,13311810870,/g3t1_1,,fail
Status,675,13320719598,/g3t1_2,,running
Status,676,13321345010,/g3t1_2,,success
Status,677,13321431141,/g3t1_3,,running
Status,678,13322343524,/g3t1_3,,success
Status,682,13362405422,/g3t1_1,,running
Status,683,13362439482,/g3t1_1,,success
Status,684,13370296348,/g3t1_2,,running
Status,685,13370374785,/g3t1_2,,success
Status,686,13371077307,/g3t1_3,,running
Status,687,13371123314,/g3t1_3,,success
Status,688,13398517884,/g4t1,,fail
Status,689,13412275705,/g3t1_1,,running
Status,690,13412868292,/g3t1_1,,success
Status,691,13420164099,/g3t1_2,,running
Status,692,13420382689,/g3t1_2,,success
Status,693,13421128195,/g3t1_3,,running
Status,694,13421396989,/g3t1_3,,success
Status,695,13462049579,/g3t1_1,,running
Status,696,13462074347,/g3t1_1,,fail
Status,697,13470239876,/g3t1_2,,running
Status,698,13470267967,/g3t1_2,,success
Status,699,13470801824,/g3t1_3,,running
Status,700,13471018740,/g3t1_3,,success
Status,701,13498875446,/g4t1,,fail
Status,702,13512232253,/g3t1_1,,running
Status,703,13512263877,/g3t1_1,,success
Status,704,13520566419,/g3t1_2,,running
Status,705,13520628477,/g3t1_2,,success
Status,706,13521037970,/g3t1_3,,running
Status,707,13521478010,/g3t1_3,,success
Status,711,13562532903,/g3t1_1,,running
Status,712,13562560630,/g3t1_1,,success
Status,713,13570663543,/g3t1_2,,running
Status,714,13570709250,/g3t1_2,,success
Status,715,13571152724,/g3t1_3,,running
Status,716,13571332984,/g3t1_3,,success
Status,717,13598694045,/g4t1,,fail
Status,718,13612367959,/g3t1_1,,running
Status,719,13612515803,/g3t1_1,,success
Status,720,13620742496,/g3t1_2,,running
Status,721,13621589261,/g3t1_3,,running
Status,722,13621616882,/g3t1_3,,success
Status,723,13621652804,/g3t1_2,,success
Status,724,13662494687,/g3t1_1,,running
Status,725,13662570596,/g3t1_1,,success
Status,726,13670612532,/g3t1_2,,running
Status,727,13670708724,/g3t1_2,,success
Status,728,13671129763,/g3t1_3,,running
Status,729,13671224227,/g3t1_3,,success
Status,730,13698995896,/g4t1,,fail
Status,731,13713086099,/g3t1_1,,running
Status,732,13713581631,/g3t1_1,,success
Status,733,13721802783,/g3t1_2,,running
Status,734,13722036186,/g3t1_3,,running
Status,735,13722422279,/g3t1_2,,success
Status,736,13722506441,/g3t1_3,,success
Status,740,13763625948,/g3t1_1,,running
Status,741,13763863932,/g3t1_1,,success
Status,742,13771463204,/g3t1_2,,running
Status,743,13771902600,/g3t1_2,,success
Status,744,13771960409,/g3t1_3,,running
Status,745,13772076536,/g3t1_3,,success
Status,746,13799402179,/g4t1,,fail
Status,747,13813451022,/g3t1_1,,running
Status,748,13813987499,/g3t1_1,,success
Status,749,13821245456,/g3t1_2,,running
Status,750,13821945600,/g3t1_3,,running
Status,751,13822384197,/g3t1_2,,success
Status,752,13822450882,/g3t1_3,,success
Status,753,13863092399,/g3t1_1,,running
Status,754,13863123330,/g3t1_1,,fail
Status,755,13871096638,/g3t1_2,,running
Status,756,13871317396,/g3t1_2,,success
Status,757,13871598400,/g3t1_3,,running
Status,758,13871812663,/g3t1_3,,success
Status,759,13899108048,/g4t1,,fail
Status,760,13913467566,/g3t1_1,,running
Status,761,13913819409,/g3t1_1,,success
Status,762,13921510706,/g3t1_2,,running
Status,763,13921799025,/g3t1_2,,success
Status,764,13921968401,/g3t1_3,,running
Status,765,13922432756,/g3t1_3,,success
Status,769,13963931035,/g3t1_1,,running
Status,770,13964351658,/g3t1_1,,success
Status,771,13972830085,/g3t1_2,,running
Status,772,13972915975,/g3t1_3,,running
Status,773,13973117238,/g3t1_3,,success
Status,774,13973294152,/g3t1_2,,success
Status,775,13999498142,/g4t1,,fail
Status,776,14013670883,/g3t1_1,,running
Status,777,14013910222,/g3t1_1,,success
Status,778,14021601557,/g3t1_2,,running
Status,779,14022796026,/g3t1_2,,success
Status,780,14022915423,/g3t1_3,,running
Status,781,14022954599,/g3t1_3,,success
Status,782,14063974400,/g3t1_1,,running
Status,783,14064032924,/g3t1_1,,fail
Status,784,14071904152,/g3t1_2,,running
Status,785,14072170905,/g3t1_2,,success
Status,786,14072470685,/g3t1_3,,running
Status,787,14072979452,/g3t1_3,,success
Status,788,14099971910,/g4t1,,fail
Status,789,14113937747,/g3t1_1,,running
Status,790,14114111253,/g3t1_1,,success
Status,791,14121893199,/g3t1_2,,running
Status,792,14122578060,/g3t1_2,,success
Status,793,14122625597,/g3t1_3,,running
Status,794,14122959339,/g3t1_3,,success
Status,798,14164238891,/g3t1_1,,running
Status,799,14164996180,/g3t1_1,,success
Status,800,14172101441,/g3t1_2,,running
Status,801,14172728139,/g3t1_2,,success
Status,802,14172791832,/g3t1_3,,running
Status,803,14173563613,/g3t1_3,,success
Status,804,14199913137,/g4t1,,fail
Status,805,14214443855,/g3t1_1,,running
Status,806,14215001021,/g3t1_1,,success
Status,807,14222058776,/g3t1_2,,running
Status,808,14222577913,/g3t1_2,,success
Status,809,14223118444,/g3t1_3,,running
Status,810,14223233352,/g3t1_3,,success
Status,811,14264549917,/g3t1_1,,running
Status,812,14265145716,/g3t1_1,,success
Status,813,14272252527,/g3t1_2,,running
Status,814,14272599333,/g3t1_2,,success
Status,815,14272874617,/g3t1_3,,running
Status,816,14273930374,/g3t1_3,,success
Status,817,14300230866,/g4t1,,fail
Status,818,14314509259,/g3t1_1,,running
Status,819,14314801725,/g3t1_1,,success
Status,820,14322387950,/g3t1_2,,running
Status,821,14323197563,/g3t1_2,,success
Status,822,14323323425,/g3t1_3,,running
Status,823,14323752679,/g3t1_3,,success
Status,827,14364763759,/g3t1_1,,running
Status,828,14365107331,/g3t1_1,,success
Status,829,14372435926,/g3t1_2,,running
Status,830,14372990099,/g3t1_2,,success
Status,831,14373198894,/g3t1_3,,running
Status,832,14373861909,/g3t1_3,,success
Status,833,14400277167,/g4t1,,fail
Status,834,14414870080,/g3t1_1,,running
Status,835,14415347815,/g3t1_1,,success
Status,836,14422663400,/g3t1_2,,running
Status,837,14422853942,/g3t1_2,,success
Status,838,14423462255,/g3t1_3,,running
Status,839,14424172411,/g3t1_3,,success
Status,840,14465026791,/g3t1_1,,running
Status,841,14465460936,/g3t1_1,,success
Status,842,14472568189,/g3t1_2,,running
Status,843,14473138996,/g3t1_2,,success
Status,844,14473670066,/g3t1_3,,running
Status,845,14473932910,/g3t1_3,,success
Status,846,14500429063,/g4t1,,fail
Status,847,14515139142,/g3t1_1,,running
Status,848,14515529510,/g3t1_1,,success
Status,849,14523013674,/g3t1_2,,running
Status,850,14523878314,/g3t1_3,,running
Status,851,14524275927,/g3t1_2,,success
Status,852,14524355598,/g3t1_3,,success
Status,856,14565328181,/g3t1_1,,running
Status,857,14566024521,/g3t1_1,,success
Status,858,14573922268,/g3t1_2,,running
Status,859,14573992910,/g3t1_2,,success
Status,860,14574041502,/g3t1_3,,running
Status,861,14574172219,/g3t1_3,,fail
Status,862,14600714801,/g4t1,,fail
Status,863,14615576846,/g3t1_1,,running
Status,864,14616057123,/g3t1_1,,success
Status,865,14623348522,/g3t1_2,,running
Status,866,14623541871,/g3t1_2,,success
Status,867,14623586209,/g3t1_3,,running
Status,868,14624299405,/g3t1_3,,success
Status,869,14665527698,/g3t1_1,,running
Status,870,14666036156,/g3t1_1,,success
Status,871,14673656380,/g3t1_2,,running
Status,872,14673732215,/g3t1_2,,success
Status,873,14673802201,/g3t1_3,,running
Status,874,14674373369,/g3t1_3,,success
Status,875,14700724574,/g4t1,,fail
Status,876,14715815880,/g3t1_1,,running
Status,877,14716300607,/g3t1_1,,success
Status,878,14723328765,/g3t1_2,,running
Status,879,14724256731,/g3t1_2,,success
Status,880,14724343704,/g3t1_3,,running
Status,881,14724695493,/g3t1_3,,success
Status,885,14765954578,/g3t1_1,,running
Status,886,14766024663,/g3t1_1,,success
Status,887,14773429764,/g3t1_2,,running
Status,888,14774195197,/g3t1_2,,success
Status,889,14774282375,/g3t1_3,,running
Status,890,14774672042,/g3t1_3,,success
Status,891,14800729443,/g4t1,,fail
Status,892,14815993645,/g3t1_1,,running
Status,893,14816611077,/g3t1_1,,success
Status,894,14823735768,/g3t1_2,,running
Status,895,14824256102,/g3t1_3,,running
Status,896,14824458999,/g3t1_2,,success
Status,897,14824917594,/g3t1_3,,success
Status,898,14866148262,/g3t1_1,,running
Status,899,14866399782,/g3t1_1,,success
Status,900,14873577260,/g3t1_2,,running
Status,901,14874657794,/g3t1_2,,success
Status,902,14874895381,/g3t1_3,,running
Status,903,14875221293,/g3t1_3,,success
Status,904,14900770259,/g4t1,,fail
Status,905,14916345602,/g3t1_1,,running
Status,906,14916763603,/g3t1_1,,success
Status,907,14923649929,/g3t1_2,,running
Status,908,14924813506,/g3t1_2,,success
Status,909,14924913898,/g3t1_3,,running
Status,910,14925431733,/g3t1_3,,success
Status,914,14966580179,/g3t1_1,,running
Status,915,14966660406,/g3t1_1,,success
Status,916,14973910178,/g3t1_2,,running
Status,917,14974378006,/g3t1_2,,success
Status,918,14974455204,/g3t1_3,,running
Status,919,14975043426,/g3t1_3,,success
Status,920,15000865067,/g4t1,,fail
Status,921,15016573803,/g3t1_1,,running
Status,922,15016917733,/g3t1_1,,success
Status,923,15023908518,/g3t1_2,,running
Status,924,15024859817,/g3t1_2,,success
Status,925,15024939056,/g3t1_3,,running
Status,926,15025205431,/g3t1_3,,success
Status,927,15066756755,/g3t1_1,,running
Status,928,15067376341,/g3t1_1,,success
Status,929,15074063395,/g3t1_2,,running
Status,930,15074688718,/g3t1_2,,success
Status,931,15074765019,/g3t1_3,,running
Status,932,15075023494,/g3t1_3,,success
Status,933,15100930182,/g4t1,,fail
Status,934,15117091009,/g3t1_1,,running
Status,935,15117161902,/g3t1_1,,success
Status,936,15124827662,/g3t1_2,,running
Status,937,15125045145,/g3t1_2,,success
Status,938,15125139953,/g3t1_3,,running
Status,939,15125769454,/g3t1_3,,success
Status,943,15167199193,/g3t1_1,,running
Status,944,15167346935,/g3t1_1,,success
Status,945,15174601592,/g3t1_2,,running
Status,946,15175214794,/g3t1_2,,success
Status,947,15175351528,/g3t1_3,,running
Status,948,15176196536,/g3t1_3,,success
Status,949,15201118060,/g4t1,,fail
Status,950,15217492738,/g3t1_1,,running
Status,951,15217578178,/g3t1_1,,fail
Status,952,15224727977,/g3t1_2,,running
Status,953,15224945295,/g3t1_2,,success
Status,954,15225018267,/g3t1_3,,running
Status,955,15225816727,/g3t1_3,,success
Status,956,15267751357,/g3t1_1,,running
Status,957,15267823073,/g3t1_1,,success
Status,958,15274579978,/g3t1_2,,running
Status,959,15275210832,/g3t1_2,,success
Status,960,15275514327,/g3t1_3,,running
Status,961,15275892229,/g3t1_3,,success
Status,962,15301048258,/g4t1,,fail
Status,963,15317636585,/g3t1_1,,running
Status,964,15318019173,/g3t1_1,,fail
Status,965,15324585570,/g3t1_2,,running
Status,966,15325695974,/g3t1_3,,running
Status,967,15325762801,/g3t1_2,,success
Status,968,15325872910,/g3t1_3,,success
Status,972,15367845893,/g3t1_1,,running
Status,973,15368314133,/g3t1_1,,success
Status,974,15376181297,/g3t1_2,,running
Status,975,15376456493,/g3t1_2,,success
Status,976,15376538229,/g3t1_3,,running
Status,977,15376822832,/g3t1_3,,success
Status,978,15401270961,/g4t1,,fail
Status,979,15417820528,/g3t1_1,,running
Status,980,15418216480,/g3t1_1,,success
Status,981,15425131491,/g3t1_2,,running
Status,982,15426065729,/g3t1_3,,running
Status,983,15426192052,/g3t1_2,,success
Status,984,15426386869,/g3t1_3,,success
Status,985,15468058115,/g3t1_1,,running
Status,986,15468521852,/g3t1_1,,success
Status,987,15475462114,/g3t1_2,,running
Status,988,15476096399,/g3t1_2,,success
Status,989,15476186820,/g3t1_3,,running
Status,990,15476636685,/g3t1_3,,success
Status,991,15501360418,/g4t1,,fail
Status,992,15518099658,/g3t1_1,,running
Status,993,15518409644,/g3t1_1,,success
Status,994,15525314781,/g3t1_2,,running
Status,995,15525401190,/g3t1_2,,success
Status,996,15525986931,/g3t1_3,,running
Status,997,15526319259,/g3t1_3,,success
Status,1001,15568511537,/g3t1_1,,running
Status,1002,15568729221,/g3t1_1,,success
Status,1003,15575631985,/g3t1_2,,running
Status,1004,15575970806,/g3t1_2,,success
Status,1005,15576418488,/g3t1_3,,running
Status,1006,15577125770,/g3t1_3,,success
Status,1007,15601526558,/g4t1,,fail
Status,1008,15618331270,/g3t1_1,,running
Status,1009,15618880614,/g3t1_1,,success
Status,1010,15625285646,/g3t1_2,,running
Status,1011,15626304883,/g3t1_2,,success
Status,1012,15626366935,/g3t1_3,,running
Status,1013,15626690997,/g3t1_3,,success
Status,1014,15668486929,/g3t1_1,,running
Status,1015,15668967220,/g3t1_1,,success
Status,1016,15675990548,/g3t1_2,,running
Status,1017,15676566226,/g3t1_3,,running
Status,1018,15676658519,/g3t1_2,,success
Status,1019,15676745826,/g3t1_3,,success
Status,1020,15701614905,/g4t1,,fail
Status,1021,15718446373,/g3t1_1,,running
Status,1022,15718971190,/g3t1_1,,success
Status,1023,15725939499,/g3t1_2,,running
Status,1024,15726524848,/g3t1_2,,success
Status,1025,15726648126,/g3t1_3,,running
Status,1026,15727005312,/g3t1_3,,success
Status,1030,15768948765,/g3t1_1,,running
Status,1031,15769039315,/g3t1_1,,fail
Status,1032,15776502977,/g3t1_2,,running
Status,1033,15777187642,/g3t1_3,,running
Status,1034,15777297167,/g3t1_2,,success
Status,1035,15777739756,/g3t1_3,,success
Status,1036,15801827567,/g4t1,,fail
Status,1037,15818744928,/g3t1_1,,running
Status,1038,15818906427,/g3t1_1,,success
Status,1039,15826289519,/g3t1_2,,running
Status,1040,15826796442,/g3t1_2,,success
Status,1041,15827054274,/g3t1_3,,running
Status,1042,15827411863,/g3t1_3,,success
Status,1043,15869087130,/g3t1_1,,running
Status,1044,15869367930,/g3t1_1,,success
Status,1045,15876095379,/g3t1_2,,running
Status,1046,15876968594,/g3t1_2,,success
Status,1047,15877046882,/g3t1_3,,running
Status,1048,15877366064,/g3t1_3,,success
Status,1049,15901822370,/g4t1,,fail
Status,1050,15918932192,/g3t1_1,,running
Status,1051,15919449414,/g3t1_1,,success
Status,1052,15926292409,/g3t1_2,,running
Status,1053,15927559664,/g3t1_2,,success
Status,1054,15927840719,/g3t1_3,,running
Status,1055,15928066310,/g3t1_3,,success
Status,1059,15969355088,/g3t1_1,,running
Status,1060,15969731555,/g3t1_1,,success
Status,1061,15976566062,/g3t1_2,,running
Status,1062,15976648970,/g3t1_2,,success
Status,1063,15977120834,/g3t1_3,,running
Status,1064,15977593655,/g3t1_3,,success
Status,1065,16001975312,/g4t1,,fail
Status,1066,16019570917,/g3t1_1,,running
Status,1067,16020003138,/g3t1_1,,success
Status,1068,16026911266,/g3t1_2,,running
Status,1069,16027565554,/g3t1_3,,running
Status,1070,16028026931,/g3t1_2,,success
Status,1071,16028192282,/g3t1_3,,success
Status,1072,16069379634,/g3t1_1,,running
Status,1073,16069468747,/g3t1_1,,success
Status,1074,16076565793,/g3t1_2,,running
Status,1075,16076817542,/g3t1_2,,success
Status,1076,16077359891,/g3t1_3,,running
Status,1077,16078114223,/g3t1_3,,success
Status,1078,16102112327,/g4t1,,fail
Status,1079,16119367671,/g3t1_1,,running
Status,1080,16119739088,/g3t1_1,,success
Status,1081,16126707226,/g3t1_2,,running
Status,1082,16127451860,/g3t1_2,,success
Status,1083,16128220339,/g3t1_3,,running
Status,1084,16128265371,/g3t1_3,,success
Status,1088,16168888136,/g3t1_1,,running
Status,1089,16168911853,/g3t1_1,,success
Status,1090,16176237961,/g3t1_2,,running
Status,1091,16176345178,/g3t1_2,,success
Status,1092,16177033674,/g3t1_3,,running
Status,1093,16177052737,/g3t1_3,,success
Status,1094,16202277660,/g4t1,,fail
Status,1095,16219090798,/g3t1_1,,running
Status,1096,16219558420,/g3t1_1,,success
Status,1097,16226564310,/g3t1_2,,running
Status,1098,16226798358,/g3t1_2,,success
Status,1099,16227343246,/g3t1_3,,running
Status,1100,16227515332,/g3t1_3,,success
Status,1101,16269199152,/g3t1_1,,running
Status,1102,16269239193,/g3t1_1,,fail
Status,1103,16276638770,/g3t1_2,,running
Status,1104,16276936329,/g3t1_2,,success
Status,1105,16277410705,/g3t1_3,,running
Status,1106,16277592105,/g3t1_3,,success
Status,1107,16302061579,/g4t1,,fail
Status,1108,16319502244,/g3t1_1,,running
Status,1109,16319544686,/g3t1_1,,success
Status,1110,16327411964,/g3t1_2,,running
Status,1111,16327930345,/g3t1_2,,success
Status,1112,16327996442,/g3t1_3,,running
Status,1113,16328637325,/g3t1_3,,success
Status,1117,16369189647,/g3t1_1,,running
Status,1118,16369281876,/g3t1_1,,success
Status,1119,16376573621,/g3t1_2,,running
Status,1120,16376716532,/g3t1_2,,success
Status,1121,16377354552,/g3t1_3,,running
Status,1122,16377466026,/g3t1_3,,success
Status,1123,16401867568,/g4t1,,fail
Status,1124,16420015476,/g3t1_1,,running
Status,1125,16420430674,/g3t1_1,,success
Status,1126,16427244671,/g3t1_2,,running
Status,1127,16427636483,/g3t1_2,,success
Status,1128,16427983335,/g3t1_3,,running
Status,1129,16428699310,/g3t1_3,,success
Status,1130,16470301604,/g3t1_1,,running
Status,1131,16470554791,/g3t1_1,,success
Status,1132,16477432259,/g3t1_2,,running
Status,1133,16478266846,/g3t1_3,,running
Status,1134,16478334823,/g3t1_2,,success
Status,1135,16478433133,/g3t1_3,,success
Status,1136,16502146851,/g4t1,,fail
Status,1137,16519846667,/g3t1_1,,running
Status,1138,16519889380,/g3t1_1,,success
Status,1139,16527312835,/g3t1_2,,running
Status,1140,16527370183,/g3t1_2,,success
Status,1141,16527895918,/g3t1_3,,running
Status,1142,16528118654,/g3t1_3,,success
Status,1146,16569986502,/g3t1_1,,running
Status,1147,16570026085,/g3t1_1,,success
Status,1148,16577940487,/g3t1_2,,running
Status,1149,16578001674,/g3t1_2,,success
Status,1150,16578035570,/g3t1_3,,running
Status,1151,16578377875,/g3t1_3,,success
Status,1152,16602376558,/g4t1,,fail
Status,1153,16620242263,/g3t1_1,,running
Status,1154,16620446437,/g3t1_1,,success
Status,1155,16627513762,/g3t1_2,,running
Status,1156,16627982578,/g3t1_2,,success
Status,1157,16628028114,/g3t1_3,,running
Status,1158,16628354752,/g3t1_3,,success
Status,1159,16670479194,/g3t1_1,,running
Status,1160,16670927995,/g3t1_1,,success
Status,1161,16678472482,/g3t1_2,,running
Status,1162,16679007893,/g3t1_3,,running
Status,1163,16679320014,/g3t1_2,,success
Status,1164,16679375044,/g3t1_3,,success
Status,1165,16703135958,/g4t1,,fail
Status,1166,16720745542,/g3t1_1,,running
Status,1167,16721082184,/g3t1_1,,success
Status,1168,16728453715,/g3t1_2,,running
Status,1169,16728654889,/g3t1_3,,running
Status,1170,16728754004,/g3t1_2,,success
Status,1171,16729444945,/g3t1_3,,success
Status,1175,16770779879,/g3t1_1,,running
Status,1176,16771073458,/g3t1_1,,fail
Status,1177,16778391191,/g3t1_2,,running
Status,1178,16778559754,/g3t1_2,,success
Status,1179,16779012847,/g3t1_3,,running
Status,1180,16779630612,/g3t1_3,,success
Status,1181,16803140389,/g4t1,,fail
Status,1182,16820869113,/g3t1_1,,running
Status,1183,16821325491,/g3t1_1,,success
Status,1184,16828341704,/g3t1_2,,running
Status,1185,16828824524,/g3t1_2,,success
Status,1186,16829004496,/g3t1_3,,running
Status,1187,16829475623,/g3t1_3,,success
Status,1188,16871024023,/g3t1_1,,running
Status,1189,16871513287,/g3t1_1,,success
Status,1190,16878834594,/g3t1_2,,running
Status,1191,16878900608,/g3t1_2,,success
Status,1192,16878929562,/g3t1_3,,running
Status,1193,16879748549,/g3t1_3,,success
Status,1194,16903581433,/g4t1,,fail
Status,1195,16921062660,/g3t1_1,,running
Status,1196,16921776033,/g3t1_1,,success
Status,1197,16928474207,/g3t1_2,,running
Status,1198,16928774614,/g3t1_2,,success
Status,1199,16929140114,/g3t1_3,,running
Status,1200,16929663989,/g3t1_3,,success
Status,1204,16971228862,/g3t1_1,,running
Status,1205,16971575180,/g3t1_1,,success
Status,1206,16978828789,/g3t1_2,,running
Status,1207,16979122871,/g3t1_2,,success
Status,1208,16979181538,/g3t1_3,,running
Status,1209,16980056750,/g3t1_3,,success
Status,1210,17003924218,/g4t1,,fail
Status,1211,17021222774,/g3t1_1,,running
Status,1212,17021682331,/g3t1_1,,success
Status,1213,17028910939,/g3t1_2,,running
Status,1214,17029277836,/g3t1_2,,success
Status,1215,17029349361,/g3t1_3,,running
Status,1216,17029975542,/g3t1_3,,success
Status,1217,17071707977,/g3t1_1,,running
Status,1218,17071779876,/g3t1_1,,fail
Status,1219,17079008615,/g3t1_2,,running
Status,1220,17079547180,/g3t1_2,,success
Status,1221,17079614041,/g3t1_3,,running
Status,1222,17080199463,/g3t1_3,,success
Status,1223,17103804833,/g4t1,,fail
Status,1224,17121623560,/g3t1_1,,running
Status,1225,17122150742,/g3t1_1,,success
Status,1226,17129292219,/g3t1_2,,running
Status,1227,17129382607,/g3t1_2,,success
Status,1228,17129566313,/g3t1_3,,running
Status,1229,17130064468,/g3t1_3,,success
Status,1233,17171979045,/g3t1_1,,running
Status,1234,17172060317,/g3t1_1,,fail
Status,1235,17179835012,/g3t1_2,,running
Status,1236,17179924500,/g3t1_2,,success
Status,1237,17180351802,/g3t1_3,,running
Status,1238,17180743573,/g3t1_3,,success
Status,1239,17204057632,/g4t1,,fail
Status,1240,17221792162,/g3t1_1,,running
Status,1241,17222137488,/g3t1_1,,success
Status,1242,17229427873,/g3t1_2,,running
Status,1243,17230059579,/g3t1_3,,running
Status,1244,17230183804,/g3t1_2,,success
Status,1245,17230477504,/g3t1_3,,success
Status,1246,17272162756,/g3t1_1,,running
Status,1247,17272400688,/g3t1_1,,fail
Status,1248,17279694892,/g3t1_2,,running
Status,1249,17280245085,/g3t1_3,,running
Status,1250,17280617445,/g3t1_2,,success
Status,1251,17281091756,/g3t1_3,,success
Status,1252,17304108350,/g4t1,,fail
Status,1253,17322221543,/g3t1_1,,running
Status,1254,17322293406,/g3t1_1,,fail
Status,1255,17329805878,/g3t1_2,,running
Status,1256,17330039369,/g3t1_3,,running
Status,1257,17330536940,/g3t1_2,,success
Status,1261,17331952578,/g3t1_3,,success
Status,1262,17372584185,/g3t1_1,,running
Status,1263,17372669988,/g3t1_1,,success
Status,1264,17380502366,/g3t1_2,,running
Status,1265,17380702426,/g3t1_3,,running
Status,1266,17380834245,/g3t1_2,,success
Status,1267,17380881075,/g3t1_3,,success
Status,1268,17404018958,/g4t1,,fail
Status,1269,17422485478,/g3t1_1,,running
Status,1270,17422552978,/g3t1_1,,fail
Status,1271,17429796623,/g3t1_2,,running
Status,1272,17430608366,/g3t1_2,,success
Status,1273,17430692680,/g3t1_3,,running
Status,1274,17431160506,/g3t1_3,,success
Status,1275,17472573045,/g3t1_1,,running
Status,1276,17473106972,/g3t1_1,,success
Status,1277,17480111974,/g3t1_2,,running
Status,1278,17480626121,/g3t1_3,,running
Status,1279,17480758997,/g3t1_2,,success
Status,1280,17481183669,/g3t1_3,,success
Status,1281,17504309737,/g4t1,,fail
Status,1282,17522720714,/g3t1_1,,running
Status,1283,17523080165,/g3t1_1,,success
Status,1284,17530193343,/g3t1_2,,running
Status,1285,17530634506,/g3t1_2,,success
Status,1286,17530714261,/g3t1_3,,running
Status,1287,17531497180,/g3t1_3,,success
Status,1291,17573124886,/g3t1_1,,running
Status,1292,17573194072,/g3t1_1,,success
Status,1293,17580649728,/g3t1_2,,running
Status,1294,17580775301,/g3t1_3,,running
Status,1295,17581266997,/g3t1_2,,success
Status,1296,17581333679,/g3t1_3,,success
Status,1297,17604339621,/g4t1,,fail
Status,1298,17622958166,/g3t1_1,,running
Status,1299,17623557229,/g3t1_1,,success
Status,1300,17630980289,/g3t1_2,,running
Status,1301,17631070102,/g3t1_3,,running
Status,1302,17631172138,/g3t1_2,,success
Status,1303,17631617540,/g3t1_3,,success
Status,1304,17673147151,/g3t1_1,,running
Status,1305,17673600358,/g3t1_1,,fail
Status,1306,17681180519,/g3t1_2,,running
Status,1307,17681272725,/g3t1_3,,running
Status,1308,17681378141,/g3t1_2,,success
Status,1309,17681611737,/g3t1_3,,success
Status,1310,17704565927,/g4t1,,fail
Status,1311,17723188260,/g3t1_1,,running
Status,1312,17723825199,/g3t1_1,,success
Status,1313,17730916197,/g3t1_2,,running
Status,1314,17731212771,/g3t1_3,,running
Status,1315,17731405295,/g3t1_2,,success
Status,1318,17731941817,/g3t1_3,,success
Status,1320,17773432719,/g3t1_1,,running
Status,1321,17773995625,/g3t1_1,,success
Status,1322,17781207666,/g3t1_2,,running
Status,1323,17781305360,/g3t1_2,,success
Status,1324,17781883791,/g3t1_3,,running
Status,1325,17781966043,/g3t1_3,,success
Status,1326,17804623748,/g4t1,,fail
Status,1327,17823751362,/g3t1_1,,running
Status,1328,17823819462,/g3t1_1,,success
Status,1329,17831330193,/g3t1_2,,running
Status,1330,17831426269,/g3t1_3,,running
Status,1331,17831854870,/g3t1_2,,success
Status,1332,17832071229,/g3t1_3,,success
Status,1333,17873583135,/g3t1_1,,running
Status,1334,17874212111,/g3t1_1,,success
Status,1335,17881407151,/g3t1_2,,running
Status,1336,17881600754,/g3t1_3,,running
Status,1337,17882057135,/g3t1_2,,success
Status,1338,17882123382,/g3t1_3,,success
Status,1339,17904855556,/g4t1,,fail
Status,1340,17924105922,/g3t1_1,,running
Status,1341,17924601556,/g3t1_1,,success
Status,1345,17932220974,/g3t1_2,,running
Status,1346,17932273438,/g3t1_3,,running
Status,1347,17932299865,/g3t1_2,,success
Status,1348,17932431558,/g3t1_3,,success
Status,1349,17974026908,/g3t1_1,,running
Status,1350,17974491389,/g3t1_1,,success
Status,1351,17982014180,/g3t1_2,,running
Status,1352,17982180443,/g3t1_3,,running
Status,1353,17982231152,/g3t1_2,,success
Status,1354,17982618892,/g3t1_3,,success
Status,1355,18004681318,/g4t1,,fail
Status,1356,18024748287,/g3t1_1,,running
Status,1357,18024824765,/g3t1_1,,success
Status,1358,18031887677,/g3t1_2,,running
Status,1359,18031982012,/g3t1_3,,running
Status,1360,18032482727,/g3t1_2,,success
Status,1361,18032545194,/g3t1_3,,success
Status,1362,18074096733,/g3t1_1,,running
Status,1363,18074553761,/g3t1_1,,success
Status,1364,18081624336,/g3t1_2,,running
Status,1365,18082031343,/g3t1_3,,running
Status,1366,18082150102,/g3t1_2,,success
Status,1367,18082619647,/g3t1_3,,success
Status,1368,18104933921,/g4t1,,fail
Status,1369,18124625235,/g3t1_1,,running
Status,1370,18124881539,/g3t1_1,,success
Status,1374,18132695470,/g3t1_2,,running
Status,1375,18133015204,/g3t1_3,,running
Status,1376,18133071313,/g3t1_2,,success
Status,1377,18133106332,/g3t1_3,,success
Status,1378,18174760528,/g3t1_1,,running
Status,1379,18175191092,/g3t1_1,,success
Status,1380,18182205743,/g3t1_2,,running
Status,1381,18182299655,/g3t1_3,,running
Status,1382,18182782576,/g3t1_2,,success
Status,1383,18183196920,/g3t1_3,,success
Status,1384,18204948866,/g4t1,,fail
Status,1385,18224430270,/g3t1_1,,running
Status,1386,18224477700,/g3t1_1,,fail
Status,1387,18232349111,/g3t1_2,,running
Status,1388,18232418653,/g3t1_3,,running
Status,1389,18232885722,/g3t1_2,,success
Status,1390,18233048177,/g3t1_3,,success
Status,1391,18275163590,/g3t1_1,,running
Status,1392,18275241971,/g3t1_1,,success
Status,1393,18282450002,/g3t1_2,,running
Status,1394,18282540960,/g3t1_3,,running
Status,1395,18282739330,/g3t1_2,,success
Status,1396,18282999833,/g3t1_3,,success
Status,1397,18305131138,/g4t1,,fail
Status,1398,18324929063,/g3t1_1,,running
Status,1399,18325131970,/g3t1_1,,success
Status,1403,18333172096,/g3t1_2,,running
Status,1404,18333239880,/g3t1_2,,success
Status,1405,18333458280,/g3t1_3,,running
Status,1406,18333781737,/g3t1_3,,success
Status,1407,18375208273,/g3t1_1,,running
Status,1408,18375700201,/g3t1_1,,fail
Status,1409,18382716826,/g3t1_2,,running
Status,1410,18383196396,/g3t1_3,,running
Status,1411,18383434136,/g3t1_2,,success
Status,1412,18383628389,/g3t1_3,,success
Status,1413,18405303782,/g4t1,,fail
Status,1414,18424547961,/g3t1_1,,running
Status,1415,18424649266,/g3t1_1,,success
Status,1416,18432198405,/g3t1_2,,running
Status,1417,18432327202,/g3t1_2,,fail
Status,1418,18432802858,/g3t1_3,,running
Status,1419,18432833128,/g3t1_3,,success
Status,1420,18475244190,/g3t1_1,,running
Status,1421,18475739685,/g3t1_1,,success
Status,1422,18483049289,/g3t1_2,,running
Status,1423,18483580362,/g3t1_3,,running
Status,1424,18483644494,/g3t1_2,,success
Status,1425,18484039606,/g3t1_3,,success
Status,1426,18505427954,/g4t1,,fail
Status,1427,18525025042,/g3t1_1,,running
Status,1428,18525369671,/g3t1_1,,success
Status,1432,18532496264,/g3t1_2,,running
Status,1433,18532547269,/g3t1_2,,success
Status,1434,18532810080,/g3t1_3,,running
Status,1435,18533086962,/g3t1_3,,success
Status,1436,18575051502,/g3t1_1,,running
Status,1437,18575083336,/g3t1_1,,fail
Status,1438,18582571544,/g3t1_2,,running
Status,1439,18582688122,/g3t1_2,,success
Status,1440,18582844841,/g3t1_3,,running
Status,1441,18583242837,/g3t1_3,,success
Status,1442,18605486721,/g4t1,,fail
Status,1443,18625782830,/g3t1_1,,running
Status,1444,18626017529,/g3t1_1,,success
Status,1445,18633446540,/g3t1_2,,running
Status,1446,18633551341,/g3t1_3,,running
Status,1447,18634075860,/g3t1_3,,success
Status,1448,18634148186,/g3t1_2,,success
Status,1449,18675997191,/g3t1_1,,running
Status,1450,18676494179,/g3t1_1,,success
Status,1451,18683335149,/g3t1_2,,running
Status,1452,18683760207,/g3t1_2,,success
Status,1453,18684151340,/g3t1_3,,running
Status,1454,18684500244,/g3t1_3,,success
Status,1455,18705833611,/g4t1,,fail
Status,1456,18726101805,/g3t1_1,,running
Status,1457,18726173229,/g3t1_1,,fail
Status,1461,18733726618,/g3t1_2,,running
Status,1462,18733799789,/g3t1_3,,running
Status,1463,18733894156,/g3t1_2,,success
Status,1464,18734483389,/g3t1_3,,success
Status,1465,18776123970,/g3t1_1,,running
Status,1466,18776477905,/g3t1_1,,success
Status,1467,18783862594,/g3t1_2,,running
Status,1468,18783948103,/g3t1_3,,running
Status,1469,18784376472,/g3t1_3,,success
Status,1470,18784598874,/g3t1_2,,success
Status,1471,18805835220,/g4t1,,fail
Status,1472,18826418294,/g3t1_1,,running
Status,1473,18827070851,/g3t1_1,,success
Status,1474,18833801817,/g3t1_2,,running
Status,1475,18834068524,/g3t1_3,,running
Status,1476,18834354455,/g3t1_2,,success
Status,1477,18835249242,/g3t1_3,,success
Status,1478,18876781282,/g3t1_1,,running
Status,1479,18877246448,/g3t1_1,,success
Status,1480,18884147257,/g3t1_2,,running
Status,1481,18884311599,/g3t1_3,,running
Status,1482,18884356461,/g3t1_2,,success
Status,1483,18885064893,/g3t1_3,,success
Status,1484,18905898086,/g4t1,,fail
Status,1485,18926811250,/g3t1_1,,running
Status,1486,18926896975,/g3t1_1,,fail
Status,1490,18934003936,/g3t1_2,,running
Status,1491,18934268823,/g3t1_3,,running
Status,1492,18934625906,/g3t1_2,,success
Status,1493,18934963586,/g3t1_3,,success
Status,1494,18977371901,/g3t1_1,,running
Status,1495,18977881717,/g3t1_1,,success
Status,1496,18984641020,/g3t1_2,,running
Status,1497,18984761295,/g3t1_3,,running
Status,1498,18984788542,/g3t1_2,,success
Status,1499,18985293689,/g3t1_3,,success
Status,1500,19006142247,/g4t1,,fail
Status,1501,19026831834,/g3t1_1,,running
Status,1502,19026931346,/g3t1_1,,fail
Status,1503,19034577319,/g3t1_2,,running
Status,1504,19034715891,/g3t1_3,,running
Status,1505,19035126558,/g3t1_2,,success
Status,1506,19035388603,/g3t1_3,,success
Status,1507,19076638462,/g3t1_1,,running
Status,1508,19076676415,/g3t1_1,,success
Status,1509,19083832231,/g3t1_2,,running
Status,1510,19083890479,/g3t1_2,,success
Status,1511,19083914624,/g3t1_3,,running
Status,1512,19084237268,/g3t1_3,,success
Status,1513,19105630164,/g4t1,,fail
Status,1514,19127048060,/g3t1_1,,running
Status,1515,19127501456,/g3t1_1,,success
Status,1519,19134798829,/g3t1_2,,running
Status,1520,19134887605,/g3t1_3,,running
Status,1521,19134968699,/g3t1_2,,success
Status,1522,19135243395,/g3t1_3,,success
Status,1523,19177581849,/g3t1_1,,running
Status,1524,19178013308,/g3t1_1,,success
Status,1525,19184383624,/g3t1_2,,running
Status,1526,19184754461,/g3t1_3,,running
Status,1527,19184838337,/g3t1_2,,success
Status,1528,19185282236,/g3t1_3,,success
Status,1529,19206544463,/g4t1,,fail
Status,1530,19227605137,/g3t1_1,,running
Status,1531,19227671640,/g3t1_1,,success
Status,1532,19234842378,/g3t1_2,,running
Status,1533,19235364498,/g3t1_3,,running
Status,1534,19235435445,/g3t1_2,,success
Status,1535,19235520524,/g3t1_3,,success
Status,1536,19277721700,/g3t1_1,,running
Status,1537,19277795337,/g3t1_1,,fail
Status,1538,19285032122,/g3t1_2,,running
Status,1539,19285534425,/g3t1_3,,running
Status,1540,19285651550,/g3t1_2,,success
Status,1541,19286297375,/g3t1_3,,success
Status,1542,19306516550,/g4t1,,fail
Status,1543,19328039470,/g3t1_1,,running
Status,1544,19328636231,/g3t1_1,,success
Status,1548,19334874978,/g3t1_2,,running
Status,1549,19334949672,/g3t1_3,,running
Status,1550,19335681539,/g3t1_2,,success
Status,1551,19336107452,/g3t1_3,,success
Status,1552,19378223623,/g3t1_1,,running
Status,1553,19378618536,/g3t1_1,,success
Status,1554,19385123702,/g3t1_2,,running
Status,1555,19385214841,/g3t1_2,,success
Status,1556,19385402765,/g3t1_3,,running
Status,1557,19385771681,/g3t1_3,,success
Status,1558,19406666499,/g4t1,,fail
Status,1559,19428207364,/g3t1_1,,running
Status,1560,19428559142,/g3t1_1,,success
Status,1561,19435064202,/g3t1_2,,running
Status,1562,19435486100,/g3t1_3,,running
Status,1563,19435976730,/g3t1_2,,success
Status,1564,19436061847,/g3t1_3,,success
Status,1565,19478262244,/g3t1_1,,running
Status,1566,19478333132,/g3t1_1,,success
Status,1567,19485609508,/g3t1_2,,running
Status,1568,19485697209,/g3t1_3,,running
Status,1569,19485725909,/g3t1_2,,success
Status,1570,19486434624,/g3t1_3,,success
Status,1571,19506698189,/g4t1,,fail
Status,1572,19528329217,/g3t1_1,,running
Status,1573,19528397689,/g3t1_1,,fail
Status,1577,19535600920,/g3t1_2,,running
Status,1578,19535768115,/g3t1_3,,running
Status,1579,19535802063,/g3t1_2,,success
Status,1580,19536197461,/g3t1_3,,success
Status,1581,19578564872,/g3t1_1,,running
Status,1582,19578829597,/g3t1_1,,success
Status,1583,19586091306,/g3t1_2,,running
Status,1584,19586162030,/g3t1_3,,running
Status,1585,19586202584,/g3t1_2,,success
Status,1586,19586301017,/g3t1_3,,success
Status,1587,19606903642,/g4t1,,fail
Status,1588,19628808203,/g3t1_1,,running
Status,1589,19628885629,/g3t1_1,,fail
Status,1590,19636055256,/g3t1_2,,running
Status,1591,19636143274,/g3t1_2,,success
Status,1592,19636258161,/g3t1_3,,running
Status,1593,19636635841,/g3t1_3,,success
Status,1594,19678680044,/g3t1_1,,running
Status,1595,19679151025,/g3t1_1,,success
Status,1596,19686272347,/g3t1_2,,running
Status,1597,19686458413,/g3t1_3,,running
Status,1598,19686515468,/g3t1_2,,success
Status,1599,19686574940,/g3t1_3,,success
Status,1600,19707043365,/g4t1,,fail
Status,1601,19728738401,/g3t1_1,,running
Status,1602,19729236571,/g3t1_1,,success
Status,1606,19736084847,/g3t1_2,,running
Status,1607,19736214693,/g3t1_3,,running
Status,1608,19736407071,/g3t1_3,,success
Status,1609,19736461135,/g3t1_2,,success
Status,1610,19778960224,/g3t1_1,,running
Status,1611,19779698573,/g3t1_1,,success
Status,1612,19786022681,/g3t1_2,,running
Status,1613,19786135650,/g3t1_3,,running
Status,1614,19787008903,/g3t1_3,,success
Status,1615,19787081066,/g3t1_2,,success
Status,1616,19807048108,/g4t1,,fail
Status,1617,19828952277,/g3t1_1,,running
Status,1618,19829341450,/g3t1_1,,success
Status,1619,19836490180,/g3t1_2,,running
Status,1620,19836620248,/g3t1_3,,running
Status,1621,19836843492,/g3t1_3,,success
Status,1622,19836934138,/g3t1_2,,success
Status,1623,19879226538,/g3t1_1,,running
Status,1624,19879368170,/g3t1_1,,fail
Status,1625,19886914382,/g3t1_2,,running
Status,1626,19887069704,/g3t1_3,,running
Status,1627,19887109555,/g3t1_2,,success
Status,1628,19887459142,/g3t1_3,,success
Status,1629,19907209004,/g4t1,,fail
Status,1630,19929375112,/g3t1_1,,running
Status,1631,19929794107,/g3t1_1,,success
Status,1635,19936530076,/g3t1_2,,running
Status,1636,19936608940,/g3t1_3,,running
Status,1637,19936825404,/g3t1_2,,success
Status,1638,19937230054,/g3t1_3,,success
Status,1639,19979635664,/g3t1_1,,running
Status,1640,19980038579,/g3t1_1,,success
Status,1641,19986695881,/g3t1_2,,running
Status,1642,19986832602,/g3t1_3,,running
Status,1643,19987426567,/g3t1_3,,success
Status,1644,19987815045,/g3t1_2,,success
Status,1645,20007547259,/g4t1,,fail
Status,1646,20029732300,/g3t1_1,,running
Status,1647,20030112794,/g3t1_1,,success
Status,1648,20037723299,/g3t1_2,,running
Status,1649,20037834086,/g3t1_3,,running
Status,1650,20037934855,/g3t1_2,,success
Status,1651,20037969968,/g3t1_3,,success
Status,1652,20079720183,/g3t1_1,,running
Status,1653,20080060145,/g3t1_1,,success
Status,1654,20086981656,/g3t1_2,,running
Status,1655,20087059811,/g3t1_3,,running
Status,1656,20087381354,/g3t1_2,,success
Status,1657,20087638565,/g3t1_3,,success
Status,1658,20107528834,/g4t1,,fail
Status,1659,20130028304,/g3t1_1,,running
Status,1660,20130562436,/g3t1_1,,success
Status,1664,20137123903,/g3t1_2,,running
Status,1665,20137209746,/g3t1_3,,running
Status,1666,20137312325,/g3t1_2,,success
Status,1667,20138280667,/g3t1_3,,success
Status,1668,20180382195,/g3t1_1,,running
Status,1669,20180670762,/g3t1_1,,success
Status,1670,20187447932,/g3t1_2,,running
Status,1671,20187519057,/g3t1_3,,running
Status,1672,20187604217,/g3t1_3,,success
Status,1673,20187629267,/g3t1_2,,success
Status,1674,20207122154,/g4t1,,fail
Status,1675,20230409715,/g3t1_1,,running
Status,1676,20230498705,/g3t1_1,,fail
Status,1677,20237474502,/g3t1_2,,running
Status,1678,20237551249,/g3t1_3,,running
Status,1679,20237595741,/g3t1_2,,success
Status,1680,20237740198,/g3t1_3,,success
Status,1681,20280481783,/g3t1_1,,running
Status,1682,20280902405,/g3t1_1,,success
Status,1683,20287683434,/g3t1_2,,running
