
Status,2,3491989610,/g4t1,,init
Status,3,8605982742,/g3t1_1,,init
Status,5,8606270949,/g3t1_2,,init
Status,7,8617087073,/g3t1_1,,init
Status,8,8617106742,/g3t1_1,,running
Status,9,8617415305,/g3t1_2,,init
Status,10,8617430104,/g3t1_2,,running
Status,11,8617687460,/g3t1_1,,success
Status,12,8617940473,/g3t1_2,,success
Status,13,8667320502,/g3t1_1,,running
Status,14,8667392416,/g3t1_1,,success
Status,15,8667454646,/g3t1_2,,running
Status,16,8667646839,/g3t1_2,,success
Status,17,8717324550,/g3t1_1,,running
Status,18,8717365381,/g3t1_1,,success
Status,19,8717601561,/g3t1_2,,running
Status,20,8717624976,/g3t1_2,,success
Status,21,8767490184,/g3t1_1,,running
Status,22,8767510733,/g3t1_1,,success
Status,23,8767628961,/g3t1_2,,running
Status,24,8767726772,/g3t1_2,,success
Status,26,8808758247,/g3t1_3,,init
Status,27,8817123013,/g3t1_3,,init
Status,28,8817143871,/g3t1_3,,running
Status,29,8817475085,/g3t1_1,,running
Status,30,8817707476,/g3t1_3,,success
Status,31,8817725675,/g3t1_1,,success
Status,32,8817793303,/g3t1_2,,running
Status,33,8817911089,/g3t1_2,,success
Status,34,8868358206,/g3t1_3,,running
Status,35,8869082833,/g3t1_1,,running
Status,36,8869167116,/g3t1_2,,running
Status,37,8869205630,/g3t1_3,,success
Status,38,8869369417,/g3t1_1,,success
Status,39,8869796487,/g3t1_2,,success
Status,40,8918632388,/g3t1_3,,running
Status,41,8918738500,/g3t1_1,,running
Status,42,8919310231,/g3t1_2,,running
Status,43,8919417663,/g3t1_3,,success
Status,44,8919465881,/g3t1_2,,success
Status,45,8919849535,/g3t1_1,,success
Status,46,8968541835,/g3t1_3,,running
Status,47,8968758116,/g3t1_1,,running
Status,48,8968814772,/g3t1_3,,success
Status,49,8968899663,/g3t1_2,,running
Status,50,8969745268,/g3t1_2,,success
Status,51,8970128163,/g3t1_1,,success
Status,52,9011195445,/g4t1,,success
Status,53,9018527375,/g3t1_3,,running
Status,54,9018610772,/g3t1_1,,running
Status,55,9019613054,/g3t1_3,,success
Status,56,9019723385,/g3t1_2,,running
Status,57,9019802818,/g3t1_1,,success
Status,58,9020080349,/g3t1_2,,success
Status,59,9068811160,/g3t1_3,,running
Status,60,9068910275,/g3t1_1,,running
Status,61,9069368540,/g3t1_3,,success
Status,62,9069445603,/g3t1_2,,running
Status,63,9070300650,/g3t1_2,,success
Status,64,9070413874,/g3t1_1,,success
Status,65,9111703984,/g4t1,,success
Status,66,9118701413,/g3t1_3,,running
Status,67,9119505202,/g3t1_1,,running
Status,68,9119585170,/g3t1_3,,success
Status,69,9119632761,/g3t1_2,,running
Status,70,9119729859,/g3t1_1,,success
Status,71,9120315635,/g3t1_2,,success
Status,72,9169707228,/g3t1_3,,running
Status,73,9169800952,/g3t1_1,,running
Status,74,9169833797,/g3t1_1,,success
Status,75,9170248547,/g3t1_2,,running
Status,76,9170312651,/g3t1_2,,success
Status,77,9170441140,/g3t1_3,,success
Status,78,9211627973,/g4t1,,success
Status,79,9218934292,/g3t1_3,,running
Status,80,9219014895,/g3t1_1,,running
Status,81,9219857809,/g3t1_1,,success
Status,82,9219921966,/g3t1_2,,running
Status,83,9220104176,/g3t1_3,,success
Status,84,9220469079,/g3t1_2,,success
Status,85,9269925365,/g3t1_3,,running
Status,86,9270009395,/g3t1_1,,running
Status,87,9270058898,/g3t1_3,,success
Status,88,9270264852,/g3t1_1,,success
Status,89,9270311577,/g3t1_2,,running
Status,90,9270627646,/g3t1_2,,success
Status,91,9311926511,/g4t1,,fail
Status,92,9319487295,/g3t1_3,,running
Status,93,9319611084,/g3t1_1,,running
Status,94,9320524068,/g3t1_2,,running
Status,95,9320620007,/g3t1_1,,success
Status,96,9320699388,/g3t1_3,,success
Status,97,9321308854,/g3t1_2,,success
Status,98,9369726079,/g3t1_3,,running
Status,99,9369841248,/g3t1_1,,running
Status,100,9370131526,/g3t1_3,,success
Status,101,9370270861,/g3t1_2,,running
Status,102,9370408573,/g3t1_1,,success
Status,103,9370930662,/g3t1_2,,success
Status,104,9411868917,/g4t1,,fail
Status,105,9419857081,/g3t1_3,,running
Status,106,9420099941,/g3t1_1,,running
Status,107,9420740646,/g3t1_1,,success
Status,108,9420824640,/g3t1_3,,success
Status,109,9420870499,/g3t1_2,,running
Status,110,9421292744,/g3t1_2,,success
Status,111,9469870906,/g3t1_3,,running
Status,112,9469990102,/g3t1_1,,running
Status,113,9470920630,/g3t1_2,,running
Status,114,9471004824,/g3t1_3,,success
Status,115,9471049876,/g3t1_1,,success
Status,116,9471490561,/g3t1_2,,success
Status,117,9512035027,/g4t1,,fail
Status,118,9519610035,/g3t1_3,,running
Status,119,9519677052,/g3t1_1,,running
Status,120,9519931656,/g3t1_3,,success
Status,121,9520756372,/g3t1_1,,success
Status,122,9520818245,/g3t1_2,,running
Status,123,9521092133,/g3t1_2,,success
Status,124,9571102089,/g3t1_3,,running
Status,125,9571172313,/g3t1_1,,running
Status,126,9571215447,/g3t1_3,,success
Status,127,9571314205,/g3t1_1,,success
Status,128,9571336711,/g3t1_2,,running
Status,129,9571365313,/g3t1_2,,success
Status,130,9612329380,/g4t1,,fail
Status,131,9620273215,/g3t1_3,,running
Status,132,9620378734,/g3t1_1,,running
Status,133,9620921315,/g3t1_3,,success
Status,134,9621065075,/g3t1_2,,running
Status,135,9621154117,/g3t1_1,,success
Status,136,9621671921,/g3t1_2,,success
Status,137,9671443137,/g3t1_3,,running
Status,138,9671524080,/g3t1_1,,running
Status,139,9671612912,/g3t1_3,,success
Status,140,9671651100,/g3t1_2,,running
Status,141,9671682803,/g3t1_2,,success
Status,142,9671718315,/g3t1_1,,success
Status,143,9712496118,/g4t1,,fail
Status,144,9720529831,/g3t1_3,,running
Status,145,9720646537,/g3t1_1,,running
Status,146,9721237047,/g3t1_3,,success
Status,147,9721517083,/g3t1_1,,success
Status,148,9721561249,/g3t1_2,,running
Status,149,9722040941,/g3t1_2,,success
Status,150,9770969009,/g3t1_3,,running
Status,151,9771610567,/g3t1_1,,running
Status,152,9771675850,/g3t1_1,,success
Status,153,9771709740,/g3t1_2,,running
Status,154,9772130175,/g3t1_3,,success
Status,155,9772193657,/g3t1_2,,success
Status,156,9812557188,/g4t1,,fail
Status,157,9821860154,/g3t1_3,,running
Status,158,9821944570,/g3t1_1,,running
Status,159,9822054689,/g3t1_3,,success
Status,160,9822094044,/g3t1_1,,success
Status,161,9822129056,/g3t1_2,,running
Status,162,9822406296,/g3t1_2,,success
Status,163,9871530185,/g3t1_1,,running
Status,164,9871624632,/g3t1_3,,running
Status,165,9872362957,/g3t1_1,,success
Status,166,9872458875,/g3t1_2,,running
Status,167,9872502066,/g3t1_3,,success
Status,168,9872878930,/g3t1_2,,success
Status,169,9912581588,/g4t1,,fail
Status,170,9921275685,/g3t1_3,,running
Status,171,9921844997,/g3t1_1,,running
Status,172,9922506528,/g3t1_1,,success
Status,173,9922604119,/g3t1_2,,running
Status,174,9922637579,/g3t1_2,,success
Status,175,9922686378,/g3t1_3,,success
Status,176,9971629257,/g3t1_3,,running
Status,177,9971725645,/g3t1_1,,running
Status,178,9972167804,/g3t1_2,,running
Status,179,9972548172,/g3t1_2,,success
Status,180,9972614539,/g3t1_3,,success
Status,181,9972639163,/g3t1_1,,success
Status,182,10012646726,/g4t1,,fail
Status,183,10021892309,/g3t1_3,,running
Status,184,10022018743,/g3t1_1,,running
Status,185,10022488279,/g3t1_2,,running
Status,186,10022557085,/g3t1_3,,success
Status,187,10022849452,/g3t1_1,,success
Status,188,10023210588,/g3t1_2,,success
Status,189,10072468217,/g3t1_1,,running
Status,190,10072545297,/g3t1_3,,running
Status,191,10072635356,/g3t1_2,,running
Status,192,10072658790,/g3t1_3,,success
Status,193,10072681590,/g3t1_1,,success
Status,194,10073244483,/g3t1_2,,success
Status,195,10112629651,/g4t1,,fail
Status,196,10122241056,/g3t1_3,,running
Status,197,10122738901,/g3t1_1,,running
Status,198,10122798686,/g3t1_1,,success
Status,199,10122837305,/g3t1_2,,running
Status,200,10122861186,/g3t1_3,,success
Status,201,10123664196,/g3t1_2,,success
Status,202,10172323768,/g3t1_1,,running
Status,203,10172418175,/g3t1_3,,running
Status,204,10172548126,/g3t1_3,,success
Status,205,10172601767,/g3t1_1,,success
Status,206,10173044247,/g3t1_2,,running
Status,207,10173683613,/g3t1_2,,success
Status,208,10212623170,/g4t1,,fail
Status,209,10222939465,/g3t1_3,,running
Status,210,10223022439,/g3t1_1,,running
Status,211,10223452616,/g3t1_3,,success
Status,212,10223561642,/g3t1_2,,running
Status,213,10223672662,/g3t1_1,,success
Status,214,10224022847,/g3t1_2,,success
Status,215,10272665546,/g3t1_3,,running
Status,216,10273065870,/g3t1_1,,running
Status,217,10273131065,/g3t1_3,,success
Status,218,10273171044,/g3t1_2,,running
Status,219,10273694523,/g3t1_1,,success
Status,220,10274166715,/g3t1_2,,success
Status,221,10312899501,/g4t1,,fail
Status,222,10323054836,/g3t1_3,,running
Status,223,10323832396,/g3t1_1,,running
Status,224,10323942263,/g3t1_2,,running
Status,225,10324075038,/g3t1_3,,success
Status,226,10324423779,/g3t1_2,,success
Status,227,10324489577,/g3t1_1,,success
Status,228,10373424647,/g3t1_3,,running
Status,229,10374066654,/g3t1_1,,running
Status,230,10374135540,/g3t1_2,,running
Status,231,10374207974,/g3t1_3,,success
Status,232,10374271343,/g3t1_1,,success
Status,233,10374299906,/g3t1_2,,success
Status,234,10413077630,/g4t1,,fail
Status,235,10423347840,/g3t1_1,,running
Status,236,10423443082,/g3t1_3,,running
Status,237,10423956302,/g3t1_1,,success
Status,238,10424022498,/g3t1_2,,running
Status,239,10424494722,/g3t1_3,,success
Status,240,10424592816,/g3t1_2,,success
Status,241,10474240393,/g3t1_1,,running
Status,242,10474319643,/g3t1_3,,running
Status,243,10474404671,/g3t1_3,,success
Status,244,10474441271,/g3t1_2,,running
Status,245,10474464689,/g3t1_1,,success
Status,246,10474843019,/g3t1_2,,success
Status,247,10512912307,/g4t1,,fail
Status,248,10523718702,/g3t1_1,,running
Status,249,10523796550,/g3t1_3,,running
Status,250,10524008657,/g3t1_3,,success
Status,251,10524061122,/g3t1_2,,running
Status,252,10524098849,/g3t1_1,,success
Status,253,10524771628,/g3t1_2,,success
Status,254,10574029685,/g3t1_3,,running
Status,255,10574125440,/g3t1_1,,running
Status,256,10574462151,/g3t1_2,,running
Status,257,10574517166,/g3t1_1,,success
Status,258,10574877897,/g3t1_3,,success
Status,259,10574939993,/g3t1_2,,success
Status,260,10613298785,/g4t1,,fail
Status,261,10624122895,/g3t1_3,,running
Status,262,10624221778,/g3t1_1,,running
Status,263,10624707018,/g3t1_2,,running
Status,264,10624873393,/g3t1_1,,success
Status,265,10624994369,/g3t1_3,,success
Status,266,10625727562,/g3t1_2,,success
Status,267,10674133997,/g3t1_3,,running
Status,268,10674237504,/g3t1_1,,running
Status,269,10675166716,/g3t1_2,,running
Status,270,10675236920,/g3t1_1,,success
Status,271,10675347418,/g3t1_3,,success
Status,272,10675631578,/g3t1_2,,success
Status,273,10713178683,/g4t1,,fail
Status,274,10724471785,/g3t1_3,,running
Status,275,10724550417,/g3t1_1,,running
Status,276,10724721855,/g3t1_1,,success
Status,277,10724776119,/g3t1_3,,success
Status,278,10724818886,/g3t1_2,,running
Status,279,10726081913,/g3t1_2,,success
Status,280,10774576207,/g3t1_3,,running
Status,281,10775068468,/g3t1_1,,running
Status,282,10775184363,/g3t1_1,,success
Status,283,10775374084,/g3t1_2,,running
Status,284,10775413576,/g3t1_3,,success
Status,285,10775734466,/g3t1_2,,success
Status,286,10813175684,/g4t1,,fail
Status,287,10825320226,/g3t1_1,,running
Status,288,10825420050,/g3t1_3,,running
Status,289,10825558377,/g3t1_2,,running
Status,290,10825658770,/g3t1_3,,success
Status,291,10825698494,/g3t1_1,,success
Status,292,10826142190,/g3t1_2,,success
Status,293,10875557455,/g3t1_3,,running
Status,294,10875628770,/g3t1_1,,running
Status,295,10875754486,/g3t1_3,,success
Status,296,10875791291,/g3t1_2,,running
Status,297,10875813894,/g3t1_1,,success
Status,298,10876730785,/g3t1_2,,success
Status,299,10913410228,/g4t1,,fail
Status,300,10925351910,/g3t1_3,,running
Status,301,10925442191,/g3t1_1,,running
Status,302,10926179269,/g3t1_2,,running
Status,303,10926235363,/g3t1_1,,success
Status,304,10926260719,/g3t1_3,,success
Status,305,10926285978,/g3t1_2,,success
Status,306,10975094868,/g3t1_3,,running
Status,307,10975183701,/g3t1_1,,running
Status,308,10975666047,/g3t1_3,,success
Status,309,10975724155,/g3t1_1,,success
Status,310,10976491924,/g3t1_2,,running
Status,311,10976581783,/g3t1_2,,success
Status,312,11013509126,/g4t1,,fail
Status,313,11025536439,/g3t1_3,,running
Status,314,11025735515,/g3t1_1,,running
Status,315,11026253023,/g3t1_3,,success
Status,316,11026378454,/g3t1_1,,success
Status,317,11026485615,/g3t1_2,,running
Status,318,11026667334,/g3t1_2,,success
Status,319,11075361454,/g3t1_3,,running
Status,320,11075540060,/g3t1_1,,running
Status,321,11076173202,/g3t1_1,,success
Status,322,11076250901,/g3t1_2,,running
Status,323,11076426782,/g3t1_3,,success
Status,324,11076685063,/g3t1_2,,success
Status,325,11113752701,/g4t1,,fail
Status,326,11126295159,/g3t1_3,,running
Status,327,11126421501,/g3t1_1,,running
Status,328,11126474654,/g3t1_2,,running
Status,329,11126512770,/g3t1_1,,success
Status,330,11126892570,/g3t1_3,,success
Status,331,11126984117,/g3t1_2,,success
Status,332,11175981628,/g3t1_3,,running
Status,333,11176082005,/g3t1_1,,running
Status,334,11176674665,/g3t1_2,,running
Status,335,11176865088,/g3t1_3,,success
Status,336,11176987153,/g3t1_1,,success
Status,337,11177026079,/g3t1_2,,success
Status,338,11213712112,/g4t1,,fail
Status,339,11226535294,/g3t1_3,,running
Status,340,11226633855,/g3t1_1,,running
Status,341,11226834979,/g3t1_3,,success
Status,342,11227009145,/g3t1_2,,running
Status,343,11227038110,/g3t1_1,,success
Status,344,11227061199,/g3t1_2,,success
Status,345,11277038172,/g3t1_1,,running
Status,346,11277215144,/g3t1_3,,running
Status,347,11277272524,/g3t1_3,,success
Status,348,11277360689,/g3t1_2,,running
Status,349,11277394723,/g3t1_2,,success
Status,350,11277437385,/g3t1_1,,success
Status,351,11313729173,/g4t1,,fail
Status,352,11326703564,/g3t1_3,,running
Status,353,11326983323,/g3t1_1,,running
Status,354,11327027063,/g3t1_2,,running
Status,355,11327762393,/g3t1_1,,success
Status,356,11327811500,/g3t1_2,,success
Status,357,11327926872,/g3t1_3,,success
Status,358,11377450269,/g3t1_1,,running
Status,359,11377512123,/g3t1_1,,success
Status,360,11377660209,/g3t1_3,,running
Status,361,11377701984,/g3t1_3,,success
Status,362,11377732166,/g3t1_2,,running
Status,363,11377765253,/g3t1_2,,success
Status,364,11413847647,/g4t1,,fail
Status,365,11427246971,/g3t1_3,,running
Status,366,11427431953,/g3t1_1,,running
Status,367,11428142370,/g3t1_2,,running
Status,368,11428310269,/g3t1_2,,success
Status,369,11428396719,/g3t1_3,,success
Status,370,11428473188,/g3t1_1,,success
Status,371,11477906591,/g3t1_3,,running
Status,372,11477966217,/g3t1_1,,running
Status,373,11478074105,/g3t1_1,,success
Status,374,11478096590,/g3t1_3,,success
Status,375,11478120456,/g3t1_2,,running
Status,376,11478204199,/g3t1_2,,success
Status,377,11514044812,/g4t1,,fail
Status,378,11527896571,/g3t1_1,,running
Status,379,11527953139,/g3t1_1,,success
Status,380,11527981347,/g3t1_3,,running
Status,381,11528148467,/g3t1_3,,success
Status,382,11528178370,/g3t1_2,,running
Status,383,11528232031,/g3t1_2,,success
Status,384,11578373800,/g3t1_3,,running
Status,385,11578458697,/g3t1_2,,running
Status,386,11578491662,/g3t1_2,,success
Status,387,11578679742,/g3t1_3,,success
Status,388,11578765348,/g3t1_1,,running
Status,389,11578811031,/g3t1_1,,success
Status,390,11614152011,/g4t1,,fail
Status,391,11627499483,/g3t1_3,,running
Status,392,11627662360,/g3t1_1,,running
Status,393,11627849379,/g3t1_2,,running
Status,394,11628269288,/g3t1_3,,success
Status,395,11628358234,/g3t1_1,,success
Status,396,11628746744,/g3t1_2,,success
Status,397,11677831369,/g3t1_3,,running
Status,398,11677925676,/g3t1_1,,running
Status,399,11678615715,/g3t1_3,,success
Status,400,11678676868,/g3t1_2,,running
Status,401,11678701505,/g3t1_2,,success
Status,402,11678724108,/g3t1_1,,success
Status,403,11714166361,/g4t1,,fail
Status,404,11728448278,/g3t1_3,,running
Status,405,11728526605,/g3t1_1,,running
Status,406,11728565197,/g3t1_3,,success
Status,407,11728695497,/g3t1_2,,running
Status,408,11728736314,/g3t1_2,,success
Status,409,11729462537,/g3t1_1,,success
Status,410,11778656563,/g3t1_1,,running
Status,411,11778720011,/g3t1_3,,running
Status,412,11778890168,/g3t1_2,,running
Status,413,11778971617,/g3t1_3,,success
Status,414,11779314339,/g3t1_2,,success
Status,415,11779388236,/g3t1_1,,success
Status,416,11814451266,/g4t1,,fail
Status,417,11828865424,/g3t1_2,,running
Status,418,11828966957,/g3t1_2,,success
Status,419,11829071918,/g3t1_1,,running
Status,420,11829116876,/g3t1_1,,success
Status,421,11829192917,/g3t1_3,,running
Status,422,11829331707,/g3t1_3,,success
Status,423,11878911898,/g3t1_3,,running
Status,424,11879319624,/g3t1_1,,running
Status,425,11879367169,/g3t1_2,,running
Status,426,11879397684,/g3t1_3,,success
Status,427,11879423270,/g3t1_1,,success
Status,428,11879448383,/g3t1_2,,success
Status,429,11914856939,/g4t1,,fail
Status,430,11928929437,/g3t1_2,,running
Status,431,11929005544,/g3t1_3,,running
Status,432,11929031495,/g3t1_1,,running
Status,433,11929059777,/g3t1_1,,success
Status,434,11929084029,/g3t1_3,,success
Status,435,11929259386,/g3t1_2,,success
Status,436,11978860699,/g3t1_3,,running
Status,437,11978961536,/g3t1_1,,running
Status,438,11979017384,/g3t1_2,,running
Status,439,11979938319,/g3t1_3,,success
Status,440,11980015561,/g3t1_1,,success
Status,441,11980040343,/g3t1_2,,success
Status,442,12014814226,/g4t1,,fail
Status,443,12028482717,/g3t1_1,,running
Status,444,12028600823,/g3t1_2,,running
Status,445,12028650639,/g3t1_3,,running
Status,446,12029097882,/g3t1_1,,success
Status,447,12029227913,/g3t1_2,,success
Status,448,12030379295,/g3t1_3,,success
Status,449,12078883896,/g3t1_2,,running
Status,450,12078934498,/g3t1_1,,running
Status,451,12079013491,/g3t1_3,,running
Status,452,12079033022,/g3t1_3,,success
Status,453,12079047748,/g3t1_1,,success
Status,454,12079258857,/g3t1_2,,success
Status,455,12114428523,/g4t1,,fail
Status,456,12128529517,/g3t1_1,,running
Status,457,12128577541,/g3t1_3,,running
Status,458,12128594936,/g3t1_2,,running
Status,459,12128671249,/g3t1_2,,success
Status,460,12128899527,/g3t1_1,,success
Status,461,12128939645,/g3t1_3,,success
Status,462,12178249094,/g3t1_1,,running
Status,463,12178364131,/g3t1_3,,running
Status,464,12178392776,/g3t1_2,,running
Status,465,12178429042,/g3t1_2,,success
Status,466,12178441625,/g3t1_3,,success
Status,467,12178674849,/g3t1_1,,success
Status,468,12214438277,/g4t1,,fail
Status,469,12229083340,/g3t1_1,,running
Status,470,12229166178,/g3t1_3,,running
Status,471,12229919957,/g3t1_2,,running
Status,472,12229974978,/g3t1_2,,success
Status,473,12230026180,/g3t1_3,,success
Status,474,12230061069,/g3t1_1,,success
Status,475,12278676547,/g3t1_1,,running
Status,476,12278899763,/g3t1_2,,running
Status,477,12278929354,/g3t1_1,,success
Status,478,12278947537,/g3t1_3,,running
Status,479,12278964169,/g3t1_3,,success
Status,480,12279292315,/g3t1_2,,success
Status,481,12314548727,/g4t1,,fail
Status,482,12328685004,/g3t1_3,,running
Status,483,12329075863,/g3t1_1,,running
Status,484,12329103414,/g3t1_2,,running
Status,485,12329119162,/g3t1_3,,success
Status,486,12329168157,/g3t1_1,,success
Status,487,12329182981,/g3t1_2,,success
Status,488,12379280814,/g3t1_1,,running
Status,489,12379351304,/g3t1_3,,running
Status,490,12379686118,/g3t1_2,,running
Status,491,12380147213,/g3t1_1,,success
Status,492,12380192471,/g3t1_3,,success
Status,493,12380555677,/g3t1_2,,success
Status,494,12414825800,/g4t1,,fail
Status,495,12429675640,/g3t1_1,,running
Status,496,12429740622,/g3t1_1,,success
Status,497,12429789261,/g3t1_3,,running
Status,498,12429871222,/g3t1_3,,success
Status,499,12429903419,/g3t1_2,,running
Status,500,12429936432,/g3t1_2,,success
Status,501,12479318225,/g3t1_1,,running
Status,502,12479395114,/g3t1_3,,running
Status,503,12479823254,/g3t1_3,,success
Status,504,12479872736,/g3t1_2,,running
Status,505,12479963392,/g3t1_2,,success
Status,506,12480220744,/g3t1_1,,success
Status,507,12514849093,/g4t1,,fail
Status,508,12529090959,/g3t1_1,,running
Status,509,12529145725,/g3t1_3,,running
Status,510,12529170789,/g3t1_1,,success
Status,511,12529304639,/g3t1_2,,running
Status,512,12529376116,/g3t1_3,,success
Status,513,12529983777,/g3t1_2,,success
Status,514,12580253687,/g3t1_1,,running
Status,515,12580315991,/g3t1_1,,success
Status,516,12580380342,/g3t1_3,,running
Status,517,12580399150,/g3t1_3,,success
Status,518,12580428355,/g3t1_2,,running
Status,519,12580494405,/g3t1_2,,success
Status,520,12615460788,/g4t1,,fail
Status,521,12629678723,/g3t1_1,,running
Status,522,12630207009,/g3t1_3,,running
Status,523,12630249493,/g3t1_2,,running
Status,524,12630320526,/g3t1_2,,success
Status,525,12630353182,/g3t1_1,,success
Status,526,12630383870,/g3t1_3,,success
Status,527,12679783906,/g3t1_1,,running
Status,528,12679876380,/g3t1_3,,running
Status,529,12679924617,/g3t1_2,,running
Status,530,12680461416,/g3t1_3,,success
Status,531,12680522238,/g3t1_2,,success
Status,532,12680547767,/g3t1_1,,success
Status,533,12715452427,/g4t1,,fail
Status,534,12729536558,/g3t1_1,,running
Status,535,12729587725,/g3t1_3,,running
Status,536,12729649513,/g3t1_2,,running
Status,537,12729711517,/g3t1_1,,success
Status,538,12729869406,/g3t1_3,,success
Status,539,12730148221,/g3t1_2,,success
Status,540,12779384990,/g3t1_1,,running
Status,541,12779636301,/g3t1_3,,running
Status,542,12779668712,/g3t1_2,,running
Status,543,12779682085,/g3t1_1,,success
Status,544,12779693614,/g3t1_3,,success
Status,545,12779704863,/g3t1_2,,success
Status,546,12814794561,/g4t1,,fail
Status,547,12829486752,/g3t1_1,,running
Status,548,12829527157,/g3t1_3,,running
Status,549,12829650028,/g3t1_2,,running
Status,550,12829667942,/g3t1_1,,success
Status,551,12829801621,/g3t1_3,,success
Status,552,12829821470,/g3t1_2,,success
Status,553,12880614373,/g3t1_1,,running
Status,554,12880675039,/g3t1_1,,success
Status,555,12880690245,/g3t1_3,,running
Status,556,12880702618,/g3t1_3,,success
Status,557,12880758562,/g3t1_2,,running
Status,558,12880777881,/g3t1_2,,success
Status,559,12915748370,/g4t1,,fail
Status,560,12930616042,/g3t1_1,,running
Status,561,12930697967,/g3t1_3,,running
Status,562,12930846270,/g3t1_2,,running
Status,563,12931478135,/g3t1_3,,success
Status,564,12931626321,/g3t1_2,,success
Status,565,12931709552,/g3t1_1,,success
Status,566,12980759833,/g3t1_1,,running
Status,567,12980848679,/g3t1_1,,success
Status,568,12981051259,/g3t1_2,,running
Status,569,12981078489,/g3t1_3,,running
Status,570,12981108053,/g3t1_3,,success
Status,571,12981507384,/g3t1_2,,success
Status,572,13016164923,/g4t1,,fail
Status,573,13030783990,/g3t1_1,,running
Status,574,13031278221,/g3t1_2,,running
Status,575,13031340878,/g3t1_3,,running
Status,576,13031379441,/g3t1_1,,success
Status,577,13031844300,/g3t1_3,,success
Status,578,13032122455,/g3t1_2,,success
Status,579,13080113061,/g3t1_1,,running
Status,580,13080628802,/g3t1_3,,running
Status,581,13080676398,/g3t1_1,,success
Status,582,13080690796,/g3t1_3,,success
Status,583,13080719699,/g3t1_2,,running
Status,584,13080731366,/g3t1_2,,success
Status,585,13115217495,/g4t1,,fail
Status,586,13130300906,/g3t1_1,,running
Status,587,13130336823,/g3t1_2,,running
Status,588,13130384063,/g3t1_3,,running
Status,589,13130515602,/g3t1_1,,success
Status,590,13130546784,/g3t1_2,,success
Status,591,13130555614,/g3t1_3,,success
Status,592,13181122134,/g3t1_1,,running
Status,593,13181201664,/g3t1_2,,running
Status,594,13181236285,/g3t1_3,,running
Status,595,13181269054,/g3t1_1,,success
Status,596,13181513417,/g3t1_2,,success
Status,597,13181560144,/g3t1_3,,success
Status,598,13216037971,/g4t1,,fail
Status,599,13230988422,/g3t1_1,,running
Status,600,13231071811,/g3t1_2,,running
Status,601,13231146039,/g3t1_3,,running
Status,602,13231500913,/g3t1_1,,success
Status,603,13231599676,/g3t1_2,,success
Status,604,13231641327,/g3t1_3,,success
Status,605,13281396002,/g3t1_2,,running
Status,606,13281462358,/g3t1_1,,running
Status,607,13281485284,/g3t1_3,,running
Status,608,13281550891,/g3t1_2,,success
Status,609,13281574423,/g3t1_1,,success
Status,610,13282366869,/g3t1_3,,success
Status,611,13316510526,/g4t1,,fail
Status,612,13331287551,/g3t1_2,,running
Status,613,13331415301,/g3t1_1,,running
Status,614,13331515526,/g3t1_3,,running
Status,615,13331549231,/g3t1_2,,success
Status,616,13331582715,/g3t1_1,,success
Status,617,13331664004,/g3t1_3,,success
Status,618,13381377588,/g3t1_1,,running
Status,619,13381992948,/g3t1_2,,running
Status,620,13382121141,/g3t1_1,,success
Status,621,13382166056,/g3t1_2,,success
Status,622,13382549677,/g3t1_3,,running
Status,623,13382811535,/g3t1_3,,success
Status,624,13416132416,/g4t1,,fail
Status,625,13431628194,/g3t1_2,,running
Status,626,13431706697,/g3t1_1,,running
Status,627,13431803704,/g3t1_3,,running
Status,628,13432340606,/g3t1_1,,success
Status,629,13432410735,/g3t1_3,,success
Status,630,13433991467,/g3t1_2,,success
Status,631,13481838630,/g3t1_2,,running
Status,632,13481936464,/g3t1_1,,running
Status,633,13482082304,/g3t1_3,,running
Status,634,13482127701,/g3t1_2,,success
Status,635,13482416490,/g3t1_3,,success
Status,636,13482795677,/g3t1_1,,success
Status,637,13515741874,/g4t1,,fail
Status,638,13530961487,/g3t1_2,,running
Status,639,13530990303,/g3t1_1,,running
Status,640,13531001151,/g3t1_2,,success
Status,641,13531072514,/g3t1_3,,running
Status,642,13531169658,/g3t1_1,,success
Status,643,13531187518,/g3t1_3,,success
Status,644,13581522651,/g3t1_2,,running
Status,645,13581857745,/g3t1_1,,running
Status,646,13581883868,/g3t1_3,,running
Status,647,13581912290,/g3t1_1,,success
Status,648,13581924713,/g3t1_3,,success
Status,649,13581956953,/g3t1_2,,success
Status,650,13616150873,/g4t1,,fail
Status,651,13632240203,/g3t1_2,,running
Status,652,13632304715,/g3t1_1,,running
Status,653,13632448956,/g3t1_3,,running
Status,654,13632798845,/g3t1_3,,success
Status,655,13632860968,/g3t1_1,,success
Status,656,13632947370,/g3t1_2,,success
Status,657,13683256432,/g3t1_2,,running
Status,658,13683326228,/g3t1_2,,success
Status,659,13683425854,/g3t1_1,,running
Status,660,13683449282,/g3t1_1,,success
Status,661,13683507549,/g3t1_3,,running
Status,662,13683616634,/g3t1_3,,success
Status,663,13716562710,/g4t1,,fail
Status,664,13732667387,/g3t1_2,,running
Status,665,13732740379,/g3t1_1,,running
Status,666,13733063927,/g3t1_3,,running
Status,667,13733111431,/g3t1_1,,success
Status,668,13733848109,/g3t1_2,,success
Status,669,13733945004,/g3t1_3,,success
Status,670,13783026446,/g3t1_2,,running
Status,671,13783100910,/g3t1_3,,running
Status,672,13783130155,/g3t1_1,,running
Status,673,13783154792,/g3t1_2,,success
Status,674,13783339961,/g3t1_3,,success
Status,675,13783386291,/g3t1_1,,success
Status,676,13816622191,/g4t1,,fail
Status,677,13833098117,/g3t1_3,,running
Status,678,13833156649,/g3t1_2,,running
Status,679,13833252678,/g3t1_1,,running
Status,680,13833289070,/g3t1_1,,success
Status,681,13833313288,/g3t1_2,,success
Status,682,13833361350,/g3t1_3,,success
Status,683,13882451606,/g3t1_2,,running
Status,684,13882547275,/g3t1_1,,running
Status,685,13882672704,/g3t1_3,,running
Status,686,13883131518,/g3t1_2,,success
Status,687,13883561800,/g3t1_3,,success
Status,688,13883635800,/g3t1_1,,success
Status,689,13916570258,/g4t1,,fail
Status,690,13932908304,/g3t1_3,,running
Status,691,13932986221,/g3t1_1,,running
Status,692,13933534998,/g3t1_3,,success
Status,693,13933648738,/g3t1_1,,success
Status,694,13933807904,/g3t1_2,,running
Status,695,13933837063,/g3t1_2,,success
Status,696,13983078600,/g3t1_2,,running
Status,697,13983172329,/g3t1_1,,running
Status,698,13983221727,/g3t1_3,,running
Status,699,13983392584,/g3t1_3,,success
Status,700,13983535154,/g3t1_2,,success
Status,701,13983795557,/g3t1_1,,success
Status,702,14016195658,/g4t1,,fail
Status,703,14032735363,/g3t1_2,,running
Status,704,14032775611,/g3t1_1,,running
Status,705,14032791239,/g3t1_3,,running
Status,706,14032803765,/g3t1_1,,success
Status,707,14032813047,/g3t1_3,,success
Status,708,14032897118,/g3t1_2,,success
Status,709,14082612664,/g3t1_1,,running
Status,710,14082645590,/g3t1_3,,running
Status,711,14082660934,/g3t1_2,,running
Status,712,14082671591,/g3t1_1,,success
Status,713,14082772947,/g3t1_2,,success
Status,714,14082791811,/g3t1_3,,success
Status,715,14116808972,/g4t1,,fail
Status,716,14133221561,/g3t1_1,,running
Status,717,14133371121,/g3t1_2,,running
Status,718,14133437182,/g3t1_3,,running
Status,719,14133937196,/g3t1_2,,success
Status,720,14134008663,/g3t1_3,,success
Status,721,14134409000,/g3t1_1,,success
Status,722,14182865473,/g3t1_2,,running
Status,723,14182912360,/g3t1_1,,running
Status,724,14183005899,/g3t1_3,,running
Status,725,14183032112,/g3t1_2,,success
Status,726,14183150775,/g3t1_1,,success
Status,727,14183171183,/g3t1_3,,success
Status,728,14216960030,/g4t1,,fail
Status,729,14233963190,/g3t1_2,,running
Status,730,14234029522,/g3t1_1,,running
Status,731,14234068147,/g3t1_3,,running
Status,732,14234136535,/g3t1_1,,success
Status,733,14234164189,/g3t1_2,,success
Status,734,14234867436,/g3t1_3,,success
Status,735,14283022881,/g3t1_2,,running
Status,736,14283091783,/g3t1_3,,running
Status,737,14283107791,/g3t1_1,,running
Status,738,14283221282,/g3t1_2,,success
Status,739,14283251170,/g3t1_1,,success
Status,740,14283358092,/g3t1_3,,success
Status,741,14316369705,/g4t1,,fail
Status,742,14333081370,/g3t1_2,,running
Status,743,14333117124,/g3t1_3,,running
Status,744,14333131279,/g3t1_1,,running
Status,745,14333167488,/g3t1_3,,success
Status,746,14333271345,/g3t1_2,,success
Status,747,14333295137,/g3t1_1,,success
Status,748,14383322636,/g3t1_2,,running
Status,749,14383343792,/g3t1_1,,running
Status,750,14383351814,/g3t1_3,,running
Status,751,14383359564,/g3t1_3,,success
Status,752,14383367462,/g3t1_1,,success
Status,753,14383459631,/g3t1_2,,success
Status,754,14416989970,/g4t1,,fail
Status,755,14433302508,/g3t1_1,,running
Status,756,14433337849,/g3t1_2,,running
Status,757,14433388133,/g3t1_3,,running
Status,758,14433399129,/g3t1_1,,success
Status,759,14433615455,/g3t1_2,,success
Status,760,14433652263,/g3t1_3,,success
Status,761,14484009434,/g3t1_2,,running
Status,762,14484081135,/g3t1_3,,running
Status,763,14484115377,/g3t1_3,,success
Status,764,14484260314,/g3t1_1,,running
Status,765,14484321588,/g3t1_1,,success
Status,766,14484350955,/g3t1_2,,success
Status,767,14516717077,/g4t1,,fail
Status,768,14533463218,/g3t1_3,,running
Status,769,14533501276,/g3t1_1,,running
Status,770,14533516106,/g3t1_2,,running
Status,771,14533613982,/g3t1_2,,success
Status,772,14533631425,/g3t1_3,,success
Status,773,14533702273,/g3t1_1,,success
Status,774,14584089969,/g3t1_3,,running
Status,775,14584408218,/g3t1_2,,running
Status,776,14584448985,/g3t1_1,,running
Status,777,14584840478,/g3t1_1,,success
Status,778,14584943415,/g3t1_2,,success
Status,779,14584990448,/g3t1_3,,success
Status,780,14617388267,/g4t1,,fail
Status,781,14634978329,/g3t1_2,,running
Status,782,14635095325,/g3t1_1,,running
Status,783,14635153396,/g3t1_3,,running
Status,784,14635178565,/g3t1_1,,success
Status,785,14635487825,/g3t1_2,,success
Status,786,14635544535,/g3t1_3,,success
Status,787,14684177313,/g3t1_1,,running
Status,788,14684251617,/g3t1_3,,running
Status,789,14684335064,/g3t1_2,,running
Status,790,14684675747,/g3t1_2,,success
Status,791,14684743246,/g3t1_1,,success
Status,792,14685261868,/g3t1_3,,success
Status,793,14717506778,/g4t1,,fail
Status,794,14734496584,/g3t1_1,,running
Status,795,14734562851,/g3t1_3,,running
Status,796,14734688010,/g3t1_2,,running
Status,797,14734737188,/g3t1_1,,success
Status,798,14735104501,/g3t1_2,,success
Status,799,14735247575,/g3t1_3,,success
Status,800,14784741984,/g3t1_1,,running
Status,801,14784819030,/g3t1_3,,running
Status,802,14784897623,/g3t1_2,,running
Status,803,14784936211,/g3t1_2,,success
Status,804,14784968271,/g3t1_3,,success
Status,805,14785461110,/g3t1_1,,success
Status,806,14817365727,/g4t1,,fail
Status,807,14834842429,/g3t1_2,,running
Status,808,14835206123,/g3t1_1,,running
Status,809,14835267621,/g3t1_3,,running
Status,810,14835305466,/g3t1_1,,success
Status,811,14835336018,/g3t1_3,,success
Status,812,14835634260,/g3t1_2,,success
Status,813,14885449224,/g3t1_2,,running
Status,814,14885498974,/g3t1_1,,running
Status,815,14885523426,/g3t1_3,,running
Status,816,14885557177,/g3t1_1,,success
Status,817,14885669806,/g3t1_2,,success
Status,818,14885690292,/g3t1_3,,success
Status,819,14917455931,/g4t1,,fail
Status,820,14935317274,/g3t1_1,,running
Status,821,14935403592,/g3t1_2,,running
Status,822,14935444185,/g3t1_3,,running
Status,823,14935657846,/g3t1_2,,success
Status,824,14935710842,/g3t1_1,,success
Status,825,14935770755,/g3t1_3,,success
Status,826,14985194003,/g3t1_2,,running
Status,827,14985264031,/g3t1_1,,running
Status,828,14985340819,/g3t1_3,,running
Status,829,14985375336,/g3t1_1,,success
Status,830,14985663763,/g3t1_2,,success
Status,831,14985722392,/g3t1_3,,success
Status,832,15017787337,/g4t1,,fail
Status,833,15035459070,/g3t1_1,,running
Status,834,15035531377,/g3t1_2,,running
Status,835,15035564092,/g3t1_3,,running
Status,836,15035580905,/g3t1_2,,success
Status,837,15035596984,/g3t1_1,,success
Status,838,15035612274,/g3t1_3,,success
Status,839,15085312024,/g3t1_1,,running
Status,840,15085390912,/g3t1_3,,running
Status,841,15085987295,/g3t1_2,,running
Status,842,15087024864,/g3t1_2,,success
Status,843,15087097078,/g3t1_1,,success
Status,844,15087524072,/g3t1_3,,success
Status,845,15117485656,/g4t1,,fail
Status,846,15136062632,/g3t1_3,,running
Status,847,15136141257,/g3t1_2,,running
Status,848,15136207951,/g3t1_1,,running
Status,849,15136228587,/g3t1_3,,success
Status,850,15136244379,/g3t1_2,,success
Status,851,15136261177,/g3t1_1,,success
Status,852,15185084862,/g3t1_3,,running
Status,853,15185112031,/g3t1_1,,running
Status,854,15185148081,/g3t1_2,,running
Status,855,15185157749,/g3t1_2,,success
Status,856,15185165572,/g3t1_3,,success
Status,857,15185249083,/g3t1_1,,success
Status,858,15217305194,/g4t1,,fail
Status,859,15235234756,/g3t1_1,,running
Status,860,15235285492,/g3t1_2,,running
Status,861,15235339220,/g3t1_3,,running
Status,862,15235518364,/g3t1_3,,success
Status,863,15235572147,/g3t1_2,,success
Status,864,15235592604,/g3t1_1,,success
Status,865,15285654982,/g3t1_2,,running
Status,866,15285708565,/g3t1_1,,running
Status,867,15285748435,/g3t1_3,,running
Status,868,15285824740,/g3t1_3,,success
Status,869,15285842316,/g3t1_1,,success
Status,870,15286081644,/g3t1_2,,success
Status,871,15318918157,/g4t1,,fail
Status,872,15336215256,/g3t1_2,,running
Status,873,15336280545,/g3t1_1,,running
Status,874,15336319232,/g3t1_3,,running
Status,875,15336351024,/g3t1_2,,success
Status,876,15336383952,/g3t1_3,,success
Status,877,15336419746,/g3t1_1,,success
Status,878,15386107397,/g3t1_3,,running
Status,879,15386183937,/g3t1_1,,running
Status,880,15386389761,/g3t1_2,,running
Status,881,15386657673,/g3t1_1,,success
Status,882,15386964088,/g3t1_3,,success
Status,883,15387776109,/g3t1_2,,success
Status,884,15418885499,/g4t1,,fail
Status,885,15435831103,/g3t1_3,,running
Status,886,15435884247,/g3t1_1,,running
Status,887,15435936268,/g3t1_2,,running
Status,888,15435959656,/g3t1_2,,success
Status,889,15435980360,/g3t1_3,,success
Status,890,15436001650,/g3t1_1,,success
Status,891,15485835592,/g3t1_2,,running
Status,892,15485951742,/g3t1_3,,running
Status,893,15485982366,/g3t1_1,,running
Status,894,15486371728,/g3t1_2,,success
Status,895,15486443769,/g3t1_1,,success
Status,896,15486521459,/g3t1_3,,success
Status,897,15518069757,/g4t1,,fail
Status,898,15536078179,/g3t1_3,,running
Status,899,15536145594,/g3t1_1,,running
Status,900,15536208730,/g3t1_2,,running
Status,901,15536517089,/g3t1_1,,success
Status,902,15536577148,/g3t1_2,,success
Status,903,15536863999,/g3t1_3,,success
Status,904,15586265689,/g3t1_1,,running
Status,905,15586318110,/g3t1_2,,running
Status,906,15586378319,/g3t1_3,,running
Status,907,15586392600,/g3t1_3,,success
Status,908,15586406069,/g3t1_1,,success
Status,909,15586560722,/g3t1_2,,success
Status,910,15617779868,/g4t1,,fail
Status,911,15636165358,/g3t1_1,,running
Status,912,15636196659,/g3t1_3,,running
Status,913,15636227586,/g3t1_2,,running
Status,914,15636238443,/g3t1_3,,success
Status,915,15636248266,/g3t1_1,,success
Status,916,15636367489,/g3t1_2,,success
Status,917,15686159033,/g3t1_1,,running
Status,918,15686194249,/g3t1_3,,running
Status,919,15686223749,/g3t1_2,,running
Status,920,15686263653,/g3t1_1,,success
Status,921,15686273700,/g3t1_2,,success
Status,922,15686358343,/g3t1_3,,success
Status,923,15717944433,/g4t1,,fail
Status,924,15736505580,/g3t1_2,,running
Status,925,15736535030,/g3t1_3,,running
Status,926,15736631062,/g3t1_1,,running
Status,927,15736651001,/g3t1_1,,success
Status,928,15736664182,/g3t1_3,,success
Status,929,15736682731,/g3t1_2,,success
Status,930,15786957641,/g3t1_3,,running
Status,931,15787045063,/g3t1_2,,running
Status,932,15787178771,/g3t1_1,,running
Status,933,15787509359,/g3t1_1,,success
Status,934,15787685225,/g3t1_3,,success
Status,935,15787725130,/g3t1_2,,success
Status,936,15818610085,/g4t1,,fail
Status,937,15837027648,/g3t1_2,,running
Status,938,15837094089,/g3t1_3,,running
Status,939,15837199749,/g3t1_1,,running
Status,940,15837238847,/g3t1_1,,success
Status,941,15837272547,/g3t1_2,,success
Status,942,15837517909,/g3t1_3,,success
Status,943,15886985626,/g3t1_2,,running
Status,944,15887248883,/g3t1_3,,running
Status,945,15887287607,/g3t1_1,,running
Status,946,15887653769,/g3t1_3,,success
Status,947,15887718158,/g3t1_1,,success
Status,948,15888203767,/g3t1_2,,success
Status,949,15918563209,/g4t1,,fail
Status,950,15937430981,/g3t1_2,,running
Status,951,15937486650,/g3t1_3,,running
Status,952,15937510952,/g3t1_1,,running
Status,953,15937622372,/g3t1_3,,success
Status,954,15937654396,/g3t1_2,,success
Status,955,15937881230,/g3t1_1,,success
Status,956,15987711212,/g3t1_1,,running
Status,957,15987800740,/g3t1_2,,running
Status,958,15987827941,/g3t1_3,,running
Status,959,15987880448,/g3t1_2,,success
Status,960,15987902163,/g3t1_1,,success
Status,961,15987932578,/g3t1_3,,success
Status,962,16018640791,/g4t1,,fail
Status,963,16037544246,/g3t1_3,,running
Status,964,16037667687,/g3t1_2,,running
Status,965,16037704293,/g3t1_1,,running
Status,966,16037949765,/g3t1_3,,success
Status,967,16038009633,/g3t1_2,,success
Status,968,16038038651,/g3t1_1,,success
Status,969,16087801161,/g3t1_2,,running
Status,970,16087949166,/g3t1_3,,running
Status,971,16087993136,/g3t1_1,,running
Status,972,16088285784,/g3t1_2,,success
Status,973,16088351149,/g3t1_1,,success
Status,974,16088692411,/g3t1_3,,success
Status,975,16118931003,/g4t1,,fail
Status,976,16138330254,/g3t1_3,,running
Status,977,16138406015,/g3t1_1,,running
Status,978,16138603715,/g3t1_2,,running
Status,979,16138666669,/g3t1_1,,success
Status,980,16138776055,/g3t1_3,,success
Status,981,16138813706,/g3t1_2,,success
Status,982,16188735961,/g3t1_3,,running
Status,983,16188825040,/g3t1_2,,running
Status,984,16189083957,/g3t1_1,,running
Status,985,16189130963,/g3t1_3,,success
Status,986,16189169892,/g3t1_1,,success
Status,987,16189374017,/g3t1_2,,success
Status,988,16219171416,/g4t1,,fail
Status,989,16239255574,/g3t1_3,,running
Status,990,16239380081,/g3t1_2,,running
Status,991,16239567188,/g3t1_1,,running
Status,992,16239622294,/g3t1_1,,success
Status,993,16239682260,/g3t1_3,,success
Status,994,16239824469,/g3t1_2,,success
Status,995,16288405551,/g3t1_3,,running
Status,996,16289244789,/g3t1_2,,running
Status,997,16289316238,/g3t1_1,,running
Status,998,16289372443,/g3t1_3,,success
Status,999,16289463605,/g3t1_2,,success
Status,1000,16289504763,/g3t1_1,,success
Status,1001,16319302090,/g4t1,,fail
Status,1002,16338806103,/g3t1_3,,running
Status,1003,16338894044,/g3t1_2,,running
Status,1004,16339000694,/g3t1_1,,running
Status,1005,16339042713,/g3t1_3,,success
Status,1006,16339077298,/g3t1_2,,success
Status,1007,16339108674,/g3t1_1,,success
Status,1008,16389236106,/g3t1_3,,running
Status,1009,16389355839,/g3t1_2,,running
Status,1010,16389416050,/g3t1_1,,running
Status,1011,16389805336,/g3t1_1,,success
Status,1012,16389883941,/g3t1_2,,success
Status,1013,16390353050,/g3t1_3,,success
Status,1014,16419399293,/g4t1,,fail
Status,1015,16438756990,/g3t1_3,,running
Status,1016,16438838870,/g3t1_2,,running
Status,1017,16438969925,/g3t1_1,,running
Status,1018,16439424891,/g3t1_2,,success
Status,1019,16439499097,/g3t1_3,,success
Status,1020,16439739974,/g3t1_1,,success
Status,1021,16488856070,/g3t1_3,,running
Status,1022,16488984072,/g3t1_2,,running
Status,1023,16489320969,/g3t1_1,,running
Status,1024,16489378450,/g3t1_1,,success
Status,1025,16489418667,/g3t1_3,,success
Status,1026,16489450580,/g3t1_2,,success
Status,1027,16519466442,/g4t1,,fail
Status,1028,16538964247,/g3t1_3,,running
Status,1029,16539054803,/g3t1_2,,running
Status,1030,16539113891,/g3t1_1,,running
Status,1031,16539226030,/g3t1_3,,success
Status,1032,16539540473,/g3t1_2,,success
Status,1033,16539606819,/g3t1_1,,success
Status,1034,16589748063,/g3t1_2,,running
Status,1035,16589837323,/g3t1_3,,running
Status,1036,16590009133,/g3t1_1,,running
Status,1037,16590046306,/g3t1_3,,success
Status,1038,16590072232,/g3t1_2,,success
Status,1039,16590097170,/g3t1_1,,success
Status,1040,16619643707,/g4t1,,fail
Status,1041,16639278819,/g3t1_3,,running
Status,1042,16639381711,/g3t1_2,,running
Status,1043,16639419532,/g3t1_1,,running
Status,1044,16639680094,/g3t1_1,,success
Status,1045,16640321667,/g3t1_2,,success
Status,1046,16640793834,/g3t1_3,,success
Status,1047,16690212069,/g3t1_2,,running
Status,1048,16690267102,/g3t1_3,,running
Status,1049,16690446256,/g3t1_1,,running
Status,1050,16690473906,/g3t1_3,,success
Status,1051,16690517430,/g3t1_1,,success
Status,1052,16690606276,/g3t1_2,,success
Status,1053,16719846694,/g4t1,,fail
Status,1054,16739763105,/g3t1_3,,running
Status,1055,16739839109,/g3t1_2,,running
Status,1056,16739946908,/g3t1_1,,running
Status,1057,16739975434,/g3t1_3,,success
Status,1058,16740004314,/g3t1_2,,success
Status,1059,16740362516,/g3t1_1,,success
Status,1060,16789860820,/g3t1_2,,running
Status,1061,16790031007,/g3t1_1,,running
Status,1062,16790074038,/g3t1_3,,running
Status,1063,16790527722,/g3t1_2,,success
Status,1064,16790604342,/g3t1_3,,success
Status,1065,16790762906,/g3t1_1,,success
Status,1066,16820006776,/g4t1,,fail
Status,1067,16839917363,/g3t1_2,,running
Status,1068,16840317596,/g3t1_3,,running
Status,1069,16840392705,/g3t1_3,,success
Status,1070,16840459677,/g3t1_1,,running
Status,1071,16840490237,/g3t1_2,,success
Status,1072,16840581792,/g3t1_1,,success
Status,1073,16890467285,/g3t1_3,,running
Status,1074,16890545302,/g3t1_1,,running
Status,1075,16890588567,/g3t1_2,,running
Status,1076,16890762247,/g3t1_3,,success
Status,1077,16890849311,/g3t1_2,,success
Status,1078,16890879471,/g3t1_1,,success
Status,1079,16920075481,/g4t1,,fail
Status,1080,16940510214,/g3t1_3,,running
Status,1081,16940577687,/g3t1_1,,running
Status,1082,16940607459,/g3t1_2,,running
Status,1083,16940661650,/g3t1_2,,success
Status,1084,16940769210,/g3t1_3,,success
Status,1085,16940803510,/g3t1_1,,success
Status,1086,16990621533,/g3t1_2,,running
Status,1087,16990714887,/g3t1_3,,running
Status,1088,16990861172,/g3t1_1,,running
Status,1089,16991757345,/g3t1_1,,success
Status,1090,16991831088,/g3t1_2,,success
Status,1091,16991862997,/g3t1_3,,success
Status,1092,17019709730,/g4t1,,fail
Status,1093,17039711088,/g3t1_3,,running
Status,1094,17039736366,/g3t1_1,,running
Status,1095,17039746325,/g3t1_2,,running
Status,1096,17039770284,/g3t1_2,,success
Status,1097,17039804420,/g3t1_1,,success
Status,1098,17039823068,/g3t1_3,,success
Status,1099,17090927276,/g3t1_1,,running
Status,1100,17091077237,/g3t1_3,,running
Status,1101,17091106607,/g3t1_2,,running
Status,1102,17091157654,/g3t1_1,,success
Status,1103,17091226481,/g3t1_3,,success
Status,1104,17091249692,/g3t1_2,,success
Status,1105,17120251220,/g4t1,,fail
Status,1106,17141274522,/g3t1_3,,running
Status,1107,17141340990,/g3t1_3,,success
Status,1108,17141445617,/g3t1_2,,running
Status,1109,17141471552,/g3t1_1,,running
Status,1110,17141493117,/g3t1_1,,success
Status,1111,17141513622,/g3t1_2,,success
Status,1112,17190878190,/g3t1_3,,running
Status,1113,17190924192,/g3t1_3,,success
Status,1114,17191038715,/g3t1_1,,running
Status,1115,17191050344,/g3t1_1,,success
Status,1116,17191084861,/g3t1_2,,running
Status,1117,17191100402,/g3t1_2,,success
Status,1118,17219669122,/g4t1,,fail
Status,1119,17240763506,/g3t1_3,,running
Status,1120,17240878527,/g3t1_1,,running
Status,1121,17240897769,/g3t1_2,,running
Status,1122,17240916813,/g3t1_2,,success
Status,1123,17241035544,/g3t1_1,,success
Status,1124,17241048634,/g3t1_3,,success
Status,1125,17291372403,/g3t1_2,,running
Status,1126,17291557269,/g3t1_1,,running
Status,1127,17291590786,/g3t1_3,,running
Status,1128,17291617264,/g3t1_3,,success
Status,1129,17291653009,/g3t1_1,,success
Status,1130,17291761870,/g3t1_2,,success
Status,1131,17320381769,/g4t1,,fail
Status,1132,17340810339,/g3t1_1,,running
Status,1133,17341135985,/g3t1_2,,running
Status,1134,17341190843,/g3t1_3,,running
Status,1135,17341226006,/g3t1_1,,success
Status,1136,17341451021,/g3t1_2,,success
Status,1137,17341486400,/g3t1_3,,success
Status,1138,17391270958,/g3t1_2,,running
Status,1139,17391339785,/g3t1_1,,running
Status,1140,17391372434,/g3t1_3,,running
Status,1141,17391404417,/g3t1_1,,success
Status,1142,17391563070,/g3t1_2,,success
Status,1143,17391936918,/g3t1_3,,success
Status,1144,17420321473,/g4t1,,fail
Status,1145,17441127028,/g3t1_1,,running
Status,1146,17441204931,/g3t1_3,,running
Status,1147,17441278442,/g3t1_2,,running
Status,1148,17441653462,/g3t1_3,,success
Status,1149,17441747266,/g3t1_1,,success
Status,1150,17441781074,/g3t1_2,,success
Status,1151,17491463787,/g3t1_2,,running
Status,1152,17491529647,/g3t1_1,,running
Status,1153,17491606358,/g3t1_3,,running
Status,1154,17491634502,/g3t1_2,,success
Status,1155,17491916647,/g3t1_1,,success
Status,1156,17492034008,/g3t1_3,,success
Status,1157,17520372682,/g4t1,,fail
Status,1158,17541301048,/g3t1_1,,running
Status,1159,17541387460,/g3t1_2,,running
Status,1160,17541470771,/g3t1_3,,running
Status,1161,17541493732,/g3t1_2,,success
Status,1162,17541521421,/g3t1_1,,success
Status,1163,17541542899,/g3t1_3,,success
Status,1164,17592196973,/g3t1_2,,running
Status,1165,17592359675,/g3t1_1,,running
Status,1166,17592400291,/g3t1_3,,running
Status,1167,17592424142,/g3t1_2,,success
Status,1168,17592447233,/g3t1_1,,success
Status,1169,17592640854,/g3t1_3,,success
Status,1170,17620787374,/g4t1,,fail
Status,1171,17642475493,/g3t1_3,,running
Status,1172,17642580073,/g3t1_2,,running
Status,1173,17642748975,/g3t1_1,,running
Status,1174,17643157439,/g3t1_2,,success
Status,1175,17643204653,/g3t1_1,,success
Status,1176,17643295768,/g3t1_3,,success
Status,1177,17692112648,/g3t1_3,,running
Status,1178,17692213180,/g3t1_1,,running
Status,1179,17692688207,/g3t1_3,,success
Status,1180,17692764876,/g3t1_2,,running
Status,1181,17692912032,/g3t1_2,,success
Status,1182,17692994265,/g3t1_1,,success
Status,1183,17721026798,/g4t1,,fail
Status,1184,17741404493,/g3t1_3,,running
Status,1185,17741465431,/g3t1_2,,running
Status,1186,17741481746,/g3t1_1,,running
Status,1187,17741493568,/g3t1_2,,success
Status,1188,17741535838,/g3t1_3,,success
Status,1189,17741682064,/g3t1_1,,success
Status,1190,17791516924,/g3t1_3,,running
Status,1191,17791550190,/g3t1_1,,running
Status,1192,17791586159,/g3t1_1,,success
Status,1193,17791595218,/g3t1_2,,running
Status,1194,17791605319,/g3t1_2,,success
Status,1195,17791664020,/g3t1_3,,success
Status,1196,17821222439,/g4t1,,fail
Status,1197,17842774934,/g3t1_3,,running
Status,1198,17842907630,/g3t1_2,,running
Status,1199,17842960972,/g3t1_1,,running
Status,1200,17842994974,/g3t1_3,,success
Status,1201,17843102577,/g3t1_2,,success
Status,1202,17843463420,/g3t1_1,,success
Status,1203,17891826538,/g3t1_2,,running
Status,1204,17891862527,/g3t1_3,,running
Status,1205,17891878285,/g3t1_1,,running
Status,1206,17891983960,/g3t1_1,,success
Status,1207,17892003739,/g3t1_2,,success
Status,1208,17892015995,/g3t1_3,,success
Status,1209,17920477173,/g4t1,,fail
Status,1210,17942482978,/g3t1_3,,running
Status,1211,17942540029,/g3t1_1,,running
Status,1212,17942660586,/g3t1_2,,running
Status,1213,17942684239,/g3t1_1,,success
Status,1214,17942708422,/g3t1_2,,success
Status,1215,17942872092,/g3t1_3,,success
Status,1216,17992455790,/g3t1_3,,running
Status,1217,17992588159,/g3t1_2,,running
Status,1218,17992647813,/g3t1_1,,running
Status,1219,17993284734,/g3t1_1,,success
Status,1220,17993344636,/g3t1_3,,success
Status,1221,17993427481,/g3t1_2,,success
Status,1222,18021019784,/g4t1,,fail
Status,1223,18042599627,/g3t1_1,,running
Status,1224,18042681690,/g3t1_3,,running
Status,1225,18042821809,/g3t1_2,,running
Status,1226,18042854094,/g3t1_3,,success
Status,1227,18043199715,/g3t1_2,,success
Status,1228,18043288859,/g3t1_1,,success
Status,1229,18092582731,/g3t1_2,,running
Status,1230,18092655246,/g3t1_1,,running
Status,1231,18092688257,/g3t1_3,,running
Status,1232,18093698382,/g3t1_1,,success
Status,1233,18093929434,/g3t1_3,,success
Status,1234,18093986296,/g3t1_2,,success
Status,1235,18121164176,/g4t1,,fail
Status,1236,18143074046,/g3t1_1,,running
Status,1237,18143126728,/g3t1_2,,running
Status,1238,18143212807,/g3t1_3,,running
Status,1239,18143240596,/g3t1_2,,success
Status,1240,18143278460,/g3t1_3,,success
Status,1241,18143357310,/g3t1_1,,success
Status,1242,18193173984,/g3t1_2,,running
Status,1243,18193233327,/g3t1_1,,running
Status,1244,18193273470,/g3t1_3,,running
Status,1245,18193347550,/g3t1_2,,success
Status,1246,18193369406,/g3t1_1,,success
Status,1247,18193394546,/g3t1_3,,success
Status,1248,18221447787,/g4t1,,fail
Status,1249,18243463381,/g3t1_2,,running
Status,1250,18243560749,/g3t1_1,,running
Status,1251,18243604104,/g3t1_3,,running
Status,1252,18243838908,/g3t1_2,,success
Status,1253,18244295764,/g3t1_3,,success
Status,1254,18244401320,/g3t1_1,,success
Status,1255,18294122363,/g3t1_1,,running
Status,1256,18294215567,/g3t1_2,,running
Status,1257,18294339763,/g3t1_3,,running
Status,1258,18294671811,/g3t1_3,,success
Status,1259,18294764494,/g3t1_1,,success
Status,1260,18294811017,/g3t1_2,,success
Status,1261,18321563445,/g4t1,,fail
Status,1262,18344080446,/g3t1_2,,running
Status,1263,18344158639,/g3t1_1,,running
Status,1264,18344308257,/g3t1_3,,running
Status,1265,18344349492,/g3t1_1,,success
Status,1266,18344381530,/g3t1_3,,success
Status,1267,18344782355,/g3t1_2,,success
Status,1268,18394440547,/g3t1_1,,running
Status,1269,18394538636,/g3t1_2,,running
Status,1270,18394578171,/g3t1_3,,running
Status,1271,18394617800,/g3t1_2,,success
Status,1272,18394655868,/g3t1_1,,success
Status,1273,18394695005,/g3t1_3,,success
Status,1274,18421825846,/g4t1,,fail
Status,1275,18444154541,/g3t1_2,,running
Status,1276,18444256339,/g3t1_1,,running
Status,1277,18444304585,/g3t1_3,,running
Status,1278,18444347097,/g3t1_1,,success
Status,1279,18444751406,/g3t1_2,,success
Status,1280,18444877589,/g3t1_3,,success
Status,1281,18494519756,/g3t1_2,,running
Status,1282,18494633225,/g3t1_1,,running
Status,1283,18494693007,/g3t1_3,,running
Status,1284,18494724675,/g3t1_2,,success
Status,1285,18495439464,/g3t1_3,,success
Status,1286,18495507938,/g3t1_1,,success
Status,1287,18521964719,/g4t1,,fail
Status,1288,18544349348,/g3t1_2,,running
Status,1289,18544456075,/g3t1_3,,running
Status,1290,18544583005,/g3t1_1,,running
Status,1291,18544606771,/g3t1_3,,success
Status,1292,18544773741,/g3t1_1,,success
Status,1293,18544834865,/g3t1_2,,success
Status,1294,18594770510,/g3t1_2,,running
Status,1295,18594975016,/g3t1_1,,running
Status,1296,18595020178,/g3t1_3,,running
Status,1297,18595134564,/g3t1_2,,success
Status,1298,18595498202,/g3t1_1,,success
Status,1299,18595613729,/g3t1_3,,success
Status,1300,18622049836,/g4t1,,fail
Status,1301,18644662707,/g3t1_2,,running
Status,1302,18644756007,/g3t1_3,,running
Status,1303,18644897731,/g3t1_1,,running
Status,1304,18644939769,/g3t1_1,,success
Status,1305,18645106955,/g3t1_2,,success
Status,1306,18645255811,/g3t1_3,,success
Status,1307,18694740734,/g3t1_2,,running
Status,1308,18694866555,/g3t1_3,,running
Status,1309,18694916444,/g3t1_1,,running
Status,1310,18695818003,/g3t1_3,,success
Status,1311,18695884928,/g3t1_2,,success
Status,1312,18696044874,/g3t1_1,,success
Status,1313,18722284334,/g4t1,,fail
Status,1314,18744577541,/g3t1_2,,running
Status,1315,18744674379,/g3t1_1,,running
Status,1316,18744782666,/g3t1_3,,running
Status,1317,18745049543,/g3t1_1,,success
Status,1318,18745117598,/g3t1_2,,success
Status,1319,18745153879,/g3t1_3,,success
Status,1320,18794792796,/g3t1_3,,running
Status,1321,18794904611,/g3t1_2,,running
Status,1322,18795032856,/g3t1_1,,running
Status,1323,18795599276,/g3t1_2,,success
Status,1324,18795662232,/g3t1_3,,success
Status,1325,18795827903,/g3t1_1,,success
Status,1326,18822347633,/g4t1,,fail
Status,1327,18845188924,/g3t1_2,,running
Status,1328,18845276266,/g3t1_1,,running
Status,1329,18845307562,/g3t1_3,,running
Status,1330,18845573786,/g3t1_1,,success
Status,1331,18845695071,/g3t1_3,,success
Status,1332,18845733191,/g3t1_2,,success
Status,1333,18895100464,/g3t1_2,,running
Status,1334,18895183965,/g3t1_1,,running
Status,1335,18895222844,/g3t1_3,,running
Status,1336,18895917947,/g3t1_1,,success
Status,1337,18896006441,/g3t1_3,,success
Status,1338,18896389063,/g3t1_2,,success
Status,1339,18921894535,/g4t1,,fail
Status,1340,18944830513,/g3t1_3,,running
Status,1341,18944859307,/g3t1_2,,running
Status,1342,18944898935,/g3t1_1,,running
Status,1343,18944913962,/g3t1_1,,success
Status,1344,18944928160,/g3t1_3,,success
Status,1345,18944968499,/g3t1_2,,success
Status,1346,18995060305,/g3t1_2,,running
Status,1347,18995125095,/g3t1_1,,running
Status,1348,18995213135,/g3t1_3,,running
Status,1349,18995248116,/g3t1_3,,success
Status,1350,18995557030,/g3t1_2,,success
Status,1351,18995668936,/g3t1_1,,success
Status,1352,19022796790,/g4t1,,fail
Status,1353,19045297893,/g3t1_2,,running
Status,1354,19045392583,/g3t1_3,,running
Status,1355,19045435838,/g3t1_1,,running
Status,1356,19045910766,/g3t1_1,,success
Status,1357,19045983543,/g3t1_3,,success
Status,1358,19046024823,/g3t1_2,,success
Status,1359,19095229800,/g3t1_2,,running
Status,1360,19095341005,/g3t1_1,,running
Status,1361,19095366319,/g3t1_3,,running
Status,1362,19095390832,/g3t1_1,,success
Status,1363,19095412521,/g3t1_2,,success
Status,1364,19095828403,/g3t1_3,,success
Status,1365,19122541981,/g4t1,,fail
Status,1366,19145343297,/g3t1_2,,running
Status,1367,19145426718,/g3t1_1,,running
Status,1368,19145532934,/g3t1_3,,running
Status,1369,19145943352,/g3t1_3,,success
Status,1370,19146006945,/g3t1_1,,success
Status,1371,19146223579,/g3t1_2,,success
Status,1372,19195448930,/g3t1_2,,running
Status,1373,19195590344,/g3t1_3,,running
Status,1374,19195625126,/g3t1_1,,running
Status,1375,19195794282,/g3t1_1,,success
Status,1376,19195836949,/g3t1_3,,success
Status,1377,19195888379,/g3t1_2,,success
Status,1378,19222750253,/g4t1,,fail
Status,1379,19245998602,/g3t1_2,,running
Status,1380,19246052634,/g3t1_3,,running
Status,1381,19246077310,/g3t1_1,,running
Status,1382,19246098990,/g3t1_1,,success
Status,1383,19246122023,/g3t1_2,,success
Status,1384,19246275808,/g3t1_3,,success
Status,1385,19295739185,/g3t1_2,,running
Status,1386,19295839603,/g3t1_3,,running
Status,1387,19295875143,/g3t1_1,,running
Status,1388,19295966117,/g3t1_2,,success
Status,1389,19296020017,/g3t1_1,,success
Status,1390,19296551131,/g3t1_3,,success
Status,1391,19322727015,/g4t1,,fail
Status,1392,19346454425,/g3t1_2,,running
Status,1393,19346507911,/g3t1_3,,running
Status,1394,19346530414,/g3t1_1,,running
Status,1395,19346551627,/g3t1_3,,success
Status,1396,19346572659,/g3t1_2,,success
Status,1397,19346732920,/g3t1_1,,success
Status,1398,19396302836,/g3t1_2,,running
Status,1399,19396393794,/g3t1_1,,running
Status,1400,19396867709,/g3t1_3,,running
Status,1401,19396940229,/g3t1_2,,success
Status,1402,19396966975,/g3t1_3,,success
Status,1403,19398009242,/g3t1_1,,success
Status,1404,19423112635,/g4t1,,fail
Status,1405,19446011114,/g3t1_2,,running
Status,1406,19446141342,/g3t1_1,,running
Status,1407,19446224412,/g3t1_3,,running
Status,1408,19446641170,/g3t1_2,,success
Status,1409,19446981387,/g3t1_1,,success
Status,1410,19447443215,/g3t1_3,,success
Status,1411,19496618453,/g3t1_2,,running
Status,1412,19496675802,/g3t1_1,,running
Status,1413,19496705567,/g3t1_3,,running
Status,1414,19496736687,/g3t1_2,,success
Status,1415,19496761097,/g3t1_1,,success
Status,1416,19496929844,/g3t1_3,,success
Status,1417,19523177624,/g4t1,,fail
Status,1418,19546859371,/g3t1_1,,running
Status,1419,19546937587,/g3t1_2,,running
Status,1420,19547132823,/g3t1_3,,running
Status,1421,19547178107,/g3t1_2,,success
Status,1422,19547210868,/g3t1_1,,success
Status,1423,19548123737,/g3t1_3,,success
Status,1424,19596921430,/g3t1_2,,running
Status,1425,19597008998,/g3t1_1,,running
Status,1426,19597050727,/g3t1_1,,success
Status,1427,19597216204,/g3t1_3,,running
Status,1428,19597259278,/g3t1_2,,success
Status,1429,19597672576,/g3t1_3,,success
Status,1430,19623348941,/g4t1,,fail
Status,1431,19646997129,/g3t1_1,,running
Status,1432,19647062403,/g3t1_2,,running
Status,1433,19647136930,/g3t1_3,,running
Status,1434,19647161223,/g3t1_1,,success
Status,1435,19647183938,/g3t1_2,,success
Status,1436,19647498305,/g3t1_3,,success
Status,1437,19697335622,/g3t1_1,,running
Status,1438,19697462069,/g3t1_2,,running
Status,1439,19697509092,/g3t1_2,,success
Status,1440,19697541832,/g3t1_3,,running
Status,1441,19697576031,/g3t1_1,,success
Status,1442,19697827644,/g3t1_3,,success
Status,1443,19723362908,/g4t1,,fail
Status,1444,19746851642,/g3t1_2,,running
Status,1445,19746995665,/g3t1_1,,running
Status,1446,19747047961,/g3t1_3,,running
Status,1447,19747691751,/g3t1_2,,success
Status,1448,19747878937,/g3t1_1,,success
Status,1449,19747989278,/g3t1_3,,success
Status,1450,19797731897,/g3t1_2,,running
Status,1451,19797824244,/g3t1_1,,running
Status,1452,19798183395,/g3t1_3,,running
Status,1453,19798417883,/g3t1_2,,success
Status,1454,19798471749,/g3t1_3,,success
Status,1455,19798885722,/g3t1_1,,success
Status,1456,19823457020,/g4t1,,fail
Status,1457,19847241039,/g3t1_1,,running
Status,1458,19847892087,/g3t1_3,,running
Status,1459,19847958688,/g3t1_2,,running
Status,1460,19848042336,/g3t1_2,,success
Status,1461,19848081810,/g3t1_3,,success
Status,1462,19848119336,/g3t1_1,,success
Status,1463,19898038648,/g3t1_2,,running
Status,1464,19898142393,/g3t1_1,,running
Status,1465,19898173531,/g3t1_3,,running
Status,1466,19898216153,/g3t1_2,,success
Status,1467,19898377577,/g3t1_3,,success
Status,1468,19898457137,/g3t1_1,,success
Status,1469,19923563849,/g4t1,,fail
Status,1470,19948231616,/g3t1_2,,running
Status,1471,19948302473,/g3t1_1,,running
Status,1472,19948326992,/g3t1_3,,running
Status,1473,19948350360,/g3t1_2,,success
Status,1474,19948402034,/g3t1_1,,success
Status,1475,19948597337,/g3t1_3,,success
Status,1476,19997378803,/g3t1_2,,running
Status,1477,19997431725,/g3t1_1,,running
Status,1478,19997455620,/g3t1_3,,running
Status,1479,19997566723,/g3t1_3,,success
Status,1480,19997915766,/g3t1_2,,success
Status,1481,19998284200,/g3t1_1,,success
Status,1482,20024068246,/g4t1,,fail
Status,1483,20047629546,/g3t1_2,,running
Status,1484,20047721201,/g3t1_1,,running
Status,1485,20047972814,/g3t1_3,,running
Status,1486,20048263365,/g3t1_2,,success
Status,1487,20048632443,/g3t1_3,,success
Status,1488,20049042019,/g3t1_1,,success
Status,1489,20098874447,/g3t1_2,,running
Status,1490,20098965589,/g3t1_1,,running
Status,1491,20098994771,/g3t1_3,,running
Status,1492,20099021724,/g3t1_1,,success
Status,1493,20099183189,/g3t1_3,,success
Status,1494,20099226274,/g3t1_2,,success
Status,1495,20123778807,/g4t1,,fail
Status,1496,20148361723,/g3t1_3,,running
Status,1497,20148453990,/g3t1_1,,running
Status,1498,20148729651,/g3t1_2,,running
Status,1499,20149042758,/g3t1_2,,success
Status,1500,20149117101,/g3t1_1,,success
Status,1501,20149311441,/g3t1_3,,success
Status,1502,20198708139,/g3t1_3,,running
Status,1503,20198779842,/g3t1_2,,running
Status,1504,20198808154,/g3t1_2,,success
Status,1505,20199172664,/g3t1_3,,success
Status,1506,20199266738,/g3t1_1,,running
Status,1507,20199302300,/g3t1_1,,success
Status,1508,20223957318,/g4t1,,fail
Status,1509,20248462943,/g3t1_2,,running
Status,1510,20248572844,/g3t1_1,,running
Status,1511,20249049944,/g3t1_3,,running
Status,1512,20249161975,/g3t1_3,,success
