
Status,2,3441199062,/g4t1,,init
Status,3,8655057193,/g3t1_1,,init
Status,5,8663553662,/g3t1_1,,init
Status,6,8663580214,/g3t1_1,,running
Status,7,8664129403,/g3t1_1,,success
Status,8,8713642124,/g3t1_1,,running
Status,9,8713657817,/g3t1_1,,success
Status,10,8763786718,/g3t1_1,,running
Status,11,8763886807,/g3t1_1,,success
Status,12,8813819228,/g3t1_1,,running
Status,13,8814006439,/g3t1_1,,success
Status,14,8859892184,/g3t1_2,,init
Status,16,8864031255,/g3t1_1,,running
Status,17,8864052607,/g3t1_1,,success
Status,18,8869670788,/g3t1_2,,init
Status,19,8869699500,/g3t1_2,,running
Status,20,8870209278,/g3t1_2,,success
Status,21,8914114958,/g3t1_1,,running
Status,22,8914349576,/g3t1_1,,success
Status,23,8920041133,/g3t1_2,,running
Status,24,8920060225,/g3t1_2,,success
Status,25,8964216333,/g3t1_1,,running
Status,26,8964304988,/g3t1_1,,success
Status,27,8969928809,/g3t1_2,,running
Status,28,8970025955,/g3t1_2,,success
Status,29,9014249522,/g3t1_1,,running
Status,30,9014270918,/g3t1_1,,success
Status,31,9019980500,/g3t1_2,,running
Status,32,9020066149,/g3t1_2,,success
Status,33,9058511520,/g4t1,,success
Status,35,9062103902,/g3t1_3,,init
Status,36,9064186964,/g3t1_1,,running
Status,37,9064377140,/g3t1_1,,success
Status,38,9070129854,/g3t1_2,,running
Status,39,9070189390,/g3t1_2,,success
Status,40,9072158213,/g3t1_3,,init
Status,41,9072184292,/g3t1_3,,running
Status,42,9072927951,/g3t1_3,,success
Status,43,9114338379,/g3t1_1,,running
Status,44,9114452317,/g3t1_1,,success
Status,45,9120355675,/g3t1_2,,running
Status,46,9120511401,/g3t1_2,,success
Status,47,9122302063,/g3t1_3,,running
Status,48,9122532595,/g3t1_3,,success
Status,49,9159157840,/g4t1,,success
Status,50,9164726933,/g3t1_1,,running
Status,51,9165029428,/g3t1_1,,success
Status,52,9170718546,/g3t1_2,,running
Status,53,9170962233,/g3t1_2,,success
Status,54,9172815240,/g3t1_3,,running
Status,55,9173076462,/g3t1_3,,success
Status,56,9215064914,/g3t1_1,,running
Status,57,9215331516,/g3t1_1,,success
Status,58,9221016728,/g3t1_2,,running
Status,59,9221143037,/g3t1_2,,success
Status,60,9222929108,/g3t1_3,,running
Status,61,9223064805,/g3t1_3,,success
Status,62,9259028772,/g4t1,,success
Status,63,9265057648,/g3t1_1,,running
Status,64,9265093799,/g3t1_1,,success
Status,65,9271028533,/g3t1_2,,running
Status,66,9271255678,/g3t1_2,,success
Status,67,9272760977,/g3t1_3,,running
Status,68,9272802107,/g3t1_3,,success
Status,69,9315047134,/g3t1_1,,running
Status,70,9315092745,/g3t1_1,,success
Status,71,9321452577,/g3t1_2,,running
Status,72,9322478445,/g3t1_2,,success
Status,73,9322893938,/g3t1_3,,running
Status,74,9323590456,/g3t1_3,,success
Status,75,9359790258,/g4t1,,fail
Status,76,9365609352,/g3t1_1,,running
Status,77,9366284095,/g3t1_1,,success
Status,78,9371558537,/g3t1_2,,running
Status,79,9371960413,/g3t1_2,,success
Status,80,9373012442,/g3t1_3,,running
Status,81,9373671754,/g3t1_3,,success
Status,82,9415393690,/g3t1_1,,running
Status,83,9415638585,/g3t1_1,,success
Status,84,9421490916,/g3t1_2,,running
Status,85,9421800355,/g3t1_2,,success
Status,86,9423156089,/g3t1_3,,running
Status,87,9423954313,/g3t1_3,,success
Status,88,9459725288,/g4t1,,fail
Status,89,9465293355,/g3t1_1,,running
Status,90,9465566509,/g3t1_1,,success
Status,91,9471376215,/g3t1_2,,running
Status,92,9471642671,/g3t1_2,,success
Status,93,9473030308,/g3t1_3,,running
Status,94,9473382206,/g3t1_3,,success
Status,95,9515401509,/g3t1_1,,running
Status,96,9515740196,/g3t1_1,,success
Status,97,9521498247,/g3t1_2,,running
Status,98,9521548144,/g3t1_2,,success
Status,99,9523249303,/g3t1_3,,running
Status,100,9523989737,/g3t1_3,,success
Status,101,9559414909,/g4t1,,fail
Status,102,9565832510,/g3t1_1,,running
Status,103,9566206830,/g3t1_1,,success
Status,104,9572290061,/g3t1_2,,running
Status,105,9573042996,/g3t1_2,,success
Status,106,9573589319,/g3t1_3,,running
Status,107,9574081011,/g3t1_3,,success
Status,108,9616331263,/g3t1_1,,running
Status,109,9616850989,/g3t1_1,,success
Status,110,9622371788,/g3t1_2,,running
Status,111,9622456910,/g3t1_2,,success
Status,112,9623693858,/g3t1_3,,running
Status,113,9624280407,/g3t1_3,,success
Status,114,9660226110,/g4t1,,fail
Status,115,9666193582,/g3t1_1,,running
Status,116,9666750630,/g3t1_1,,success
Status,117,9672854623,/g3t1_2,,running
Status,118,9673258961,/g3t1_2,,success
Status,119,9673974409,/g3t1_3,,running
Status,120,9674585665,/g3t1_3,,success
Status,121,9716340457,/g3t1_1,,running
Status,122,9716711240,/g3t1_1,,success
Status,123,9722308434,/g3t1_2,,running
Status,124,9722735104,/g3t1_2,,success
Status,125,9723823789,/g3t1_3,,running
Status,126,9724423537,/g3t1_3,,success
Status,127,9759829610,/g4t1,,fail
Status,128,9766470515,/g3t1_1,,running
Status,129,9766529099,/g3t1_1,,success
Status,130,9772338406,/g3t1_2,,running
Status,131,9772739922,/g3t1_2,,success
Status,132,9773823862,/g3t1_3,,running
Status,133,9774338277,/g3t1_3,,success
Status,134,9816072911,/g3t1_1,,running
Status,135,9816321383,/g3t1_1,,success
Status,136,9821896298,/g3t1_2,,running
Status,137,9822135916,/g3t1_2,,success
Status,138,9823490141,/g3t1_3,,running
Status,139,9823723423,/g3t1_3,,success
Status,140,9859604123,/g4t1,,fail
Status,141,9866049027,/g3t1_1,,running
Status,142,9866081123,/g3t1_1,,success
Status,143,9871994059,/g3t1_2,,running
Status,144,9872082472,/g3t1_2,,success
Status,145,9873707513,/g3t1_3,,running
Status,146,9873805680,/g3t1_3,,success
Status,147,9916069953,/g3t1_1,,running
Status,148,9916113206,/g3t1_1,,success
Status,149,9922195151,/g3t1_2,,running
Status,150,9922220446,/g3t1_2,,success
Status,151,9923830497,/g3t1_3,,running
Status,152,9923970267,/g3t1_3,,success
Status,153,9959699369,/g4t1,,fail
Status,154,9966196482,/g3t1_1,,running
Status,155,9966222422,/g3t1_1,,success
Status,156,9972259781,/g3t1_2,,running
Status,157,9972290879,/g3t1_2,,success
Status,158,9973957044,/g3t1_3,,running
Status,159,9973991831,/g3t1_3,,success
Status,160,10016633641,/g3t1_1,,running
Status,161,10017041139,/g3t1_1,,success
Status,162,10022702908,/g3t1_2,,running
Status,163,10022994251,/g3t1_2,,success
Status,164,10024415799,/g3t1_3,,running
Status,165,10024740754,/g3t1_3,,success
Status,166,10060323849,/g4t1,,fail
Status,167,10066631146,/g3t1_1,,running
Status,168,10067084730,/g3t1_1,,success
Status,169,10073019094,/g3t1_2,,running
Status,170,10073811948,/g3t1_2,,success
Status,171,10075285730,/g3t1_3,,running
Status,172,10075344912,/g3t1_3,,success
Status,173,10116838603,/g3t1_1,,running
Status,174,10117113614,/g3t1_1,,success
Status,175,10122905035,/g3t1_2,,running
Status,176,10123196817,/g3t1_2,,success
Status,177,10124610811,/g3t1_3,,running
Status,178,10125268298,/g3t1_3,,success
Status,179,10160149485,/g4t1,,fail
Status,180,10166688138,/g3t1_1,,running
Status,181,10166810810,/g3t1_1,,success
Status,182,10172661320,/g3t1_2,,running
Status,183,10172790233,/g3t1_2,,success
Status,184,10174195336,/g3t1_3,,running
Status,185,10174442922,/g3t1_3,,success
Status,186,10216714416,/g3t1_1,,running
Status,187,10217028267,/g3t1_1,,success
Status,188,10222940564,/g3t1_2,,running
Status,189,10222980515,/g3t1_2,,success
Status,190,10224404720,/g3t1_3,,running
Status,191,10224615245,/g3t1_3,,success
Status,192,10260082605,/g4t1,,fail
Status,193,10266759264,/g3t1_1,,running
Status,194,10267077912,/g3t1_1,,success
Status,195,10273013958,/g3t1_2,,running
Status,196,10273071701,/g3t1_2,,success
Status,197,10274606838,/g3t1_3,,running
Status,198,10274870563,/g3t1_3,,success
Status,199,10316901305,/g3t1_1,,running
Status,200,10317108596,/g3t1_1,,success
Status,201,10323098987,/g3t1_2,,running
Status,202,10323223664,/g3t1_2,,success
Status,203,10324643489,/g3t1_3,,running
Status,204,10325012606,/g3t1_3,,success
Status,205,10360280417,/g4t1,,fail
Status,206,10367101200,/g3t1_1,,running
Status,207,10367261750,/g3t1_1,,success
Status,208,10373240104,/g3t1_2,,running
Status,209,10373273413,/g3t1_2,,success
Status,210,10374611431,/g3t1_3,,running
Status,211,10375058344,/g3t1_3,,success
Status,212,10417201968,/g3t1_1,,running
Status,213,10417244569,/g3t1_1,,success
Status,214,10423288439,/g3t1_2,,running
Status,215,10423473525,/g3t1_2,,success
Status,216,10424912244,/g3t1_3,,running
Status,217,10424979811,/g3t1_3,,success
Status,218,10460157588,/g4t1,,fail
Status,219,10467742095,/g3t1_1,,running
Status,220,10467808317,/g3t1_1,,success
Status,221,10473763518,/g3t1_2,,running
Status,222,10474315043,/g3t1_2,,success
Status,223,10475345239,/g3t1_3,,running
Status,224,10475467307,/g3t1_3,,success
Status,225,10517707115,/g3t1_1,,running
Status,226,10518036851,/g3t1_1,,success
Status,227,10523818193,/g3t1_2,,running
Status,228,10524261271,/g3t1_2,,success
Status,229,10525494418,/g3t1_3,,running
Status,230,10525552169,/g3t1_3,,success
Status,231,10560578107,/g4t1,,fail
Status,232,10568012144,/g3t1_1,,running
Status,233,10568054701,/g3t1_1,,success
Status,234,10573666114,/g3t1_2,,running
Status,235,10573930143,/g3t1_2,,success
Status,236,10575110987,/g3t1_3,,running
Status,237,10575355967,/g3t1_3,,success
Status,238,10618212520,/g3t1_1,,running
Status,239,10618275261,/g3t1_1,,success
Status,240,10624330516,/g3t1_2,,running
Status,241,10624402068,/g3t1_2,,success
Status,242,10625733311,/g3t1_3,,running
Status,243,10626489209,/g3t1_3,,success
Status,244,10661070507,/g4t1,,fail
Status,245,10668207849,/g3t1_1,,running
Status,246,10668531482,/g3t1_1,,success
Status,247,10674155625,/g3t1_2,,running
Status,248,10674549657,/g3t1_2,,success
Status,249,10675664085,/g3t1_3,,running
Status,250,10676064966,/g3t1_3,,success
Status,251,10718628768,/g3t1_1,,running
Status,252,10718856190,/g3t1_1,,success
Status,253,10723955683,/g3t1_2,,running
Status,254,10724246947,/g3t1_2,,success
Status,255,10725510414,/g3t1_3,,running
Status,256,10725649390,/g3t1_3,,success
Status,257,10760368330,/g4t1,,fail
Status,258,10767801213,/g3t1_1,,running
Status,259,10767990019,/g3t1_1,,success
Status,260,10774328588,/g3t1_2,,running
Status,261,10774382892,/g3t1_2,,success
Status,262,10775647832,/g3t1_3,,running
Status,263,10775772418,/g3t1_3,,success
Status,264,10818073665,/g3t1_1,,running
Status,265,10818281451,/g3t1_1,,success
Status,266,10824110023,/g3t1_2,,running
Status,267,10824155783,/g3t1_2,,success
Status,268,10825410552,/g3t1_3,,running
Status,269,10825612572,/g3t1_3,,success
Status,270,10860944478,/g4t1,,fail
Status,271,10868011671,/g3t1_1,,running
Status,272,10868160135,/g3t1_1,,success
Status,273,10874178825,/g3t1_2,,running
Status,274,10874204146,/g3t1_2,,success
Status,275,10875430379,/g3t1_3,,running
Status,276,10875571348,/g3t1_3,,success
Status,277,10918295204,/g3t1_1,,running
Status,278,10918320097,/g3t1_1,,success
Status,279,10924128262,/g3t1_2,,running
Status,280,10924256700,/g3t1_2,,success
Status,281,10925527573,/g3t1_3,,running
Status,282,10925673548,/g3t1_3,,success
Status,283,10960639069,/g4t1,,fail
Status,284,10968399395,/g3t1_1,,running
Status,285,10968440122,/g3t1_1,,success
Status,286,10974415028,/g3t1_2,,running
Status,287,10974537031,/g3t1_2,,success
Status,288,10975810062,/g3t1_3,,running
Status,289,10976206312,/g3t1_3,,success
Status,290,11018898017,/g3t1_1,,running
Status,291,11019394297,/g3t1_1,,success
Status,292,11025241783,/g3t1_2,,running
Status,293,11025322920,/g3t1_2,,success
Status,294,11026608456,/g3t1_3,,running
Status,295,11027276239,/g3t1_3,,success
Status,296,11061693539,/g4t1,,fail
Status,297,11069009080,/g3t1_1,,running
Status,298,11069455883,/g3t1_1,,success
Status,299,11075512140,/g3t1_2,,running
Status,300,11075766511,/g3t1_2,,success
Status,301,11076910911,/g3t1_3,,running
Status,302,11077360009,/g3t1_3,,success
Status,303,11119116252,/g3t1_1,,running
Status,304,11119412011,/g3t1_1,,success
Status,305,11125382118,/g3t1_2,,running
Status,306,11126757785,/g3t1_2,,success
Status,307,11126855318,/g3t1_3,,running
Status,308,11127176560,/g3t1_3,,success
Status,309,11161776970,/g4t1,,fail
Status,310,11169385038,/g3t1_1,,running
Status,311,11170129237,/g3t1_1,,success
Status,312,11175299480,/g3t1_2,,running
Status,313,11176984870,/g3t1_2,,success
Status,314,11177087389,/g3t1_3,,running
Status,315,11177129616,/g3t1_3,,success
Status,316,11219463930,/g3t1_1,,running
Status,317,11219832931,/g3t1_1,,success
Status,318,11225441448,/g3t1_2,,running
Status,319,11225899050,/g3t1_2,,success
Status,320,11226546300,/g3t1_3,,running
Status,321,11227162578,/g3t1_3,,success
Status,322,11261974021,/g4t1,,fail
Status,323,11269670063,/g3t1_1,,running
Status,324,11270037256,/g3t1_1,,success
Status,325,11275960943,/g3t1_2,,running
Status,326,11276032910,/g3t1_2,,success
Status,327,11277208926,/g3t1_3,,running
Status,328,11277283511,/g3t1_3,,success
Status,329,11319795754,/g3t1_1,,running
Status,330,11320202733,/g3t1_1,,success
Status,331,11325895775,/g3t1_2,,running
Status,332,11326411280,/g3t1_2,,success
Status,333,11327234670,/g3t1_3,,running
Status,334,11327324060,/g3t1_3,,success
Status,335,11362126639,/g4t1,,fail
Status,336,11369904549,/g3t1_1,,running
Status,337,11370301019,/g3t1_1,,success
Status,338,11375731161,/g3t1_2,,running
Status,339,11376196430,/g3t1_2,,success
Status,340,11376895890,/g3t1_3,,running
Status,341,11377554834,/g3t1_3,,success
Status,342,11420181578,/g3t1_1,,running
Status,343,11420650427,/g3t1_1,,success
Status,344,11425911135,/g3t1_2,,running
Status,345,11426359028,/g3t1_2,,success
Status,346,11427100668,/g3t1_3,,running
Status,347,11427645893,/g3t1_3,,success
Status,348,11462174234,/g4t1,,fail
Status,349,11470475388,/g3t1_1,,running
Status,350,11470933316,/g3t1_1,,success
Status,351,11475893636,/g3t1_2,,running
Status,352,11476493426,/g3t1_2,,success
Status,353,11477645532,/g3t1_3,,running
Status,354,11477765722,/g3t1_3,,success
Status,355,11520461767,/g3t1_1,,running
Status,356,11520965675,/g3t1_1,,success
Status,357,11526147698,/g3t1_2,,running
Status,358,11526746033,/g3t1_2,,success
Status,359,11527947920,/g3t1_3,,running
Status,360,11528307154,/g3t1_3,,success
Status,361,11562458608,/g4t1,,fail
Status,362,11570427381,/g3t1_1,,running
Status,363,11571215071,/g3t1_1,,success
Status,364,11576079277,/g3t1_2,,running
Status,365,11576474332,/g3t1_2,,success
Status,366,11577597575,/g3t1_3,,running
Status,367,11577783757,/g3t1_3,,success
Status,368,11620738640,/g3t1_1,,running
Status,369,11621111203,/g3t1_1,,success
Status,370,11626817721,/g3t1_2,,running
Status,371,11626909425,/g3t1_2,,success
Status,372,11627921265,/g3t1_3,,running
Status,373,11628099712,/g3t1_3,,success
Status,374,11662651393,/g4t1,,fail
Status,375,11670326487,/g3t1_1,,running
Status,376,11670748307,/g3t1_1,,success
Status,377,11676172355,/g3t1_2,,running
Status,378,11676287362,/g3t1_2,,success
Status,379,11677080356,/g3t1_3,,running
Status,380,11677279896,/g3t1_3,,success
Status,381,11720233018,/g3t1_1,,running
Status,382,11720264015,/g3t1_1,,success
Status,383,11726650247,/g3t1_2,,running
Status,384,11726724982,/g3t1_2,,success
Status,385,11727726305,/g3t1_3,,running
Status,386,11727787645,/g3t1_3,,success
Status,387,11761770638,/g4t1,,fail
Status,388,11770278118,/g3t1_1,,running
Status,389,11770307739,/g3t1_1,,success
Status,390,11776210566,/g3t1_2,,running
Status,391,11776382913,/g3t1_2,,success
Status,392,11777117075,/g3t1_3,,running
Status,393,11777224496,/g3t1_3,,success
Status,394,11820468527,/g3t1_1,,running
Status,395,11820703557,/g3t1_1,,success
Status,396,11826419799,/g3t1_2,,running
Status,397,11826555627,/g3t1_2,,success
Status,398,11827655939,/g3t1_3,,running
Status,399,11827702644,/g3t1_3,,success
Status,400,11862726445,/g4t1,,fail
Status,401,11870854420,/g3t1_1,,running
Status,402,11871363099,/g3t1_1,,success
Status,403,11876781396,/g3t1_2,,running
Status,404,11877310361,/g3t1_2,,success
Status,405,11877811259,/g3t1_3,,running
Status,406,11878337920,/g3t1_3,,success
Status,407,11921093771,/g3t1_1,,running
Status,408,11921496994,/g3t1_1,,success
Status,409,11926817696,/g3t1_2,,running
Status,410,11927225717,/g3t1_2,,success
Status,411,11927880021,/g3t1_3,,running
Status,412,11928612223,/g3t1_3,,success
Status,413,11962751277,/g4t1,,fail
Status,414,11971134346,/g3t1_1,,running
Status,415,11971478192,/g3t1_1,,success
Status,416,11978174957,/g3t1_2,,running
Status,417,11978393910,/g3t1_3,,running
Status,418,11978540314,/g3t1_2,,success
Status,419,11979732263,/g3t1_3,,success
Status,420,12021235408,/g3t1_1,,running
Status,421,12021535225,/g3t1_1,,success
Status,422,12027761635,/g3t1_2,,running
Status,423,12028642072,/g3t1_2,,success
Status,424,12028855797,/g3t1_3,,running
Status,425,12028944842,/g3t1_3,,success
Status,426,12062993629,/g4t1,,fail
Status,427,12071231591,/g3t1_1,,running
Status,428,12071714565,/g3t1_1,,success
Status,429,12077853620,/g3t1_2,,running
Status,430,12078349764,/g3t1_2,,success
Status,431,12078425005,/g3t1_3,,running
Status,432,12078823826,/g3t1_3,,success
Status,433,12121485471,/g3t1_1,,running
Status,434,12121872002,/g3t1_1,,success
Status,435,12127800847,/g3t1_2,,running
Status,436,12128619869,/g3t1_2,,success
Status,437,12128757339,/g3t1_3,,running
Status,438,12129142315,/g3t1_3,,success
Status,439,12163261247,/g4t1,,fail
Status,440,12171414757,/g3t1_1,,running
Status,441,12171809636,/g3t1_1,,success
Status,442,12177753929,/g3t1_2,,running
Status,443,12178221894,/g3t1_2,,success
Status,444,12178611403,/g3t1_3,,running
Status,445,12179205255,/g3t1_3,,success
Status,446,12221602252,/g3t1_1,,running
Status,447,12222054333,/g3t1_1,,success
Status,448,12227734269,/g3t1_2,,running
Status,449,12228218687,/g3t1_2,,success
Status,450,12228788310,/g3t1_3,,running
Status,451,12229112597,/g3t1_3,,success
Status,452,12263593746,/g4t1,,fail
Status,453,12271708813,/g3t1_1,,running
Status,454,12272025425,/g3t1_1,,success
Status,455,12277959782,/g3t1_2,,running
Status,456,12278406459,/g3t1_2,,success
Status,457,12279202330,/g3t1_3,,running
Status,458,12279515390,/g3t1_3,,success
Status,459,12322118775,/g3t1_1,,running
Status,460,12322187753,/g3t1_1,,success
Status,461,12328218379,/g3t1_2,,running
Status,462,12328987012,/g3t1_2,,success
Status,463,12329065373,/g3t1_3,,running
Status,464,12329462604,/g3t1_3,,success
Status,465,12363847520,/g4t1,,fail
Status,466,12372232025,/g3t1_1,,running
Status,467,12372297602,/g3t1_1,,success
Status,468,12378543346,/g3t1_2,,running
Status,469,12378968264,/g3t1_2,,success
Status,470,12379027720,/g3t1_3,,running
Status,471,12379694189,/g3t1_3,,success
Status,472,12422040266,/g3t1_1,,running
Status,473,12422639233,/g3t1_1,,success
Status,474,12428517083,/g3t1_2,,running
Status,475,12429477100,/g3t1_2,,success
Status,476,12429553461,/g3t1_3,,running
Status,477,12429961311,/g3t1_3,,success
Status,478,12464102710,/g4t1,,fail
Status,479,12472714980,/g3t1_1,,running
Status,480,12472836066,/g3t1_1,,success
Status,481,12479106641,/g3t1_2,,running
Status,482,12479657832,/g3t1_2,,success
Status,483,12479774727,/g3t1_3,,running
Status,484,12479820336,/g3t1_3,,success
Status,485,12521764162,/g3t1_1,,running
Status,486,12521917919,/g3t1_1,,success
Status,487,12528069843,/g3t1_2,,running
Status,488,12528093368,/g3t1_2,,success
Status,489,12528796119,/g3t1_3,,running
Status,490,12528822158,/g3t1_3,,success
Status,491,12563121036,/g4t1,,fail
Status,492,12571916741,/g3t1_1,,running
Status,493,12571947583,/g3t1_1,,success
Status,494,12578238399,/g3t1_2,,running
Status,495,12578339607,/g3t1_2,,success
Status,496,12578906323,/g3t1_3,,running
Status,497,12578925445,/g3t1_3,,success
Status,498,12621975949,/g3t1_1,,running
Status,499,12622007497,/g3t1_1,,success
Status,500,12628262020,/g3t1_2,,running
Status,501,12628293759,/g3t1_2,,success
Status,502,12628978339,/g3t1_3,,running
Status,503,12629080744,/g3t1_3,,success
Status,504,12664102660,/g4t1,,fail
Status,505,12672708949,/g3t1_1,,running
Status,506,12672768069,/g3t1_1,,success
Status,507,12679131691,/g3t1_2,,running
Status,508,12679567142,/g3t1_2,,success
Status,509,12679631069,/g3t1_3,,running
Status,510,12679976257,/g3t1_3,,success
Status,511,12722902551,/g3t1_1,,running
Status,512,12722972766,/g3t1_1,,success
Status,513,12729143987,/g3t1_2,,running
Status,514,12729695408,/g3t1_2,,success
Status,515,12729770748,/g3t1_3,,running
Status,516,12730305709,/g3t1_3,,success
Status,517,12764270087,/g4t1,,fail
Status,518,12773055962,/g3t1_1,,running
Status,519,12773139226,/g3t1_1,,success
Status,520,12779450356,/g3t1_2,,running
Status,521,12780485575,/g3t1_2,,success
Status,522,12780548320,/g3t1_3,,running
Status,523,12780572685,/g3t1_3,,success
Status,524,12823072573,/g3t1_1,,running
Status,525,12823267960,/g3t1_1,,success
Status,526,12829411565,/g3t1_2,,running
Status,527,12830025133,/g3t1_2,,success
Status,528,12830099599,/g3t1_3,,running
Status,529,12830580301,/g3t1_3,,success
Status,530,12864658350,/g4t1,,fail
Status,531,12873081552,/g3t1_1,,running
Status,532,12873354460,/g3t1_1,,success
Status,533,12879821097,/g3t1_2,,running
Status,534,12880252146,/g3t1_2,,success
Status,535,12880360324,/g3t1_3,,running
Status,536,12880937587,/g3t1_3,,success
Status,537,12923111208,/g3t1_1,,running
Status,538,12923675244,/g3t1_1,,success
Status,539,12930173002,/g3t1_2,,running
Status,540,12930255734,/g3t1_2,,success
Status,541,12930293252,/g3t1_3,,running
Status,542,12930715406,/g3t1_3,,success
Status,543,12964658582,/g4t1,,fail
Status,544,12973189238,/g3t1_1,,running
Status,545,12973752979,/g3t1_1,,success
Status,546,12979879788,/g3t1_2,,running
Status,547,12980238332,/g3t1_3,,running
Status,548,12980810720,/g3t1_2,,success
Status,549,12980885130,/g3t1_3,,success
Status,550,13023428443,/g3t1_1,,running
Status,551,13023898657,/g3t1_1,,success
Status,552,13030359469,/g3t1_2,,running
Status,553,13031158111,/g3t1_2,,success
Status,554,13031228387,/g3t1_3,,running
Status,555,13031347514,/g3t1_3,,success
Status,556,13064753110,/g4t1,,fail
Status,557,13073338775,/g3t1_1,,running
Status,558,13073608139,/g3t1_1,,success
Status,559,13080808432,/g3t1_2,,running
Status,560,13080912334,/g3t1_3,,running
Status,561,13080998780,/g3t1_2,,success
Status,562,13081264506,/g3t1_3,,success
Status,563,13123798424,/g3t1_1,,running
Status,564,13124513227,/g3t1_1,,success
Status,565,13130627383,/g3t1_2,,running
Status,566,13130698361,/g3t1_3,,running
Status,567,13130738457,/g3t1_2,,success
Status,568,13131275903,/g3t1_3,,success
Status,569,13164889905,/g4t1,,fail
Status,570,13173589824,/g3t1_1,,running
Status,571,13174019853,/g3t1_1,,success
Status,572,13180664427,/g3t1_2,,running
Status,573,13180748730,/g3t1_3,,running
Status,574,13181011675,/g3t1_2,,success
Status,575,13181467077,/g3t1_3,,success
Status,576,13224126523,/g3t1_1,,running
Status,577,13224216991,/g3t1_1,,success
Status,578,13230902154,/g3t1_2,,running
Status,579,13230984606,/g3t1_3,,running
Status,580,13231022781,/g3t1_2,,success
Status,581,13231388719,/g3t1_3,,success
Status,582,13265082736,/g4t1,,fail
Status,583,13274073230,/g3t1_1,,running
Status,584,13274376962,/g3t1_1,,success
Status,585,13280963528,/g3t1_2,,running
Status,586,13281073975,/g3t1_3,,running
Status,587,13281597899,/g3t1_2,,success
Status,588,13281903530,/g3t1_3,,success
Status,589,13324490735,/g3t1_1,,running
Status,590,13324976317,/g3t1_1,,success
Status,591,13331068403,/g3t1_2,,running
Status,592,13331176551,/g3t1_3,,running
Status,593,13331270544,/g3t1_2,,success
Status,594,13332270738,/g3t1_3,,success
Status,595,13365128060,/g4t1,,fail
Status,596,13374354837,/g3t1_1,,running
Status,597,13374935534,/g3t1_1,,success
Status,598,13380896131,/g3t1_2,,running
Status,599,13381471675,/g3t1_3,,running
Status,600,13381545848,/g3t1_2,,success
Status,601,13381653821,/g3t1_3,,success
Status,602,13424568939,/g3t1_1,,running
Status,603,13425096457,/g3t1_1,,success
Status,604,13431441670,/g3t1_2,,running
Status,605,13431837351,/g3t1_3,,running
Status,606,13431911820,/g3t1_2,,success
Status,607,13432150190,/g3t1_3,,success
Status,608,13465373275,/g4t1,,fail
Status,609,13474852269,/g3t1_1,,running
Status,610,13474949910,/g3t1_1,,success
Status,611,13481426514,/g3t1_2,,running
Status,612,13481525048,/g3t1_3,,running
Status,613,13481960303,/g3t1_2,,success
Status,614,13482046939,/g3t1_3,,success
Status,615,13525015079,/g3t1_1,,running
Status,616,13525545285,/g3t1_1,,success
Status,617,13531463943,/g3t1_2,,running
Status,618,13531629994,/g3t1_3,,running
Status,619,13532049956,/g3t1_2,,success
Status,620,13532115850,/g3t1_3,,success
Status,621,13565417351,/g4t1,,fail
Status,622,13575185382,/g3t1_1,,running
Status,623,13575250307,/g3t1_1,,success
Status,624,13581563188,/g3t1_2,,running
Status,625,13581649068,/g3t1_3,,running
Status,626,13582547689,/g3t1_2,,success
Status,627,13582629143,/g3t1_3,,success
Status,628,13625099148,/g3t1_1,,running
Status,629,13625567550,/g3t1_1,,success
Status,630,13632456718,/g3t1_2,,running
Status,631,13632523684,/g3t1_3,,running
Status,632,13632548685,/g3t1_2,,success
Status,633,13632572243,/g3t1_3,,success
Status,634,13664814897,/g4t1,,fail
Status,635,13674638876,/g3t1_1,,running
Status,636,13674663797,/g3t1_1,,success
Status,637,13681168014,/g3t1_2,,running
Status,638,13681201778,/g3t1_2,,success
Status,639,13681253667,/g3t1_3,,running
Status,640,13681470328,/g3t1_3,,success
Status,641,13724794575,/g3t1_1,,running
Status,642,13725018342,/g3t1_1,,success
Status,643,13731683158,/g3t1_2,,running
Status,644,13731742504,/g3t1_3,,running
Status,645,13731805269,/g3t1_2,,success
Status,646,13731829511,/g3t1_3,,success
Status,647,13765727935,/g4t1,,fail
Status,648,13775235963,/g3t1_1,,running
Status,649,13776036273,/g3t1_1,,success
Status,650,13782215021,/g3t1_2,,running
Status,651,13782304430,/g3t1_3,,running
Status,652,13782877876,/g3t1_3,,success
Status,653,13783013505,/g3t1_2,,success
Status,654,13825460316,/g3t1_1,,running
Status,655,13825854183,/g3t1_1,,success
Status,656,13832121852,/g3t1_2,,running
Status,657,13832287002,/g3t1_3,,running
Status,658,13832794599,/g3t1_2,,success
Status,659,13832921157,/g3t1_3,,success
Status,660,13865807732,/g4t1,,fail
Status,661,13875721277,/g3t1_1,,running
Status,662,13876455410,/g3t1_1,,success
Status,663,13882544007,/g3t1_2,,running
Status,664,13882633192,/g3t1_3,,running
Status,665,13882874353,/g3t1_3,,success
Status,666,13883097221,/g3t1_2,,success
Status,667,13925722839,/g3t1_1,,running
Status,668,13926148956,/g3t1_1,,success
Status,669,13932630592,/g3t1_2,,running
Status,670,13932766942,/g3t1_3,,running
Status,671,13933099975,/g3t1_2,,success
Status,672,13933161444,/g3t1_3,,success
Status,673,13965898663,/g4t1,,fail
Status,674,13976083655,/g3t1_1,,running
Status,675,13976665426,/g3t1_1,,success
Status,676,13983208120,/g3t1_2,,running
Status,677,13983359934,/g3t1_3,,running
Status,678,13983405685,/g3t1_2,,success
Status,679,13983438840,/g3t1_3,,success
Status,680,14025749533,/g3t1_1,,running
Status,681,14025791942,/g3t1_1,,success
Status,682,14032198300,/g3t1_3,,running
Status,683,14032232906,/g3t1_2,,running
Status,684,14032423169,/g3t1_3,,success
Status,685,14032574398,/g3t1_2,,success
Status,686,14066107439,/g4t1,,fail
Status,687,14076356328,/g3t1_1,,running
Status,688,14076779186,/g3t1_1,,success
Status,689,14083127562,/g3t1_2,,running
Status,690,14083206756,/g3t1_3,,running
Status,691,14083283275,/g3t1_2,,success
Status,692,14083316501,/g3t1_3,,success
Status,693,14126699570,/g3t1_1,,running
Status,694,14126784948,/g3t1_1,,success
Status,695,14133013450,/g3t1_2,,running
Status,696,14133296397,/g3t1_3,,running
Status,697,14133359762,/g3t1_3,,success
Status,698,14133393712,/g3t1_2,,success
Status,699,14166358452,/g4t1,,fail
Status,700,14176786717,/g3t1_1,,running
Status,701,14177476416,/g3t1_1,,success
Status,702,14183221636,/g3t1_2,,running
Status,703,14183303383,/g3t1_3,,running
Status,704,14183367103,/g3t1_2,,success
Status,705,14183589495,/g3t1_3,,success
Status,706,14226742818,/g3t1_1,,running
Status,707,14226836137,/g3t1_1,,success
Status,708,14233346144,/g3t1_2,,running
Status,709,14233405626,/g3t1_3,,running
Status,710,14233500209,/g3t1_2,,success
Status,711,14233539282,/g3t1_3,,success
Status,712,14266759530,/g4t1,,fail
Status,713,14276825352,/g3t1_1,,running
Status,714,14277230635,/g3t1_1,,success
Status,715,14283115641,/g3t1_2,,running
Status,716,14283203793,/g3t1_3,,running
Status,717,14283770274,/g3t1_2,,success
Status,718,14284146985,/g3t1_3,,success
Status,719,14327166260,/g3t1_1,,running
Status,720,14327679589,/g3t1_1,,success
Status,721,14333299201,/g3t1_2,,running
Status,722,14333477102,/g3t1_3,,running
Status,723,14333530209,/g3t1_3,,success
Status,724,14333630959,/g3t1_2,,success
Status,725,14366549715,/g4t1,,fail
Status,726,14377329419,/g3t1_1,,running
Status,727,14378074003,/g3t1_1,,success
Status,728,14383461835,/g3t1_2,,running
Status,729,14383565497,/g3t1_3,,running
Status,730,14383831318,/g3t1_2,,success
Status,731,14383894459,/g3t1_3,,success
Status,732,14427285987,/g3t1_1,,running
Status,733,14427974943,/g3t1_1,,success
Status,734,14433676244,/g3t1_3,,running
Status,735,14433735619,/g3t1_2,,running
Status,736,14433808693,/g3t1_2,,success
Status,737,14434296625,/g3t1_3,,success
Status,738,14466560441,/g4t1,,fail
Status,739,14477414181,/g3t1_1,,running
Status,740,14477963932,/g3t1_1,,success
Status,741,14484012912,/g3t1_3,,running
Status,742,14484090917,/g3t1_2,,running
Status,743,14484122156,/g3t1_3,,success
Status,744,14484432995,/g3t1_2,,success
Status,745,14527601394,/g3t1_1,,running
Status,746,14528050416,/g3t1_1,,success
Status,747,14533826250,/g3t1_3,,running
Status,748,14533917078,/g3t1_2,,running
Status,749,14534489117,/g3t1_2,,success
Status,750,14534581994,/g3t1_3,,success
Status,751,14566776928,/g4t1,,fail
Status,752,14577517549,/g3t1_1,,running
Status,753,14578007669,/g3t1_1,,success
Status,754,14584136252,/g3t1_3,,running
Status,755,14584214185,/g3t1_2,,running
Status,756,14584407812,/g3t1_3,,success
Status,757,14584460221,/g3t1_2,,success
Status,758,14627877857,/g3t1_1,,running
Status,759,14628282835,/g3t1_1,,success
Status,760,14634090530,/g3t1_3,,running
Status,761,14634174505,/g3t1_2,,running
Status,762,14634746928,/g3t1_2,,success
Status,763,14634835736,/g3t1_3,,success
Status,764,14666951852,/g4t1,,fail
Status,765,14677946563,/g3t1_1,,running
Status,766,14678332298,/g3t1_1,,success
Status,767,14684802450,/g3t1_3,,running
Status,768,14684885107,/g3t1_2,,running
Status,769,14684922451,/g3t1_2,,success
Status,770,14684964895,/g3t1_3,,success
Status,771,14727689391,/g3t1_1,,running
Status,772,14727985094,/g3t1_1,,success
Status,773,14734201420,/g3t1_3,,running
Status,774,14734293842,/g3t1_2,,running
Status,775,14734345588,/g3t1_3,,success
Status,776,14734484933,/g3t1_2,,success
Status,777,14766327944,/g4t1,,fail
Status,778,14777538759,/g3t1_1,,running
Status,779,14777614391,/g3t1_1,,success
Status,780,14783953539,/g3t1_3,,running
Status,781,14783980199,/g3t1_2,,running
Status,782,14784128264,/g3t1_2,,success
Status,783,14784149884,/g3t1_3,,success
Status,784,14827709378,/g3t1_1,,running
Status,785,14827828056,/g3t1_1,,success
Status,786,14834115354,/g3t1_3,,running
Status,787,14834138874,/g3t1_2,,running
Status,788,14834171971,/g3t1_3,,success
Status,789,14834182870,/g3t1_2,,success
Status,790,14866370596,/g4t1,,fail
Status,791,14877798105,/g3t1_1,,running
Status,792,14877823081,/g3t1_1,,success
Status,793,14884048958,/g3t1_3,,running
Status,794,14884090093,/g3t1_2,,running
Status,795,14884245121,/g3t1_2,,success
Status,796,14884267144,/g3t1_3,,success
Status,797,14928005311,/g3t1_1,,running
Status,798,14928156353,/g3t1_1,,success
Status,799,14934385022,/g3t1_3,,running
Status,800,14934437247,/g3t1_2,,running
Status,801,14934531459,/g3t1_2,,success
Status,802,14934689987,/g3t1_3,,success
Status,803,14966472325,/g4t1,,fail
Status,804,14977996942,/g3t1_1,,running
Status,805,14978033775,/g3t1_1,,success
Status,806,14984213655,/g3t1_3,,running
Status,807,14984352341,/g3t1_2,,running
Status,808,14984593568,/g3t1_2,,success
Status,809,14984613427,/g3t1_3,,success
Status,810,15028917649,/g3t1_1,,running
Status,811,15029060607,/g3t1_1,,success
Status,812,15035334876,/g3t1_3,,running
Status,813,15035407919,/g3t1_2,,running
Status,814,15035498755,/g3t1_2,,success
Status,815,15035595774,/g3t1_3,,success
Status,816,15067361431,/g4t1,,fail
Status,817,15079488274,/g3t1_1,,running
Status,818,15079780161,/g3t1_1,,success
Status,819,15085987513,/g3t1_3,,running
Status,820,15086078453,/g3t1_2,,running
Status,821,15086135884,/g3t1_2,,success
Status,822,15086173803,/g3t1_3,,success
Status,823,15128384738,/g3t1_1,,running
Status,824,15128407209,/g3t1_1,,success
Status,825,15134522282,/g3t1_3,,running
Status,826,15134552804,/g3t1_2,,running
Status,827,15134606510,/g3t1_2,,success
Status,828,15134730151,/g3t1_3,,success
Status,829,15166695473,/g4t1,,fail
Status,830,15178581950,/g3t1_1,,running
Status,831,15178605281,/g3t1_1,,success
Status,832,15184575673,/g3t1_2,,running
Status,833,15184605802,/g3t1_3,,running
Status,834,15184736435,/g3t1_2,,success
Status,835,15184759289,/g3t1_3,,success
Status,836,15228579179,/g3t1_1,,running
Status,837,15228603017,/g3t1_1,,success
Status,838,15234677821,/g3t1_2,,running
Status,839,15234860851,/g3t1_3,,running
Status,840,15234880966,/g3t1_2,,success
Status,841,15234909737,/g3t1_3,,success
Status,842,15267506061,/g4t1,,fail
Status,843,15279434244,/g3t1_1,,running
Status,844,15279869564,/g3t1_1,,success
Status,845,15285468484,/g3t1_3,,running
Status,846,15285557521,/g3t1_2,,running
Status,847,15286043002,/g3t1_3,,success
Status,848,15286174437,/g3t1_2,,success
Status,849,15329877824,/g3t1_1,,running
Status,850,15329944907,/g3t1_1,,success
Status,851,15335604423,/g3t1_3,,running
Status,852,15335738393,/g3t1_2,,running
Status,853,15336456170,/g3t1_3,,success
Status,854,15336586742,/g3t1_2,,success
Status,855,15367757302,/g4t1,,fail
Status,856,15379695458,/g3t1_1,,running
Status,857,15380247475,/g3t1_1,,success
Status,858,15385887974,/g3t1_2,,running
Status,859,15385965083,/g3t1_3,,running
Status,860,15386432943,/g3t1_2,,success
Status,861,15386490904,/g3t1_3,,success
Status,862,15430271622,/g3t1_1,,running
Status,863,15430342616,/g3t1_1,,success
Status,864,15436203329,/g3t1_2,,running
Status,865,15436614945,/g3t1_3,,running
Status,866,15436690035,/g3t1_3,,success
Status,867,15436760163,/g3t1_2,,success
Status,868,15467881121,/g4t1,,fail
Status,869,15480322101,/g3t1_1,,running
Status,870,15480390833,/g3t1_1,,success
Status,871,15486142796,/g3t1_3,,running
Status,872,15486251502,/g3t1_2,,running
Status,873,15486850431,/g3t1_2,,success
Status,874,15486927209,/g3t1_3,,success
Status,875,15530534728,/g3t1_1,,running
Status,876,15530631329,/g3t1_1,,success
Status,877,15536122731,/g3t1_3,,running
Status,878,15536206869,/g3t1_2,,running
Status,879,15536677425,/g3t1_3,,success
Status,880,15536741040,/g3t1_2,,success
Status,881,15567979889,/g4t1,,fail
Status,882,15580458110,/g3t1_1,,running
Status,883,15580813940,/g3t1_1,,success
Status,884,15586210866,/g3t1_3,,running
Status,885,15586291708,/g3t1_2,,running
Status,886,15586737824,/g3t1_3,,success
Status,887,15586875808,/g3t1_2,,success
Status,888,15630829130,/g3t1_1,,running
Status,889,15631225794,/g3t1_1,,success
Status,890,15636365366,/g3t1_3,,running
Status,891,15636449480,/g3t1_2,,running
Status,892,15637006065,/g3t1_3,,success
Status,893,15637086606,/g3t1_2,,success
Status,894,15668098073,/g4t1,,fail
Status,895,15680788800,/g3t1_1,,running
Status,896,15681385300,/g3t1_1,,success
Status,897,15686500097,/g3t1_3,,running
Status,898,15686571387,/g3t1_2,,running
Status,899,15686757511,/g3t1_2,,success
Status,900,15686805150,/g3t1_3,,success
Status,901,15730880421,/g3t1_1,,running
Status,902,15731320179,/g3t1_1,,success
Status,903,15736568911,/g3t1_3,,running
Status,904,15736660859,/g3t1_2,,running
Status,905,15737230809,/g3t1_3,,success
Status,906,15737355564,/g3t1_2,,success
Status,907,15768266673,/g4t1,,fail
Status,908,15781013956,/g3t1_1,,running
Status,909,15781598260,/g3t1_1,,success
Status,910,15786707081,/g3t1_2,,running
Status,911,15786784206,/g3t1_3,,running
Status,912,15787284402,/g3t1_3,,success
Status,913,15787355210,/g3t1_2,,success
Status,914,15831671307,/g3t1_1,,running
Status,915,15831746532,/g3t1_1,,success
Status,916,15837168210,/g3t1_2,,running
Status,917,15837227799,/g3t1_3,,running
Status,918,15837320259,/g3t1_2,,success
Status,919,15837346053,/g3t1_3,,success
Status,920,15868367432,/g4t1,,fail
Status,921,15881390169,/g3t1_1,,running
Status,922,15882121761,/g3t1_1,,success
Status,923,15886966209,/g3t1_2,,running
Status,924,15887032104,/g3t1_3,,running
Status,925,15887165124,/g3t1_2,,success
Status,926,15887206489,/g3t1_3,,success
Status,927,15931472731,/g3t1_1,,running
Status,928,15932167343,/g3t1_1,,success
Status,929,15937011240,/g3t1_2,,running
Status,930,15937208623,/g3t1_3,,running
Status,931,15937257121,/g3t1_2,,success
Status,932,15937634898,/g3t1_3,,success
Status,933,15968470393,/g4t1,,fail
Status,934,15981653510,/g3t1_1,,running
Status,935,15982266131,/g3t1_1,,success
Status,936,15987382839,/g3t1_2,,running
Status,937,15987432426,/g3t1_3,,running
Status,938,15987462110,/g3t1_3,,success
Status,939,15987511099,/g3t1_2,,success
Status,940,16031732025,/g3t1_1,,running
Status,941,16032158909,/g3t1_1,,success
Status,942,16037534764,/g3t1_3,,running
Status,943,16037650037,/g3t1_2,,running
Status,944,16037694255,/g3t1_2,,success
Status,945,16038041769,/g3t1_3,,success
Status,946,16068548690,/g4t1,,fail
Status,947,16081938795,/g3t1_1,,running
Status,948,16082043105,/g3t1_1,,success
Status,949,16087502366,/g3t1_3,,running
Status,950,16087653845,/g3t1_2,,running
Status,951,16088157417,/g3t1_2,,success
Status,952,16088214658,/g3t1_3,,success
Status,953,16132061557,/g3t1_1,,running
Status,954,16132289149,/g3t1_1,,success
Status,955,16137508416,/g3t1_2,,running
Status,956,16137677011,/g3t1_3,,running
Status,957,16138137585,/g3t1_3,,success
Status,958,16138188556,/g3t1_2,,success
Status,959,16168577872,/g4t1,,fail
Status,960,16182087930,/g3t1_1,,running
Status,961,16182739674,/g3t1_1,,success
Status,962,16188199509,/g3t1_3,,running
Status,963,16188370856,/g3t1_2,,running
Status,964,16188566036,/g3t1_2,,success
Status,965,16188606871,/g3t1_3,,success
Status,966,16231946366,/g3t1_1,,running
Status,967,16232157830,/g3t1_1,,success
Status,968,16237700693,/g3t1_2,,running
Status,969,16237739481,/g3t1_3,,running
Status,970,16237754249,/g3t1_2,,success
Status,971,16237769481,/g3t1_3,,success
Status,972,16268599424,/g4t1,,fail
Status,973,16282237476,/g3t1_1,,running
Status,974,16282561959,/g3t1_1,,success
Status,975,16287671710,/g3t1_2,,running
Status,976,16287785122,/g3t1_3,,running
Status,977,16288210593,/g3t1_2,,success
Status,978,16288273003,/g3t1_3,,success
Status,979,16332554226,/g3t1_1,,running
Status,980,16332865447,/g3t1_1,,success
Status,981,16338136609,/g3t1_2,,running
Status,982,16338332058,/g3t1_3,,running
Status,983,16338384189,/g3t1_3,,success
Status,984,16338604544,/g3t1_2,,success
Status,985,16368943748,/g4t1,,fail
Status,986,16382417131,/g3t1_1,,running
Status,987,16382939350,/g3t1_1,,success
Status,988,16388482699,/g3t1_2,,running
Status,989,16388550464,/g3t1_3,,running
Status,990,16388654352,/g3t1_2,,success
Status,991,16388916411,/g3t1_3,,success
Status,992,16432925082,/g3t1_1,,running
Status,993,16433335929,/g3t1_1,,success
Status,994,16438397096,/g3t1_2,,running
Status,995,16438726679,/g3t1_3,,running
Status,996,16438809440,/g3t1_2,,success
Status,997,16438834223,/g3t1_3,,success
Status,998,16469097526,/g4t1,,fail
Status,999,16482788535,/g3t1_1,,running
Status,1000,16483078243,/g3t1_1,,success
Status,1001,16488521409,/g3t1_2,,running
Status,1002,16488716839,/g3t1_3,,running
Status,1003,16488852658,/g3t1_2,,success
Status,1004,16489338573,/g3t1_3,,success
Status,1005,16532994671,/g3t1_1,,running
Status,1006,16533063392,/g3t1_1,,success
Status,1007,16539039894,/g3t1_2,,running
Status,1008,16539332955,/g3t1_3,,running
Status,1009,16539388621,/g3t1_3,,success
Status,1010,16539420730,/g3t1_2,,success
Status,1011,16569261975,/g4t1,,fail
Status,1012,16582915155,/g3t1_1,,running
Status,1013,16583369940,/g3t1_1,,success
Status,1014,16588684990,/g3t1_2,,running
Status,1015,16588747151,/g3t1_3,,running
Status,1016,16588909597,/g3t1_2,,success
Status,1017,16589291897,/g3t1_3,,success
Status,1018,16633371716,/g3t1_1,,running
Status,1019,16633675244,/g3t1_1,,success
Status,1020,16638408486,/g3t1_2,,running
Status,1021,16638675070,/g3t1_3,,running
Status,1022,16638955150,/g3t1_3,,success
Status,1023,16639078526,/g3t1_2,,success
Status,1024,16669118484,/g4t1,,fail
Status,1025,16683383198,/g3t1_1,,running
Status,1026,16683477233,/g3t1_1,,success
Status,1027,16688801628,/g3t1_2,,running
Status,1028,16689485867,/g3t1_3,,running
Status,1029,16689633448,/g3t1_2,,success
Status,1030,16689678187,/g3t1_3,,success
Status,1031,16733387898,/g3t1_1,,running
Status,1032,16733702740,/g3t1_1,,success
Status,1033,16738929150,/g3t1_2,,running
Status,1034,16739068619,/g3t1_3,,running
Status,1035,16739925261,/g3t1_2,,success
Status,1036,16740010637,/g3t1_3,,success
Status,1037,16769369831,/g4t1,,fail
Status,1038,16783377365,/g3t1_1,,running
Status,1039,16783849403,/g3t1_1,,success
Status,1040,16789303443,/g3t1_2,,running
Status,1041,16789355043,/g3t1_3,,running
Status,1042,16789409139,/g3t1_3,,success
Status,1043,16789775953,/g3t1_2,,success
Status,1044,16833783096,/g3t1_1,,running
Status,1045,16834507339,/g3t1_1,,success
Status,1046,16838971080,/g3t1_2,,running
Status,1047,16839059927,/g3t1_3,,running
Status,1048,16839480465,/g3t1_2,,success
Status,1049,16839613942,/g3t1_3,,success
Status,1050,16869263741,/g4t1,,fail
Status,1051,16883775335,/g3t1_1,,running
Status,1052,16884374132,/g3t1_1,,success
Status,1053,16889127158,/g3t1_2,,running
Status,1054,16889214277,/g3t1_3,,running
Status,1055,16889666826,/g3t1_2,,success
Status,1056,16889755136,/g3t1_3,,success
Status,1057,16934018593,/g3t1_1,,running
Status,1058,16934366982,/g3t1_1,,success
Status,1059,16939098532,/g3t1_2,,running
Status,1060,16939451199,/g3t1_3,,running
Status,1061,16940094135,/g3t1_3,,success
Status,1062,16940173589,/g3t1_2,,success
Status,1063,16969604939,/g4t1,,fail
Status,1064,16984083714,/g3t1_1,,running
Status,1065,16984305388,/g3t1_1,,success
Status,1066,16989562321,/g3t1_2,,running
Status,1067,16989676153,/g3t1_3,,running
Status,1068,16989718719,/g3t1_2,,success
Status,1069,16990159507,/g3t1_3,,success
Status,1070,17033653025,/g3t1_1,,running
Status,1071,17033808635,/g3t1_1,,success
Status,1072,17039017769,/g3t1_2,,running
Status,1073,17039044485,/g3t1_3,,running
Status,1074,17039063770,/g3t1_2,,success
Status,1075,17039095282,/g3t1_3,,success
Status,1076,17069779033,/g4t1,,fail
Status,1077,17084343545,/g3t1_1,,running
Status,1078,17084714514,/g3t1_1,,success
Status,1079,17089625085,/g3t1_2,,running
Status,1080,17089762673,/g3t1_3,,running
Status,1081,17090121045,/g3t1_2,,success
Status,1082,17090569369,/g3t1_3,,success
Status,1083,17134898351,/g3t1_1,,running
Status,1084,17134964841,/g3t1_1,,success
Status,1085,17140027792,/g3t1_2,,running
Status,1086,17140234324,/g3t1_3,,running
Status,1087,17140269248,/g3t1_2,,success
Status,1088,17140449126,/g3t1_3,,success
Status,1089,17169795218,/g4t1,,fail
Status,1090,17184834363,/g3t1_1,,running
Status,1091,17184921669,/g3t1_1,,success
Status,1092,17189958691,/g3t1_2,,running
Status,1093,17190035651,/g3t1_3,,running
Status,1094,17190113016,/g3t1_2,,success
Status,1095,17190169583,/g3t1_3,,success
Status,1096,17234835943,/g3t1_1,,running
Status,1097,17235301802,/g3t1_1,,success
Status,1098,17240071927,/g3t1_2,,running
Status,1099,17240384816,/g3t1_3,,running
Status,1100,17240823406,/g3t1_2,,success
Status,1101,17240942524,/g3t1_3,,success
Status,1102,17269967426,/g4t1,,fail
Status,1103,17285044799,/g3t1_1,,running
Status,1104,17285541932,/g3t1_1,,success
Status,1105,17290675178,/g3t1_2,,running
Status,1106,17290737535,/g3t1_3,,running
Status,1107,17290849859,/g3t1_3,,success
Status,1108,17290882740,/g3t1_2,,success
Status,1109,17335337206,/g3t1_1,,running
Status,1110,17336143065,/g3t1_1,,success
Status,1111,17340617548,/g3t1_2,,running
Status,1112,17340692374,/g3t1_2,,success
Status,1113,17340772231,/g3t1_3,,running
Status,1114,17340806287,/g3t1_3,,success
Status,1115,17370271816,/g4t1,,fail
Status,1116,17385568950,/g3t1_1,,running
Status,1117,17385642138,/g3t1_1,,success
Status,1118,17390675480,/g3t1_2,,running
Status,1119,17391111679,/g3t1_3,,running
Status,1120,17391192101,/g3t1_2,,success
Status,1121,17391239342,/g3t1_3,,success
Status,1122,17435444131,/g3t1_1,,running
Status,1123,17435880355,/g3t1_1,,success
Status,1124,17440600595,/g3t1_2,,running
Status,1125,17440735097,/g3t1_3,,running
Status,1126,17440862671,/g3t1_2,,success
Status,1127,17441480243,/g3t1_3,,success
Status,1128,17470190808,/g4t1,,fail
Status,1129,17485712569,/g3t1_1,,running
Status,1130,17486040070,/g3t1_1,,success
Status,1131,17490666491,/g3t1_2,,running
Status,1132,17490804994,/g3t1_3,,running
Status,1133,17491276637,/g3t1_2,,success
Status,1134,17491383190,/g3t1_3,,success
Status,1135,17535906406,/g3t1_1,,running
Status,1136,17536195724,/g3t1_1,,success
Status,1137,17540987129,/g3t1_2,,running
Status,1138,17541113172,/g3t1_3,,running
Status,1139,17541157134,/g3t1_2,,success
Status,1140,17541352964,/g3t1_3,,success
Status,1141,17570296068,/g4t1,,fail
Status,1142,17586039151,/g3t1_1,,running
Status,1143,17586376438,/g3t1_1,,success
Status,1144,17590868805,/g3t1_2,,running
Status,1145,17590951947,/g3t1_3,,running
Status,1146,17591281326,/g3t1_2,,success
Status,1147,17591346381,/g3t1_3,,success
Status,1148,17635907193,/g3t1_1,,running
Status,1149,17636258599,/g3t1_1,,success
Status,1150,17640468394,/g3t1_2,,running
Status,1151,17640675551,/g3t1_3,,running
Status,1152,17640878193,/g3t1_2,,success
Status,1153,17641146471,/g3t1_3,,success
Status,1154,17670574765,/g4t1,,fail
Status,1155,17686329348,/g3t1_1,,running
Status,1156,17686718042,/g3t1_1,,success
Status,1157,17691120093,/g3t1_2,,running
Status,1158,17691470943,/g3t1_3,,running
Status,1159,17691611488,/g3t1_2,,success
Status,1160,17691684092,/g3t1_3,,success
Status,1161,17736516142,/g3t1_1,,running
Status,1162,17737573900,/g3t1_1,,success
Status,1163,17741631388,/g3t1_2,,running
Status,1164,17741698488,/g3t1_3,,running
Status,1165,17741723322,/g3t1_3,,success
Status,1166,17741747047,/g3t1_2,,success
Status,1167,17770535356,/g4t1,,fail
Status,1168,17786710479,/g3t1_1,,running
Status,1169,17786785138,/g3t1_1,,success
Status,1170,17791298806,/g3t1_2,,running
Status,1171,17791419224,/g3t1_3,,running
Status,1172,17792331557,/g3t1_2,,success
Status,1173,17792669805,/g3t1_3,,success
Status,1174,17836176524,/g3t1_1,,running
Status,1175,17836357962,/g3t1_1,,success
Status,1176,17841469632,/g3t1_2,,running
Status,1177,17841598551,/g3t1_3,,running
Status,1178,17841628344,/g3t1_2,,success
Status,1179,17841669755,/g3t1_3,,success
Status,1180,17870173744,/g4t1,,fail
Status,1181,17886380509,/g3t1_1,,running
Status,1182,17886413639,/g3t1_1,,success
Status,1183,17891041906,/g3t1_2,,running
Status,1184,17891084188,/g3t1_3,,running
Status,1185,17891345919,/g3t1_2,,success
Status,1186,17891372887,/g3t1_3,,success
Status,1187,17936452564,/g3t1_1,,running
Status,1188,17936629731,/g3t1_1,,success
Status,1189,17941102498,/g3t1_2,,running
Status,1190,17941142812,/g3t1_3,,running
Status,1191,17941159755,/g3t1_2,,success
Status,1192,17941231943,/g3t1_3,,success
Status,1193,17970401820,/g4t1,,fail
Status,1194,17986991145,/g3t1_1,,running
Status,1195,17987275984,/g3t1_1,,success
Status,1196,17991708864,/g3t1_2,,running
Status,1197,17991790364,/g3t1_3,,running
Status,1198,17991895158,/g3t1_2,,success
Status,1199,17992531804,/g3t1_3,,success
Status,1200,18037270066,/g3t1_1,,running
Status,1201,18037355638,/g3t1_1,,success
Status,1202,18041738194,/g3t1_2,,running
Status,1203,18041826071,/g3t1_3,,running
Status,1204,18042241844,/g3t1_3,,success
Status,1205,18042572208,/g3t1_2,,success
Status,1206,18070911767,/g4t1,,fail
Status,1207,18087638201,/g3t1_1,,running
Status,1208,18087888189,/g3t1_1,,success
Status,1209,18091888798,/g3t1_2,,running
Status,1210,18092041331,/g3t1_3,,running
Status,1211,18092604008,/g3t1_2,,success
Status,1212,18092670448,/g3t1_3,,success
Status,1213,18137780164,/g3t1_1,,running
Status,1214,18138516830,/g3t1_1,,success
Status,1215,18141943199,/g3t1_2,,running
Status,1216,18142040646,/g3t1_3,,running
Status,1217,18142741017,/g3t1_2,,success
Status,1218,18142863852,/g3t1_3,,success
Status,1219,18171006031,/g4t1,,fail
Status,1220,18187513176,/g3t1_1,,running
Status,1221,18188335437,/g3t1_1,,success
Status,1222,18192491922,/g3t1_2,,running
Status,1223,18192576092,/g3t1_3,,running
Status,1224,18192668653,/g3t1_2,,success
Status,1225,18192979224,/g3t1_3,,success
Status,1226,18237810293,/g3t1_1,,running
Status,1227,18238614142,/g3t1_1,,success
Status,1228,18242435708,/g3t1_2,,running
Status,1229,18242511618,/g3t1_3,,running
Status,1230,18242598291,/g3t1_2,,success
Status,1231,18242631363,/g3t1_3,,success
Status,1232,18271101829,/g4t1,,fail
Status,1233,18288125876,/g3t1_1,,running
Status,1234,18288519497,/g3t1_1,,success
Status,1235,18292356365,/g3t1_2,,running
Status,1236,18292517340,/g3t1_3,,running
Status,1237,18292992409,/g3t1_2,,success
Status,1238,18293063375,/g3t1_3,,success
Status,1239,18338501353,/g3t1_1,,running
Status,1240,18338591867,/g3t1_1,,success
Status,1241,18342447857,/g3t1_3,,running
Status,1242,18343249585,/g3t1_2,,running
Status,1243,18343309910,/g3t1_2,,success
Status,1244,18343338037,/g3t1_3,,success
Status,1245,18371236497,/g4t1,,fail
Status,1246,18388417951,/g3t1_1,,running
Status,1247,18388809729,/g3t1_1,,success
Status,1248,18392601844,/g3t1_2,,running
Status,1249,18392704082,/g3t1_3,,running
Status,1250,18392891972,/g3t1_3,,success
Status,1251,18393203495,/g3t1_2,,success
Status,1252,18438301858,/g3t1_1,,running
Status,1253,18438910094,/g3t1_1,,success
Status,1254,18442990962,/g3t1_2,,running
Status,1255,18443078876,/g3t1_3,,running
Status,1256,18443198111,/g3t1_2,,success
Status,1257,18443225598,/g3t1_3,,success
Status,1258,18471335562,/g4t1,,fail
Status,1259,18488685828,/g3t1_1,,running
Status,1260,18488751967,/g3t1_1,,success
Status,1261,18493314832,/g3t1_2,,running
Status,1262,18493369645,/g3t1_3,,running
Status,1263,18493439406,/g3t1_2,,success
Status,1264,18493463768,/g3t1_3,,success
Status,1265,18538507321,/g3t1_1,,running
Status,1266,18539070564,/g3t1_1,,success
Status,1267,18543161158,/g3t1_2,,running
Status,1268,18543258155,/g3t1_3,,running
Status,1269,18543382188,/g3t1_3,,success
Status,1270,18544260146,/g3t1_2,,success
Status,1271,18571396624,/g4t1,,fail
Status,1272,18588578783,/g3t1_1,,running
Status,1273,18589027933,/g3t1_1,,success
Status,1274,18593681825,/g3t1_2,,running
Status,1275,18593781856,/g3t1_3,,running
Status,1276,18593934190,/g3t1_2,,success
Status,1277,18593964363,/g3t1_3,,success
Status,1278,18638731127,/g3t1_1,,running
Status,1279,18639098231,/g3t1_1,,success
Status,1280,18643263303,/g3t1_2,,running
Status,1281,18643318672,/g3t1_3,,running
Status,1282,18643419902,/g3t1_2,,success
Status,1283,18643849931,/g3t1_3,,success
Status,1284,18671640177,/g4t1,,fail
Status,1285,18689323345,/g3t1_1,,running
Status,1286,18689423076,/g3t1_1,,success
Status,1287,18693254514,/g3t1_2,,running
Status,1288,18693364000,/g3t1_3,,running
Status,1289,18693655475,/g3t1_2,,success
Status,1290,18694125198,/g3t1_3,,success
Status,1291,18738981403,/g3t1_1,,running
Status,1292,18739212991,/g3t1_1,,success
Status,1293,18743460410,/g3t1_2,,running
Status,1294,18743570096,/g3t1_3,,running
Status,1295,18743630259,/g3t1_3,,success
Status,1296,18743809506,/g3t1_2,,success
Status,1297,18771702133,/g4t1,,fail
Status,1298,18789269599,/g3t1_1,,running
Status,1299,18789366456,/g3t1_1,,success
Status,1300,18793557804,/g3t1_2,,running
Status,1301,18793909084,/g3t1_3,,running
Status,1302,18794406129,/g3t1_2,,success
Status,1303,18794482933,/g3t1_3,,success
Status,1304,18838678547,/g3t1_1,,running
Status,1305,18838707766,/g3t1_1,,success
Status,1306,18842947610,/g3t1_2,,running
Status,1307,18842975684,/g3t1_3,,running
Status,1308,18843082756,/g3t1_2,,success
Status,1309,18843411011,/g3t1_3,,success
Status,1310,18871702349,/g4t1,,fail
Status,1311,18888801338,/g3t1_1,,running
Status,1312,18888830492,/g3t1_1,,success
Status,1313,18893545643,/g3t1_2,,running
Status,1314,18893785952,/g3t1_3,,running
Status,1315,18893819753,/g3t1_2,,success
Status,1316,18893870422,/g3t1_3,,success
Status,1317,18938934336,/g3t1_1,,running
Status,1318,18939089540,/g3t1_1,,success
Status,1319,18943270368,/g3t1_2,,running
Status,1320,18943303306,/g3t1_3,,running
Status,1321,18943476425,/g3t1_2,,success
Status,1322,18943493235,/g3t1_3,,success
Status,1323,18971859903,/g4t1,,fail
Status,1324,18989809758,/g3t1_1,,running
Status,1325,18990027387,/g3t1_1,,success
Status,1326,18994349814,/g3t1_2,,running
Status,1327,18994420918,/g3t1_3,,running
Status,1328,18994536817,/g3t1_3,,success
Status,1329,18994572201,/g3t1_2,,success
Status,1330,19039792635,/g3t1_1,,running
Status,1331,19040249801,/g3t1_1,,success
Status,1332,19044033247,/g3t1_2,,running
Status,1333,19044110086,/g3t1_3,,running
Status,1334,19044386020,/g3t1_2,,success
Status,1335,19044717614,/g3t1_3,,success
Status,1336,19071474052,/g4t1,,fail
Status,1337,19089286104,/g3t1_1,,running
Status,1338,19089411771,/g3t1_1,,success
Status,1339,19093536649,/g3t1_2,,running
Status,1340,19093597246,/g3t1_3,,running
Status,1341,19093811528,/g3t1_2,,success
Status,1342,19093852642,/g3t1_3,,success
Status,1343,19140279330,/g3t1_1,,running
Status,1344,19140786907,/g3t1_1,,success
Status,1345,19144436001,/g3t1_2,,running
Status,1346,19144535059,/g3t1_3,,running
Status,1347,19145010177,/g3t1_2,,success
Status,1348,19145055751,/g3t1_3,,success
Status,1349,19171597806,/g4t1,,fail
Status,1350,19189718595,/g3t1_1,,running
Status,1351,19189892787,/g3t1_1,,success
Status,1352,19193810129,/g3t1_2,,running
Status,1353,19193832328,/g3t1_3,,running
Status,1354,19193856150,/g3t1_2,,success
Status,1355,19193865174,/g3t1_3,,success
Status,1356,19239871509,/g3t1_1,,running
Status,1357,19240022654,/g3t1_1,,success
Status,1358,19243861769,/g3t1_2,,running
Status,1359,19243884785,/g3t1_3,,running
Status,1360,19243977577,/g3t1_2,,success
Status,1361,19243998332,/g3t1_3,,success
Status,1362,19271452677,/g4t1,,fail
Status,1363,19289825336,/g3t1_1,,running
Status,1364,19289864413,/g3t1_1,,success
Status,1365,19294393347,/g3t1_2,,running
Status,1366,19294452542,/g3t1_3,,running
Status,1367,19294634977,/g3t1_2,,success
Status,1368,19294671958,/g3t1_3,,success
Status,1369,19340611792,/g3t1_1,,running
Status,1370,19340697056,/g3t1_1,,success
Status,1371,19344764580,/g3t1_2,,running
Status,1372,19344849802,/g3t1_3,,running
Status,1373,19345305185,/g3t1_2,,success
Status,1374,19345368349,/g3t1_3,,success
Status,1375,19372293381,/g4t1,,fail
Status,1376,19390578451,/g3t1_1,,running
Status,1377,19391175271,/g3t1_1,,success
Status,1378,19394886402,/g3t1_2,,running
Status,1379,19394942341,/g3t1_3,,running
Status,1380,19395027284,/g3t1_2,,success
Status,1381,19395330503,/g3t1_3,,success
Status,1382,19441055522,/g3t1_1,,running
Status,1383,19441123369,/g3t1_1,,success
Status,1384,19445003486,/g3t1_2,,running
Status,1385,19445079520,/g3t1_3,,running
Status,1386,19445140949,/g3t1_2,,success
Status,1387,19445221480,/g3t1_3,,success
Status,1388,19472412535,/g4t1,,fail
Status,1389,19491221474,/g3t1_1,,running
Status,1390,19491289918,/g3t1_1,,success
Status,1391,19495227991,/g3t1_3,,running
Status,1392,19495313559,/g3t1_2,,running
Status,1393,19495404626,/g3t1_2,,success
Status,1394,19495857456,/g3t1_3,,success
Status,1395,19541184252,/g3t1_1,,running
Status,1396,19541733845,/g3t1_1,,success
Status,1397,19545433061,/g3t1_3,,running
Status,1398,19545506101,/g3t1_2,,running
Status,1399,19545611026,/g3t1_3,,success
Status,1400,19545636180,/g3t1_2,,success
Status,1401,19572546644,/g4t1,,fail
Status,1402,19591274437,/g3t1_1,,running
Status,1403,19591342256,/g3t1_1,,success
Status,1404,19595760885,/g3t1_2,,running
Status,1405,19595816636,/g3t1_3,,running
Status,1406,19596006726,/g3t1_2,,success
Status,1407,19596113816,/g3t1_3,,success
Status,1408,19640756189,/g3t1_1,,running
Status,1409,19640786069,/g3t1_1,,success
Status,1410,19644883745,/g3t1_3,,running
Status,1411,19644907067,/g3t1_2,,running
Status,1412,19644923081,/g3t1_2,,success
Status,1413,19645027067,/g3t1_3,,success
Status,1414,19672349372,/g4t1,,fail
Status,1415,19690906796,/g3t1_1,,running
Status,1416,19691060817,/g3t1_1,,success
Status,1417,19695058351,/g3t1_2,,running
Status,1418,19695101932,/g3t1_3,,running
Status,1419,19695265902,/g3t1_3,,success
Status,1420,19695285634,/g3t1_2,,success
Status,1421,19740905998,/g3t1_1,,running
Status,1422,19740997925,/g3t1_1,,success
Status,1423,19745125245,/g3t1_2,,running
Status,1424,19745152797,/g3t1_3,,running
Status,1425,19745201842,/g3t1_3,,success
Status,1426,19745214357,/g3t1_2,,success
Status,1427,19772390862,/g4t1,,fail
Status,1428,19791687467,/g3t1_1,,running
Status,1429,19792115488,/g3t1_1,,success
Status,1430,19796655182,/g3t1_3,,running
Status,1431,19796724697,/g3t1_2,,running
Status,1432,19796813739,/g3t1_2,,success
Status,1433,19796839513,/g3t1_3,,success
Status,1434,19841731023,/g3t1_1,,running
Status,1435,19842140394,/g3t1_1,,success
Status,1436,19846254051,/g3t1_2,,running
Status,1437,19846309944,/g3t1_3,,running
Status,1438,19846458623,/g3t1_3,,success
Status,1439,19847224888,/g3t1_2,,success
Status,1440,19872847966,/g4t1,,fail
Status,1441,19891941522,/g3t1_1,,running
Status,1442,19892519420,/g3t1_1,,success
Status,1443,19896407226,/g3t1_2,,running
Status,1444,19896940944,/g3t1_3,,running
Status,1445,19896999819,/g3t1_2,,success
Status,1446,19897028337,/g3t1_3,,success
Status,1447,19942291995,/g3t1_1,,running
Status,1448,19942356443,/g3t1_1,,success
Status,1449,19946032705,/g3t1_2,,running
Status,1450,19946282659,/g3t1_2,,success
Status,1451,19947003742,/g3t1_3,,running
Status,1452,19947079431,/g3t1_3,,success
Status,1453,19972820440,/g4t1,,fail
Status,1454,19992376745,/g3t1_1,,running
Status,1455,19993025254,/g3t1_1,,success
Status,1456,19996251581,/g3t1_2,,running
Status,1457,19996625035,/g3t1_3,,running
Status,1458,19996858702,/g3t1_2,,success
Status,1459,19996929088,/g3t1_3,,success
Status,1460,20042019722,/g3t1_1,,running
Status,1461,20042057837,/g3t1_1,,success
Status,1462,20046014489,/g3t1_2,,running
Status,1463,20046223826,/g3t1_2,,success
Status,1464,20046286005,/g3t1_3,,running
Status,1465,20046536153,/g3t1_3,,success
Status,1466,20073313683,/g4t1,,fail
Status,1467,20092552380,/g3t1_1,,running
Status,1468,20092910908,/g3t1_1,,success
Status,1469,20096739137,/g3t1_2,,running
Status,1470,20096816858,/g3t1_3,,running
Status,1471,20097240896,/g3t1_2,,success
Status,1472,20097297995,/g3t1_3,,success
Status,1473,20142040727,/g3t1_1,,running
Status,1474,20142084491,/g3t1_1,,success
Status,1475,20146202557,/g3t1_2,,running
Status,1476,20146385072,/g3t1_3,,running
Status,1477,20146412914,/g3t1_2,,success
Status,1478,20146656043,/g3t1_3,,success
Status,1479,20172701597,/g4t1,,fail
Status,1480,20192244280,/g3t1_1,,running
Status,1481,20192296679,/g3t1_1,,success
Status,1482,20196256322,/g3t1_2,,running
Status,1483,20196750558,/g3t1_3,,running
Status,1484,20196798900,/g3t1_2,,success
Status,1485,20197077078,/g3t1_3,,success
Status,1486,20242108114,/g3t1_1,,running
Status,1487,20242250271,/g3t1_1,,success
Status,1488,20246252885,/g3t1_2,,running
Status,1489,20246291816,/g3t1_2,,success
Status,1490,20246463547,/g3t1_3,,running
Status,1491,20246638037,/g3t1_3,,success
Status,1492,20272632139,/g4t1,,fail
Status,1493,20292240557,/g3t1_1,,running
Status,1494,20292278117,/g3t1_1,,success
Status,1495,20296522259,/g3t1_2,,running
Status,1496,20296573072,/g3t1_2,,success
Status,1497,20296583833,/g3t1_3,,running
Status,1498,20296700061,/g3t1_3,,success
Status,1499,20342343008,/g3t1_1,,running
Status,1500,20342525355,/g3t1_1,,success
Status,1501,20346344548,/g3t1_2,,running
Status,1502,20346499741,/g3t1_2,,success
Status,1503,20346543872,/g3t1_3,,running
Status,1504,20346898664,/g3t1_3,,success
Status,1505,20373225886,/g4t1,,fail
Status,1506,20392963386,/g3t1_1,,running
Status,1507,20393465966,/g3t1_1,,success
Status,1508,20397251902,/g3t1_2,,running
Status,1509,20397790404,/g3t1_3,,running
Status,1510,20397828278,/g3t1_2,,success
Status,1511,20397846883,/g3t1_3,,success
Status,1512,20442880200,/g3t1_1,,running
