
Status,2,3517566095,/g4t1,,init
Status,3,8528912241,/g3t1_1,,init
Status,5,8543172678,/g3t1_1,,init
Status,6,8543196721,/g3t1_1,,running
Status,7,8544134477,/g3t1_1,,success
Status,8,8593298728,/g3t1_1,,running
Status,9,8593385090,/g3t1_1,,success
Status,10,8643629704,/g3t1_1,,running
Status,11,8643874240,/g3t1_1,,success
Status,12,8693515165,/g3t1_1,,running
Status,13,8693536732,/g3t1_1,,success
Status,14,8743589522,/g3t1_1,,running
Status,15,8743606111,/g3t1_1,,success
Status,16,8793630168,/g3t1_1,,running
Status,17,8793647143,/g3t1_1,,success
Status,18,8831427832,/g3t1_3,,init
Status,20,8831645048,/g3t1_2,,init
Status,22,8843376647,/g3t1_3,,init
Status,23,8843392978,/g3t1_3,,running
Status,24,8843561795,/g3t1_1,,running
Status,25,8843730118,/g3t1_2,,init
Status,26,8843739600,/g3t1_2,,running
Status,27,8843752937,/g3t1_1,,success
Status,28,8844093509,/g3t1_3,,success
Status,29,8844243920,/g3t1_2,,success
Status,30,8894537208,/g3t1_3,,running
Status,31,8894608264,/g3t1_1,,running
Status,32,8894762420,/g3t1_2,,running
Status,33,8895212684,/g3t1_3,,success
Status,34,8895826754,/g3t1_2,,success
Status,35,8896185527,/g3t1_1,,success
Status,36,8935169459,/g4t1,,success
Status,37,8944582817,/g3t1_3,,running
Status,38,8944672818,/g3t1_1,,running
Status,39,8944722105,/g3t1_3,,success
Status,40,8944753849,/g3t1_1,,success
Status,41,8945048029,/g3t1_2,,running
Status,42,8945645095,/g3t1_2,,success
Status,46,8994677398,/g3t1_3,,running
Status,47,8995142044,/g3t1_1,,running
Status,48,8995199802,/g3t1_2,,running
Status,49,8995343244,/g3t1_3,,success
Status,50,8995376581,/g3t1_1,,fail
Status,51,8995411087,/g3t1_2,,success
Status,52,9035043025,/g4t1,,success
Status,53,9044817485,/g3t1_3,,running
Status,54,9044878329,/g3t1_1,,running
Status,55,9044927288,/g3t1_2,,running
Status,56,9045093539,/g3t1_1,,fail
Status,57,9045136921,/g3t1_3,,success
Status,58,9045697869,/g3t1_2,,success
Status,59,9094665402,/g3t1_3,,running
Status,60,9094750885,/g3t1_1,,running
Status,61,9095098913,/g3t1_2,,running
Status,62,9095136901,/g3t1_3,,success
Status,63,9095162461,/g3t1_2,,success
Status,64,9095408932,/g3t1_1,,fail
Status,65,9135306509,/g4t1,,success
Status,66,9144975712,/g3t1_3,,running
Status,67,9145059320,/g3t1_1,,running
Status,68,9145339944,/g3t1_2,,running
Status,69,9145414685,/g3t1_3,,success
Status,70,9145438531,/g3t1_1,,fail
Status,71,9145456998,/g3t1_2,,success
Status,75,9195413329,/g3t1_3,,running
Status,76,9195479487,/g3t1_1,,running
Status,77,9195505561,/g3t1_2,,running
Status,78,9195671959,/g3t1_1,,fail
Status,79,9195702898,/g3t1_3,,fail
Status,80,9195727244,/g3t1_2,,fail
Status,81,9235817475,/g4t1,,success
Status,82,9245625579,/g3t1_3,,running
Status,83,9245677810,/g3t1_1,,running
Status,84,9245835234,/g3t1_2,,running
Status,85,9245890155,/g3t1_3,,success
Status,86,9245913331,/g3t1_2,,fail
Status,87,9245933140,/g3t1_1,,fail
Status,88,9296005738,/g3t1_3,,running
Status,89,9296067285,/g3t1_1,,running
Status,90,9296089322,/g3t1_2,,running
Status,91,9296109928,/g3t1_2,,success
Status,92,9296131352,/g3t1_1,,fail
Status,93,9296288300,/g3t1_3,,success
Status,94,9335991370,/g4t1,,success
Status,95,9345639015,/g3t1_3,,running
Status,96,9345692184,/g3t1_1,,running
Status,97,9345780599,/g3t1_2,,running
Status,98,9345803162,/g3t1_2,,fail
Status,99,9345822990,/g3t1_1,,fail
Status,100,9346147009,/g3t1_3,,fail
Status,104,9395808530,/g3t1_3,,running
Status,105,9395874636,/g3t1_1,,running
Status,106,9395899896,/g3t1_2,,running
Status,107,9395922040,/g3t1_3,,fail
Status,108,9395949445,/g3t1_1,,fail
Status,109,9396040747,/g3t1_2,,success
Status,110,9435763570,/g4t1,,success
Status,111,9446274991,/g3t1_3,,running
Status,112,9446410639,/g3t1_3,,fail
Status,113,9446488488,/g3t1_1,,running
Status,114,9446563881,/g3t1_1,,fail
Status,115,9446600335,/g3t1_2,,running
Status,116,9446629842,/g3t1_2,,success
Status,117,9495719421,/g3t1_3,,running
Status,118,9495772833,/g3t1_3,,fail
Status,119,9495889418,/g3t1_1,,running
Status,120,9495939651,/g3t1_2,,running
Status,121,9496060279,/g3t1_1,,fail
Status,122,9496085351,/g3t1_2,,success
Status,123,9535867682,/g4t1,,success
Status,124,9546723790,/g3t1_3,,running
Status,125,9546806995,/g3t1_2,,running
Status,126,9546886892,/g3t1_1,,running
Status,127,9546919870,/g3t1_1,,fail
Status,128,9546953383,/g3t1_3,,fail
Status,129,9546985170,/g3t1_2,,success
Status,133,9596720028,/g3t1_3,,running
Status,134,9596846216,/g3t1_2,,running
Status,135,9597036240,/g3t1_1,,running
Status,136,9597142431,/g3t1_3,,fail
Status,137,9597180690,/g3t1_1,,fail
Status,138,9597335320,/g3t1_2,,fail
Status,139,9635659047,/g4t1,,success
Status,140,9646251531,/g3t1_1,,running
Status,141,9646286360,/g3t1_1,,fail
Status,142,9646299544,/g3t1_2,,running
Status,143,9646310635,/g3t1_3,,running
Status,144,9646322515,/g3t1_3,,success
Status,145,9646335525,/g3t1_2,,fail
Status,146,9696762093,/g3t1_1,,running
Status,147,9696920362,/g3t1_2,,running
Status,148,9696956199,/g3t1_3,,running
Status,149,9697024878,/g3t1_1,,fail
Status,150,9697050870,/g3t1_2,,fail
Status,151,9697693178,/g3t1_3,,fail
Status,152,9735289430,/g4t1,,success
Status,153,9746047886,/g3t1_2,,running
Status,154,9746067044,/g3t1_3,,running
Status,155,9746098580,/g3t1_1,,running
Status,156,9746109438,/g3t1_1,,fail
Status,157,9746119641,/g3t1_3,,fail
Status,158,9746147705,/g3t1_2,,fail
Status,162,9796453820,/g3t1_3,,running
Status,163,9796534255,/g3t1_2,,running
Status,164,9796566529,/g3t1_1,,running
Status,165,9796661611,/g3t1_2,,fail
Status,166,9796700114,/g3t1_3,,fail
Status,167,9796836576,/g3t1_1,,success
Status,168,9835297475,/g4t1,,success
Status,169,9846271301,/g3t1_2,,running
Status,170,9846292009,/g3t1_1,,running
Status,171,9846324348,/g3t1_3,,running
Status,172,9846333066,/g3t1_3,,fail
Status,173,9846340685,/g3t1_2,,fail
Status,174,9846564476,/g3t1_1,,success
Status,175,9897149435,/g3t1_3,,running
Status,176,9897226553,/g3t1_1,,running
Status,177,9897408895,/g3t1_2,,running
Status,178,9897437683,/g3t1_2,,fail
Status,179,9897478410,/g3t1_3,,fail
Status,180,9897736974,/g3t1_1,,success
Status,181,9936320927,/g4t1,,success
Status,182,9946863466,/g3t1_3,,running
Status,183,9946924410,/g3t1_1,,running
Status,184,9946949366,/g3t1_2,,running
Status,185,9946965681,/g3t1_2,,fail
Status,186,9947001602,/g3t1_3,,fail
Status,187,9947090237,/g3t1_1,,success
Status,191,9997562653,/g3t1_1,,running
Status,192,9997650204,/g3t1_3,,running
Status,193,9997680981,/g3t1_2,,running
Status,194,9997705750,/g3t1_1,,fail
Status,195,9997750577,/g3t1_2,,fail
Status,196,9998045988,/g3t1_3,,fail
Status,197,10036353984,/g4t1,,success
Status,198,10047418456,/g3t1_1,,running
Status,199,10047470734,/g3t1_2,,running
Status,200,10047499508,/g3t1_2,,fail
Status,201,10047636504,/g3t1_1,,fail
Status,202,10047669951,/g3t1_3,,running
Status,203,10047725353,/g3t1_3,,fail
Status,204,10097601649,/g3t1_1,,running
Status,205,10097655166,/g3t1_3,,running
Status,206,10097747710,/g3t1_2,,running
Status,207,10097770465,/g3t1_1,,fail
Status,208,10098133414,/g3t1_3,,fail
Status,209,10098196040,/g3t1_2,,fail
Status,210,10136567315,/g4t1,,success
Status,211,10147471571,/g3t1_1,,running
Status,212,10147527370,/g3t1_2,,running
Status,213,10148143530,/g3t1_1,,fail
Status,214,10148212202,/g3t1_3,,running
Status,215,10148250800,/g3t1_3,,fail
Status,216,10148643842,/g3t1_2,,success
Status,220,10197860447,/g3t1_3,,running
Status,221,10197934577,/g3t1_1,,running
Status,222,10197967884,/g3t1_2,,running
Status,223,10198132666,/g3t1_3,,fail
Status,224,10198168402,/g3t1_1,,fail
Status,225,10198528563,/g3t1_2,,success
Status,226,10236581607,/g4t1,,success
Status,227,10247835477,/g3t1_3,,running
Status,228,10248083919,/g3t1_2,,running
Status,229,10248131147,/g3t1_1,,running
Status,230,10248637239,/g3t1_2,,success
Status,231,10248709842,/g3t1_3,,success
Status,232,10248794918,/g3t1_1,,fail
Status,233,10298245735,/g3t1_2,,running
Status,234,10298321006,/g3t1_1,,running
Status,235,10298421840,/g3t1_1,,fail
Status,236,10298453821,/g3t1_3,,running
Status,237,10298480249,/g3t1_3,,success
Status,238,10298510407,/g3t1_2,,fail
Status,239,10336738795,/g4t1,,success
Status,240,10348334631,/g3t1_1,,running
Status,241,10348395352,/g3t1_3,,running
Status,242,10348417632,/g3t1_2,,running
Status,243,10348438109,/g3t1_2,,success
Status,244,10348460830,/g3t1_1,,fail
Status,245,10348615373,/g3t1_3,,fail
Status,249,10398529775,/g3t1_2,,running
Status,250,10398598173,/g3t1_1,,running
Status,251,10398622022,/g3t1_3,,running
Status,252,10398769422,/g3t1_3,,fail
Status,253,10399455617,/g3t1_1,,fail
Status,254,10399527964,/g3t1_2,,fail
Status,255,10436595844,/g4t1,,success
Status,256,10448627493,/g3t1_1,,running
Status,257,10448688421,/g3t1_2,,running
Status,258,10448709941,/g3t1_3,,running
Status,259,10448733004,/g3t1_3,,fail
Status,260,10448755091,/g3t1_1,,fail
Status,261,10448800518,/g3t1_2,,fail
Status,262,10498832469,/g3t1_2,,running
Status,263,10498901875,/g3t1_1,,running
Status,264,10498923512,/g3t1_3,,running
Status,265,10499138888,/g3t1_2,,fail
Status,266,10499303745,/g3t1_1,,fail
Status,267,10499339094,/g3t1_3,,fail
Status,268,10536870704,/g4t1,,success
Status,269,10548675568,/g3t1_1,,running
Status,270,10548773447,/g3t1_3,,running
Status,271,10548892343,/g3t1_2,,running
Status,272,10548930510,/g3t1_2,,fail
Status,273,10548958409,/g3t1_1,,fail
Status,274,10548982884,/g3t1_3,,fail
Status,278,10598780790,/g3t1_3,,running
Status,279,10598930004,/g3t1_2,,running
Status,280,10599008007,/g3t1_1,,running
Status,281,10599517325,/g3t1_1,,fail
Status,282,10599588661,/g3t1_3,,success
Status,283,10600010365,/g3t1_2,,fail
Status,284,10637095131,/g4t1,,success
Status,285,10649132259,/g3t1_3,,running
Status,286,10649310635,/g3t1_2,,running
Status,287,10649360265,/g3t1_1,,running
Status,288,10649493831,/g3t1_1,,fail
Status,289,10649537408,/g3t1_2,,fail
Status,290,10649853334,/g3t1_3,,success
Status,291,10699491525,/g3t1_1,,running
Status,292,10699570310,/g3t1_2,,running
Status,293,10699597201,/g3t1_2,,fail
Status,294,10699790923,/g3t1_3,,running
Status,295,10699832843,/g3t1_3,,success
Status,296,10699891957,/g3t1_1,,fail
Status,297,10737252949,/g4t1,,success
Status,298,10749747793,/g3t1_1,,running
Status,299,10749817110,/g3t1_2,,running
Status,300,10749843855,/g3t1_3,,running
Status,301,10750022528,/g3t1_1,,fail
Status,302,10750051004,/g3t1_3,,fail
Status,303,10750131147,/g3t1_2,,fail
Status,307,10799924848,/g3t1_1,,running
Status,308,10800017917,/g3t1_3,,running
Status,309,10800092195,/g3t1_2,,running
Status,310,10800129309,/g3t1_2,,fail
Status,311,10800163645,/g3t1_3,,success
Status,312,10800554986,/g3t1_1,,fail
Status,313,10837367385,/g4t1,,success
Status,314,10849672783,/g3t1_3,,running
Status,315,10849758693,/g3t1_1,,running
Status,316,10849876223,/g3t1_2,,running
Status,317,10850254901,/g3t1_1,,fail
Status,318,10850374554,/g3t1_2,,fail
Status,319,10850485133,/g3t1_3,,fail
Status,320,10898992207,/g3t1_3,,running
Status,321,10899013103,/g3t1_1,,running
Status,322,10899095717,/g3t1_2,,running
Status,323,10899103776,/g3t1_3,,fail
Status,324,10899110356,/g3t1_2,,fail
Status,325,10899116469,/g3t1_1,,fail
Status,326,10936656745,/g4t1,,success
Status,327,10948990984,/g3t1_2,,running
Status,328,10949019563,/g3t1_1,,running
Status,329,10949029068,/g3t1_1,,fail
Status,330,10949048413,/g3t1_2,,fail
Status,331,10949880393,/g3t1_3,,running
Status,332,10949898123,/g3t1_3,,fail
Status,336,11000639090,/g3t1_1,,running
Status,337,11000663511,/g3t1_1,,fail
Status,338,11000672209,/g3t1_2,,running
Status,339,11000679407,/g3t1_2,,success
Status,340,11000688501,/g3t1_3,,running
Status,341,11000696104,/g3t1_3,,success
Status,342,11036671338,/g4t1,,success
Status,343,11049172071,/g3t1_1,,running
Status,344,11049192317,/g3t1_2,,running
Status,345,11049199097,/g3t1_2,,success
Status,346,11049204246,/g3t1_1,,fail
Status,347,11049852072,/g3t1_3,,running
Status,348,11049918199,/g3t1_3,,fail
Status,349,11099795797,/g3t1_1,,running
Status,350,11099836928,/g3t1_2,,running
Status,351,11099847548,/g3t1_1,,fail
Status,352,11099861117,/g3t1_2,,success
Status,353,11100019089,/g3t1_3,,running
Status,354,11100112684,/g3t1_3,,success
Status,355,11136758024,/g4t1,,success
Status,356,11149542264,/g3t1_1,,running
Status,357,11149561467,/g3t1_2,,running
Status,358,11149568160,/g3t1_1,,fail
Status,359,11149574211,/g3t1_2,,success
Status,360,11150057856,/g3t1_3,,running
Status,361,11150118884,/g3t1_3,,fail
Status,365,11199679867,/g3t1_2,,running
Status,366,11199703888,/g3t1_1,,running
Status,367,11199711918,/g3t1_1,,fail
Status,368,11199719714,/g3t1_2,,fail
Status,369,11200160503,/g3t1_3,,running
Status,370,11200266059,/g3t1_3,,fail
Status,371,11236810006,/g4t1,,success
Status,372,11249576311,/g3t1_2,,running
Status,373,11249618866,/g3t1_2,,fail
Status,374,11249630740,/g3t1_1,,running
Status,375,11249644940,/g3t1_1,,fail
Status,376,11250175893,/g3t1_3,,running
Status,377,11250249742,/g3t1_3,,fail
Status,378,11299723211,/g3t1_1,,running
Status,379,11299742687,/g3t1_2,,running
Status,380,11299749096,/g3t1_2,,fail
Status,381,11299755005,/g3t1_1,,success
Status,382,11300258494,/g3t1_3,,running
Status,383,11300368072,/g3t1_3,,fail
Status,384,11336994122,/g4t1,,success
Status,385,11349833757,/g3t1_2,,running
Status,386,11349853029,/g3t1_1,,running
Status,387,11349859986,/g3t1_1,,fail
Status,388,11349865691,/g3t1_2,,fail
Status,389,11350316742,/g3t1_3,,running
Status,390,11350411361,/g3t1_3,,fail
Status,394,11399842161,/g3t1_1,,running
Status,395,11399858703,/g3t1_2,,running
Status,396,11399902980,/g3t1_2,,fail
Status,397,11399908883,/g3t1_1,,fail
Status,398,11400359243,/g3t1_3,,running
Status,399,11400445995,/g3t1_3,,fail
Status,400,11437017321,/g4t1,,success
Status,401,11449894438,/g3t1_1,,running
Status,402,11449932593,/g3t1_2,,running
Status,403,11449941677,/g3t1_1,,fail
Status,404,11449959744,/g3t1_2,,fail
Status,405,11450447885,/g3t1_3,,running
Status,406,11450508745,/g3t1_3,,fail
Status,407,11500030706,/g3t1_1,,running
Status,408,11500058055,/g3t1_2,,running
Status,409,11500071364,/g3t1_2,,fail
Status,410,11500078261,/g3t1_1,,fail
Status,411,11500461110,/g3t1_3,,running
Status,412,11500497110,/g3t1_3,,fail
Status,413,11537077440,/g4t1,,success
Status,414,11550064250,/g3t1_1,,running
Status,415,11550085812,/g3t1_2,,running
Status,416,11550180190,/g3t1_1,,fail
Status,417,11550199242,/g3t1_2,,fail
Status,418,11550507032,/g3t1_3,,running
Status,419,11550619619,/g3t1_3,,fail
Status,420,11600139168,/g3t1_1,,running
Status,421,11600160887,/g3t1_2,,running
Status,422,11600171262,/g3t1_1,,fail
Status,423,11600271152,/g3t1_2,,fail
Status,424,11600571990,/g3t1_3,,running
Status,425,11600648674,/g3t1_3,,fail
Status,426,11637230834,/g4t1,,success
Status,427,11650326926,/g3t1_1,,running
Status,428,11650349087,/g3t1_2,,running
Status,429,11650359937,/g3t1_2,,fail
Status,430,11650367711,/g3t1_1,,fail
Status,431,11651916969,/g3t1_3,,running
Status,432,11651959926,/g3t1_3,,fail
Status,433,11700332625,/g3t1_1,,running
Status,434,11700352174,/g3t1_1,,fail
Status,435,11700361321,/g3t1_2,,running
Status,436,11700368439,/g3t1_2,,fail
Status,437,11700769536,/g3t1_3,,running
Status,438,11700825218,/g3t1_3,,fail
Status,439,11737283931,/g4t1,,success
Status,440,11750399542,/g3t1_2,,running
Status,441,11750418639,/g3t1_1,,running
Status,442,11750429769,/g3t1_1,,fail
Status,443,11750450371,/g3t1_2,,fail
Status,444,11750861261,/g3t1_3,,running
Status,445,11750875344,/g3t1_3,,fail
Status,446,11800517094,/g3t1_2,,running
Status,447,11800533790,/g3t1_1,,running
Status,448,11800613712,/g3t1_1,,fail
Status,449,11800623311,/g3t1_2,,fail
Status,450,11800883134,/g3t1_3,,running
Status,451,11800978032,/g3t1_3,,fail
Status,452,11837323522,/g4t1,,success
Status,453,11850665603,/g3t1_1,,running
Status,454,11850682041,/g3t1_1,,fail
Status,455,11850687255,/g3t1_2,,running
Status,456,11850693069,/g3t1_2,,fail
Status,457,11850940818,/g3t1_3,,running
Status,458,11850995218,/g3t1_3,,fail
Status,459,11900655908,/g3t1_1,,running
Status,460,11900730686,/g3t1_2,,running
Status,461,11900738153,/g3t1_1,,fail
Status,462,11900743299,/g3t1_2,,fail
Status,463,11901102566,/g3t1_3,,running
Status,464,11901142884,/g3t1_3,,fail
Status,465,11937442928,/g4t1,,success
Status,466,11950845799,/g3t1_1,,running
Status,467,11950862043,/g3t1_1,,fail
Status,468,11950882508,/g3t1_2,,running
Status,469,11950888661,/g3t1_2,,fail
Status,470,11951085523,/g3t1_3,,running
Status,471,11951166374,/g3t1_3,,fail
Status,472,12000872042,/g3t1_1,,running
Status,473,12000892950,/g3t1_2,,running
Status,474,12000905116,/g3t1_1,,fail
Status,475,12000910087,/g3t1_2,,fail
Status,476,12001153443,/g3t1_3,,running
Status,477,12001204224,/g3t1_3,,fail
Status,478,12037592030,/g4t1,,success
Status,479,12051971788,/g3t1_1,,running
Status,480,12052021834,/g3t1_2,,running
Status,481,12052051445,/g3t1_2,,fail
Status,482,12052058643,/g3t1_1,,fail
Status,483,12052067680,/g3t1_3,,running
Status,484,12052078105,/g3t1_3,,fail
Status,485,12101039407,/g3t1_1,,running
Status,486,12101056438,/g3t1_1,,fail
Status,487,12101062140,/g3t1_2,,running
Status,488,12101159300,/g3t1_2,,fail
Status,489,12101271778,/g3t1_3,,running
Status,490,12101492958,/g3t1_3,,fail
Status,491,12137474571,/g4t1,,success
Status,492,12151164508,/g3t1_1,,running
Status,493,12151182861,/g3t1_2,,running
Status,494,12151204847,/g3t1_1,,fail
Status,495,12151212687,/g3t1_2,,fail
Status,496,12151534707,/g3t1_3,,running
Status,497,12151549412,/g3t1_3,,fail
Status,498,12201234491,/g3t1_2,,running
Status,499,12201251728,/g3t1_2,,fail
Status,500,12201256930,/g3t1_1,,running
Status,501,12201261445,/g3t1_1,,fail
Status,502,12201517932,/g3t1_3,,running
Status,503,12201544696,/g3t1_3,,fail
Status,504,12237650381,/g4t1,,success
Status,505,12252148026,/g3t1_2,,running
Status,506,12252237267,/g3t1_1,,running
Status,507,12252272016,/g3t1_3,,running
Status,508,12252291670,/g3t1_2,,fail
Status,509,12252323705,/g3t1_3,,fail
Status,510,12252466300,/g3t1_1,,fail
Status,511,12301488722,/g3t1_1,,running
Status,512,12301511090,/g3t1_2,,running
Status,513,12301527888,/g3t1_2,,fail
Status,514,12301535419,/g3t1_1,,fail
Status,515,12301730080,/g3t1_3,,running
Status,516,12301933398,/g3t1_3,,fail
Status,517,12337792603,/g4t1,,success
Status,518,12352636849,/g3t1_1,,running
Status,519,12352679851,/g3t1_2,,running
Status,520,12352728691,/g3t1_2,,fail
Status,521,12352736714,/g3t1_1,,fail
Status,522,12352744385,/g3t1_3,,running
Status,523,12352751737,/g3t1_3,,fail
Status,527,12402273022,/g3t1_1,,running
Status,528,12402300087,/g3t1_2,,running
Status,529,12402309001,/g3t1_2,,success
Status,530,12402315635,/g3t1_1,,fail
Status,531,12402423935,/g3t1_3,,running
Status,532,12402530783,/g3t1_3,,fail
Status,533,12437872009,/g4t1,,success
Status,534,12452481402,/g3t1_1,,running
Status,535,12452518912,/g3t1_1,,fail
Status,536,12452571348,/g3t1_2,,running
Status,537,12452579855,/g3t1_3,,running
Status,538,12452589103,/g3t1_2,,success
Status,539,12452596314,/g3t1_3,,fail
Status,540,12501897551,/g3t1_1,,running
Status,541,12501923662,/g3t1_2,,running
Status,542,12501954481,/g3t1_1,,fail
Status,543,12502043224,/g3t1_2,,success
Status,544,12502246103,/g3t1_3,,running
Status,545,12502261670,/g3t1_3,,fail
Status,546,12538025623,/g4t1,,success
Status,547,12552093513,/g3t1_1,,running
Status,548,12552116508,/g3t1_1,,fail
Status,549,12552143796,/g3t1_2,,running
Status,550,12552150242,/g3t1_2,,success
Status,551,12552323058,/g3t1_3,,running
Status,552,12552592738,/g3t1_3,,fail
Status,556,12602193340,/g3t1_2,,running
Status,557,12602254962,/g3t1_1,,running
Status,558,12602265011,/g3t1_1,,fail
Status,559,12602275668,/g3t1_2,,success
Status,560,12602650378,/g3t1_3,,running
Status,561,12602665640,/g3t1_3,,fail
Status,562,12638056325,/g4t1,,success
Status,563,12652199846,/g3t1_1,,running
Status,564,12652234971,/g3t1_2,,running
Status,565,12652250760,/g3t1_2,,success
Status,566,12652256647,/g3t1_1,,fail
Status,567,12652427207,/g3t1_3,,running
Status,568,12652637907,/g3t1_3,,success
Status,569,12702259920,/g3t1_1,,running
Status,570,12702278883,/g3t1_2,,running
Status,571,12702293578,/g3t1_1,,fail
Status,572,12702298889,/g3t1_2,,success
Status,573,12702548439,/g3t1_3,,running
Status,574,12702564366,/g3t1_3,,fail
Status,575,12738230997,/g4t1,,success
Status,576,12752477548,/g3t1_1,,running
Status,577,12752506742,/g3t1_1,,fail
Status,578,12752514696,/g3t1_2,,running
Status,579,12752523193,/g3t1_2,,fail
Status,580,12752642614,/g3t1_3,,running
Status,581,12752661028,/g3t1_3,,fail
Status,585,12802451590,/g3t1_1,,running
Status,586,12802473074,/g3t1_2,,running
Status,587,12802498562,/g3t1_1,,fail
Status,588,12802505746,/g3t1_2,,success
Status,589,12802619194,/g3t1_3,,running
Status,590,12802868964,/g3t1_3,,fail
Status,591,12838219162,/g4t1,,success
Status,592,12852751238,/g3t1_1,,running
Status,593,12852790959,/g3t1_1,,fail
Status,594,12852800048,/g3t1_2,,running
Status,595,12852876141,/g3t1_2,,success
Status,596,12852896517,/g3t1_3,,running
Status,597,12852978525,/g3t1_3,,fail
Status,598,12902582550,/g3t1_1,,running
Status,599,12902600157,/g3t1_2,,running
Status,600,12902623132,/g3t1_1,,fail
Status,601,12902701297,/g3t1_2,,success
Status,602,12902807622,/g3t1_3,,running
Status,603,12902835246,/g3t1_3,,fail
Status,604,12938342482,/g4t1,,fail
Status,605,12952708745,/g3t1_1,,running
Status,606,12952733985,/g3t1_1,,fail
Status,607,12952763046,/g3t1_2,,running
Status,608,12952773580,/g3t1_2,,success
Status,609,12952969648,/g3t1_3,,running
Status,610,12952981050,/g3t1_3,,fail
Status,614,13002834473,/g3t1_1,,running
Status,615,13002868189,/g3t1_2,,running
Status,616,13002879522,/g3t1_2,,fail
Status,617,13002911689,/g3t1_1,,fail
Status,618,13002921064,/g3t1_3,,running
Status,619,13003192767,/g3t1_3,,success
Status,620,13038450343,/g4t1,,success
Status,621,13053083617,/g3t1_1,,running
Status,622,13053113069,/g3t1_2,,running
Status,623,13053145729,/g3t1_2,,fail
Status,624,13053155321,/g3t1_1,,fail
Status,625,13053163793,/g3t1_3,,running
Status,626,13053439861,/g3t1_3,,success
Status,627,13103047638,/g3t1_1,,running
Status,628,13103066464,/g3t1_2,,running
Status,629,13103092001,/g3t1_2,,fail
Status,630,13103101635,/g3t1_1,,fail
Status,631,13103210200,/g3t1_3,,running
Status,632,13103424349,/g3t1_3,,success
Status,633,13138562013,/g4t1,,success
Status,634,13153075371,/g3t1_1,,running
Status,635,13153101390,/g3t1_2,,running
Status,636,13153125762,/g3t1_1,,fail
Status,637,13153133867,/g3t1_2,,fail
Status,638,13153258083,/g3t1_3,,running
Status,639,13153362565,/g3t1_3,,success
Status,643,13203177967,/g3t1_1,,running
Status,644,13203200779,/g3t1_2,,running
Status,645,13203348270,/g3t1_1,,success
Status,646,13203370867,/g3t1_3,,running
Status,647,13203480349,/g3t1_2,,success
Status,648,13203496851,/g3t1_3,,success
Status,649,13238515711,/g4t1,,success
Status,650,13253392744,/g3t1_1,,running
Status,651,13253417313,/g3t1_2,,running
Status,652,13253443533,/g3t1_2,,fail
Status,653,13253453385,/g3t1_1,,fail
Status,654,13253461910,/g3t1_3,,running
Status,655,13253528205,/g3t1_3,,fail
Status,656,13303298352,/g3t1_1,,running
Status,657,13303321761,/g3t1_2,,running
Status,658,13303333846,/g3t1_1,,success
Status,659,13303515579,/g3t1_2,,fail
Status,660,13303535170,/g3t1_3,,running
Status,661,13303592483,/g3t1_3,,fail
Status,662,13338759908,/g4t1,,success
Status,663,13353719115,/g3t1_1,,running
Status,664,13353791668,/g3t1_2,,running
Status,665,13353805912,/g3t1_3,,running
Status,666,13353836535,/g3t1_1,,fail
Status,667,13353869377,/g3t1_2,,fail
Status,668,13353886021,/g3t1_3,,fail
Status,672,13403618695,/g3t1_2,,running
Status,673,13403656513,/g3t1_1,,running
Status,674,13403665586,/g3t1_2,,fail
Status,675,13403673388,/g3t1_1,,fail
Status,676,13403686052,/g3t1_3,,running
Status,677,13403707224,/g3t1_3,,fail
Status,678,13438780687,/g4t1,,success
Status,679,13453841398,/g3t1_1,,running
Status,680,13453897050,/g3t1_2,,running
Status,681,13453919820,/g3t1_2,,fail
Status,682,13453929083,/g3t1_1,,fail
Status,683,13453936373,/g3t1_3,,running
Status,684,13453956367,/g3t1_3,,fail
Status,685,13503649058,/g3t1_1,,running
Status,686,13503670166,/g3t1_2,,running
Status,687,13503696358,/g3t1_1,,fail
Status,688,13503705779,/g3t1_2,,fail
Status,689,13503768946,/g3t1_3,,running
Status,690,13503873159,/g3t1_3,,fail
Status,691,13538854314,/g4t1,,success
Status,692,13553873897,/g3t1_1,,running
Status,693,13553923398,/g3t1_2,,running
Status,694,13553934744,/g3t1_2,,fail
Status,695,13553958136,/g3t1_1,,fail
Status,696,13553967310,/g3t1_3,,running
Status,697,13554063575,/g3t1_3,,fail
Status,701,13603887554,/g3t1_2,,running
Status,702,13603906595,/g3t1_1,,running
Status,703,13603919375,/g3t1_1,,fail
Status,704,13603948873,/g3t1_2,,fail
Status,705,13604051569,/g3t1_3,,running
Status,706,13604162018,/g3t1_3,,fail
Status,707,13638931449,/g4t1,,success
Status,708,13653871114,/g3t1_1,,running
Status,709,13653896586,/g3t1_2,,running
Status,710,13653905712,/g3t1_2,,fail
Status,711,13653978257,/g3t1_1,,fail
Status,712,13654096184,/g3t1_3,,running
Status,713,13654117571,/g3t1_3,,fail
Status,714,13703969229,/g3t1_2,,running
Status,715,13703989920,/g3t1_2,,fail
Status,716,13703997620,/g3t1_1,,running
Status,717,13704004368,/g3t1_1,,fail
Status,718,13704128781,/g3t1_3,,running
Status,719,13704142081,/g3t1_3,,fail
Status,720,13738962229,/g4t1,,success
Status,721,13754070801,/g3t1_1,,running
Status,722,13754092869,/g3t1_2,,running
Status,723,13754101716,/g3t1_2,,fail
Status,724,13754123293,/g3t1_1,,fail
Status,725,13754145339,/g3t1_3,,running
Status,726,13754251888,/g3t1_3,,fail
Status,730,13804288442,/g3t1_1,,running
Status,731,13804309027,/g3t1_2,,running
Status,732,13804335247,/g3t1_1,,fail
Status,733,13804342217,/g3t1_2,,success
Status,734,13804348890,/g3t1_3,,running
Status,735,13804354941,/g3t1_3,,fail
Status,736,13839027428,/g4t1,,success
Status,737,13854314440,/g3t1_2,,running
Status,738,13854331359,/g3t1_1,,running
Status,739,13854360886,/g3t1_1,,fail
Status,740,13854366733,/g3t1_3,,running
Status,741,13854371643,/g3t1_2,,success
Status,742,13854376481,/g3t1_3,,fail
Status,743,13904413416,/g3t1_2,,running
Status,744,13904437332,/g3t1_1,,running
Status,745,13904459505,/g3t1_1,,fail
Status,746,13904467050,/g3t1_3,,running
Status,747,13904472734,/g3t1_3,,fail
Status,748,13904576713,/g3t1_2,,success
Status,749,13939158527,/g4t1,,success
Status,750,13954520730,/g3t1_1,,running
Status,751,13954542049,/g3t1_2,,running
Status,752,13954561599,/g3t1_1,,fail
Status,753,13954569199,/g3t1_3,,running
Status,754,13954640553,/g3t1_3,,fail
Status,755,13954651979,/g3t1_2,,success
Status,759,14004616751,/g3t1_1,,running
Status,760,14004644087,/g3t1_2,,running
Status,761,14004674695,/g3t1_2,,fail
Status,762,14004786224,/g3t1_3,,running
Status,763,14004802297,/g3t1_1,,fail
Status,764,14004828472,/g3t1_3,,fail
Status,765,14039204117,/g4t1,,success
Status,766,14054742244,/g3t1_1,,running
Status,767,14054766736,/g3t1_2,,running
Status,768,14054807649,/g3t1_2,,fail
Status,769,14054819740,/g3t1_1,,fail
Status,770,14054941388,/g3t1_3,,running
Status,771,14055213915,/g3t1_3,,fail
Status,772,14104758808,/g3t1_2,,running
Status,773,14104789023,/g3t1_2,,fail
Status,774,14104848370,/g3t1_1,,running
Status,775,14104859540,/g3t1_1,,fail
Status,776,14105024937,/g3t1_3,,running
Status,777,14105036405,/g3t1_3,,success
Status,778,14139294986,/g4t1,,success
Status,779,14154871057,/g3t1_1,,running
Status,780,14154893433,/g3t1_2,,running
Status,781,14154914434,/g3t1_2,,fail
Status,782,14154919937,/g3t1_3,,running
Status,783,14154925547,/g3t1_3,,fail
Status,784,14154930898,/g3t1_1,,fail
Status,788,14205065975,/g3t1_1,,running
Status,789,14205083515,/g3t1_1,,fail
Status,790,14205093498,/g3t1_2,,running
Status,791,14205166723,/g3t1_3,,running
Status,792,14205173587,/g3t1_3,,fail
Status,793,14205179514,/g3t1_2,,success
Status,794,14239512228,/g4t1,,success
Status,795,14255149313,/g3t1_1,,running
Status,796,14255179848,/g3t1_1,,fail
Status,797,14255187061,/g3t1_2,,running
Status,798,14255192356,/g3t1_2,,success
Status,799,14255197402,/g3t1_3,,running
Status,800,14255211862,/g3t1_3,,fail
Status,801,14305203313,/g3t1_2,,running
Status,802,14305233149,/g3t1_1,,running
Status,803,14305253002,/g3t1_1,,fail
Status,804,14305259988,/g3t1_2,,success
Status,805,14305266462,/g3t1_3,,running
Status,806,14305283339,/g3t1_3,,success
Status,807,14339450871,/g4t1,,success
Status,808,14355214642,/g3t1_1,,running
Status,809,14355236737,/g3t1_2,,running
Status,810,14355272021,/g3t1_3,,running
Status,811,14355352081,/g3t1_1,,fail
Status,812,14355427869,/g3t1_2,,success
Status,813,14355553549,/g3t1_3,,success
Status,817,14405492614,/g3t1_1,,running
Status,818,14405512233,/g3t1_2,,running
Status,819,14405518628,/g3t1_3,,running
Status,820,14405525394,/g3t1_1,,fail
Status,821,14405531251,/g3t1_2,,fail
Status,822,14405537213,/g3t1_3,,fail
Status,823,14439644813,/g4t1,,success
Status,824,14455445189,/g3t1_1,,running
Status,825,14455469081,/g3t1_2,,running
Status,826,14455552790,/g3t1_1,,fail
Status,827,14455623493,/g3t1_2,,success
Status,828,14455666969,/g3t1_3,,running
Status,829,14455675450,/g3t1_3,,fail
Status,830,14505506303,/g3t1_1,,running
Status,831,14505524466,/g3t1_3,,running
Status,832,14505532515,/g3t1_2,,running
Status,833,14505540276,/g3t1_2,,fail
Status,834,14505568840,/g3t1_1,,fail
Status,835,14505578126,/g3t1_3,,success
Status,836,14539673259,/g4t1,,success
Status,837,14555703199,/g3t1_3,,running
Status,838,14555724767,/g3t1_2,,running
Status,839,14555749977,/g3t1_1,,running
Status,840,14555755940,/g3t1_2,,success
Status,841,14555761622,/g3t1_3,,success
Status,842,14555778466,/g3t1_1,,fail
Status,846,14605842675,/g3t1_3,,running
Status,847,14605862645,/g3t1_3,,fail
Status,848,14605868975,/g3t1_1,,running
Status,849,14605875168,/g3t1_1,,success
Status,850,14605881036,/g3t1_2,,running
Status,851,14605887161,/g3t1_2,,fail
Status,852,14639728521,/g4t1,,success
Status,853,14655883851,/g3t1_3,,running
Status,854,14655902024,/g3t1_1,,running
Status,855,14655910325,/g3t1_1,,fail
Status,856,14655921969,/g3t1_2,,running
Status,857,14656010113,/g3t1_2,,fail
Status,858,14656023340,/g3t1_3,,fail
Status,859,14705906065,/g3t1_3,,running
Status,860,14705943001,/g3t1_3,,fail
Status,861,14705952898,/g3t1_2,,running
Status,862,14705971395,/g3t1_1,,running
Status,863,14705978548,/g3t1_2,,fail
Status,864,14705986103,/g3t1_1,,success
Status,865,14739825336,/g4t1,,success
Status,866,14755886166,/g3t1_3,,running
Status,867,14755900859,/g3t1_1,,running
Status,868,14755907732,/g3t1_2,,running
Status,869,14755913250,/g3t1_2,,fail
Status,870,14755986761,/g3t1_3,,success
Status,871,14755995115,/g3t1_1,,success
Status,875,14805937157,/g3t1_3,,running
Status,876,14805981906,/g3t1_3,,fail
Status,877,14805990634,/g3t1_1,,running
Status,878,14805995638,/g3t1_2,,running
Status,879,14806110746,/g3t1_2,,success
Status,880,14806126200,/g3t1_1,,fail
Status,881,14839902169,/g4t1,,success
Status,882,14856136733,/g3t1_3,,running
Status,883,14856154713,/g3t1_3,,fail
Status,884,14856161128,/g3t1_1,,running
Status,885,14856166998,/g3t1_2,,running
Status,886,14856173042,/g3t1_1,,fail
Status,887,14856258680,/g3t1_2,,success
Status,888,14906129563,/g3t1_3,,running
Status,889,14906173440,/g3t1_3,,fail
Status,890,14906203170,/g3t1_1,,running
Status,891,14906214649,/g3t1_2,,running
Status,892,14906259888,/g3t1_2,,success
Status,893,14906311688,/g3t1_1,,fail
Status,894,14940013556,/g4t1,,success
Status,895,14956156476,/g3t1_3,,running
Status,896,14956185379,/g3t1_3,,fail
Status,897,14956332147,/g3t1_2,,running
Status,898,14956353259,/g3t1_1,,running
Status,899,14956362905,/g3t1_1,,fail
Status,900,14956372387,/g3t1_2,,success
Status,904,15006338577,/g3t1_3,,running
Status,905,15006367636,/g3t1_1,,running
Status,906,15006395567,/g3t1_3,,fail
Status,907,15006406391,/g3t1_2,,running
Status,908,15006417160,/g3t1_1,,fail
Status,909,15006482074,/g3t1_2,,success
Status,910,15040099475,/g4t1,,success
Status,911,15056373152,/g3t1_3,,running
Status,912,15056394935,/g3t1_3,,fail
Status,913,15056402215,/g3t1_1,,running
Status,914,15056409153,/g3t1_2,,running
Status,915,15056416448,/g3t1_1,,fail
Status,916,15056496053,/g3t1_2,,success
Status,917,15106366019,/g3t1_3,,running
Status,918,15106390960,/g3t1_1,,running
Status,919,15106419283,/g3t1_3,,fail
Status,920,15106427113,/g3t1_2,,running
Status,921,15106499659,/g3t1_2,,fail
Status,922,15106513327,/g3t1_1,,fail
Status,923,15140156971,/g4t1,,success
Status,924,15156411466,/g3t1_3,,running
Status,925,15156531771,/g3t1_2,,running
Status,926,15156549330,/g3t1_1,,running
Status,927,15156565559,/g3t1_3,,fail
Status,928,15156571397,/g3t1_2,,fail
Status,929,15156577545,/g3t1_1,,fail
Status,933,15206432806,/g3t1_3,,running
Status,934,15206565059,/g3t1_2,,running
Status,935,15206597270,/g3t1_3,,success
Status,936,15206694112,/g3t1_1,,running
Status,937,15206711122,/g3t1_1,,fail
Status,938,15206796248,/g3t1_2,,success
Status,939,15240197061,/g4t1,,success
Status,940,15256521881,/g3t1_3,,running
Status,941,15256630590,/g3t1_2,,running
Status,942,15256662729,/g3t1_1,,running
Status,943,15256785873,/g3t1_3,,success
Status,944,15256800203,/g3t1_1,,fail
Status,945,15256924465,/g3t1_2,,success
Status,946,15306520151,/g3t1_3,,running
Status,947,15306645839,/g3t1_1,,running
Status,948,15306659839,/g3t1_3,,success
Status,949,15306688722,/g3t1_2,,running
Status,950,15306798888,/g3t1_2,,success
Status,951,15306811429,/g3t1_1,,fail
Status,952,15340293777,/g4t1,,success
Status,953,15356703351,/g3t1_3,,running
Status,954,15356724518,/g3t1_1,,running
Status,955,15356792005,/g3t1_3,,success
Status,956,15356804545,/g3t1_1,,fail
Status,957,15356816151,/g3t1_2,,running
Status,958,15356821514,/g3t1_2,,fail
Status,962,15406788949,/g3t1_3,,running
Status,963,15406830079,/g3t1_3,,fail
Status,964,15406836031,/g3t1_1,,running
Status,965,15406841407,/g3t1_2,,running
Status,966,15406847641,/g3t1_2,,fail
Status,967,15406852787,/g3t1_1,,fail
Status,968,15440475939,/g4t1,,success
Status,969,15456828950,/g3t1_3,,running
Status,970,15457075181,/g3t1_3,,fail
Status,971,15457091006,/g3t1_2,,running
Status,972,15457104947,/g3t1_2,,fail
Status,973,15457125079,/g3t1_1,,running
Status,974,15457133320,/g3t1_1,,fail
Status,975,15506925356,/g3t1_3,,running
Status,976,15506953583,/g3t1_1,,running
Status,977,15506964735,/g3t1_2,,running
Status,978,15507075908,/g3t1_2,,fail
Status,979,15507092905,/g3t1_3,,fail
Status,980,15507109635,/g3t1_1,,fail
Status,981,15540497965,/g4t1,,success
Status,982,15557189894,/g3t1_3,,running
Status,983,15557209536,/g3t1_1,,running
Status,984,15557235320,/g3t1_1,,fail
Status,985,15557241631,/g3t1_3,,fail
Status,986,15557247087,/g3t1_2,,running
Status,987,15557263851,/g3t1_2,,fail
Status,988,15607103397,/g3t1_3,,running
Status,989,15607131072,/g3t1_1,,running
Status,990,15607314374,/g3t1_1,,fail
Status,991,15607340607,/g3t1_2,,running
Status,992,15607356457,/g3t1_2,,fail
Status,993,15607363952,/g3t1_3,,success
Status,994,15640486818,/g4t1,,success
Status,995,15657206065,/g3t1_3,,running
Status,996,15657271987,/g3t1_1,,running
Status,997,15657280065,/g3t1_2,,running
Status,998,15657286735,/g3t1_1,,fail
Status,999,15657294633,/g3t1_2,,fail
Status,1000,15657301521,/g3t1_3,,fail
Status,1001,15707307857,/g3t1_3,,running
Status,1002,15707331990,/g3t1_1,,running
Status,1003,15707478752,/g3t1_2,,running
Status,1004,15707492384,/g3t1_1,,fail
Status,1005,15707514809,/g3t1_3,,success
Status,1006,15707520334,/g3t1_2,,fail
Status,1007,15741123142,/g4t1,,success
Status,1008,15757931763,/g3t1_1,,running
Status,1009,15757954432,/g3t1_3,,running
Status,1010,15757962671,/g3t1_3,,fail
Status,1011,15757970726,/g3t1_2,,running
Status,1012,15757978459,/g3t1_1,,fail
Status,1013,15757986065,/g3t1_2,,fail
Status,1014,15807618010,/g3t1_3,,running
Status,1015,15807638831,/g3t1_2,,running
Status,1016,15807669429,/g3t1_1,,running
Status,1017,15807676688,/g3t1_1,,fail
Status,1018,15807685214,/g3t1_3,,fail
Status,1019,15807693047,/g3t1_2,,fail
Status,1020,15840775424,/g4t1,,success
Status,1021,15857662669,/g3t1_3,,running
Status,1022,15857689813,/g3t1_2,,running
Status,1023,15857698233,/g3t1_1,,running
Status,1024,15857705039,/g3t1_1,,fail
Status,1025,15857711913,/g3t1_3,,fail
Status,1026,15857813965,/g3t1_2,,fail
Status,1027,15907731549,/g3t1_2,,running
Status,1028,15907808815,/g3t1_3,,running
Status,1029,15907826368,/g3t1_3,,fail
Status,1030,15907832396,/g3t1_1,,running
Status,1031,15907929826,/g3t1_2,,fail
Status,1032,15907939189,/g3t1_1,,fail
Status,1033,15940848174,/g4t1,,success
Status,1034,15957802904,/g3t1_3,,running
Status,1035,15957820136,/g3t1_2,,running
Status,1036,15957825865,/g3t1_1,,running
Status,1037,15957830905,/g3t1_1,,fail
Status,1038,15957835972,/g3t1_2,,fail
Status,1039,15957840799,/g3t1_3,,fail
Status,1040,16007793409,/g3t1_3,,running
Status,1041,16007817730,/g3t1_2,,running
Status,1042,16007830099,/g3t1_1,,running
Status,1043,16007840549,/g3t1_1,,fail
Status,1044,16007849609,/g3t1_3,,fail
Status,1045,16007874081,/g3t1_2,,fail
Status,1046,16041233832,/g4t1,,success
Status,1047,16057962659,/g3t1_3,,running
Status,1048,16058005169,/g3t1_2,,running
Status,1049,16058016722,/g3t1_1,,running
Status,1050,16058030819,/g3t1_2,,fail
Status,1051,16058051006,/g3t1_1,,fail
Status,1052,16058133769,/g3t1_3,,fail
Status,1053,16108549354,/g3t1_3,,running
Status,1054,16108589737,/g3t1_3,,fail
Status,1055,16108605998,/g3t1_1,,running
Status,1056,16108621508,/g3t1_1,,fail
Status,1057,16109023163,/g3t1_2,,running
Status,1058,16109049637,/g3t1_2,,fail
Status,1059,16140962226,/g4t1,,success
Status,1060,16158565616,/g3t1_3,,running
Status,1061,16158595025,/g3t1_1,,running
Status,1062,16158892476,/g3t1_1,,fail
Status,1063,16158908767,/g3t1_2,,running
Status,1064,16159108259,/g3t1_2,,fail
Status,1065,16159128499,/g3t1_3,,success
Status,1066,16208353111,/g3t1_2,,running
Status,1067,16208377058,/g3t1_2,,fail
Status,1068,16208385983,/g3t1_3,,running
Status,1069,16208396034,/g3t1_1,,running
Status,1070,16208404352,/g3t1_1,,fail
Status,1071,16208420840,/g3t1_3,,fail
Status,1072,16241086768,/g4t1,,success
Status,1073,16258466523,/g3t1_2,,running
Status,1074,16258618190,/g3t1_1,,running
Status,1075,16258649241,/g3t1_1,,fail
Status,1076,16258661264,/g3t1_3,,running
Status,1077,16258686581,/g3t1_3,,fail
Status,1078,16258896780,/g3t1_2,,fail
Status,1079,16309185845,/g3t1_1,,running
Status,1080,16309321182,/g3t1_2,,running
Status,1081,16309341600,/g3t1_3,,running
Status,1082,16309362936,/g3t1_3,,fail
Status,1083,16309376561,/g3t1_1,,fail
Status,1084,16309494365,/g3t1_2,,fail
Status,1085,16341246993,/g4t1,,success
Status,1086,16358628895,/g3t1_2,,running
Status,1087,16358674721,/g3t1_1,,running
Status,1088,16358689614,/g3t1_3,,running
Status,1089,16358700505,/g3t1_1,,fail
Status,1090,16358713151,/g3t1_3,,fail
Status,1091,16358756327,/g3t1_2,,fail
Status,1095,16408651717,/g3t1_2,,running
Status,1096,16408689593,/g3t1_1,,running
Status,1097,16408701157,/g3t1_2,,fail
Status,1098,16408709289,/g3t1_3,,running
Status,1099,16408718615,/g3t1_1,,fail
Status,1100,16408726070,/g3t1_3,,fail
Status,1101,16441367971,/g4t1,,success
Status,1102,16458927818,/g3t1_2,,running
Status,1103,16458955533,/g3t1_2,,fail
Status,1104,16458987852,/g3t1_1,,running
Status,1105,16458999101,/g3t1_1,,fail
Status,1106,16459010089,/g3t1_3,,running
Status,1107,16459021388,/g3t1_3,,fail
Status,1108,16508785034,/g3t1_2,,running
Status,1109,16508816414,/g3t1_1,,running
Status,1110,16508863247,/g3t1_2,,fail
Status,1111,16508876964,/g3t1_3,,running
Status,1112,16508888034,/g3t1_3,,success
Status,1113,16508934457,/g3t1_1,,fail
Status,1114,16541460969,/g4t1,,success
Status,1115,16558906555,/g3t1_2,,running
Status,1116,16558951172,/g3t1_3,,running
Status,1117,16558966056,/g3t1_3,,fail
Status,1118,16559023346,/g3t1_1,,running
Status,1119,16559035013,/g3t1_1,,fail
Status,1120,16559045046,/g3t1_2,,fail
Status,1124,16608995078,/g3t1_2,,running
Status,1125,16609023289,/g3t1_2,,success
Status,1126,16609053762,/g3t1_3,,running
Status,1127,16609062307,/g3t1_3,,success
Status,1128,16609070708,/g3t1_1,,running
Status,1129,16609086338,/g3t1_1,,fail
Status,1130,16641457391,/g4t1,,success
Status,1131,16659030638,/g3t1_2,,running
Status,1132,16659071515,/g3t1_2,,success
Status,1133,16659084100,/g3t1_3,,running
Status,1134,16659093639,/g3t1_1,,running
Status,1135,16659120018,/g3t1_1,,fail
Status,1136,16659129862,/g3t1_3,,fail
Status,1137,16709033365,/g3t1_2,,running
Status,1138,16709143306,/g3t1_1,,running
Status,1139,16709218645,/g3t1_3,,running
Status,1140,16709240578,/g3t1_1,,fail
Status,1141,16709261897,/g3t1_3,,fail
Status,1142,16709363781,/g3t1_2,,success
Status,1143,16741559792,/g4t1,,success
Status,1144,16759112959,/g3t1_2,,running
Status,1147,16759687748,/g3t1_1,,running
Status,1148,16759708397,/g3t1_3,,running
Status,1149,16759737062,/g3t1_2,,fail
Status,1150,16759761362,/g3t1_1,,fail
Status,1151,16759769745,/g3t1_3,,success
Status,1153,16809207892,/g3t1_2,,running
Status,1154,16809446909,/g3t1_1,,running
Status,1155,16809470889,/g3t1_2,,success
Status,1156,16809494302,/g3t1_1,,fail
Status,1157,16809538315,/g3t1_3,,running
Status,1158,16809551540,/g3t1_3,,fail
Status,1159,16841934382,/g4t1,,success
Status,1160,16859369730,/g3t1_2,,running
Status,1161,16859403298,/g3t1_3,,running
Status,1162,16859415322,/g3t1_1,,running
Status,1163,16859603171,/g3t1_2,,success
Status,1164,16859631900,/g3t1_1,,fail
Status,1165,16859660102,/g3t1_3,,fail
Status,1166,16909358510,/g3t1_2,,running
Status,1167,16909523956,/g3t1_1,,running
Status,1168,16909558364,/g3t1_2,,success
Status,1169,16909571095,/g3t1_3,,running
Status,1170,16909592835,/g3t1_3,,fail
Status,1171,16909698383,/g3t1_1,,success
Status,1172,16941831383,/g4t1,,success
Status,1174,16959595157,/g3t1_2,,running
Status,1176,16959727003,/g3t1_3,,running
Status,1177,16959742173,/g3t1_1,,running
Status,1178,16959784895,/g3t1_2,,success
Status,1179,16959799761,/g3t1_3,,fail
Status,1181,16960061905,/g3t1_1,,success
Status,1182,17009447012,/g3t1_2,,running
Status,1183,17009478904,/g3t1_2,,fail
Status,1184,17009660603,/g3t1_3,,running
Status,1185,17009704480,/g3t1_3,,fail
Status,1186,17009816017,/g3t1_1,,running
Status,1187,17010029259,/g3t1_1,,fail
Status,1188,17041955212,/g4t1,,success
Status,1189,17059570346,/g3t1_2,,running
Status,1190,17059618448,/g3t1_2,,fail
Status,1191,17059631204,/g3t1_3,,running
Status,1192,17059797360,/g3t1_1,,running
Status,1193,17059828704,/g3t1_1,,fail
Status,1194,17059859815,/g3t1_3,,fail
Status,1195,17109542873,/g3t1_2,,running
Status,1196,17109573162,/g3t1_2,,fail
Status,1197,17109716990,/g3t1_3,,running
Status,1198,17109741222,/g3t1_1,,running
Status,1199,17109798467,/g3t1_3,,fail
Status,1200,17109906298,/g3t1_1,,fail
Status,1201,17142024629,/g4t1,,success
Status,1203,17160254646,/g3t1_2,,running
Status,1204,17160281554,/g3t1_2,,fail
Status,1205,17160291960,/g3t1_3,,running
Status,1206,17160387105,/g3t1_1,,running
Status,1209,17160602361,/g3t1_3,,fail
Status,1210,17160629363,/g3t1_1,,success
Status,1211,17210013309,/g3t1_2,,running
Status,1212,17210043883,/g3t1_2,,fail
Status,1213,17210060198,/g3t1_1,,running
Status,1214,17210078982,/g3t1_1,,fail
Status,1215,17210363403,/g3t1_3,,running
Status,1216,17210407398,/g3t1_3,,success
Status,1217,17242153279,/g4t1,,success
Status,1218,17261127167,/g3t1_2,,running
Status,1219,17261178792,/g3t1_2,,fail
Status,1220,17261199362,/g3t1_1,,running
Status,1221,17261298012,/g3t1_1,,fail
Status,1222,17261310072,/g3t1_3,,running
Status,1223,17261325645,/g3t1_3,,success
Status,1224,17309979733,/g3t1_2,,running
Status,1225,17310325934,/g3t1_3,,running
Status,1226,17310350173,/g3t1_1,,running
Status,1227,17310446507,/g3t1_3,,fail
Status,1228,17310482258,/g3t1_1,,success
Status,1229,17310495001,/g3t1_2,,fail
Status,1230,17342304278,/g4t1,,success
Status,1234,17360197976,/g3t1_2,,running
Status,1235,17360232145,/g3t1_2,,success
Status,1236,17360243446,/g3t1_3,,running
Status,1237,17360257774,/g3t1_1,,running
Status,1238,17360320092,/g3t1_3,,success
Status,1239,17360422526,/g3t1_1,,fail
Status,1240,17410062717,/g3t1_2,,running
Status,1241,17410283728,/g3t1_3,,running
Status,1242,17410307229,/g3t1_2,,fail
Status,1243,17410364976,/g3t1_1,,running
Status,1244,17410476081,/g3t1_3,,success
Status,1245,17410499915,/g3t1_1,,fail
Status,1246,17442265072,/g4t1,,success
Status,1247,17460186305,/g3t1_2,,running
Status,1248,17460634218,/g3t1_3,,running
Status,1249,17460657254,/g3t1_3,,success
Status,1250,17460688439,/g3t1_1,,running
Status,1251,17460699838,/g3t1_1,,fail
Status,1252,17461133916,/g3t1_2,,success
Status,1253,17510638681,/g3t1_2,,running
Status,1254,17510674937,/g3t1_2,,success
Status,1255,17510684030,/g3t1_1,,running
Status,1256,17510691549,/g3t1_1,,fail
Status,1257,17510713886,/g3t1_3,,running
Status,1258,17510721757,/g3t1_3,,success
Status,1259,17542877307,/g4t1,,success
Status,1263,17560653163,/g3t1_2,,running
Status,1264,17560677212,/g3t1_2,,fail
Status,1265,17560701903,/g3t1_3,,running
Status,1266,17560712764,/g3t1_3,,fail
Status,1267,17560724062,/g3t1_1,,running
Status,1268,17560733813,/g3t1_1,,fail
Status,1269,17610503891,/g3t1_2,,running
Status,1270,17610745990,/g3t1_2,,fail
Status,1271,17610767194,/g3t1_3,,running
Status,1272,17610776579,/g3t1_1,,running
Status,1273,17610796380,/g3t1_3,,success
Status,1274,17610804735,/g3t1_1,,fail
Status,1275,17642585039,/g4t1,,success
Status,1276,17660611570,/g3t1_2,,running
Status,1277,17660662618,/g3t1_2,,fail
Status,1278,17660673527,/g3t1_3,,running
Status,1279,17660681476,/g3t1_1,,running
Status,1280,17660779601,/g3t1_1,,fail
Status,1281,17660810773,/g3t1_3,,fail
Status,1282,17710700066,/g3t1_2,,running
Status,1283,17710726695,/g3t1_3,,running
Status,1284,17710780018,/g3t1_2,,fail
Status,1285,17710795161,/g3t1_1,,running
Status,1286,17710939169,/g3t1_1,,fail
Status,1287,17710961680,/g3t1_3,,success
Status,1288,17742738264,/g4t1,,success
Status,1292,17760537119,/g3t1_2,,running
Status,1293,17760685381,/g3t1_2,,fail
Status,1294,17760860197,/g3t1_3,,running
Status,1295,17760945574,/g3t1_1,,running
Status,1296,17761111429,/g3t1_3,,fail
Status,1297,17761132792,/g3t1_1,,fail
Status,1298,17810915734,/g3t1_2,,running
Status,1299,17810943212,/g3t1_2,,success
Status,1300,17810978157,/g3t1_3,,running
Status,1301,17810989806,/g3t1_1,,running
Status,1302,17810997612,/g3t1_3,,fail
Status,1303,17811093946,/g3t1_1,,fail
Status,1304,17842633518,/g4t1,,success
Status,1305,17860848011,/g3t1_2,,running
Status,1306,17860876784,/g3t1_2,,fail
Status,1307,17861032363,/g3t1_3,,running
Status,1308,17861058096,/g3t1_1,,running
Status,1309,17861095022,/g3t1_3,,fail
Status,1310,17861106999,/g3t1_1,,fail
Status,1311,17911084620,/g3t1_2,,running
Status,1312,17911120450,/g3t1_3,,running
Status,1313,17911155641,/g3t1_2,,success
Status,1314,17911170968,/g3t1_3,,success
Status,1315,17911205309,/g3t1_1,,running
Status,1316,17911350874,/g3t1_1,,fail
Status,1317,17942782729,/g4t1,,success
Status,1321,17961039138,/g3t1_2,,running
Status,1322,17961084435,/g3t1_2,,fail
Status,1323,17961099450,/g3t1_3,,running
Status,1324,17961130038,/g3t1_1,,running
Status,1325,17961406780,/g3t1_1,,fail
Status,1326,17961614173,/g3t1_3,,fail
Status,1327,18011075317,/g3t1_2,,running
Status,1328,18011106765,/g3t1_2,,fail
Status,1329,18011314487,/g3t1_3,,running
Status,1330,18011336531,/g3t1_3,,fail
Status,1331,18011350832,/g3t1_1,,running
Status,1332,18011449652,/g3t1_1,,fail
Status,1333,18042756379,/g4t1,,success
Status,1334,18061248991,/g3t1_2,,running
Status,1335,18061377466,/g3t1_3,,running
Status,1336,18061398139,/g3t1_2,,fail
Status,1337,18061558232,/g3t1_3,,fail
Status,1338,18061759069,/g3t1_1,,running
Status,1339,18061773505,/g3t1_1,,fail
Status,1340,18111351960,/g3t1_2,,running
Status,1341,18111382653,/g3t1_2,,fail
Status,1342,18111413782,/g3t1_3,,running
Status,1343,18111537406,/g3t1_3,,fail
Status,1344,18111671041,/g3t1_1,,running
Status,1345,18111796588,/g3t1_1,,fail
Status,1346,18142845202,/g4t1,,success
Status,1350,18161356522,/g3t1_2,,running
Status,1351,18161385305,/g3t1_2,,fail
Status,1352,18161413837,/g3t1_3,,running
Status,1353,18161423688,/g3t1_3,,fail
Status,1354,18161575845,/g3t1_1,,running
Status,1355,18161767610,/g3t1_1,,fail
Status,1356,18211508918,/g3t1_2,,running
Status,1357,18211540253,/g3t1_2,,fail
Status,1358,18211552466,/g3t1_3,,running
Status,1359,18211695727,/g3t1_3,,fail
Status,1360,18211710293,/g3t1_1,,running
Status,1361,18211831089,/g3t1_1,,fail
Status,1362,18242969855,/g4t1,,success
Status,1363,18261523355,/g3t1_2,,running
Status,1364,18261567042,/g3t1_3,,running
Status,1365,18261614790,/g3t1_2,,fail
Status,1366,18261661774,/g3t1_3,,fail
Status,1367,18261817063,/g3t1_1,,running
Status,1368,18262029146,/g3t1_1,,fail
Status,1369,18311726372,/g3t1_2,,running
Status,1370,18311753881,/g3t1_3,,running
Status,1371,18311919705,/g3t1_2,,fail
Status,1372,18311943448,/g3t1_3,,fail
Status,1373,18311968715,/g3t1_1,,running
Status,1374,18311977240,/g3t1_1,,fail
Status,1375,18342929744,/g4t1,,success
Status,1379,18361708365,/g3t1_2,,running
Status,1380,18361737387,/g3t1_3,,running
Status,1381,18361902143,/g3t1_2,,fail
Status,1382,18361976583,/g3t1_3,,fail
Status,1383,18362021909,/g3t1_1,,running
Status,1384,18362123050,/g3t1_1,,fail
Status,1385,18411785420,/g3t1_2,,running
Status,1386,18411811339,/g3t1_3,,running
Status,1387,18411881463,/g3t1_3,,fail
Status,1388,18411900448,/g3t1_2,,fail
Status,1389,18412166826,/g3t1_1,,running
Status,1390,18412182720,/g3t1_1,,fail
Status,1391,18443120162,/g4t1,,success
Status,1392,18461934387,/g3t1_2,,running
Status,1393,18461965104,/g3t1_3,,running
Status,1394,18462004060,/g3t1_2,,fail
Status,1395,18462308802,/g3t1_1,,running
Status,1396,18462327233,/g3t1_3,,fail
Status,1397,18462358990,/g3t1_1,,fail
Status,1398,18511945316,/g3t1_2,,running
Status,1399,18511973548,/g3t1_3,,running
Status,1400,18512004051,/g3t1_3,,fail
Status,1401,18512117963,/g3t1_2,,fail
Status,1402,18512246477,/g3t1_1,,running
Status,1403,18512329207,/g3t1_1,,fail
Status,1404,18543151435,/g4t1,,success
Status,1408,18562005833,/g3t1_3,,running
Status,1409,18562051632,/g3t1_2,,running
Status,1410,18562156835,/g3t1_3,,fail
Status,1411,18562183330,/g3t1_2,,success
Status,1412,18562531705,/g3t1_1,,running
Status,1413,18562551272,/g3t1_1,,fail
Status,1414,18612223517,/g3t1_2,,running
Status,1415,18612253619,/g3t1_3,,running
Status,1416,18612291160,/g3t1_3,,fail
Status,1417,18612304222,/g3t1_2,,fail
Status,1418,18612421335,/g3t1_1,,running
Status,1419,18612444877,/g3t1_1,,fail
Status,1420,18643204122,/g4t1,,success
Status,1421,18662468674,/g3t1_3,,running
Status,1422,18662500922,/g3t1_2,,running
Status,1423,18662524131,/g3t1_3,,fail
Status,1424,18662537469,/g3t1_1,,running
Status,1425,18662549921,/g3t1_2,,success
Status,1426,18662561799,/g3t1_1,,fail
Status,1427,18712585994,/g3t1_2,,running
Status,1428,18712618177,/g3t1_2,,fail
Status,1429,18712653021,/g3t1_3,,running
Status,1430,18712666080,/g3t1_3,,fail
Status,1431,18712676877,/g3t1_1,,running
Status,1432,18712989290,/g3t1_1,,fail
Status,1433,18743730345,/g4t1,,success
Status,1437,18762414278,/g3t1_2,,running
Status,1438,18762613504,/g3t1_3,,running
Status,1439,18762642136,/g3t1_1,,running
Status,1440,18762656019,/g3t1_2,,success
Status,1441,18762720928,/g3t1_3,,success
Status,1442,18762865518,/g3t1_1,,fail
Status,1443,18812848733,/g3t1_2,,running
Status,1444,18812870430,/g3t1_3,,running
Status,1445,18812878979,/g3t1_3,,success
Status,1446,18812885818,/g3t1_2,,fail
Status,1447,18812892553,/g3t1_1,,running
Status,1448,18812899400,/g3t1_1,,fail
Status,1449,18843514521,/g4t1,,success
Status,1450,18862695929,/g3t1_2,,running
Status,1451,18862721772,/g3t1_3,,running
Status,1452,18862759098,/g3t1_2,,fail
Status,1453,18862769250,/g3t1_1,,running
Status,1454,18862965063,/g3t1_3,,success
Status,1455,18862991350,/g3t1_1,,fail
Status,1456,18912839518,/g3t1_2,,running
Status,1457,18912864846,/g3t1_3,,running
Status,1458,18912873936,/g3t1_2,,fail
Status,1459,18912881800,/g3t1_1,,running
Status,1460,18912994452,/g3t1_1,,fail
Status,1461,18913040169,/g3t1_3,,success
Status,1462,18943415272,/g4t1,,success
Status,1466,18962955397,/g3t1_2,,running
Status,1467,18962982003,/g3t1_3,,running
Status,1468,18963006817,/g3t1_2,,success
Status,1469,18963015869,/g3t1_1,,running
Status,1470,18963025107,/g3t1_1,,fail
Status,1471,18963033291,/g3t1_3,,fail
Status,1472,19013111974,/g3t1_2,,running
Status,1473,19013142983,/g3t1_3,,running
Status,1474,19013153861,/g3t1_1,,running
Status,1475,19013255850,/g3t1_3,,fail
Status,1476,19013271917,/g3t1_1,,fail
Status,1477,19013283274,/g3t1_2,,success
Status,1478,19043757063,/g4t1,,success
Status,1479,19063297171,/g3t1_2,,running
Status,1480,19063325505,/g3t1_3,,running
Status,1481,19063488607,/g3t1_1,,running
Status,1482,19063505340,/g3t1_3,,fail
Status,1483,19063535344,/g3t1_2,,success
Status,1484,19063544599,/g3t1_1,,fail
Status,1485,19113342149,/g3t1_2,,running
Status,1486,19113384733,/g3t1_3,,running
Status,1487,19113402170,/g3t1_2,,success
Status,1488,19113422373,/g3t1_3,,fail
Status,1489,19113429297,/g3t1_1,,running
Status,1490,19113437013,/g3t1_1,,fail
Status,1491,19143774889,/g4t1,,success
Status,1495,19163224436,/g3t1_2,,running
Status,1496,19163284384,/g3t1_3,,running
Status,1497,19163549173,/g3t1_1,,running
Status,1498,19163565657,/g3t1_3,,success
Status,1499,19163574823,/g3t1_1,,fail
Status,1500,19163599464,/g3t1_2,,success
Status,1501,19213376757,/g3t1_3,,running
Status,1502,19213432591,/g3t1_2,,running
Status,1503,19213455212,/g3t1_2,,fail
Status,1504,19213486023,/g3t1_3,,success
Status,1505,19213520612,/g3t1_1,,running
Status,1506,19213690771,/g3t1_1,,fail
Status,1507,19243774514,/g4t1,,success
Status,1508,19263573513,/g3t1_3,,running
Status,1509,19263599221,/g3t1_2,,running
Status,1510,19263695253,/g3t1_1,,running
Status,1511,19263710718,/g3t1_2,,fail
Status,1512,19263719166,/g3t1_3,,success
Status,1513,19263732968,/g3t1_1,,fail
Status,1514,19313575980,/g3t1_3,,running
Status,1515,19313606802,/g3t1_2,,running
Status,1516,19313629086,/g3t1_2,,fail
Status,1517,19313636773,/g3t1_1,,running
Status,1518,19313644393,/g3t1_3,,success
Status,1519,19313651579,/g3t1_1,,fail
Status,1520,19343960076,/g4t1,,success
Status,1524,19364090125,/g3t1_3,,running
Status,1525,19364158699,/g3t1_2,,running
Status,1526,19364188549,/g3t1_2,,fail
Status,1527,19364197557,/g3t1_1,,running
Status,1528,19364207189,/g3t1_1,,fail
Status,1529,19364217357,/g3t1_3,,success
Status,1530,19414192478,/g3t1_2,,running
Status,1531,19414248606,/g3t1_2,,fail
Status,1532,19414343526,/g3t1_1,,running
Status,1533,19414365815,/g3t1_1,,fail
Status,1534,19414389889,/g3t1_3,,running
Status,1535,19414653575,/g3t1_3,,fail
Status,1536,19444030738,/g4t1,,success
Status,1537,19463981669,/g3t1_3,,running
Status,1538,19464088311,/g3t1_2,,running
Status,1539,19464108133,/g3t1_2,,fail
Status,1540,19464120254,/g3t1_1,,running
Status,1541,19464131372,/g3t1_3,,success
Status,1542,19464171764,/g3t1_1,,fail
Status,1543,19514032530,/g3t1_3,,running
Status,1544,19514066173,/g3t1_3,,fail
Status,1545,19514100732,/g3t1_2,,running
Status,1546,19514114234,/g3t1_2,,fail
Status,1547,19514124536,/g3t1_1,,running
Status,1548,19514242971,/g3t1_1,,fail
Status,1549,19544047895,/g4t1,,success
Status,1550,19564197665,/g3t1_3,,running
Status,1551,19564244064,/g3t1_3,,fail
Status,1552,19564253652,/g3t1_2,,running
Status,1553,19564285994,/g3t1_2,,fail
Status,1554,19564294919,/g3t1_1,,running
Status,1555,19564302284,/g3t1_1,,fail
Status,1556,19614240694,/g3t1_2,,running
Status,1557,19614269237,/g3t1_3,,running
Status,1558,19614288417,/g3t1_2,,fail
Status,1559,19614381192,/g3t1_3,,success
Status,1560,19614393877,/g3t1_1,,running
Status,1561,19614404032,/g3t1_1,,fail
Status,1562,19644197673,/g4t1,,success
Status,1563,19664176093,/g3t1_2,,running
Status,1564,19664206121,/g3t1_3,,running
Status,1565,19664254636,/g3t1_3,,fail
Status,1566,19664271592,/g3t1_1,,running
Status,1567,19664528531,/g3t1_2,,fail
Status,1568,19664557768,/g3t1_1,,fail
Status,1569,19714432780,/g3t1_3,,running
Status,1570,19714469906,/g3t1_2,,running
Status,1571,19714486988,/g3t1_1,,running
Status,1572,19714584177,/g3t1_2,,fail
Status,1573,19714603690,/g3t1_1,,fail
Status,1574,19714614432,/g3t1_3,,success
Status,1575,19744297183,/g4t1,,success
Status,1576,19764420553,/g3t1_2,,running
Status,1577,19764464630,/g3t1_3,,running
Status,1578,19764586932,/g3t1_1,,running
Status,1579,19764608672,/g3t1_3,,fail
Status,1580,19764623449,/g3t1_2,,fail
Status,1581,19764636187,/g3t1_1,,fail
Status,1582,19814985465,/g3t1_3,,running
Status,1583,19815077143,/g3t1_2,,running
Status,1584,19815105829,/g3t1_1,,running
Status,1585,19815120921,/g3t1_2,,fail
Status,1586,19815166871,/g3t1_3,,fail
Status,1587,19815182004,/g3t1_1,,fail
Status,1588,19844405091,/g4t1,,success
Status,1589,19864548919,/g3t1_3,,running
Status,1590,19864591186,/g3t1_2,,running
Status,1591,19864649167,/g3t1_1,,running
Status,1592,19864776911,/g3t1_2,,fail
Status,1593,19864811564,/g3t1_1,,fail
Status,1594,19864946440,/g3t1_3,,fail
Status,1595,19915410082,/g3t1_3,,running
Status,1596,19915484427,/g3t1_2,,running
Status,1597,19915541680,/g3t1_1,,running
Status,1598,19915558318,/g3t1_2,,fail
Status,1599,19915573269,/g3t1_1,,fail
Status,1600,19915738638,/g3t1_3,,success
Status,1601,19944398518,/g4t1,,success
Status,1602,19964910697,/g3t1_3,,running
Status,1603,19964949576,/g3t1_2,,running
Status,1604,19965060507,/g3t1_1,,running
Status,1605,19965080981,/g3t1_1,,fail
Status,1606,19965104867,/g3t1_2,,fail
Status,1607,19965115125,/g3t1_3,,fail
Status,1608,20015037264,/g3t1_1,,running
Status,1609,20015076477,/g3t1_3,,running
Status,1610,20015089817,/g3t1_2,,running
Status,1611,20015099153,/g3t1_2,,fail
Status,1612,20015109826,/g3t1_3,,fail
Status,1613,20015312972,/g3t1_1,,fail
Status,1614,20044435990,/g4t1,,success
Status,1615,20065028825,/g3t1_1,,running
Status,1616,20065070870,/g3t1_2,,running
Status,1617,20065102017,/g3t1_3,,running
Status,1618,20065113035,/g3t1_1,,fail
Status,1619,20065125266,/g3t1_2,,fail
Status,1620,20065274492,/g3t1_3,,fail
Status,1621,20115230593,/g3t1_1,,running
Status,1622,20115359414,/g3t1_3,,running
Status,1623,20115380701,/g3t1_2,,running
Status,1624,20115396864,/g3t1_2,,fail
Status,1625,20115507076,/g3t1_3,,fail
Status,1626,20115529998,/g3t1_1,,fail
Status,1627,20144580013,/g4t1,,success
Status,1628,20165268853,/g3t1_1,,running
Status,1629,20165307624,/g3t1_3,,running
Status,1630,20165336608,/g3t1_2,,running
Status,1631,20165347149,/g3t1_1,,fail
Status,1632,20165358400,/g3t1_3,,success
Status,1633,20165383822,/g3t1_2,,fail
Status,1634,20215360194,/g3t1_1,,running
Status,1635,20215432501,/g3t1_3,,running
Status,1636,20215482891,/g3t1_1,,fail
Status,1637,20215663584,/g3t1_3,,success
Status,1638,20215699559,/g3t1_2,,running
Status,1639,20215738434,/g3t1_2,,fail
Status,1640,20244757907,/g4t1,,success
Status,1641,20265435787,/g3t1_1,,running
Status,1642,20265463169,/g3t1_3,,running
Status,1643,20265500604,/g3t1_2,,running
Status,1644,20265510450,/g3t1_3,,fail
Status,1645,20265557463,/g3t1_1,,fail
Status,1646,20265576063,/g3t1_2,,fail
Status,1647,20315577476,/g3t1_1,,running
Status,1648,20315613342,/g3t1_3,,running
Status,1649,20315653645,/g3t1_3,,fail
Status,1650,20315664898,/g3t1_1,,fail
Status,1651,20315672286,/g3t1_2,,running
Status,1652,20315678905,/g3t1_2,,fail
Status,1653,20344854876,/g4t1,,success
Status,1657,20365542198,/g3t1_1,,running
Status,1658,20365575368,/g3t1_3,,running
Status,1659,20365593005,/g3t1_1,,fail
Status,1660,20365643205,/g3t1_2,,running
Status,1661,20366040714,/g3t1_2,,success
Status,1662,20366080196,/g3t1_3,,success
Status,1663,20415674519,/g3t1_1,,running
Status,1664,20415729949,/g3t1_3,,running
Status,1665,20415748499,/g3t1_1,,fail
Status,1666,20415775590,/g3t1_2,,running
Status,1667,20415811961,/g3t1_3,,fail
Status,1668,20415863279,/g3t1_2,,success
Status,1669,20444795749,/g4t1,,success
Status,1670,20465906353,/g3t1_1,,running
Status,1671,20465945002,/g3t1_3,,running
Status,1672,20465962043,/g3t1_2,,running
Status,1673,20465979653,/g3t1_2,,success
Status,1674,20466028029,/g3t1_3,,fail
Status,1675,20466044590,/g3t1_1,,fail
Status,1676,20515874222,/g3t1_1,,running
Status,1677,20515911129,/g3t1_3,,running
Status,1678,20515951693,/g3t1_2,,running
Status,1679,20515961953,/g3t1_1,,fail
Status,1680,20515972082,/g3t1_3,,success
