
Status,2,3470602430,/g4t1,,init
Status,3,8582702460,/g3t1_1,,init
Status,5,8591599928,/g3t1_1,,init
Status,6,8591618156,/g3t1_1,,running
Status,7,8591985899,/g3t1_1,,success
Status,8,8641754766,/g3t1_1,,running
Status,9,8641808767,/g3t1_1,,success
Status,10,8691763631,/g3t1_1,,running
Status,11,8691885089,/g3t1_1,,success
Status,12,8741937096,/g3t1_1,,running
Status,13,8741956905,/g3t1_1,,success
Status,14,8786699986,/g3t1_2,,init
Status,16,8791912798,/g3t1_1,,running
Status,17,8791942938,/g3t1_1,,success
Status,18,8795073316,/g3t1_2,,init
Status,19,8795093445,/g3t1_2,,running
Status,20,8795988055,/g3t1_2,,success
Status,21,8842023875,/g3t1_1,,running
Status,22,8842049232,/g3t1_1,,success
Status,23,8844936133,/g3t1_2,,running
Status,24,8845072664,/g3t1_2,,success
Status,25,8887145272,/g3t1_3,,init
Status,27,8892071719,/g3t1_1,,running
Status,28,8892118661,/g3t1_1,,success
Status,29,8894053605,/g3t1_3,,init
Status,30,8894068077,/g3t1_3,,running
Status,31,8894571603,/g3t1_3,,success
Status,32,8895026429,/g3t1_2,,running
Status,33,8895087573,/g3t1_2,,success
Status,37,8943025423,/g3t1_1,,running
Status,38,8943526081,/g3t1_1,,fail
Status,39,8944715633,/g3t1_3,,running
Status,40,8945381669,/g3t1_3,,success
Status,41,8946937383,/g3t1_2,,running
Status,42,8947330492,/g3t1_2,,success
Status,43,8989295542,/g4t1,,success
Status,44,8992967870,/g3t1_1,,running
Status,45,8993026769,/g3t1_1,,fail
Status,46,8994925620,/g3t1_3,,running
Status,47,8995221488,/g3t1_3,,success
Status,48,8997011309,/g3t1_2,,running
Status,49,8997598781,/g3t1_2,,success
Status,50,9043251099,/g3t1_1,,running
Status,51,9043311610,/g3t1_1,,fail
Status,52,9044991400,/g3t1_3,,running
Status,53,9045501549,/g3t1_3,,success
Status,54,9047114326,/g3t1_2,,running
Status,55,9047523585,/g3t1_2,,success
Status,56,9089239820,/g4t1,,success
Status,57,9093262261,/g3t1_1,,running
Status,58,9093323671,/g3t1_1,,fail
Status,59,9095216441,/g3t1_3,,running
Status,60,9095603554,/g3t1_3,,success
Status,61,9097142775,/g3t1_2,,running
Status,62,9097450873,/g3t1_2,,success
Status,66,9143576162,/g3t1_1,,running
Status,67,9143636729,/g3t1_1,,fail
Status,68,9145472296,/g3t1_3,,running
Status,69,9145685388,/g3t1_3,,fail
Status,70,9147249567,/g3t1_2,,running
Status,71,9148108571,/g3t1_2,,fail
Status,72,9189568755,/g4t1,,success
Status,73,9193612240,/g3t1_1,,running
Status,74,9193674575,/g3t1_1,,fail
Status,75,9195409653,/g3t1_3,,running
Status,76,9195790320,/g3t1_3,,fail
Status,77,9197302073,/g3t1_2,,running
Status,78,9197620682,/g3t1_2,,fail
Status,79,9243510344,/g3t1_1,,running
Status,80,9243560471,/g3t1_1,,fail
Status,81,9245363561,/g3t1_3,,running
Status,82,9245423790,/g3t1_3,,fail
Status,83,9247374551,/g3t1_2,,running
Status,84,9247431619,/g3t1_2,,fail
Status,85,9289242262,/g4t1,,success
Status,86,9293730881,/g3t1_1,,running
Status,87,9293777628,/g3t1_1,,fail
Status,88,9295556962,/g3t1_3,,running
Status,89,9295595061,/g3t1_3,,fail
Status,90,9297495986,/g3t1_2,,running
Status,91,9297656567,/g3t1_2,,fail
Status,95,9343848719,/g3t1_1,,running
Status,96,9343894459,/g3t1_1,,fail
Status,97,9345638247,/g3t1_3,,running
Status,98,9345692632,/g3t1_3,,fail
Status,99,9347511568,/g3t1_2,,running
Status,100,9347690787,/g3t1_2,,fail
Status,101,9389561698,/g4t1,,success
Status,102,9393907299,/g3t1_1,,running
Status,103,9394236191,/g3t1_1,,fail
Status,104,9395813262,/g3t1_3,,running
Status,105,9396054824,/g3t1_3,,success
Status,106,9397771348,/g3t1_2,,running
Status,107,9398032924,/g3t1_2,,fail
Status,108,9444461069,/g3t1_1,,running
Status,109,9444533367,/g3t1_1,,fail
Status,110,9446159149,/g3t1_3,,running
Status,111,9446220999,/g3t1_3,,fail
Status,112,9448011804,/g3t1_2,,running
Status,113,9448640507,/g3t1_2,,success
Status,114,9489906140,/g4t1,,success
Status,115,9494453913,/g3t1_1,,running
Status,116,9494543561,/g3t1_1,,fail
Status,117,9495913708,/g3t1_3,,running
Status,118,9496380037,/g3t1_3,,success
Status,119,9498318211,/g3t1_2,,running
Status,120,9498389407,/g3t1_2,,success
Status,124,9544541863,/g3t1_1,,running
Status,125,9544915281,/g3t1_1,,fail
Status,126,9546374996,/g3t1_3,,running
Status,127,9546514785,/g3t1_3,,fail
Status,128,9548225329,/g3t1_2,,running
Status,129,9548434095,/g3t1_2,,success
Status,130,9590023053,/g4t1,,success
Status,131,9594807385,/g3t1_1,,running
Status,132,9594877961,/g3t1_1,,fail
Status,133,9596242233,/g3t1_3,,running
Status,134,9596538711,/g3t1_3,,fail
Status,135,9598415865,/g3t1_2,,running
Status,136,9598653880,/g3t1_2,,success
Status,137,9644830765,/g3t1_1,,running
Status,138,9645025609,/g3t1_1,,fail
Status,139,9646504055,/g3t1_3,,running
Status,140,9646551714,/g3t1_3,,fail
Status,141,9648342187,/g3t1_2,,running
Status,142,9648694923,/g3t1_2,,success
Status,143,9690271501,/g4t1,,success
Status,144,9695063856,/g3t1_1,,running
Status,145,9695128980,/g3t1_1,,fail
Status,146,9696596351,/g3t1_3,,running
Status,147,9696664430,/g3t1_3,,fail
Status,148,9698521240,/g3t1_2,,running
Status,149,9699305103,/g3t1_2,,success
Status,153,9745384680,/g3t1_1,,running
Status,154,9745455853,/g3t1_1,,fail
Status,155,9746677367,/g3t1_3,,running
Status,156,9747108373,/g3t1_3,,fail
Status,157,9748596919,/g3t1_2,,running
Status,158,9749124022,/g3t1_2,,success
Status,159,9790312386,/g4t1,,success
Status,160,9795147152,/g3t1_1,,running
Status,161,9795806788,/g3t1_1,,fail
Status,162,9796515954,/g3t1_3,,running
Status,163,9796784544,/g3t1_3,,fail
Status,164,9798989412,/g3t1_2,,running
Status,165,9799347251,/g3t1_2,,success
Status,166,9845294132,/g3t1_1,,running
Status,167,9845562390,/g3t1_1,,fail
Status,168,9846628112,/g3t1_3,,running
Status,169,9847061837,/g3t1_3,,fail
Status,170,9848934336,/g3t1_2,,running
Status,171,9849423899,/g3t1_2,,success
Status,172,9890739613,/g4t1,,fail
Status,173,9895622344,/g3t1_1,,running
Status,174,9895685156,/g3t1_1,,fail
Status,175,9896706591,/g3t1_3,,running
Status,176,9897093633,/g3t1_3,,fail
Status,177,9899130878,/g3t1_2,,running
Status,178,9899195042,/g3t1_2,,success
Status,182,9945523650,/g3t1_1,,running
Status,183,9945868574,/g3t1_1,,fail
Status,184,9947011860,/g3t1_3,,running
Status,185,9947133698,/g3t1_3,,fail
Status,186,9948982695,/g3t1_2,,running
Status,187,9949231509,/g3t1_2,,fail
Status,188,9990701114,/g4t1,,success
Status,189,9995717356,/g3t1_1,,running
Status,190,9995993270,/g3t1_1,,fail
Status,191,9997075052,/g3t1_3,,running
Status,192,9997475514,/g3t1_3,,fail
Status,193,9999230289,/g3t1_2,,running
Status,194,9999296271,/g3t1_2,,fail
Status,195,10046217257,/g3t1_1,,running
Status,196,10046291914,/g3t1_1,,fail
Status,197,10047419487,/g3t1_3,,running
Status,198,10047686831,/g3t1_3,,fail
Status,199,10049318720,/g3t1_2,,running
Status,200,10049379177,/g3t1_2,,fail
Status,201,10090716607,/g4t1,,success
Status,202,10095910893,/g3t1_1,,running
Status,203,10096460732,/g3t1_1,,fail
Status,204,10097188410,/g3t1_3,,running
Status,205,10097714346,/g3t1_3,,fail
Status,206,10099296607,/g3t1_2,,running
Status,207,10099630541,/g3t1_2,,fail
Status,211,10146355878,/g3t1_1,,running
Status,212,10146570115,/g3t1_1,,fail
Status,213,10147823815,/g3t1_3,,running
Status,214,10148216650,/g3t1_3,,fail
Status,215,10149498798,/g3t1_2,,running
Status,216,10149701834,/g3t1_2,,fail
Status,217,10190609188,/g4t1,,success
Status,218,10196007279,/g3t1_1,,running
Status,219,10196053665,/g3t1_1,,fail
Status,220,10197459306,/g3t1_3,,running
Status,221,10197880908,/g3t1_3,,success
Status,222,10199489300,/g3t1_2,,running
Status,223,10199541090,/g3t1_2,,fail
Status,224,10246352256,/g3t1_1,,running
Status,225,10246734508,/g3t1_1,,fail
Status,226,10248112747,/g3t1_3,,running
Status,227,10248175397,/g3t1_3,,fail
Status,228,10249531214,/g3t1_2,,running
Status,229,10250364532,/g3t1_2,,fail
Status,230,10291076015,/g4t1,,success
Status,231,10296595245,/g3t1_1,,running
Status,232,10296692913,/g3t1_1,,fail
Status,233,10297741390,/g3t1_3,,running
Status,234,10298451197,/g3t1_3,,success
Status,235,10299719123,/g3t1_2,,running
Status,236,10300128608,/g3t1_2,,fail
Status,240,10346935492,/g3t1_1,,running
Status,241,10347003324,/g3t1_1,,fail
Status,242,10348230897,/g3t1_3,,running
Status,243,10348293836,/g3t1_3,,fail
Status,244,10349869894,/g3t1_2,,running
Status,245,10350222912,/g3t1_2,,fail
Status,246,10390533934,/g4t1,,success
Status,247,10396215627,/g3t1_1,,running
Status,248,10396295409,/g3t1_1,,fail
Status,249,10397387824,/g3t1_3,,running
Status,250,10397417664,/g3t1_3,,fail
Status,251,10399613695,/g3t1_2,,running
Status,252,10399662358,/g3t1_2,,fail
Status,253,10447331967,/g3t1_1,,running
Status,254,10447416106,/g3t1_1,,fail
Status,255,10448267999,/g3t1_3,,running
Status,256,10448345922,/g3t1_3,,fail
Status,257,10449846152,/g3t1_2,,running
Status,258,10450290325,/g3t1_2,,fail
Status,259,10491185742,/g4t1,,success
Status,260,10497210163,/g3t1_1,,running
Status,261,10497282155,/g3t1_1,,fail
Status,262,10498358059,/g3t1_3,,running
Status,263,10498417665,/g3t1_3,,fail
Status,264,10500023395,/g3t1_2,,running
Status,265,10500340330,/g3t1_2,,fail
Status,269,10547506846,/g3t1_1,,running
Status,270,10547572196,/g3t1_1,,fail
Status,271,10548253655,/g3t1_3,,running
Status,272,10548518795,/g3t1_3,,success
Status,273,10550260958,/g3t1_2,,running
Status,274,10550834665,/g3t1_2,,success
Status,275,10590781521,/g4t1,,success
Status,276,10596824940,/g3t1_1,,running
Status,277,10596977320,/g3t1_1,,fail
Status,278,10597864987,/g3t1_3,,running
Status,279,10598067504,/g3t1_3,,success
Status,280,10599985805,/g3t1_2,,running
Status,281,10600018655,/g3t1_2,,fail
Status,282,10647502266,/g3t1_1,,running
Status,283,10647576538,/g3t1_1,,fail
Status,284,10648464935,/g3t1_3,,running
Status,285,10648933832,/g3t1_3,,success
Status,286,10650351073,/g3t1_2,,running
Status,287,10650408437,/g3t1_2,,fail
Status,288,10691538357,/g4t1,,success
Status,289,10697508456,/g3t1_1,,running
Status,290,10697575436,/g3t1_1,,fail
Status,291,10698919379,/g3t1_3,,running
Status,292,10699014755,/g3t1_3,,success
Status,293,10700340215,/g3t1_2,,running
Status,294,10701117506,/g3t1_2,,success
Status,298,10747268224,/g3t1_1,,running
Status,299,10747296813,/g3t1_1,,fail
Status,300,10748233350,/g3t1_3,,running
Status,301,10748255326,/g3t1_3,,success
Status,302,10750381870,/g3t1_2,,running
Status,303,10750590052,/g3t1_2,,fail
Status,304,10790819899,/g4t1,,success
Status,305,10797867684,/g3t1_1,,running
Status,306,10797959802,/g3t1_1,,fail
Status,307,10798726658,/g3t1_3,,running
Status,308,10799229490,/g3t1_3,,fail
Status,309,10800732931,/g3t1_2,,running
Status,310,10800799170,/g3t1_2,,fail
Status,311,10848144118,/g3t1_1,,running
Status,312,10848222711,/g3t1_1,,fail
Status,313,10849050897,/g3t1_3,,running
Status,314,10849417368,/g3t1_3,,success
Status,315,10850853496,/g3t1_2,,running
Status,316,10850946091,/g3t1_2,,fail
Status,317,10891919505,/g4t1,,success
Status,318,10897915274,/g3t1_1,,running
Status,319,10898539881,/g3t1_1,,fail
Status,320,10899258834,/g3t1_3,,running
Status,321,10899448924,/g3t1_3,,success
Status,322,10900782447,/g3t1_2,,running
Status,323,10900981539,/g3t1_2,,fail
Status,327,10948338270,/g3t1_1,,running
Status,328,10948405148,/g3t1_1,,fail
Status,329,10949490110,/g3t1_3,,running
Status,330,10949563988,/g3t1_3,,success
Status,331,10951050706,/g3t1_2,,running
Status,332,10951556857,/g3t1_2,,fail
Status,333,10991271635,/g4t1,,success
Status,334,10997717430,/g3t1_1,,running
Status,335,10997901961,/g3t1_1,,fail
Status,336,10998711279,/g3t1_3,,running
Status,337,10998767269,/g3t1_3,,fail
Status,338,11000593507,/g3t1_2,,running
Status,339,11000630157,/g3t1_2,,fail
Status,340,11048481034,/g3t1_1,,running
Status,341,11048570580,/g3t1_1,,fail
Status,342,11049330111,/g3t1_3,,running
Status,343,11049977854,/g3t1_3,,success
Status,344,11051065601,/g3t1_2,,running
Status,345,11051792785,/g3t1_2,,fail
Status,346,11092189442,/g4t1,,success
Status,347,11098658865,/g3t1_1,,running
Status,348,11098729804,/g3t1_1,,fail
Status,349,11099435662,/g3t1_3,,running
Status,350,11099803872,/g3t1_3,,fail
Status,351,11101344379,/g3t1_2,,running
Status,352,11102007850,/g3t1_2,,success
Status,356,11148782367,/g3t1_1,,running
Status,357,11148858709,/g3t1_1,,fail
Status,358,11149652844,/g3t1_3,,running
Status,359,11149996357,/g3t1_3,,fail
Status,360,11151358469,/g3t1_2,,running
Status,361,11151679662,/g3t1_2,,fail
Status,362,11192204343,/g4t1,,success
Status,363,11198603743,/g3t1_1,,running
Status,364,11199081888,/g3t1_1,,fail
Status,365,11199872186,/g3t1_3,,running
Status,366,11199918768,/g3t1_3,,fail
Status,367,11201450813,/g3t1_2,,running
Status,368,11201514883,/g3t1_2,,fail
Status,369,11248821510,/g3t1_1,,running
Status,370,11248892414,/g3t1_1,,fail
Status,371,11249765106,/g3t1_3,,running
Status,372,11250162068,/g3t1_3,,success
Status,373,11251687976,/g3t1_2,,running
Status,374,11251746088,/g3t1_2,,fail
Status,375,11292385034,/g4t1,,success
Status,376,11298842428,/g3t1_1,,running
Status,377,11299594355,/g3t1_1,,fail
Status,378,11299954041,/g3t1_3,,running
Status,379,11300445960,/g3t1_3,,success
Status,380,11301587592,/g3t1_2,,running
Status,381,11302112521,/g3t1_2,,success
Status,385,11348924559,/g3t1_1,,running
Status,386,11348971944,/g3t1_1,,fail
Status,387,11349650023,/g3t1_3,,running
Status,388,11349697496,/g3t1_3,,fail
Status,389,11351399995,/g3t1_2,,running
Status,390,11351439101,/g3t1_2,,fail
Status,391,11392367964,/g4t1,,success
Status,392,11399217924,/g3t1_1,,running
Status,393,11399589340,/g3t1_1,,fail
Status,394,11399885866,/g3t1_3,,running
Status,395,11400503356,/g3t1_3,,fail
Status,396,11401437773,/g3t1_2,,running
Status,397,11401786874,/g3t1_2,,fail
Status,398,11449370078,/g3t1_1,,running
Status,399,11449452865,/g3t1_1,,fail
Status,400,11450038598,/g3t1_3,,running
Status,401,11450114995,/g3t1_3,,fail
Status,402,11451840385,/g3t1_2,,running
Status,403,11452052685,/g3t1_2,,fail
Status,404,11492458268,/g4t1,,success
Status,405,11499387056,/g3t1_1,,running
Status,406,11499940991,/g3t1_1,,fail
Status,407,11500118465,/g3t1_3,,running
Status,408,11500529065,/g3t1_3,,fail
Status,409,11501948290,/g3t1_2,,running
Status,410,11502286874,/g3t1_2,,success
Status,411,11549699279,/g3t1_1,,running
Status,412,11550141930,/g3t1_1,,fail
Status,413,11550512400,/g3t1_3,,running
Status,414,11551045400,/g3t1_3,,success
Status,415,11552010289,/g3t1_2,,running
Status,416,11552471910,/g3t1_2,,success
Status,417,11592708391,/g4t1,,success
Status,418,11599633024,/g3t1_1,,running
Status,419,11600107641,/g3t1_1,,fail
Status,420,11600557396,/g3t1_3,,running
Status,421,11600940896,/g3t1_3,,fail
Status,422,11602471779,/g3t1_2,,running
Status,423,11602992272,/g3t1_2,,fail
Status,424,11649905007,/g3t1_1,,running
Status,425,11650376857,/g3t1_1,,fail
Status,426,11650447532,/g3t1_3,,running
Status,427,11651086668,/g3t1_3,,fail
Status,428,11652205063,/g3t1_2,,running
Status,429,11652815492,/g3t1_2,,success
Status,430,11692809458,/g4t1,,success
Status,431,11700042068,/g3t1_1,,running
Status,432,11700620126,/g3t1_1,,fail
Status,433,11700685681,/g3t1_3,,running
Status,434,11701076675,/g3t1_3,,fail
Status,435,11702422267,/g3t1_2,,running
Status,436,11703376384,/g3t1_2,,fail
Status,437,11750247231,/g3t1_1,,running
Status,438,11750396391,/g3t1_1,,fail
Status,439,11750658347,/g3t1_3,,running
Status,440,11751476895,/g3t1_3,,fail
Status,441,11752334104,/g3t1_2,,running
Status,442,11752679458,/g3t1_2,,fail
Status,443,11792888337,/g4t1,,success
Status,444,11800649902,/g3t1_1,,running
Status,445,11800816421,/g3t1_1,,fail
Status,446,11800903107,/g3t1_3,,running
Status,447,11801290654,/g3t1_3,,fail
Status,448,11802594434,/g3t1_2,,running
Status,449,11803198794,/g3t1_2,,success
Status,450,11850602011,/g3t1_1,,running
Status,451,11850726115,/g3t1_1,,fail
Status,452,11850824289,/g3t1_3,,running
Status,453,11851054927,/g3t1_3,,fail
Status,454,11852615952,/g3t1_2,,running
Status,455,11853075737,/g3t1_2,,fail
Status,456,11893053093,/g4t1,,success
Status,457,11900534817,/g3t1_1,,running
Status,458,11900740324,/g3t1_1,,fail
Status,459,11900862133,/g3t1_3,,running
Status,460,11901425767,/g3t1_3,,fail
Status,461,11902856558,/g3t1_2,,running
Status,462,11903745650,/g3t1_2,,success
Status,463,11951254197,/g3t1_1,,running
Status,464,11951318950,/g3t1_3,,running
Status,465,11951430385,/g3t1_1,,fail
Status,466,11951454518,/g3t1_3,,fail
Status,467,11953029257,/g3t1_2,,running
Status,468,11953384607,/g3t1_2,,success
Status,469,11993218832,/g4t1,,success
Status,470,12001132955,/g3t1_1,,running
Status,471,12001236953,/g3t1_1,,fail
Status,472,12001326377,/g3t1_3,,running
Status,473,12001702199,/g3t1_3,,success
Status,474,12003280840,/g3t1_2,,running
Status,475,12003644052,/g3t1_2,,success
Status,476,12051204189,/g3t1_1,,running
Status,477,12051297426,/g3t1_3,,running
Status,478,12051420536,/g3t1_1,,fail
Status,479,12052072586,/g3t1_3,,success
Status,480,12053177532,/g3t1_2,,running
Status,481,12053500727,/g3t1_2,,success
Status,482,12093388997,/g4t1,,success
Status,483,12101681630,/g3t1_1,,running
Status,484,12101791519,/g3t1_3,,running
Status,485,12101876355,/g3t1_3,,fail
Status,486,12101982870,/g3t1_1,,fail
Status,487,12103323531,/g3t1_2,,running
Status,488,12103909514,/g3t1_2,,success
Status,489,12151702491,/g3t1_1,,running
Status,490,12151782587,/g3t1_3,,running
Status,491,12151891794,/g3t1_1,,fail
Status,492,12152113570,/g3t1_3,,fail
Status,493,12153345012,/g3t1_2,,running
Status,494,12153729899,/g3t1_2,,success
Status,495,12193594441,/g4t1,,success
Status,496,12201706801,/g3t1_1,,running
Status,497,12201791060,/g3t1_3,,running
Status,498,12201817609,/g3t1_1,,fail
Status,499,12201925221,/g3t1_3,,fail
Status,500,12203449445,/g3t1_2,,running
Status,501,12203758906,/g3t1_2,,fail
Status,502,12251974600,/g3t1_3,,running
Status,503,12252067322,/g3t1_1,,running
Status,504,12252226212,/g3t1_1,,fail
Status,505,12252256563,/g3t1_3,,fail
Status,506,12253580517,/g3t1_2,,running
Status,507,12254005910,/g3t1_2,,fail
Status,508,12293681148,/g4t1,,success
Status,509,12301934650,/g3t1_1,,running
Status,510,12302030747,/g3t1_3,,running
Status,511,12302137488,/g3t1_1,,fail
Status,512,12302592040,/g3t1_3,,success
Status,513,12304167590,/g3t1_2,,running
Status,514,12304225724,/g3t1_2,,success
Status,518,12352197832,/g3t1_1,,running
Status,519,12352266370,/g3t1_3,,running
Status,520,12352312751,/g3t1_1,,fail
Status,521,12352478277,/g3t1_3,,fail
Status,522,12353716584,/g3t1_2,,running
Status,523,12354084019,/g3t1_2,,success
Status,524,12393734773,/g4t1,,success
Status,525,12402524523,/g3t1_1,,running
Status,526,12402596927,/g3t1_3,,running
Status,527,12402626461,/g3t1_3,,fail
Status,528,12402817620,/g3t1_1,,success
Status,529,12403954907,/g3t1_2,,running
Status,530,12404646139,/g3t1_2,,success
Status,531,12452336729,/g3t1_1,,running
Status,532,12452434563,/g3t1_3,,running
Status,533,12452939582,/g3t1_3,,fail
Status,534,12453003739,/g3t1_1,,success
Status,535,12454229884,/g3t1_2,,running
Status,536,12454557262,/g3t1_2,,success
Status,537,12493989841,/g4t1,,fail
Status,538,12502547204,/g3t1_1,,running
Status,539,12502664920,/g3t1_3,,running
Status,540,12502891247,/g3t1_3,,fail
Status,541,12503101116,/g3t1_1,,success
Status,542,12504434521,/g3t1_2,,running
Status,543,12504764164,/g3t1_2,,success
Status,547,12552020752,/g3t1_1,,running
Status,548,12552078223,/g3t1_3,,running
Status,549,12552092140,/g3t1_3,,fail
Status,550,12552153662,/g3t1_1,,fail
Status,551,12553819523,/g3t1_2,,running
Status,552,12553847562,/g3t1_2,,fail
Status,553,12594083729,/g4t1,,success
Status,554,12602836764,/g3t1_1,,running
Status,555,12602912507,/g3t1_3,,running
Status,556,12603102755,/g3t1_1,,fail
Status,557,12603211581,/g3t1_3,,fail
Status,558,12604311124,/g3t1_2,,running
Status,559,12604561159,/g3t1_2,,fail
Status,560,12653270890,/g3t1_1,,running
Status,561,12653343142,/g3t1_3,,running
Status,562,12653366801,/g3t1_3,,fail
Status,563,12653390205,/g3t1_1,,fail
Status,564,12654360657,/g3t1_2,,running
Status,565,12654740376,/g3t1_2,,fail
Status,566,12694189797,/g4t1,,success
Status,567,12703540850,/g3t1_1,,running
Status,568,12703660768,/g3t1_3,,running
Status,569,12703715506,/g3t1_3,,fail
Status,570,12703754830,/g3t1_1,,fail
Status,571,12704682392,/g3t1_2,,running
Status,572,12704783327,/g3t1_2,,fail
Status,576,12752790550,/g3t1_1,,running
Status,577,12752853608,/g3t1_3,,running
Status,578,12753135363,/g3t1_3,,fail
Status,579,12753177018,/g3t1_1,,fail
Status,580,12754346420,/g3t1_2,,running
Status,581,12754391630,/g3t1_2,,fail
Status,582,12794314895,/g4t1,,success
Status,583,12803373468,/g3t1_1,,running
Status,584,12803452376,/g3t1_3,,running
Status,585,12803547108,/g3t1_3,,fail
Status,586,12803571899,/g3t1_1,,fail
Status,587,12804680941,/g3t1_2,,running
Status,588,12804747138,/g3t1_2,,fail
Status,589,12853610365,/g3t1_1,,running
Status,590,12853686245,/g3t1_3,,running
Status,591,12853787336,/g3t1_1,,fail
Status,592,12853814081,/g3t1_3,,fail
Status,593,12855132017,/g3t1_2,,running
Status,594,12855197522,/g3t1_2,,fail
Status,595,12894318337,/g4t1,,success
Status,596,12903526366,/g3t1_1,,running
Status,597,12903594281,/g3t1_3,,running
Status,598,12903621373,/g3t1_3,,fail
Status,599,12903826755,/g3t1_1,,fail
Status,600,12904942057,/g3t1_2,,running
Status,601,12905006268,/g3t1_2,,fail
Status,605,12953820809,/g3t1_1,,running
Status,606,12953887221,/g3t1_3,,running
Status,607,12954094239,/g3t1_1,,success
Status,608,12954273559,/g3t1_3,,success
Status,609,12955053205,/g3t1_2,,running
Status,610,12955856102,/g3t1_2,,fail
Status,611,12994430052,/g4t1,,success
Status,612,13003747651,/g3t1_1,,running
Status,613,13003831332,/g3t1_3,,running
Status,614,13004196897,/g3t1_1,,success
Status,615,13004258146,/g3t1_3,,success
Status,616,13005153736,/g3t1_2,,running
Status,617,13005562551,/g3t1_2,,success
Status,618,13054008241,/g3t1_1,,running
Status,619,13054104826,/g3t1_3,,running
Status,620,13054519734,/g3t1_1,,success
Status,621,13054615724,/g3t1_3,,success
Status,622,13055216517,/g3t1_2,,running
Status,623,13055996592,/g3t1_2,,success
Status,624,13094603160,/g4t1,,success
Status,625,13103942872,/g3t1_1,,running
Status,626,13104111397,/g3t1_3,,running
Status,627,13104157203,/g3t1_1,,fail
Status,628,13104518511,/g3t1_3,,success
Status,629,13105498234,/g3t1_2,,running
Status,630,13105979410,/g3t1_2,,success
Status,634,13154008739,/g3t1_1,,running
Status,635,13154182051,/g3t1_3,,running
Status,636,13154221021,/g3t1_3,,fail
Status,637,13154245050,/g3t1_1,,fail
Status,638,13155627406,/g3t1_2,,running
Status,639,13156078810,/g3t1_2,,success
Status,640,13194725490,/g4t1,,success
Status,641,13204352469,/g3t1_1,,running
Status,642,13204492769,/g3t1_3,,running
Status,643,13204536289,/g3t1_3,,fail
Status,644,13204631388,/g3t1_1,,fail
Status,645,13205783415,/g3t1_2,,running
Status,646,13205876523,/g3t1_2,,success
Status,647,13254566646,/g3t1_1,,running
Status,648,13254639075,/g3t1_3,,running
Status,649,13254721657,/g3t1_1,,fail
Status,650,13255116410,/g3t1_3,,fail
Status,651,13255647903,/g3t1_2,,running
Status,652,13256294127,/g3t1_2,,success
Status,653,13294904873,/g4t1,,success
Status,654,13304483921,/g3t1_1,,running
Status,655,13304589069,/g3t1_3,,running
Status,656,13304645119,/g3t1_1,,fail
Status,657,13304944925,/g3t1_3,,success
Status,658,13305720364,/g3t1_2,,running
Status,659,13306499439,/g3t1_2,,success
Status,663,13354399925,/g3t1_1,,running
Status,664,13354487234,/g3t1_3,,running
Status,665,13354919260,/g3t1_3,,fail
Status,666,13355141131,/g3t1_1,,fail
Status,667,13356076317,/g3t1_2,,running
Status,668,13356407240,/g3t1_2,,success
Status,669,13395081762,/g4t1,,fail
Status,670,13404602183,/g3t1_1,,running
Status,671,13404695979,/g3t1_3,,running
Status,672,13404864316,/g3t1_1,,fail
Status,673,13404916242,/g3t1_3,,fail
Status,674,13406038619,/g3t1_2,,running
Status,675,13406813227,/g3t1_2,,success
Status,676,13455059388,/g3t1_1,,running
Status,677,13455131904,/g3t1_3,,running
Status,678,13455161405,/g3t1_3,,fail
Status,679,13455186724,/g3t1_1,,fail
Status,680,13456224740,/g3t1_2,,running
Status,681,13456572624,/g3t1_2,,fail
Status,682,13495173984,/g4t1,,success
Status,683,13505110322,/g3t1_1,,running
Status,684,13505211231,/g3t1_3,,running
Status,685,13505290446,/g3t1_3,,fail
Status,686,13505396857,/g3t1_1,,fail
Status,687,13506516773,/g3t1_2,,running
Status,688,13506885988,/g3t1_2,,fail
Status,692,13555207151,/g3t1_1,,running
Status,693,13555343261,/g3t1_3,,running
Status,694,13555393708,/g3t1_3,,fail
Status,695,13555467874,/g3t1_1,,fail
Status,696,13556897673,/g3t1_2,,running
Status,697,13556967723,/g3t1_2,,success
Status,698,13595307029,/g4t1,,success
Status,699,13605222065,/g3t1_3,,running
Status,700,13605315649,/g3t1_1,,running
Status,701,13605637315,/g3t1_3,,fail
Status,702,13605716631,/g3t1_1,,success
Status,703,13607111097,/g3t1_2,,running
Status,704,13607227704,/g3t1_2,,success
Status,705,13655472847,/g3t1_3,,running
Status,706,13655599363,/g3t1_1,,running
Status,707,13656043737,/g3t1_3,,fail
Status,708,13656126221,/g3t1_1,,success
Status,709,13656805911,/g3t1_2,,running
Status,710,13657190520,/g3t1_2,,fail
Status,711,13695437553,/g4t1,,success
Status,712,13705669216,/g3t1_1,,running
Status,713,13705767398,/g3t1_3,,running
Status,714,13705863117,/g3t1_3,,fail
Status,715,13706284763,/g3t1_1,,success
Status,716,13707112266,/g3t1_2,,running
Status,717,13707714798,/g3t1_2,,success
Status,721,13755656099,/g3t1_3,,running
Status,722,13755740159,/g3t1_1,,running
Status,723,13756142055,/g3t1_3,,fail
Status,724,13756213780,/g3t1_1,,fail
Status,725,13757094602,/g3t1_2,,running
Status,726,13757271576,/g3t1_2,,fail
Status,727,13795806035,/g4t1,,success
Status,728,13805794438,/g3t1_1,,running
Status,729,13805876371,/g3t1_3,,running
Status,730,13806193739,/g3t1_1,,fail
Status,731,13806670743,/g3t1_3,,success
Status,732,13807140294,/g3t1_2,,running
Status,733,13807778034,/g3t1_2,,fail
Status,734,13856243264,/g3t1_1,,running
Status,735,13856348978,/g3t1_3,,running
Status,736,13856445945,/g3t1_1,,fail
Status,737,13857658645,/g3t1_3,,success
Status,738,13857740632,/g3t1_2,,running
Status,739,13857804951,/g3t1_2,,fail
Status,740,13895736337,/g4t1,,success
Status,741,13906254895,/g3t1_3,,running
Status,742,13906327516,/g3t1_1,,running
Status,743,13906425181,/g3t1_3,,fail
Status,744,13906994064,/g3t1_1,,fail
Status,745,13907370356,/g3t1_2,,running
Status,746,13907445233,/g3t1_2,,fail
Status,750,13956017301,/g3t1_1,,running
Status,751,13956062928,/g3t1_3,,running
Status,752,13956195065,/g3t1_1,,fail
Status,753,13956235745,/g3t1_3,,fail
Status,754,13957212769,/g3t1_2,,running
Status,755,13957267292,/g3t1_2,,fail
Status,756,13995317428,/g4t1,,success
Status,757,14006136872,/g3t1_1,,running
Status,758,14006193641,/g3t1_3,,running
Status,759,14006267757,/g3t1_1,,fail
Status,760,14006282534,/g3t1_3,,fail
Status,761,14007066209,/g3t1_2,,running
Status,762,14007273754,/g3t1_2,,fail
Status,763,14055857313,/g3t1_3,,running
Status,764,14055878816,/g3t1_3,,fail
Status,765,14055901162,/g3t1_1,,running
Status,766,14055908324,/g3t1_1,,fail
Status,767,14056857508,/g3t1_2,,running
Status,768,14056953446,/g3t1_2,,success
Status,769,14095325439,/g4t1,,success
Status,770,14106138397,/g3t1_1,,running
Status,771,14106181877,/g3t1_3,,running
Status,772,14106440960,/g3t1_1,,fail
Status,773,14106724904,/g3t1_3,,fail
Status,774,14107130007,/g3t1_2,,running
Status,775,14107449976,/g3t1_2,,success
Status,779,14156827766,/g3t1_1,,running
Status,780,14156869401,/g3t1_3,,running
Status,781,14156887761,/g3t1_3,,success
Status,782,14157303905,/g3t1_1,,success
Status,783,14157342009,/g3t1_2,,running
Status,784,14157528645,/g3t1_2,,success
Status,785,14195410115,/g4t1,,success
Status,786,14206584652,/g3t1_1,,running
Status,787,14206619569,/g3t1_3,,running
Status,788,14206656479,/g3t1_1,,success
Status,789,14206670879,/g3t1_3,,success
Status,790,14207362357,/g3t1_2,,running
Status,791,14207419692,/g3t1_2,,success
Status,792,14256569723,/g3t1_3,,running
Status,793,14256590353,/g3t1_1,,running
Status,794,14256596812,/g3t1_3,,fail
Status,795,14256603141,/g3t1_1,,success
Status,796,14257691277,/g3t1_2,,running
Status,797,14257942108,/g3t1_2,,success
Status,798,14295360490,/g4t1,,success
Status,799,14306550817,/g3t1_1,,running
Status,800,14306584270,/g3t1_3,,running
Status,801,14306645643,/g3t1_1,,fail
Status,802,14306659215,/g3t1_3,,success
Status,803,14307234939,/g3t1_2,,running
Status,804,14307327156,/g3t1_2,,success
Status,808,14356633731,/g3t1_1,,running
Status,809,14356669489,/g3t1_3,,running
Status,810,14356693986,/g3t1_3,,fail
Status,811,14356705994,/g3t1_1,,fail
Status,812,14357340064,/g3t1_2,,running
Status,813,14357469985,/g3t1_2,,success
Status,814,14395548456,/g4t1,,fail
Status,815,14406833649,/g3t1_3,,running
Status,816,14407053754,/g3t1_1,,running
Status,817,14407090650,/g3t1_3,,fail
Status,818,14407117349,/g3t1_1,,fail
Status,819,14407506617,/g3t1_2,,running
Status,820,14407916321,/g3t1_2,,success
Status,821,14456886076,/g3t1_1,,running
Status,822,14456937511,/g3t1_3,,running
Status,823,14456946798,/g3t1_1,,fail
Status,824,14456954380,/g3t1_3,,success
Status,825,14457410022,/g3t1_2,,running
Status,826,14457592534,/g3t1_2,,success
Status,827,14496522565,/g4t1,,fail
Status,828,14508265859,/g3t1_1,,running
Status,829,14508329042,/g3t1_3,,running
Status,830,14508355312,/g3t1_3,,fail
Status,831,14508457720,/g3t1_1,,fail
Status,832,14508483523,/g3t1_2,,running
Status,833,14508754516,/g3t1_2,,success
Status,837,14558215310,/g3t1_1,,running
Status,838,14558297969,/g3t1_3,,running
Status,839,14558452773,/g3t1_3,,fail
Status,840,14558489277,/g3t1_1,,fail
Status,841,14558517079,/g3t1_2,,running
Status,842,14558928203,/g3t1_2,,fail
Status,843,14596310526,/g4t1,,success
Status,844,14608029357,/g3t1_1,,running
Status,845,14608166944,/g3t1_3,,running
Status,846,14608652783,/g3t1_3,,fail
Status,847,14608743407,/g3t1_2,,running
Status,848,14609041510,/g3t1_1,,fail
Status,849,14609155604,/g3t1_2,,fail
Status,850,14657429366,/g3t1_1,,running
Status,851,14657451477,/g3t1_3,,running
Status,852,14657480324,/g3t1_3,,fail
Status,853,14657488570,/g3t1_1,,fail
Status,854,14658000258,/g3t1_2,,running
Status,855,14658019786,/g3t1_2,,fail
Status,856,14695884394,/g4t1,,success
Status,857,14707898705,/g3t1_1,,running
Status,858,14708001763,/g3t1_3,,running
Status,859,14708034140,/g3t1_3,,fail
Status,860,14708057350,/g3t1_1,,fail
Status,861,14708254535,/g3t1_2,,running
Status,862,14708491248,/g3t1_2,,fail
Status,866,14757756431,/g3t1_3,,running
Status,867,14757809079,/g3t1_1,,running
Status,868,14757876772,/g3t1_3,,fail
Status,869,14758140027,/g3t1_1,,fail
Status,870,14758537044,/g3t1_2,,running
Status,871,14758644095,/g3t1_2,,success
Status,872,14796368624,/g4t1,,success
Status,873,14808597283,/g3t1_3,,running
Status,874,14808705361,/g3t1_1,,running
Status,875,14808921301,/g3t1_3,,success
Status,876,14808964776,/g3t1_1,,fail
Status,877,14809310434,/g3t1_2,,running
Status,878,14809390175,/g3t1_2,,success
Status,879,14858173285,/g3t1_3,,running
Status,880,14858231569,/g3t1_1,,running
Status,881,14858247589,/g3t1_1,,fail
Status,882,14858821010,/g3t1_3,,success
Status,883,14859017613,/g3t1_2,,running
Status,884,14859042279,/g3t1_2,,success
Status,885,14896725268,/g4t1,,success
Status,886,14907797926,/g3t1_3,,running
Status,887,14907849297,/g3t1_1,,running
Status,888,14907865641,/g3t1_1,,fail
Status,889,14907964511,/g3t1_3,,success
Status,890,14908421361,/g3t1_2,,running
Status,891,14908516264,/g3t1_2,,success
Status,895,14957996638,/g3t1_1,,running
Status,896,14958026848,/g3t1_3,,running
Status,897,14958060180,/g3t1_1,,fail
Status,898,14958070195,/g3t1_3,,fail
Status,899,14958821545,/g3t1_2,,running
Status,900,14958844527,/g3t1_2,,success
Status,901,14996595770,/g4t1,,fail
Status,902,15008078816,/g3t1_1,,running
Status,903,15008102053,/g3t1_3,,running
Status,904,15008110745,/g3t1_3,,fail
Status,905,15008118635,/g3t1_1,,fail
Status,906,15008599303,/g3t1_2,,running
Status,907,15008792706,/g3t1_2,,success
Status,908,15058086271,/g3t1_1,,running
Status,909,15058153767,/g3t1_3,,running
Status,910,15058195770,/g3t1_1,,fail
Status,911,15058399561,/g3t1_3,,success
Status,912,15058621369,/g3t1_2,,running
Status,913,15058793084,/g3t1_2,,success
Status,914,15096415338,/g4t1,,fail
Status,915,15108204975,/g3t1_3,,running
Status,916,15108229665,/g3t1_1,,running
Status,917,15108325378,/g3t1_3,,fail
Status,918,15108338218,/g3t1_1,,fail
Status,919,15108745553,/g3t1_2,,running
Status,920,15108883233,/g3t1_2,,success
Status,924,15158911717,/g3t1_1,,running
Status,925,15158977229,/g3t1_3,,running
Status,926,15159050308,/g3t1_3,,fail
Status,927,15159085104,/g3t1_1,,fail
Status,928,15159360163,/g3t1_2,,running
Status,929,15159843575,/g3t1_2,,success
Status,930,15196482507,/g4t1,,fail
Status,931,15208354217,/g3t1_3,,running
Status,932,15208375615,/g3t1_1,,running
Status,933,15208385358,/g3t1_1,,fail
Status,934,15208400147,/g3t1_3,,fail
Status,935,15208873479,/g3t1_2,,running
Status,936,15208975592,/g3t1_2,,success
Status,937,15258434724,/g3t1_3,,running
Status,938,15258470219,/g3t1_3,,fail
Status,939,15258478688,/g3t1_1,,running
Status,940,15258488233,/g3t1_1,,fail
Status,941,15259014737,/g3t1_2,,running
Status,942,15259031308,/g3t1_2,,fail
Status,943,15296327910,/g4t1,,success
Status,944,15308686753,/g3t1_1,,running
Status,945,15308741566,/g3t1_3,,running
Status,946,15308756486,/g3t1_1,,fail
Status,947,15308790082,/g3t1_3,,fail
Status,948,15309185367,/g3t1_2,,running
Status,949,15309213910,/g3t1_2,,fail
Status,953,15358644008,/g3t1_1,,running
Status,954,15358668014,/g3t1_3,,running
Status,955,15358694373,/g3t1_3,,fail
Status,956,15358702639,/g3t1_1,,fail
Status,957,15359174433,/g3t1_2,,running
Status,958,15359200390,/g3t1_2,,fail
Status,959,15396585139,/g4t1,,success
Status,960,15408683258,/g3t1_1,,running
Status,961,15408734270,/g3t1_3,,running
Status,962,15408749755,/g3t1_3,,fail
Status,963,15408773618,/g3t1_1,,fail
Status,964,15409120824,/g3t1_2,,running
Status,965,15409232470,/g3t1_2,,fail
Status,966,15458819567,/g3t1_1,,running
Status,967,15458846128,/g3t1_3,,running
Status,968,15458948211,/g3t1_1,,fail
Status,969,15458960759,/g3t1_3,,fail
Status,970,15459216320,/g3t1_2,,running
Status,971,15459360254,/g3t1_2,,fail
Status,972,15496458667,/g4t1,,success
Status,973,15508985358,/g3t1_1,,running
Status,974,15509026754,/g3t1_3,,running
Status,975,15509056981,/g3t1_3,,fail
Status,976,15509071796,/g3t1_1,,fail
Status,977,15509420105,/g3t1_2,,running
Status,978,15509630537,/g3t1_2,,success
Status,979,15559562245,/g3t1_3,,running
Status,980,15559626480,/g3t1_1,,running
Status,981,15560037781,/g3t1_2,,running
Status,982,15560095066,/g3t1_1,,fail
Status,983,15560282241,/g3t1_3,,fail
Status,984,15560354553,/g3t1_2,,success
Status,985,15597082014,/g4t1,,success
Status,986,15609727020,/g3t1_1,,running
Status,987,15609817282,/g3t1_3,,running
Status,988,15610157023,/g3t1_1,,fail
Status,989,15610193944,/g3t1_2,,running
Status,990,15610222401,/g3t1_3,,fail
Status,991,15610300620,/g3t1_2,,fail
Status,992,15659766816,/g3t1_1,,running
Status,993,15659851409,/g3t1_3,,running
Status,994,15660067036,/g3t1_1,,fail
Status,995,15660243795,/g3t1_3,,fail
Status,996,15660288416,/g3t1_2,,running
Status,997,15660670871,/g3t1_2,,fail
Status,998,15697106195,/g4t1,,success
Status,999,15710529571,/g3t1_1,,running
Status,1000,15710598841,/g3t1_3,,running
Status,1001,15710624670,/g3t1_2,,running
Status,1002,15710714444,/g3t1_1,,fail
Status,1003,15710803913,/g3t1_3,,fail
Status,1004,15711187910,/g3t1_2,,success
Status,1005,15760645369,/g3t1_1,,running
Status,1006,15760741285,/g3t1_3,,running
Status,1007,15761294155,/g3t1_2,,running
Status,1008,15761379463,/g3t1_1,,fail
Status,1009,15761418494,/g3t1_2,,fail
Status,1010,15761533050,/g3t1_3,,fail
Status,1011,15797742154,/g4t1,,success
Status,1012,15810842210,/g3t1_1,,running
Status,1013,15810926363,/g3t1_1,,fail
Status,1014,15811061112,/g3t1_3,,running
Status,1015,15811091817,/g3t1_2,,running
Status,1016,15811116080,/g3t1_3,,fail
Status,1017,15811546923,/g3t1_2,,success
Status,1018,15860895997,/g3t1_3,,running
Status,1019,15860966092,/g3t1_3,,fail
Status,1020,15861132878,/g3t1_1,,running
Status,1021,15861165537,/g3t1_1,,fail
Status,1022,15861273310,/g3t1_2,,running
Status,1023,15861614961,/g3t1_2,,success
Status,1024,15897813750,/g4t1,,success
Status,1025,15910976297,/g3t1_3,,running
Status,1026,15911057843,/g3t1_1,,running
Status,1027,15911146978,/g3t1_1,,fail
Status,1028,15911174433,/g3t1_3,,fail
Status,1029,15911198913,/g3t1_2,,running
Status,1030,15911225912,/g3t1_2,,fail
Status,1031,15961308790,/g3t1_1,,running
Status,1032,15961382177,/g3t1_3,,running
Status,1033,15961406950,/g3t1_1,,fail
Status,1034,15961430892,/g3t1_2,,running
Status,1035,15961457480,/g3t1_3,,fail
Status,1036,15961627527,/g3t1_2,,fail
Status,1037,15997698699,/g4t1,,success
Status,1038,16011385756,/g3t1_3,,running
Status,1039,16011894875,/g3t1_1,,running
Status,1040,16011989302,/g3t1_1,,fail
Status,1041,16012132220,/g3t1_2,,running
Status,1042,16012180554,/g3t1_3,,fail
Status,1043,16012789601,/g3t1_2,,fail
Status,1044,16061192052,/g3t1_1,,running
Status,1045,16061302100,/g3t1_3,,running
Status,1046,16061655954,/g3t1_1,,fail
Status,1047,16061714971,/g3t1_2,,running
Status,1048,16062024560,/g3t1_3,,fail
Status,1049,16063179506,/g3t1_2,,success
Status,1050,16097823093,/g4t1,,success
Status,1051,16111328874,/g3t1_1,,running
Status,1052,16111813881,/g3t1_3,,running
Status,1053,16111902805,/g3t1_3,,fail
Status,1054,16111948341,/g3t1_1,,fail
Status,1055,16112320215,/g3t1_2,,running
Status,1056,16112470648,/g3t1_2,,fail
Status,1057,16161177600,/g3t1_1,,running
Status,1058,16161375596,/g3t1_3,,running
Status,1059,16161404652,/g3t1_3,,fail
Status,1060,16161423123,/g3t1_1,,fail
Status,1061,16161516347,/g3t1_2,,running
Status,1062,16161706938,/g3t1_2,,success
Status,1063,16198191497,/g4t1,,success
Status,1064,16212030094,/g3t1_1,,running
Status,1065,16212167879,/g3t1_3,,running
Status,1066,16212213657,/g3t1_1,,fail
Status,1067,16212307744,/g3t1_3,,fail
Status,1068,16212340338,/g3t1_2,,running
Status,1069,16212599971,/g3t1_2,,fail
Status,1070,16262410231,/g3t1_1,,running
Status,1071,16262489584,/g3t1_3,,running
Status,1072,16262513485,/g3t1_1,,fail
Status,1073,16262535743,/g3t1_3,,fail
Status,1074,16262558484,/g3t1_2,,running
Status,1075,16262602234,/g3t1_2,,fail
Status,1076,16298181993,/g4t1,,success
Status,1077,16311988676,/g3t1_1,,running
Status,1078,16312064009,/g3t1_3,,running
Status,1079,16312578559,/g3t1_1,,fail
Status,1080,16312647017,/g3t1_3,,fail
Status,1081,16312681230,/g3t1_2,,running
Status,1082,16313456413,/g3t1_2,,fail
Status,1086,16362345540,/g3t1_1,,running
Status,1087,16362431802,/g3t1_3,,running
Status,1088,16362476191,/g3t1_1,,fail
Status,1089,16363018817,/g3t1_3,,success
Status,1090,16363393005,/g3t1_2,,running
Status,1091,16363545015,/g3t1_2,,fail
Status,1092,16397778984,/g4t1,,success
Status,1093,16412058081,/g3t1_1,,running
Status,1094,16412166484,/g3t1_3,,running
Status,1095,16412721229,/g3t1_3,,success
Status,1096,16412843280,/g3t1_1,,fail
Status,1097,16413232233,/g3t1_2,,running
Status,1098,16414583315,/g3t1_2,,success
Status,1099,16461525161,/g3t1_1,,running
Status,1100,16461587851,/g3t1_1,,fail
Status,1101,16461602000,/g3t1_3,,running
Status,1102,16461750200,/g3t1_3,,success
Status,1103,16462466806,/g3t1_2,,running
Status,1104,16462588107,/g3t1_2,,success
Status,1105,16497552406,/g4t1,,success
Status,1106,16511465689,/g3t1_1,,running
Status,1107,16511501814,/g3t1_1,,fail
Status,1108,16511848919,/g3t1_3,,running
Status,1109,16511872874,/g3t1_3,,success
Status,1110,16512551709,/g3t1_2,,running
Status,1111,16512761754,/g3t1_2,,success
Status,1115,16562204382,/g3t1_1,,running
Status,1116,16562260509,/g3t1_1,,success
Status,1117,16562606243,/g3t1_3,,running
Status,1118,16562656972,/g3t1_3,,success
Status,1119,16563474417,/g3t1_2,,running
Status,1120,16563845124,/g3t1_2,,fail
Status,1121,16598384899,/g4t1,,success
Status,1122,16611626179,/g3t1_1,,running
Status,1123,16611784059,/g3t1_1,,success
Status,1124,16611981920,/g3t1_3,,running
Status,1125,16612097189,/g3t1_3,,success
Status,1126,16612790768,/g3t1_2,,running
Status,1127,16612900559,/g3t1_2,,fail
Status,1128,16661780149,/g3t1_1,,running
Status,1129,16661821591,/g3t1_1,,fail
Status,1130,16661972493,/g3t1_3,,running
Status,1131,16662156225,/g3t1_3,,success
Status,1132,16662810990,/g3t1_2,,running
Status,1133,16662948270,/g3t1_2,,fail
Status,1134,16697757635,/g4t1,,success
Status,1135,16711821635,/g3t1_1,,running
Status,1136,16711977735,/g3t1_1,,success
Status,1137,16712007285,/g3t1_3,,running
Status,1138,16712188602,/g3t1_3,,success
Status,1139,16712925105,/g3t1_2,,running
Status,1140,16712945278,/g3t1_2,,fail
Status,1144,16761886815,/g3t1_1,,running
Status,1145,16762038796,/g3t1_1,,fail
Status,1146,16762078188,/g3t1_3,,running
Status,1147,16762360627,/g3t1_3,,success
Status,1148,16763518176,/g3t1_2,,running
Status,1149,16763568384,/g3t1_2,,fail
Status,1150,16797915513,/g4t1,,fail
Status,1151,16811958158,/g3t1_1,,running
Status,1152,16811980937,/g3t1_1,,fail
Status,1153,16812075416,/g3t1_3,,running
Status,1154,16812183433,/g3t1_3,,success
Status,1155,16812939212,/g3t1_2,,running
Status,1156,16813010375,/g3t1_2,,fail
Status,1157,16862056074,/g3t1_1,,running
Status,1158,16862079065,/g3t1_1,,fail
Status,1159,16862188645,/g3t1_3,,running
Status,1160,16862282744,/g3t1_3,,success
Status,1161,16863012633,/g3t1_2,,running
Status,1162,16863125909,/g3t1_2,,fail
Status,1163,16897910597,/g4t1,,fail
Status,1164,16912090765,/g3t1_1,,running
Status,1165,16912230381,/g3t1_3,,running
Status,1166,16912252513,/g3t1_1,,fail
Status,1167,16912448790,/g3t1_3,,success
Status,1168,16913141101,/g3t1_2,,running
Status,1169,16913161469,/g3t1_2,,fail
Status,1173,16962390833,/g3t1_1,,running
Status,1174,16962411850,/g3t1_1,,fail
Status,1175,16962432465,/g3t1_3,,running
Status,1176,16962528291,/g3t1_3,,fail
Status,1177,16963207209,/g3t1_2,,running
Status,1178,16963221830,/g3t1_2,,fail
Status,1179,16998175422,/g4t1,,success
Status,1180,17012425177,/g3t1_1,,running
Status,1181,17012551139,/g3t1_1,,fail
Status,1182,17012575579,/g3t1_3,,running
Status,1183,17012651967,/g3t1_3,,fail
Status,1184,17013258419,/g3t1_2,,running
Status,1185,17013351609,/g3t1_2,,fail
Status,1186,17062824449,/g3t1_1,,running
Status,1187,17062885662,/g3t1_3,,running
Status,1188,17063153869,/g3t1_1,,fail
Status,1189,17063234641,/g3t1_3,,success
Status,1190,17064039961,/g3t1_2,,running
Status,1191,17064118839,/g3t1_2,,fail
Status,1192,17099078576,/g4t1,,success
Status,1193,17113779367,/g3t1_1,,running
Status,1194,17113885058,/g3t1_3,,running
Status,1195,17113998803,/g3t1_1,,fail
Status,1196,17114449466,/g3t1_3,,success
Status,1197,17114552298,/g3t1_2,,running
Status,1198,17114582780,/g3t1_2,,fail
Status,1202,17162928670,/g3t1_1,,running
Status,1203,17162959290,/g3t1_3,,running
Status,1204,17163032903,/g3t1_1,,success
Status,1205,17163135454,/g3t1_3,,success
Status,1206,17163558249,/g3t1_2,,running
Status,1207,17163679742,/g3t1_2,,fail
Status,1208,17198540640,/g4t1,,fail
Status,1209,17213427487,/g3t1_1,,running
Status,1210,17213508941,/g3t1_3,,running
Status,1211,17213655950,/g3t1_1,,success
Status,1212,17213692620,/g3t1_3,,fail
Status,1213,17214323767,/g3t1_2,,running
Status,1214,17214421175,/g3t1_2,,fail
Status,1215,17263546177,/g3t1_1,,running
Status,1216,17263656842,/g3t1_3,,running
Status,1217,17263914460,/g3t1_1,,success
Status,1218,17264811604,/g3t1_3,,success
Status,1219,17264977470,/g3t1_2,,running
Status,1220,17265018200,/g3t1_2,,fail
Status,1221,17299529335,/g4t1,,success
Status,1222,17313418360,/g3t1_1,,running
Status,1223,17313499155,/g3t1_3,,running
Status,1224,17313708804,/g3t1_1,,success
Status,1225,17313756903,/g3t1_3,,fail
Status,1226,17314365647,/g3t1_2,,running
Status,1227,17315128901,/g3t1_2,,success
Status,1231,17363187236,/g3t1_1,,running
Status,1232,17363291882,/g3t1_3,,running
Status,1233,17363389492,/g3t1_1,,fail
Status,1234,17363451667,/g3t1_3,,success
Status,1235,17364098069,/g3t1_2,,running
Status,1236,17364386269,/g3t1_2,,fail
Status,1237,17398786674,/g4t1,,success
Status,1238,17413648088,/g3t1_1,,running
Status,1239,17413770808,/g3t1_3,,running
Status,1240,17413986653,/g3t1_1,,fail
Status,1241,17414169066,/g3t1_3,,fail
Status,1242,17414957729,/g3t1_2,,running
Status,1243,17415430643,/g3t1_2,,fail
Status,1244,17463961974,/g3t1_1,,running
Status,1245,17464079847,/g3t1_3,,running
Status,1246,17464649378,/g3t1_1,,fail
Status,1247,17464733092,/g3t1_3,,success
Status,1248,17464763133,/g3t1_2,,running
Status,1249,17465863196,/g3t1_2,,fail
Status,1250,17499960799,/g4t1,,success
Status,1251,17513929849,/g3t1_1,,running
Status,1252,17514035963,/g3t1_3,,running
Status,1253,17514071249,/g3t1_1,,fail
Status,1254,17514365645,/g3t1_3,,success
Status,1255,17514734843,/g3t1_2,,running
Status,1256,17515615197,/g3t1_2,,fail
Status,1260,17563858959,/g3t1_1,,running
Status,1261,17564282328,/g3t1_3,,running
Status,1262,17564451991,/g3t1_1,,fail
Status,1263,17564925595,/g3t1_3,,fail
Status,1264,17565737171,/g3t1_2,,running
Status,1265,17565804322,/g3t1_2,,success
Status,1266,17599707842,/g4t1,,success
Status,1267,17613779331,/g3t1_1,,running
Status,1268,17613844895,/g3t1_1,,fail
Status,1269,17614201365,/g3t1_3,,running
Status,1270,17614261653,/g3t1_3,,fail
Status,1271,17615262054,/g3t1_2,,running
Status,1272,17615459434,/g3t1_2,,fail
Status,1273,17663937737,/g3t1_1,,running
Status,1274,17664017204,/g3t1_1,,fail
Status,1275,17664860789,/g3t1_3,,running
Status,1276,17664945863,/g3t1_3,,success
Status,1277,17665216936,/g3t1_2,,running
Status,1278,17665741249,/g3t1_2,,fail
Status,1279,17699089834,/g4t1,,success
Status,1280,17714684814,/g3t1_1,,running
Status,1281,17714815399,/g3t1_3,,running
Status,1282,17715324129,/g3t1_1,,fail
Status,1283,17715389552,/g3t1_3,,fail
Status,1284,17715619654,/g3t1_2,,running
Status,1285,17715935176,/g3t1_2,,success
Status,1289,17764863937,/g3t1_1,,running
Status,1290,17764953203,/g3t1_1,,success
Status,1291,17765007928,/g3t1_3,,running
Status,1292,17766216561,/g3t1_2,,running
Status,1293,17766318132,/g3t1_3,,success
Status,1294,17767562292,/g3t1_2,,success
Status,1295,17799211950,/g4t1,,success
Status,1296,17814651049,/g3t1_1,,running
Status,1297,17814722154,/g3t1_1,,fail
Status,1298,17814823694,/g3t1_3,,running
Status,1299,17814873008,/g3t1_3,,fail
Status,1300,17815470027,/g3t1_2,,running
Status,1301,17815845357,/g3t1_2,,success
Status,1302,17864003933,/g3t1_1,,running
Status,1303,17864179171,/g3t1_1,,success
Status,1304,17864202088,/g3t1_3,,running
Status,1305,17864391727,/g3t1_3,,fail
Status,1306,17864903879,/g3t1_2,,running
Status,1307,17865083434,/g3t1_2,,success
Status,1308,17899275290,/g4t1,,success
Status,1309,17915213512,/g3t1_1,,running
Status,1310,17915416883,/g3t1_1,,success
Status,1311,17915475967,/g3t1_3,,running
Status,1312,17915497231,/g3t1_3,,fail
Status,1313,17915524680,/g3t1_2,,running
Status,1314,17915854367,/g3t1_2,,success
Status,1318,17964199108,/g3t1_1,,running
Status,1319,17964240878,/g3t1_1,,fail
Status,1320,17964646882,/g3t1_3,,running
Status,1321,17964665240,/g3t1_3,,fail
Status,1322,17965139763,/g3t1_2,,running
Status,1323,17965249477,/g3t1_2,,fail
Status,1324,17999272557,/g4t1,,success
Status,1325,18014969998,/g3t1_1,,running
Status,1326,18015029467,/g3t1_1,,fail
Status,1327,18015042671,/g3t1_3,,running
Status,1328,18015328862,/g3t1_2,,running
Status,1329,18015350551,/g3t1_3,,fail
Status,1330,18015381441,/g3t1_2,,fail
Status,1331,18064322878,/g3t1_1,,running
Status,1332,18064343732,/g3t1_1,,fail
Status,1333,18064794329,/g3t1_3,,running
Status,1334,18064811600,/g3t1_3,,fail
Status,1335,18065287908,/g3t1_2,,running
Status,1336,18065301431,/g3t1_2,,fail
Status,1337,18099886153,/g4t1,,success
Status,1338,18115231253,/g3t1_1,,running
Status,1339,18115304457,/g3t1_1,,fail
Status,1340,18115589115,/g3t1_3,,running
Status,1341,18116096063,/g3t1_3,,fail
Status,1342,18116173257,/g3t1_2,,running
Status,1343,18116252705,/g3t1_2,,fail
Status,1347,18164978203,/g3t1_1,,running
Status,1348,18165047001,/g3t1_1,,fail
Status,1349,18165503750,/g3t1_3,,running
Status,1350,18165979460,/g3t1_3,,success
Status,1351,18166032791,/g3t1_2,,running
Status,1352,18166488110,/g3t1_2,,success
Status,1353,18200000160,/g4t1,,success
Status,1354,18214956685,/g3t1_1,,running
Status,1355,18215016150,/g3t1_1,,fail
Status,1356,18215568942,/g3t1_3,,running
Status,1357,18215882897,/g3t1_3,,success
Status,1358,18215966165,/g3t1_2,,running
Status,1359,18216244566,/g3t1_2,,fail
Status,1360,18265506026,/g3t1_1,,running
Status,1361,18265634147,/g3t1_3,,running
Status,1362,18266257592,/g3t1_1,,fail
Status,1363,18266356131,/g3t1_2,,running
Status,1364,18266479593,/g3t1_3,,success
Status,1365,18266822444,/g3t1_2,,fail
Status,1366,18300427945,/g4t1,,success
Status,1367,18315832821,/g3t1_1,,running
Status,1368,18316003595,/g3t1_3,,running
Status,1369,18316564337,/g3t1_1,,fail
Status,1370,18316712585,/g3t1_3,,success
Status,1371,18316836714,/g3t1_2,,running
Status,1372,18317254373,/g3t1_2,,success
Status,1376,18365486500,/g3t1_1,,running
Status,1377,18365610469,/g3t1_1,,fail
Status,1378,18365981667,/g3t1_3,,running
Status,1379,18366125789,/g3t1_3,,fail
Status,1380,18366527452,/g3t1_2,,running
Status,1381,18366971009,/g3t1_2,,fail
Status,1382,18400219335,/g4t1,,success
Status,1383,18415857320,/g3t1_1,,running
Status,1384,18415961553,/g3t1_3,,running
Status,1385,18417089241,/g3t1_1,,fail
Status,1386,18417153787,/g3t1_3,,fail
Status,1387,18417183477,/g3t1_2,,running
Status,1388,18417381333,/g3t1_2,,fail
Status,1389,18465539472,/g3t1_1,,running
Status,1390,18465803323,/g3t1_3,,running
Status,1391,18465971598,/g3t1_1,,success
Status,1392,18465996653,/g3t1_3,,success
Status,1393,18466646547,/g3t1_2,,running
Status,1394,18466901376,/g3t1_2,,fail
Status,1395,18499985747,/g4t1,,success
Status,1396,18516199814,/g3t1_1,,running
Status,1397,18516280808,/g3t1_3,,running
Status,1398,18516473139,/g3t1_3,,fail
Status,1399,18516914540,/g3t1_1,,success
Status,1400,18517136259,/g3t1_2,,running
Status,1401,18517464152,/g3t1_2,,fail
Status,1405,18565893698,/g3t1_1,,running
Status,1406,18566182800,/g3t1_1,,fail
Status,1407,18566252935,/g3t1_3,,running
Status,1408,18566479177,/g3t1_3,,success
Status,1409,18567081257,/g3t1_2,,running
Status,1410,18567107176,/g3t1_2,,fail
Status,1411,18599980346,/g4t1,,success
Status,1412,18615612347,/g3t1_1,,running
Status,1413,18615641688,/g3t1_1,,fail
Status,1414,18615928853,/g3t1_3,,running
Status,1415,18615972617,/g3t1_3,,fail
Status,1416,18616526961,/g3t1_2,,running
Status,1417,18616627508,/g3t1_2,,fail
Status,1418,18665825058,/g3t1_1,,running
Status,1419,18665869166,/g3t1_1,,fail
Status,1420,18666038458,/g3t1_3,,running
Status,1421,18666165605,/g3t1_3,,fail
Status,1422,18666632537,/g3t1_2,,running
Status,1423,18666812051,/g3t1_2,,fail
Status,1424,18699900688,/g4t1,,success
Status,1425,18715702653,/g3t1_1,,running
Status,1426,18715733146,/g3t1_1,,fail
Status,1427,18715963003,/g3t1_3,,running
Status,1428,18716227410,/g3t1_3,,fail
Status,1429,18716809737,/g3t1_2,,running
Status,1430,18716836573,/g3t1_2,,fail
Status,1434,18765891285,/g3t1_1,,running
Status,1435,18765925554,/g3t1_1,,fail
Status,1436,18766228687,/g3t1_3,,running
Status,1437,18766440683,/g3t1_3,,success
Status,1438,18766959637,/g3t1_2,,running
Status,1439,18767117063,/g3t1_2,,fail
Status,1440,18800146178,/g4t1,,success
Status,1441,18815910914,/g3t1_1,,running
Status,1442,18815944733,/g3t1_1,,fail
Status,1443,18816325241,/g3t1_3,,running
Status,1444,18816356459,/g3t1_3,,fail
Status,1445,18816901921,/g3t1_2,,running
Status,1446,18817027630,/g3t1_2,,fail
Status,1447,18866044106,/g3t1_1,,running
Status,1448,18866229237,/g3t1_1,,fail
Status,1449,18866364013,/g3t1_3,,running
Status,1450,18866633001,/g3t1_3,,fail
Status,1451,18867326931,/g3t1_2,,running
Status,1452,18867431067,/g3t1_2,,fail
Status,1453,18900104314,/g4t1,,success
Status,1454,18916761358,/g3t1_1,,running
Status,1455,18916843019,/g3t1_3,,running
Status,1456,18916991602,/g3t1_1,,fail
Status,1457,18918056398,/g3t1_2,,running
Status,1458,18918098761,/g3t1_2,,fail
Status,1459,18918141505,/g3t1_3,,success
Status,1463,18966283395,/g3t1_1,,running
Status,1464,18966323190,/g3t1_1,,fail
Status,1465,18966609244,/g3t1_3,,running
Status,1466,18966827810,/g3t1_3,,fail
Status,1467,18967306106,/g3t1_2,,running
Status,1468,18967426387,/g3t1_2,,fail
Status,1469,19001018358,/g4t1,,success
Status,1470,19017040443,/g3t1_1,,running
Status,1471,19017588459,/g3t1_3,,running
Status,1472,19017664083,/g3t1_1,,fail
Status,1473,19018074808,/g3t1_3,,fail
Status,1474,19018201371,/g3t1_2,,running
Status,1475,19018464631,/g3t1_2,,fail
Status,1476,19067234779,/g3t1_1,,running
Status,1477,19067596079,/g3t1_3,,running
Status,1478,19067743791,/g3t1_1,,fail
Status,1479,19068127769,/g3t1_2,,running
Status,1480,19068269732,/g3t1_3,,fail
Status,1481,19068732634,/g3t1_2,,fail
Status,1482,19101019943,/g4t1,,success
Status,1483,19117410308,/g3t1_1,,running
Status,1484,19117518207,/g3t1_1,,fail
Status,1485,19117643702,/g3t1_3,,running
Status,1486,19118143916,/g3t1_3,,fail
Status,1487,19118214613,/g3t1_2,,running
Status,1488,19119183880,/g3t1_2,,fail
Status,1492,19167783537,/g3t1_1,,running
Status,1493,19167892834,/g3t1_3,,running
Status,1494,19168019962,/g3t1_1,,fail
Status,1495,19168382365,/g3t1_3,,fail
Status,1496,19168575191,/g3t1_2,,running
Status,1497,19168735970,/g3t1_2,,fail
Status,1498,19201197011,/g4t1,,success
Status,1499,19217446109,/g3t1_1,,running
Status,1500,19217615702,/g3t1_1,,fail
Status,1501,19217663888,/g3t1_3,,running
Status,1502,19218258049,/g3t1_3,,fail
Status,1503,19218546397,/g3t1_2,,running
Status,1504,19218604438,/g3t1_2,,fail
Status,1505,19268138444,/g3t1_1,,running
Status,1506,19268534077,/g3t1_3,,running
Status,1507,19268636388,/g3t1_1,,fail
Status,1508,19268774101,/g3t1_3,,fail
Status,1509,19268807416,/g3t1_2,,running
Status,1510,19268824674,/g3t1_2,,fail
Status,1511,19301452435,/g4t1,,success
Status,1512,19317980402,/g3t1_1,,running
Status,1513,19318148528,/g3t1_1,,fail
Status,1514,19318315860,/g3t1_3,,running
Status,1515,19318565305,/g3t1_3,,fail
Status,1516,19318640070,/g3t1_2,,running
Status,1517,19319110717,/g3t1_2,,success
Status,1521,19367982222,/g3t1_1,,running
Status,1522,19368059425,/g3t1_3,,running
Status,1523,19368086030,/g3t1_1,,fail
Status,1524,19368541550,/g3t1_3,,fail
Status,1525,19368606996,/g3t1_2,,running
Status,1526,19369052712,/g3t1_2,,fail
Status,1527,19401233471,/g4t1,,success
Status,1528,19418492681,/g3t1_1,,running
Status,1529,19418673303,/g3t1_3,,running
Status,1530,19418910390,/g3t1_3,,success
Status,1531,19418953366,/g3t1_1,,success
Status,1532,19419342841,/g3t1_2,,running
Status,1533,19419417312,/g3t1_2,,fail
Status,1534,19468272979,/g3t1_1,,running
Status,1535,19468406183,/g3t1_3,,running
Status,1536,19468834943,/g3t1_1,,fail
Status,1537,19469289088,/g3t1_2,,running
Status,1538,19469451962,/g3t1_3,,success
Status,1539,19469496110,/g3t1_2,,fail
Status,1540,19501947037,/g4t1,,success
Status,1541,19518323027,/g3t1_1,,running
Status,1542,19518396831,/g3t1_3,,running
Status,1543,19518446022,/g3t1_1,,fail
Status,1544,19518644562,/g3t1_3,,fail
Status,1545,19519434805,/g3t1_2,,running
Status,1546,19519524922,/g3t1_2,,fail
Status,1547,19568378884,/g3t1_1,,running
Status,1548,19568476084,/g3t1_3,,running
Status,1549,19569023598,/g3t1_1,,fail
Status,1550,19569098458,/g3t1_3,,fail
Status,1551,19569167483,/g3t1_2,,running
Status,1552,19570256765,/g3t1_2,,fail
Status,1553,19602004515,/g4t1,,success
Status,1554,19618497218,/g3t1_1,,running
Status,1555,19618596998,/g3t1_3,,running
Status,1556,19618724135,/g3t1_1,,fail
Status,1557,19619277021,/g3t1_3,,success
Status,1558,19619369642,/g3t1_2,,running
Status,1559,19620282405,/g3t1_2,,fail
Status,1560,19668854494,/g3t1_1,,running
Status,1561,19668938044,/g3t1_3,,running
Status,1562,19669185307,/g3t1_1,,fail
Status,1563,19669467451,/g3t1_3,,success
Status,1564,19669593601,/g3t1_2,,running
Status,1565,19670099678,/g3t1_2,,fail
Status,1566,19701879597,/g4t1,,success
Status,1567,19719298598,/g3t1_1,,running
Status,1568,19719460231,/g3t1_3,,running
Status,1569,19719516788,/g3t1_3,,fail
Status,1570,19719637971,/g3t1_1,,success
Status,1571,19719669462,/g3t1_2,,running
Status,1572,19719968364,/g3t1_2,,fail
Status,1573,19768807580,/g3t1_1,,running
Status,1574,19769287032,/g3t1_3,,running
Status,1575,19769409588,/g3t1_1,,success
Status,1576,19769446962,/g3t1_3,,fail
Status,1577,19769733056,/g3t1_2,,running
Status,1578,19770197868,/g3t1_2,,fail
Status,1579,19802123814,/g4t1,,success
Status,1580,19819111305,/g3t1_1,,running
Status,1581,19819216596,/g3t1_3,,running
Status,1582,19819796282,/g3t1_1,,success
Status,1583,19820297992,/g3t1_3,,success
Status,1584,19820387259,/g3t1_2,,running
Status,1585,19820417026,/g3t1_2,,fail
Status,1586,19869320534,/g3t1_3,,running
Status,1587,19869459128,/g3t1_1,,running
Status,1588,19869505011,/g3t1_3,,fail
Status,1589,19869698363,/g3t1_1,,fail
Status,1590,19870253975,/g3t1_2,,running
Status,1591,19871055775,/g3t1_2,,fail
Status,1592,19902085343,/g4t1,,success
Status,1593,19919568018,/g3t1_1,,running
Status,1594,19919749148,/g3t1_3,,running
Status,1595,19919866926,/g3t1_1,,fail
Status,1596,19920156287,/g3t1_3,,success
Status,1597,19920237982,/g3t1_2,,running
Status,1598,19920514814,/g3t1_2,,fail
Status,1599,19969591387,/g3t1_1,,running
Status,1600,19969744407,/g3t1_3,,running
Status,1601,19970279700,/g3t1_1,,fail
Status,1602,19970361614,/g3t1_3,,success
Status,1603,19970399902,/g3t1_2,,running
Status,1604,19970852231,/g3t1_2,,fail
Status,1605,20002481661,/g4t1,,success
Status,1606,20019904923,/g3t1_1,,running
Status,1607,20020019957,/g3t1_3,,running
Status,1608,20020547931,/g3t1_3,,fail
Status,1609,20020664265,/g3t1_1,,fail
Status,1610,20020706330,/g3t1_2,,running
Status,1611,20020794570,/g3t1_2,,fail
Status,1612,20069717018,/g3t1_1,,running
Status,1613,20069810262,/g3t1_3,,running
Status,1614,20069951130,/g3t1_3,,fail
Status,1615,20070029049,/g3t1_1,,fail
Status,1616,20070577522,/g3t1_2,,running
Status,1617,20071025287,/g3t1_2,,fail
Status,1618,20102282773,/g4t1,,success
Status,1619,20119964362,/g3t1_1,,running
Status,1620,20120155464,/g3t1_3,,running
Status,1621,20120310003,/g3t1_3,,success
Status,1622,20120347608,/g3t1_1,,success
Status,1623,20120766002,/g3t1_2,,running
Status,1624,20121535088,/g3t1_2,,fail
Status,1625,20169350476,/g3t1_1,,running
Status,1626,20169387597,/g3t1_3,,running
Status,1627,20169457885,/g3t1_3,,fail
Status,1628,20169537729,/g3t1_1,,fail
Status,1629,20170269655,/g3t1_2,,running
Status,1630,20170430258,/g3t1_2,,fail
Status,1631,20201778004,/g4t1,,success
Status,1632,20219232611,/g3t1_3,,running
Status,1633,20219281632,/g3t1_1,,running
Status,1634,20219291894,/g3t1_1,,fail
Status,1635,20219299658,/g3t1_3,,success
Status,1636,20220283706,/g3t1_2,,running
Status,1637,20220301617,/g3t1_2,,fail
Status,1638,20269610507,/g3t1_1,,running
Status,1639,20269647380,/g3t1_3,,running
Status,1640,20269691666,/g3t1_1,,fail
Status,1641,20269707781,/g3t1_3,,fail
Status,1642,20270419071,/g3t1_2,,running
Status,1643,20270473040,/g3t1_2,,fail
Status,1644,20302057175,/g4t1,,success
Status,1645,20320130489,/g3t1_1,,running
Status,1646,20320185863,/g3t1_3,,running
Status,1647,20320198828,/g3t1_1,,fail
Status,1648,20320216212,/g3t1_3,,success
Status,1649,20320840740,/g3t1_2,,running
Status,1650,20320973556,/g3t1_2,,fail
Status,1654,20369685048,/g3t1_1,,running
Status,1655,20369729739,/g3t1_3,,running
Status,1656,20369761089,/g3t1_3,,fail
Status,1657,20369773178,/g3t1_1,,fail
Status,1658,20370427922,/g3t1_2,,running
Status,1659,20370529558,/g3t1_2,,fail
Status,1660,20402526321,/g4t1,,success
Status,1661,20420062654,/g3t1_1,,running
Status,1662,20420109896,/g3t1_3,,running
Status,1663,20420134930,/g3t1_3,,fail
Status,1664,20420168597,/g3t1_1,,fail
Status,1665,20421055147,/g3t1_2,,running
Status,1666,20421081263,/g3t1_2,,fail
Status,1667,20470294372,/g3t1_1,,running
Status,1668,20470409241,/g3t1_3,,running
Status,1669,20470590281,/g3t1_1,,fail
Status,1670,20470620171,/g3t1_3,,fail
Status,1671,20471507771,/g3t1_2,,running
Status,1672,20472645664,/g3t1_2,,fail
Status,1673,20503315617,/g4t1,,success
Status,1674,20520827924,/g3t1_3,,running
Status,1675,20520955335,/g3t1_3,,fail
Status,1676,20521077988,/g3t1_1,,running
Status,1677,20521112742,/g3t1_1,,fail
