
Status,2,3508642539,/g4t1,,init
Status,3,8627940776,/g3t1_1,,init
Status,5,8636055334,/g3t1_1,,init
Status,6,8636067934,/g3t1_1,,running
Status,7,8636560236,/g3t1_1,,success
Status,8,8686314849,/g3t1_1,,running
Status,9,8686401389,/g3t1_1,,success
Status,10,8728321971,/g3t1_3,,init
Status,13,8728529447,/g3t1_2,,init
Status,14,8736300252,/g3t1_1,,running
Status,15,8736444403,/g3t1_1,,success
Status,16,8739944316,/g3t1_2,,init
Status,17,8739959808,/g3t1_2,,running
Status,18,8740411233,/g3t1_3,,init
Status,19,8740423312,/g3t1_3,,running
Status,20,8740548567,/g3t1_2,,success
Status,21,8740872919,/g3t1_3,,success
Status,22,8786746160,/g3t1_1,,running
Status,23,8786952561,/g3t1_1,,success
Status,24,8790414132,/g3t1_2,,running
Status,25,8790525216,/g3t1_2,,success
Status,26,8790746353,/g3t1_3,,running
Status,27,8791067740,/g3t1_3,,success
Status,28,8837391422,/g3t1_1,,running
Status,29,8837770861,/g3t1_1,,success
Status,30,8840597422,/g3t1_2,,running
Status,31,8841259474,/g3t1_3,,running
Status,32,8841395422,/g3t1_2,,success
Status,33,8841813825,/g3t1_3,,success
Status,34,8887298807,/g3t1_1,,running
Status,35,8887718278,/g3t1_1,,success
Status,36,8890840052,/g3t1_2,,running
Status,37,8891297264,/g3t1_2,,success
Status,38,8891394618,/g3t1_3,,running
Status,39,8892259783,/g3t1_3,,success
Status,43,8927207393,/g4t1,,success
Status,44,8937583521,/g3t1_1,,running
Status,45,8938011320,/g3t1_1,,fail
Status,46,8940978979,/g3t1_2,,running
Status,47,8941532841,/g3t1_3,,running
Status,48,8941585193,/g3t1_2,,success
Status,49,8942159486,/g3t1_3,,success
Status,50,8987654961,/g3t1_1,,running
Status,51,8987731459,/g3t1_1,,fail
Status,52,8991213888,/g3t1_2,,running
Status,53,8991617307,/g3t1_2,,success
Status,54,8991699806,/g3t1_3,,running
Status,55,8992512822,/g3t1_3,,success
Status,56,9027611370,/g4t1,,success
Status,57,9037719187,/g3t1_1,,running
Status,58,9037787007,/g3t1_1,,fail
Status,59,9041174917,/g3t1_2,,running
Status,60,9041825836,/g3t1_2,,success
Status,61,9041900548,/g3t1_3,,running
Status,62,9042927280,/g3t1_3,,success
Status,63,9088332378,/g3t1_1,,running
Status,64,9088392885,/g3t1_1,,success
Status,65,9091283786,/g3t1_2,,running
Status,66,9091876401,/g3t1_3,,running
Status,67,9091943333,/g3t1_2,,success
Status,68,9092646529,/g3t1_3,,success
Status,72,9127386364,/g4t1,,success
Status,73,9138163369,/g3t1_1,,running
Status,74,9138227863,/g3t1_1,,fail
Status,75,9141696803,/g3t1_2,,running
Status,76,9142202730,/g3t1_2,,fail
Status,77,9142312195,/g3t1_3,,running
Status,78,9142653919,/g3t1_3,,success
Status,79,9188957006,/g3t1_1,,running
Status,80,9189041253,/g3t1_1,,success
Status,81,9191521281,/g3t1_2,,running
Status,82,9191626614,/g3t1_2,,fail
Status,83,9192003653,/g3t1_3,,running
Status,84,9192333870,/g3t1_3,,fail
Status,85,9227512368,/g4t1,,success
Status,86,9238419036,/g3t1_1,,running
Status,87,9238476697,/g3t1_1,,fail
Status,88,9241909189,/g3t1_2,,running
Status,89,9242023797,/g3t1_2,,fail
Status,90,9242358716,/g3t1_3,,running
Status,91,9242423363,/g3t1_3,,fail
Status,92,9288258325,/g3t1_1,,running
Status,93,9288540797,/g3t1_1,,success
Status,94,9291513071,/g3t1_2,,running
Status,95,9291784204,/g3t1_2,,fail
Status,96,9292085671,/g3t1_3,,running
Status,97,9292131932,/g3t1_3,,fail
Status,101,9327701341,/g4t1,,success
Status,102,9338773238,/g3t1_1,,running
Status,103,9339173267,/g3t1_1,,fail
Status,104,9341978366,/g3t1_2,,running
Status,105,9342577536,/g3t1_3,,running
Status,106,9342683143,/g3t1_2,,success
Status,107,9342726707,/g3t1_3,,fail
Status,108,9388901682,/g3t1_1,,running
Status,109,9389327493,/g3t1_1,,fail
Status,110,9392324562,/g3t1_2,,running
Status,111,9392411593,/g3t1_3,,running
Status,112,9392521378,/g3t1_2,,success
Status,113,9393064034,/g3t1_3,,fail
Status,114,9426977245,/g4t1,,success
Status,115,9438507595,/g3t1_1,,running
Status,116,9438536045,/g3t1_1,,fail
Status,117,9441667279,/g3t1_2,,running
Status,118,9441763218,/g3t1_2,,success
Status,119,9442025299,/g3t1_3,,running
Status,120,9442048847,/g3t1_3,,fail
Status,121,9489340794,/g3t1_1,,running
Status,122,9489687792,/g3t1_1,,fail
Status,123,9492967657,/g3t1_2,,running
Status,124,9493152929,/g3t1_2,,success
Status,125,9493204853,/g3t1_3,,running
Status,126,9493614003,/g3t1_3,,fail
Status,130,9528114969,/g4t1,,success
Status,131,9539236093,/g3t1_1,,running
Status,132,9539308891,/g3t1_1,,fail
Status,133,9542435550,/g3t1_2,,running
Status,134,9542854984,/g3t1_3,,running
Status,135,9542930739,/g3t1_2,,success
Status,136,9543013395,/g3t1_3,,fail
Status,137,9589342804,/g3t1_1,,running
Status,138,9589386201,/g3t1_1,,fail
Status,139,9592177118,/g3t1_2,,running
Status,140,9592309595,/g3t1_3,,running
Status,141,9592335734,/g3t1_2,,success
Status,142,9592489400,/g3t1_3,,fail
Status,143,9627685907,/g4t1,,success
Status,144,9639073371,/g3t1_1,,running
Status,145,9639217641,/g3t1_1,,fail
Status,146,9642248986,/g3t1_2,,running
Status,147,9642304039,/g3t1_3,,running
Status,148,9642493650,/g3t1_3,,fail
Status,149,9642513911,/g3t1_2,,success
Status,150,9689631227,/g3t1_1,,running
Status,151,9689673035,/g3t1_1,,fail
Status,152,9692356147,/g3t1_2,,running
Status,153,9692798440,/g3t1_3,,running
Status,154,9692865043,/g3t1_3,,fail
Status,155,9692895052,/g3t1_2,,success
Status,159,9727719831,/g4t1,,fail
Status,160,9739643436,/g3t1_1,,running
Status,161,9739693102,/g3t1_1,,fail
Status,162,9743112385,/g3t1_2,,running
Status,163,9743175049,/g3t1_2,,fail
Status,164,9743235524,/g3t1_3,,running
Status,165,9743255716,/g3t1_3,,fail
Status,166,9790192599,/g3t1_1,,running
Status,167,9790291026,/g3t1_1,,fail
Status,168,9793111215,/g3t1_2,,running
Status,169,9793220812,/g3t1_3,,running
Status,170,9793264846,/g3t1_2,,fail
Status,171,9794042416,/g3t1_3,,fail
Status,172,9828970496,/g4t1,,success
Status,173,9840173709,/g3t1_1,,running
Status,174,9840246615,/g3t1_1,,fail
Status,175,9843297597,/g3t1_2,,running
Status,176,9843400411,/g3t1_3,,running
Status,177,9843677050,/g3t1_3,,fail
Status,178,9843947251,/g3t1_2,,success
Status,179,9890486018,/g3t1_1,,running
Status,180,9891208210,/g3t1_1,,success
Status,181,9893384739,/g3t1_2,,running
Status,182,9893478638,/g3t1_3,,running
Status,183,9893593186,/g3t1_2,,fail
Status,184,9894088634,/g3t1_3,,fail
Status,188,9928364409,/g4t1,,success
Status,189,9940588495,/g3t1_1,,running
Status,190,9940660457,/g3t1_1,,fail
Status,191,9943613720,/g3t1_2,,running
Status,192,9943698232,/g3t1_3,,running
Status,193,9944245224,/g3t1_2,,fail
Status,194,9944448445,/g3t1_3,,fail
Status,195,9990451806,/g3t1_1,,running
Status,196,9990741012,/g3t1_1,,fail
Status,197,9993435171,/g3t1_2,,running
Status,198,9994003426,/g3t1_2,,fail
Status,199,9994050984,/g3t1_3,,running
Status,200,9994079158,/g3t1_3,,fail
Status,201,10028399727,/g4t1,,success
Status,202,10040364007,/g3t1_1,,running
Status,203,10040412270,/g3t1_1,,fail
Status,204,10043129661,/g3t1_2,,running
Status,205,10043167581,/g3t1_2,,fail
Status,206,10043383838,/g3t1_3,,running
Status,207,10043506332,/g3t1_3,,fail
Status,208,10090364927,/g3t1_1,,running
Status,209,10090392555,/g3t1_1,,fail
Status,210,10093267380,/g3t1_2,,running
Status,211,10093304128,/g3t1_2,,fail
Status,212,10093335519,/g3t1_3,,running
Status,213,10093497619,/g3t1_3,,fail
Status,217,10127901059,/g4t1,,success
Status,218,10140286685,/g3t1_1,,running
Status,219,10140314301,/g3t1_1,,fail
Status,220,10143277391,/g3t1_2,,running
Status,221,10143316108,/g3t1_2,,fail
Status,222,10143442528,/g3t1_3,,running
Status,223,10143470967,/g3t1_3,,fail
Status,224,10190567088,/g3t1_1,,running
Status,225,10190602631,/g3t1_1,,fail
Status,226,10193169619,/g3t1_2,,running
Status,227,10193297365,/g3t1_2,,fail
Status,228,10193552941,/g3t1_3,,running
Status,229,10193571278,/g3t1_3,,fail
Status,230,10228159720,/g4t1,,success
Status,231,10240506838,/g3t1_1,,running
Status,232,10240530421,/g3t1_1,,fail
Status,233,10243274705,/g3t1_2,,running
Status,234,10243299583,/g3t1_2,,fail
Status,235,10243560979,/g3t1_3,,running
Status,236,10243671569,/g3t1_3,,fail
Status,237,10290690245,/g3t1_1,,running
Status,238,10290727441,/g3t1_1,,fail
Status,239,10294000090,/g3t1_2,,running
Status,240,10294278761,/g3t1_3,,running
Status,241,10294325412,/g3t1_2,,fail
Status,242,10294720874,/g3t1_3,,fail
Status,246,10328616010,/g4t1,,success
Status,247,10341350399,/g3t1_1,,running
Status,248,10341392832,/g3t1_1,,fail
Status,249,10344118937,/g3t1_2,,running
Status,250,10344141424,/g3t1_3,,running
Status,251,10344164103,/g3t1_2,,success
Status,252,10344172350,/g3t1_3,,fail
Status,253,10391383162,/g3t1_1,,running
Status,254,10391448866,/g3t1_1,,fail
Status,255,10394226319,/g3t1_2,,running
Status,256,10394330599,/g3t1_3,,running
Status,257,10394759870,/g3t1_2,,success
Status,258,10394840099,/g3t1_3,,fail
Status,259,10428998185,/g4t1,,success
Status,260,10440936010,/g3t1_1,,running
Status,261,10440964218,/g3t1_1,,fail
Status,262,10444540884,/g3t1_2,,running
Status,263,10444604265,/g3t1_3,,running
Status,264,10444673660,/g3t1_3,,fail
Status,265,10444694069,/g3t1_2,,success
Status,266,10490958644,/g3t1_1,,running
Status,267,10490988452,/g3t1_1,,fail
Status,268,10494256611,/g3t1_2,,running
Status,269,10494286482,/g3t1_3,,running
Status,270,10494369496,/g3t1_3,,fail
Status,271,10494486188,/g3t1_2,,success
Status,275,10529279438,/g4t1,,success
Status,276,10541902966,/g3t1_1,,running
Status,277,10542248820,/g3t1_1,,fail
Status,278,10544775550,/g3t1_2,,running
Status,279,10544903096,/g3t1_3,,running
Status,280,10545037220,/g3t1_2,,fail
Status,281,10545470631,/g3t1_3,,success
Status,282,10591429289,/g3t1_1,,running
Status,283,10591528739,/g3t1_1,,fail
Status,284,10594486391,/g3t1_2,,running
Status,285,10594567758,/g3t1_2,,success
Status,286,10594587196,/g3t1_3,,running
Status,287,10594776388,/g3t1_3,,fail
Status,288,10629455486,/g4t1,,success
Status,289,10641405070,/g3t1_1,,running
Status,290,10641542951,/g3t1_1,,fail
Status,291,10645063523,/g3t1_2,,running
Status,292,10645260067,/g3t1_3,,running
Status,293,10645285040,/g3t1_3,,success
Status,294,10645671019,/g3t1_2,,fail
Status,295,10692098518,/g3t1_1,,running
Status,296,10692176601,/g3t1_1,,fail
Status,297,10694965718,/g3t1_2,,running
Status,298,10695019714,/g3t1_2,,fail
Status,299,10695134421,/g3t1_3,,running
Status,300,10695305709,/g3t1_3,,fail
Status,304,10729138139,/g4t1,,success
Status,305,10741640254,/g3t1_1,,running
Status,306,10741668408,/g3t1_1,,fail
Status,307,10744592842,/g3t1_2,,running
Status,308,10744812967,/g3t1_3,,running
Status,309,10744880543,/g3t1_2,,fail
Status,310,10744908182,/g3t1_3,,fail
Status,311,10792439798,/g3t1_1,,running
Status,312,10792525274,/g3t1_1,,fail
Status,313,10795373256,/g3t1_2,,running
Status,314,10795448050,/g3t1_3,,running
Status,315,10795497892,/g3t1_3,,fail
Status,316,10795955069,/g3t1_2,,fail
Status,317,10829939364,/g4t1,,success
Status,318,10842578000,/g3t1_1,,running
Status,319,10842663183,/g3t1_1,,fail
Status,320,10845452607,/g3t1_2,,running
Status,321,10845546332,/g3t1_3,,running
Status,322,10846025119,/g3t1_3,,fail
Status,323,10846483083,/g3t1_2,,success
Status,324,10892294834,/g3t1_1,,running
Status,325,10892330766,/g3t1_1,,fail
Status,326,10895257118,/g3t1_2,,running
Status,327,10895303468,/g3t1_3,,running
Status,328,10895397580,/g3t1_2,,fail
Status,329,10895569279,/g3t1_3,,fail
Status,333,10929805987,/g4t1,,success
Status,334,10943018848,/g3t1_1,,running
Status,335,10943122951,/g3t1_1,,fail
Status,336,10945876586,/g3t1_2,,running
Status,337,10945931501,/g3t1_3,,running
Status,338,10946011741,/g3t1_2,,fail
Status,339,10946033783,/g3t1_3,,fail
Status,340,10993071122,/g3t1_1,,running
Status,341,10993142360,/g3t1_1,,fail
Status,342,10995760395,/g3t1_2,,running
Status,343,10995843581,/g3t1_3,,running
Status,344,10995934573,/g3t1_2,,fail
Status,345,10996396652,/g3t1_3,,fail
Status,346,11029478945,/g4t1,,success
Status,347,11042593134,/g3t1_1,,running
Status,348,11042644483,/g3t1_1,,fail
Status,349,11046067513,/g3t1_3,,running
Status,350,11046120747,/g3t1_2,,running
Status,351,11046146460,/g3t1_2,,fail
Status,352,11046248067,/g3t1_3,,fail
Status,353,11092727804,/g3t1_1,,running
Status,354,11092761679,/g3t1_1,,fail
Status,355,11095266919,/g3t1_2,,running
Status,356,11095363542,/g3t1_2,,fail
Status,357,11095393375,/g3t1_3,,running
Status,358,11095619409,/g3t1_3,,fail
Status,362,11129281127,/g4t1,,success
Status,363,11143223149,/g3t1_1,,running
Status,364,11143742850,/g3t1_1,,fail
Status,365,11145997185,/g3t1_2,,running
Status,366,11146078659,/g3t1_3,,running
Status,367,11146115437,/g3t1_2,,fail
Status,368,11146527771,/g3t1_3,,success
Status,369,11192814043,/g3t1_1,,running
Status,370,11192882980,/g3t1_1,,fail
Status,371,11195433085,/g3t1_2,,running
Status,372,11195544425,/g3t1_2,,fail
Status,373,11195581770,/g3t1_3,,running
Status,374,11195697968,/g3t1_3,,fail
Status,375,11229814024,/g4t1,,success
Status,376,11243604076,/g3t1_1,,running
Status,377,11243893285,/g3t1_1,,fail
Status,378,11246104368,/g3t1_2,,running
Status,379,11246187730,/g3t1_3,,running
Status,380,11246696247,/g3t1_3,,fail
Status,381,11246780723,/g3t1_2,,fail
Status,382,11293633228,/g3t1_1,,running
Status,383,11294153526,/g3t1_1,,fail
Status,384,11296453579,/g3t1_2,,running
Status,385,11296505657,/g3t1_3,,running
Status,386,11296703249,/g3t1_2,,fail
Status,387,11296773353,/g3t1_3,,fail
Status,391,11330109902,/g4t1,,success
Status,392,11343743305,/g3t1_1,,running
Status,393,11343913686,/g3t1_1,,fail
Status,394,11346443633,/g3t1_2,,running
Status,395,11346510102,/g3t1_2,,fail
Status,396,11346934216,/g3t1_3,,running
Status,397,11346994637,/g3t1_3,,fail
Status,398,11393801105,/g3t1_1,,running
Status,399,11393982146,/g3t1_1,,fail
Status,400,11396071836,/g3t1_2,,running
Status,401,11396152256,/g3t1_3,,running
Status,402,11396518386,/g3t1_2,,fail
Status,403,11396570753,/g3t1_3,,success
Status,404,11429772250,/g4t1,,success
Status,405,11443848194,/g3t1_1,,running
Status,406,11443895596,/g3t1_1,,fail
Status,407,11447000204,/g3t1_2,,running
Status,408,11447063173,/g3t1_3,,running
Status,409,11447080808,/g3t1_3,,fail
Status,410,11447098149,/g3t1_2,,fail
Status,411,11493899074,/g3t1_1,,running
Status,412,11493945437,/g3t1_1,,fail
Status,413,11496447038,/g3t1_2,,running
Status,414,11496488478,/g3t1_3,,running
Status,415,11496615712,/g3t1_2,,fail
Status,416,11496671877,/g3t1_3,,fail
Status,417,11529794752,/g4t1,,success
Status,418,11544007042,/g3t1_1,,running
Status,419,11544148164,/g3t1_1,,fail
Status,420,11546800776,/g3t1_2,,running
Status,421,11546886688,/g3t1_2,,fail
Status,422,11546925636,/g3t1_3,,running
Status,423,11547273089,/g3t1_3,,fail
Status,424,11594479644,/g3t1_1,,running
Status,425,11594548627,/g3t1_1,,fail
Status,426,11597070230,/g3t1_2,,running
Status,427,11597123756,/g3t1_3,,running
Status,428,11597291710,/g3t1_2,,fail
Status,429,11597670337,/g3t1_3,,fail
Status,430,11630264952,/g4t1,,success
Status,431,11644733041,/g3t1_1,,running
Status,432,11644807227,/g3t1_1,,fail
Status,433,11646983450,/g3t1_2,,running
Status,434,11647064587,/g3t1_3,,running
Status,435,11647262946,/g3t1_2,,fail
Status,436,11647595929,/g3t1_3,,success
Status,437,11694842125,/g3t1_1,,running
Status,438,11694910375,/g3t1_1,,fail
Status,439,11697160176,/g3t1_2,,running
Status,440,11697241136,/g3t1_3,,running
Status,441,11697284720,/g3t1_2,,fail
Status,442,11697700509,/g3t1_3,,fail
Status,443,11730340058,/g4t1,,success
Status,444,11744816939,/g3t1_1,,running
Status,445,11744971311,/g3t1_1,,fail
Status,446,11747191915,/g3t1_2,,running
Status,447,11747240081,/g3t1_2,,fail
Status,448,11747315564,/g3t1_3,,running
Status,449,11747343769,/g3t1_3,,fail
Status,450,11795191567,/g3t1_1,,running
Status,451,11795255415,/g3t1_1,,fail
Status,452,11797791407,/g3t1_2,,running
Status,453,11797858544,/g3t1_2,,fail
Status,454,11797887486,/g3t1_3,,running
Status,455,11798065394,/g3t1_3,,fail
Status,456,11830435410,/g4t1,,success
Status,457,11845409495,/g3t1_1,,running
Status,458,11845496824,/g3t1_1,,fail
Status,459,11847439021,/g3t1_2,,running
Status,460,11848095229,/g3t1_3,,running
Status,461,11848164361,/g3t1_2,,fail
Status,462,11848200297,/g3t1_3,,fail
Status,463,11895129869,/g3t1_1,,running
Status,464,11895196678,/g3t1_1,,fail
Status,465,11897567520,/g3t1_2,,running
Status,466,11897712560,/g3t1_2,,fail
Status,467,11897757430,/g3t1_3,,running
Status,468,11898200149,/g3t1_3,,fail
Status,469,11930748050,/g4t1,,success
Status,470,11945303090,/g3t1_1,,running
Status,471,11945406002,/g3t1_1,,fail
Status,472,11947823381,/g3t1_2,,running
Status,473,11947904886,/g3t1_2,,fail
Status,474,11948030460,/g3t1_3,,running
Status,475,11948686532,/g3t1_3,,success
Status,476,11995431050,/g3t1_1,,running
Status,477,11995487454,/g3t1_1,,fail
Status,478,11997350041,/g3t1_2,,running
Status,479,11997478759,/g3t1_2,,fail
Status,480,11997798337,/g3t1_3,,running
Status,481,11997844120,/g3t1_3,,fail
Status,482,12030328530,/g4t1,,success
Status,483,12045577080,/g3t1_1,,running
Status,484,12045630601,/g3t1_1,,fail
Status,485,12047676637,/g3t1_2,,running
Status,486,12047774629,/g3t1_2,,fail
Status,487,12047802664,/g3t1_3,,running
Status,488,12048130502,/g3t1_3,,fail
Status,489,12095711782,/g3t1_1,,running
Status,490,12095785919,/g3t1_1,,fail
Status,491,12097726737,/g3t1_2,,running
Status,492,12097906724,/g3t1_2,,fail
Status,493,12097944182,/g3t1_3,,running
Status,494,12098183828,/g3t1_3,,success
Status,495,12130562799,/g4t1,,success
Status,496,12145681516,/g3t1_1,,running
Status,497,12145743978,/g3t1_1,,fail
Status,498,12147814520,/g3t1_2,,running
Status,499,12147904285,/g3t1_2,,fail
Status,500,12148299006,/g3t1_3,,running
Status,501,12148553985,/g3t1_3,,success
Status,502,12195986459,/g3t1_1,,running
Status,503,12196070754,/g3t1_1,,fail
Status,504,12198187550,/g3t1_2,,running
Status,505,12198250495,/g3t1_2,,fail
Status,506,12198325309,/g3t1_3,,running
Status,507,12198670588,/g3t1_3,,fail
Status,508,12231446894,/g4t1,,success
Status,509,12246254390,/g3t1_1,,running
Status,510,12246329626,/g3t1_1,,fail
Status,511,12249020444,/g3t1_2,,running
Status,512,12249133282,/g3t1_3,,running
Status,513,12250145964,/g3t1_3,,fail
Status,514,12250275818,/g3t1_2,,fail
Status,515,12296465967,/g3t1_1,,running
Status,516,12296540379,/g3t1_1,,fail
Status,517,12298692171,/g3t1_2,,running
Status,518,12298764022,/g3t1_3,,running
Status,519,12298807937,/g3t1_2,,fail
Status,520,12299049938,/g3t1_3,,fail
Status,524,12331374714,/g4t1,,success
Status,525,12346482086,/g3t1_1,,running
Status,526,12346580169,/g3t1_1,,fail
Status,527,12348815936,/g3t1_2,,running
Status,528,12348957679,/g3t1_3,,running
Status,529,12348998571,/g3t1_2,,fail
Status,530,12349454374,/g3t1_3,,fail
Status,531,12396371989,/g3t1_1,,running
Status,532,12396419386,/g3t1_1,,fail
Status,533,12398163249,/g3t1_2,,running
Status,534,12398647662,/g3t1_3,,running
Status,535,12398810742,/g3t1_2,,fail
Status,536,12398835845,/g3t1_3,,fail
Status,537,12431228479,/g4t1,,success
Status,538,12446786872,/g3t1_1,,running
Status,539,12446848222,/g3t1_1,,fail
Status,540,12448624525,/g3t1_2,,running
Status,541,12448740871,/g3t1_2,,fail
Status,542,12448793498,/g3t1_3,,running
Status,543,12449012232,/g3t1_3,,fail
Status,544,12497108553,/g3t1_1,,running
Status,545,12497178778,/g3t1_1,,fail
Status,546,12498793978,/g3t1_2,,running
Status,547,12499167145,/g3t1_3,,running
Status,548,12499568277,/g3t1_3,,fail
Status,549,12499631212,/g3t1_2,,fail
Status,553,12531327983,/g4t1,,success
Status,554,12547117985,/g3t1_1,,running
Status,555,12547198546,/g3t1_1,,fail
Status,556,12549620526,/g3t1_3,,running
Status,557,12549678879,/g3t1_3,,fail
Status,558,12549847318,/g3t1_2,,running
Status,559,12549873537,/g3t1_2,,fail
Status,560,12597354223,/g3t1_1,,running
Status,561,12597425462,/g3t1_1,,fail
Status,562,12599050841,/g3t1_2,,running
Status,563,12599135044,/g3t1_3,,running
Status,564,12599434247,/g3t1_3,,fail
Status,565,12599487691,/g3t1_2,,fail
Status,566,12631516611,/g4t1,,success
Status,567,12647293433,/g3t1_1,,running
Status,568,12647399115,/g3t1_1,,fail
Status,569,12649206744,/g3t1_2,,running
Status,570,12649292334,/g3t1_3,,running
Status,571,12649687727,/g3t1_3,,fail
Status,572,12649777383,/g3t1_2,,fail
Status,573,12697673676,/g3t1_1,,running
Status,574,12698354418,/g3t1_1,,success
Status,575,12699533490,/g3t1_2,,running
Status,576,12699592033,/g3t1_3,,running
Status,577,12699621126,/g3t1_3,,fail
Status,578,12699733196,/g3t1_2,,fail
Status,582,12731702454,/g4t1,,success
Status,583,12747846281,/g3t1_1,,running
Status,584,12747918803,/g3t1_1,,fail
Status,585,12749785559,/g3t1_2,,running
Status,586,12749853339,/g3t1_3,,running
Status,587,12749895362,/g3t1_3,,fail
Status,588,12750341960,/g3t1_2,,fail
Status,589,12797293676,/g3t1_1,,running
Status,590,12797328475,/g3t1_1,,fail
Status,591,12799008237,/g3t1_2,,running
Status,592,12799270202,/g3t1_2,,fail
Status,593,12799301667,/g3t1_3,,running
Status,594,12799314473,/g3t1_3,,fail
Status,595,12831349339,/g4t1,,success
Status,596,12847388146,/g3t1_1,,running
Status,597,12847544380,/g3t1_1,,fail
Status,598,12849389058,/g3t1_2,,running
Status,599,12849471009,/g3t1_3,,running
Status,600,12849494359,/g3t1_2,,fail
Status,601,12849730151,/g3t1_3,,fail
Status,602,12898181621,/g3t1_1,,running
Status,603,12898247301,/g3t1_1,,fail
Status,604,12899771833,/g3t1_2,,running
Status,605,12899837708,/g3t1_3,,running
Status,606,12900266143,/g3t1_3,,fail
Status,607,12900338693,/g3t1_2,,fail
Status,611,12931702492,/g4t1,,success
Status,612,12948320802,/g3t1_1,,running
Status,613,12948569599,/g3t1_1,,success
Status,614,12950141119,/g3t1_2,,running
Status,615,12950216645,/g3t1_3,,running
Status,616,12950318013,/g3t1_3,,fail
Status,617,12950342723,/g3t1_2,,fail
Status,618,12998294607,/g3t1_1,,running
Status,619,12998517354,/g3t1_1,,fail
Status,620,12999965661,/g3t1_2,,running
Status,621,13000042676,/g3t1_3,,running
Status,622,13000458756,/g3t1_3,,fail
Status,623,13000540928,/g3t1_2,,fail
Status,624,13032016316,/g4t1,,success
Status,625,13048347159,/g3t1_1,,running
Status,626,13048664556,/g3t1_1,,success
Status,627,13050271220,/g3t1_2,,running
Status,628,13050346444,/g3t1_3,,running
Status,629,13050436783,/g3t1_2,,fail
Status,630,13051344194,/g3t1_3,,fail
Status,631,13098072993,/g3t1_1,,running
Status,632,13098114790,/g3t1_1,,fail
Status,633,13099655839,/g3t1_2,,running
Status,634,13099758611,/g3t1_2,,fail
Status,635,13099785478,/g3t1_3,,running
Status,636,13100003475,/g3t1_3,,fail
Status,640,13131612204,/g4t1,,success
Status,641,13148392661,/g3t1_1,,running
Status,642,13148433734,/g3t1_1,,fail
Status,643,13149838817,/g3t1_2,,running
Status,644,13149891533,/g3t1_2,,fail
Status,645,13150050311,/g3t1_3,,running
Status,646,13150085104,/g3t1_3,,fail
Status,647,13198749352,/g3t1_1,,running
Status,648,13198818870,/g3t1_1,,fail
Status,649,13200458255,/g3t1_2,,running
Status,650,13200515010,/g3t1_3,,running
Status,651,13200579911,/g3t1_2,,fail
Status,652,13200955600,/g3t1_3,,fail
Status,653,13232621878,/g4t1,,success
Status,654,13249065707,/g3t1_1,,running
Status,655,13249134314,/g3t1_1,,fail
Status,656,13250831946,/g3t1_2,,running
Status,657,13250894998,/g3t1_3,,running
Status,658,13250921828,/g3t1_2,,fail
Status,659,13251187588,/g3t1_3,,fail
Status,660,13299160776,/g3t1_1,,running
Status,661,13299331726,/g3t1_1,,fail
Status,662,13301045059,/g3t1_2,,running
Status,663,13301160071,/g3t1_3,,running
Status,664,13301201974,/g3t1_2,,fail
Status,665,13301239086,/g3t1_3,,fail
Status,669,13331996555,/g4t1,,success
Status,670,13348859312,/g3t1_1,,running
Status,671,13348904816,/g3t1_1,,fail
Status,672,13350285427,/g3t1_2,,running
Status,673,13350535267,/g3t1_2,,fail
Status,674,13350585092,/g3t1_3,,running
Status,675,13350730753,/g3t1_3,,fail
Status,676,13399216330,/g3t1_1,,running
Status,677,13399516115,/g3t1_1,,fail
Status,678,13401066642,/g3t1_2,,running
Status,679,13401124291,/g3t1_3,,running
Status,680,13401150321,/g3t1_2,,fail
Status,681,13401227701,/g3t1_3,,fail
Status,682,13432427670,/g4t1,,success
Status,683,13449400456,/g3t1_1,,running
Status,684,13449996738,/g3t1_1,,fail
Status,685,13451566630,/g3t1_2,,running
Status,686,13451665893,/g3t1_2,,fail
Status,687,13451715726,/g3t1_3,,running
Status,688,13452549402,/g3t1_3,,fail
Status,689,13498964166,/g3t1_1,,running
Status,690,13498998079,/g3t1_1,,fail
Status,691,13500339671,/g3t1_2,,running
Status,692,13500454086,/g3t1_2,,fail
Status,693,13500499895,/g3t1_3,,running
Status,694,13500740639,/g3t1_3,,fail
Status,698,13532010985,/g4t1,,success
Status,699,13549028898,/g3t1_1,,running
Status,700,13549129312,/g3t1_1,,fail
Status,701,13550444794,/g3t1_2,,running
Status,702,13550548122,/g3t1_2,,fail
Status,703,13550565692,/g3t1_3,,running
Status,704,13550713515,/g3t1_3,,fail
Status,705,13599054896,/g3t1_1,,running
Status,706,13599092727,/g3t1_1,,fail
Status,707,13600512534,/g3t1_2,,running
Status,708,13600550761,/g3t1_2,,fail
Status,709,13600600586,/g3t1_3,,running
Status,710,13600873058,/g3t1_3,,fail
Status,711,13632203848,/g4t1,,success
Status,712,13649581093,/g3t1_1,,running
Status,713,13649616745,/g3t1_1,,fail
Status,714,13650572731,/g3t1_2,,running
Status,715,13650599353,/g3t1_2,,fail
Status,716,13650730301,/g3t1_3,,running
Status,717,13650834370,/g3t1_3,,fail
Status,718,13699355769,/g3t1_1,,running
Status,719,13699379896,/g3t1_1,,fail
Status,720,13700602317,/g3t1_2,,running
Status,721,13700633449,/g3t1_2,,fail
Status,722,13700757996,/g3t1_3,,running
Status,723,13700896478,/g3t1_3,,fail
Status,727,13732090564,/g4t1,,success
Status,728,13749370203,/g3t1_1,,running
Status,729,13749399458,/g3t1_1,,fail
Status,730,13750659296,/g3t1_2,,running
Status,731,13750681108,/g3t1_2,,fail
Status,732,13750862783,/g3t1_3,,running
Status,733,13750980416,/g3t1_3,,fail
Status,734,13799551375,/g3t1_1,,running
Status,735,13799581676,/g3t1_1,,fail
Status,736,13800662932,/g3t1_2,,running
Status,737,13800990331,/g3t1_2,,fail
Status,738,13801010656,/g3t1_3,,running
Status,739,13801061799,/g3t1_3,,fail
Status,740,13832085533,/g4t1,,success
Status,741,13849541513,/g3t1_1,,running
Status,742,13849565808,/g3t1_1,,fail
Status,743,13850795876,/g3t1_2,,running
Status,744,13850820302,/g3t1_2,,fail
Status,745,13851073696,/g3t1_3,,running
Status,746,13851095132,/g3t1_3,,success
Status,747,13899664037,/g3t1_1,,running
Status,748,13899706187,/g3t1_1,,fail
Status,749,13900970641,/g3t1_2,,running
Status,750,13900996795,/g3t1_2,,fail
Status,751,13901055154,/g3t1_3,,running
Status,752,13901248823,/g3t1_3,,fail
Status,756,13932160511,/g4t1,,success
Status,757,13949767609,/g3t1_1,,running
Status,758,13949791015,/g3t1_1,,fail
Status,759,13950953840,/g3t1_2,,running
Status,760,13950981180,/g3t1_2,,fail
Status,761,13951244123,/g3t1_3,,running
Status,762,13951265567,/g3t1_3,,fail
Status,763,13999705066,/g3t1_1,,running
Status,764,13999723925,/g3t1_1,,fail
Status,765,14000932207,/g3t1_2,,running
Status,766,14001041745,/g3t1_2,,fail
Status,767,14001261153,/g3t1_3,,running
Status,768,14001278626,/g3t1_3,,fail
Status,769,14032221105,/g4t1,,success
Status,770,14049817312,/g3t1_1,,running
Status,771,14049930360,/g3t1_1,,success
Status,772,14050978091,/g3t1_2,,running
Status,773,14051088632,/g3t1_2,,fail
Status,774,14051207813,/g3t1_3,,running
Status,775,14051276723,/g3t1_3,,fail
Status,776,14100055418,/g3t1_1,,running
Status,777,14100075997,/g3t1_1,,fail
Status,778,14101160936,/g3t1_2,,running
Status,779,14101179652,/g3t1_2,,fail
Status,780,14101205865,/g3t1_3,,running
Status,781,14101329677,/g3t1_3,,fail
Status,785,14132552134,/g4t1,,success
Status,786,14150190081,/g3t1_1,,running
Status,787,14150216436,/g3t1_1,,fail
Status,788,14151204035,/g3t1_2,,running
Status,789,14151229082,/g3t1_2,,fail
Status,790,14151482091,/g3t1_3,,running
Status,791,14151502000,/g3t1_3,,fail
Status,792,14200739473,/g3t1_1,,running
Status,793,14200814483,/g3t1_1,,fail
Status,794,14201976064,/g3t1_2,,running
Status,795,14202314045,/g3t1_2,,fail
Status,796,14202381201,/g3t1_3,,running
Status,797,14202480003,/g3t1_3,,fail
Status,798,14233180422,/g4t1,,success
Status,799,14250799588,/g3t1_1,,running
Status,800,14250846154,/g3t1_1,,fail
Status,801,14252427094,/g3t1_2,,running
Status,802,14252488029,/g3t1_3,,running
Status,803,14252530774,/g3t1_3,,fail
Status,804,14252545137,/g3t1_2,,fail
Status,805,14301306212,/g3t1_1,,running
Status,806,14301396686,/g3t1_1,,fail
Status,807,14302738691,/g3t1_2,,running
Status,808,14302790578,/g3t1_3,,running
Status,809,14302833219,/g3t1_2,,fail
Status,810,14302922134,/g3t1_3,,fail
Status,814,14333363483,/g4t1,,success
Status,815,14350621033,/g3t1_1,,running
Status,816,14350655030,/g3t1_1,,fail
Status,817,14351646747,/g3t1_2,,running
Status,818,14351673159,/g3t1_2,,fail
Status,819,14351765759,/g3t1_3,,running
Status,820,14352065564,/g3t1_3,,success
Status,821,14400753364,/g3t1_1,,running
Status,822,14400779362,/g3t1_1,,fail
Status,823,14401673048,/g3t1_2,,running
Status,824,14401695845,/g3t1_2,,fail
Status,825,14401849018,/g3t1_3,,running
Status,826,14401965101,/g3t1_3,,success
Status,827,14432719234,/g4t1,,success
Status,828,14451035084,/g3t1_1,,running
Status,829,14451071320,/g3t1_1,,fail
Status,830,14451968415,/g3t1_2,,running
Status,831,14452016225,/g3t1_3,,running
Status,832,14452438639,/g3t1_3,,success
Status,833,14452489015,/g3t1_2,,fail
Status,834,14501428514,/g3t1_1,,running
Status,835,14501483308,/g3t1_1,,fail
Status,836,14502389259,/g3t1_2,,running
Status,837,14502499054,/g3t1_3,,running
Status,838,14502679152,/g3t1_2,,fail
Status,839,14502715150,/g3t1_3,,success
Status,843,14533269814,/g4t1,,success
Status,844,14551280797,/g3t1_1,,running
Status,845,14551320946,/g3t1_1,,fail
Status,846,14552217115,/g3t1_2,,running
Status,847,14552289094,/g3t1_3,,running
Status,848,14552327755,/g3t1_2,,fail
Status,849,14552530929,/g3t1_3,,fail
Status,850,14601761702,/g3t1_1,,running
Status,851,14602393034,/g3t1_1,,fail
Status,852,14602852834,/g3t1_2,,running
Status,853,14602955547,/g3t1_3,,running
Status,854,14603118703,/g3t1_2,,fail
Status,855,14603167126,/g3t1_3,,fail
Status,856,14633831494,/g4t1,,success
Status,857,14651895511,/g3t1_1,,running
Status,858,14651955673,/g3t1_1,,fail
Status,859,14653069320,/g3t1_2,,running
Status,860,14653144219,/g3t1_2,,fail
Status,861,14653237732,/g3t1_3,,running
Status,862,14653267619,/g3t1_3,,fail
Status,863,14701751021,/g3t1_1,,running
Status,864,14701993957,/g3t1_1,,fail
Status,865,14702692695,/g3t1_2,,running
Status,866,14702749878,/g3t1_3,,running
Status,867,14702799471,/g3t1_2,,fail
Status,868,14702824234,/g3t1_3,,fail
Status,872,14733770327,/g4t1,,success
Status,873,14751736647,/g3t1_1,,running
Status,874,14751773917,/g3t1_1,,fail
Status,875,14752419268,/g3t1_2,,running
Status,876,14752855809,/g3t1_2,,fail
Status,877,14752889700,/g3t1_3,,running
Status,878,14752915192,/g3t1_3,,fail
Status,879,14801793506,/g3t1_1,,running
Status,880,14801835297,/g3t1_1,,fail
Status,881,14802643555,/g3t1_2,,running
Status,882,14802681218,/g3t1_2,,fail
Status,883,14802742747,/g3t1_3,,running
Status,884,14802972049,/g3t1_3,,fail
Status,885,14833511261,/g4t1,,success
Status,886,14851886048,/g3t1_1,,running
Status,887,14851931237,/g3t1_1,,fail
Status,888,14853351039,/g3t1_2,,running
Status,889,14853392135,/g3t1_2,,fail
Status,890,14853439945,/g3t1_3,,running
Status,891,14853455623,/g3t1_3,,fail
Status,892,14901971465,/g3t1_1,,running
Status,893,14902036453,/g3t1_1,,fail
Status,894,14902939083,/g3t1_2,,running
Status,895,14902986898,/g3t1_2,,fail
Status,896,14903107743,/g3t1_3,,running
Status,897,14903217004,/g3t1_3,,fail
Status,901,14933757078,/g4t1,,success
Status,902,14952103206,/g3t1_1,,running
Status,903,14952147291,/g3t1_1,,fail
Status,904,14953161374,/g3t1_2,,running
Status,905,14953218640,/g3t1_2,,fail
Status,906,14953465262,/g3t1_3,,running
Status,907,14953521081,/g3t1_3,,fail
Status,908,15002270086,/g3t1_1,,running
Status,909,15002472723,/g3t1_1,,fail
Status,910,15003429643,/g3t1_2,,running
Status,911,15003492204,/g3t1_3,,running
Status,912,15003588673,/g3t1_2,,success
Status,913,15003613860,/g3t1_3,,fail
Status,914,15034004382,/g4t1,,success
Status,915,15052348816,/g3t1_1,,running
Status,916,15052642720,/g3t1_1,,success
Status,917,15053135453,/g3t1_2,,running
Status,918,15053473069,/g3t1_2,,fail
Status,919,15053878129,/g3t1_3,,running
Status,920,15054167459,/g3t1_3,,fail
Status,921,15102685206,/g3t1_1,,running
Status,922,15102757712,/g3t1_1,,fail
Status,923,15103286303,/g3t1_2,,running
Status,924,15103850296,/g3t1_2,,fail
Status,925,15104010539,/g3t1_3,,running
Status,926,15104271796,/g3t1_3,,fail
Status,930,15133951477,/g4t1,,success
Status,931,15153011135,/g3t1_1,,running
Status,932,15153083480,/g3t1_1,,fail
Status,933,15153382359,/g3t1_2,,running
Status,934,15153725893,/g3t1_2,,fail
Status,935,15154493475,/g3t1_3,,running
Status,936,15154553151,/g3t1_3,,fail
Status,937,15202900855,/g3t1_1,,running
Status,938,15202969914,/g3t1_1,,fail
Status,939,15203619682,/g3t1_2,,running
Status,940,15203916520,/g3t1_2,,fail
Status,941,15204259535,/g3t1_3,,running
Status,942,15204880842,/g3t1_3,,fail
Status,943,15233787516,/g4t1,,success
Status,944,15252411676,/g3t1_1,,running
Status,945,15252511389,/g3t1_1,,fail
Status,946,15253211926,/g3t1_2,,running
Status,947,15253353872,/g3t1_2,,fail
Status,948,15253899320,/g3t1_3,,running
Status,949,15254055768,/g3t1_3,,fail
Status,950,15302595235,/g3t1_1,,running
Status,951,15302617079,/g3t1_1,,success
Status,952,15303142399,/g3t1_2,,running
Status,953,15303250701,/g3t1_2,,fail
Status,954,15303883522,/g3t1_3,,running
Status,955,15303988441,/g3t1_3,,fail
Status,959,15333956945,/g4t1,,success
Status,960,15352646979,/g3t1_1,,running
Status,961,15352670078,/g3t1_1,,fail
Status,962,15353337837,/g3t1_2,,running
Status,963,15353382383,/g3t1_2,,fail
Status,964,15353996608,/g3t1_3,,running
Status,965,15354491661,/g3t1_3,,fail
Status,966,15402588516,/g3t1_1,,running
Status,967,15402631705,/g3t1_1,,fail
Status,968,15403228382,/g3t1_2,,running
Status,969,15403317407,/g3t1_2,,fail
Status,970,15403975564,/g3t1_3,,running
Status,971,15404081186,/g3t1_3,,fail
Status,972,15433832633,/g4t1,,success
Status,973,15452769076,/g3t1_1,,running
Status,974,15452792375,/g3t1_1,,fail
Status,975,15453414488,/g3t1_2,,running
Status,976,15453436578,/g3t1_2,,fail
Status,977,15454115933,/g3t1_3,,running
Status,978,15454132550,/g3t1_3,,fail
Status,979,15503580501,/g3t1_1,,running
Status,980,15503677271,/g3t1_1,,fail
Status,981,15504549358,/g3t1_2,,running
Status,982,15504681370,/g3t1_2,,success
Status,983,15504751556,/g3t1_3,,running
Status,984,15505198058,/g3t1_3,,fail
Status,985,15534710183,/g4t1,,success
Status,986,15553826190,/g3t1_1,,running
Status,987,15553954810,/g3t1_1,,fail
Status,988,15554277076,/g3t1_2,,running
Status,989,15554899380,/g3t1_2,,fail
Status,990,15555044764,/g3t1_3,,running
Status,991,15555464167,/g3t1_3,,fail
Status,992,15604310920,/g3t1_1,,running
Status,993,15604426169,/g3t1_1,,fail
Status,994,15604572510,/g3t1_2,,running
Status,995,15605390878,/g3t1_3,,running
Status,996,15605439136,/g3t1_2,,success
Status,997,15605524878,/g3t1_3,,fail
Status,998,15634874336,/g4t1,,success
Status,999,15654228336,/g3t1_1,,running
Status,1000,15654300353,/g3t1_1,,fail
Status,1001,15654391018,/g3t1_2,,running
Status,1002,15655114769,/g3t1_2,,success
Status,1003,15655240835,/g3t1_3,,running
Status,1004,15655585080,/g3t1_3,,fail
Status,1005,15704293266,/g3t1_1,,running
Status,1006,15704434542,/g3t1_1,,fail
Status,1007,15704476915,/g3t1_2,,running
Status,1008,15705690358,/g3t1_2,,fail
Status,1009,15705752882,/g3t1_3,,running
Status,1010,15705778233,/g3t1_3,,fail
Status,1011,15734993404,/g4t1,,success
Status,1012,15753734204,/g3t1_1,,running
Status,1013,15753766501,/g3t1_1,,fail
Status,1014,15754290824,/g3t1_2,,running
Status,1015,15754324921,/g3t1_2,,fail
Status,1016,15754774802,/g3t1_3,,running
Status,1017,15754867734,/g3t1_3,,fail
Status,1018,15803797325,/g3t1_1,,running
Status,1019,15803822861,/g3t1_1,,fail
Status,1020,15804199375,/g3t1_2,,running
Status,1021,15804223416,/g3t1_2,,fail
Status,1022,15804804507,/g3t1_3,,running
Status,1023,15804955017,/g3t1_3,,fail
Status,1024,15835185021,/g4t1,,success
Status,1025,15854812406,/g3t1_1,,running
Status,1026,15854959277,/g3t1_1,,fail
Status,1027,15855009623,/g3t1_2,,running
Status,1028,15855088253,/g3t1_2,,fail
Status,1029,15855568538,/g3t1_3,,running
Status,1030,15856121127,/g3t1_3,,fail
Status,1031,15904231618,/g3t1_1,,running
Status,1032,15904269907,/g3t1_1,,fail
Status,1033,15904480631,/g3t1_2,,running
Status,1034,15904647448,/g3t1_2,,success
Status,1035,15904981443,/g3t1_3,,running
Status,1036,15905092990,/g3t1_3,,fail
Status,1037,15935199231,/g4t1,,success
Status,1038,15955082905,/g3t1_1,,running
Status,1039,15955151713,/g3t1_1,,fail
Status,1040,15955252736,/g3t1_2,,running
Status,1041,15956228778,/g3t1_2,,fail
Status,1042,15956310696,/g3t1_3,,running
Status,1043,15956358463,/g3t1_3,,fail
Status,1044,16005656913,/g3t1_1,,running
Status,1045,16005749313,/g3t1_1,,fail
Status,1046,16005790850,/g3t1_2,,running
Status,1047,16006108747,/g3t1_2,,success
Status,1048,16006166671,/g3t1_3,,running
Status,1049,16006204266,/g3t1_3,,fail
Status,1050,16034648592,/g4t1,,success
Status,1051,16054523189,/g3t1_1,,running
Status,1052,16054556305,/g3t1_1,,fail
Status,1053,16054712061,/g3t1_2,,running
Status,1054,16054931129,/g3t1_2,,success
Status,1055,16055439520,/g3t1_3,,running
Status,1056,16055539846,/g3t1_3,,fail
Status,1057,16104773964,/g3t1_1,,running
Status,1058,16104873342,/g3t1_1,,fail
Status,1059,16104950509,/g3t1_2,,running
Status,1060,16105135962,/g3t1_2,,success
Status,1061,16105608357,/g3t1_3,,running
Status,1062,16105834548,/g3t1_3,,fail
Status,1063,16134999441,/g4t1,,success
Status,1064,16155526338,/g3t1_1,,running
Status,1065,16155623333,/g3t1_2,,running
Status,1066,16155746291,/g3t1_1,,fail
Status,1067,16156130874,/g3t1_2,,success
Status,1068,16156494432,/g3t1_3,,running
Status,1069,16156760266,/g3t1_3,,fail
Status,1070,16205140007,/g3t1_1,,running
Status,1071,16205536367,/g3t1_2,,running
Status,1072,16205602814,/g3t1_1,,fail
Status,1073,16206722780,/g3t1_2,,fail
Status,1074,16206770543,/g3t1_3,,running
Status,1075,16206836664,/g3t1_3,,fail
Status,1076,16235023548,/g4t1,,success
Status,1077,16255021783,/g3t1_1,,running
Status,1078,16255075527,/g3t1_1,,fail
Status,1079,16255446397,/g3t1_2,,running
Status,1080,16255479308,/g3t1_2,,success
Status,1081,16256793728,/g3t1_3,,running
Status,1082,16256935516,/g3t1_3,,fail
Status,1083,16304992719,/g3t1_1,,running
Status,1084,16305027573,/g3t1_1,,fail
Status,1085,16305231971,/g3t1_2,,running
Status,1086,16305355327,/g3t1_2,,fail
Status,1087,16305923806,/g3t1_3,,running
Status,1088,16306040600,/g3t1_3,,fail
Status,1092,16334870806,/g4t1,,success
Status,1093,16355093359,/g3t1_1,,running
Status,1094,16355119750,/g3t1_1,,fail
Status,1095,16355314912,/g3t1_2,,running
Status,1096,16355437672,/g3t1_2,,fail
Status,1097,16356011792,/g3t1_3,,running
Status,1098,16356149567,/g3t1_3,,fail
Status,1099,16405866801,/g3t1_1,,running
Status,1100,16405953069,/g3t1_2,,running
Status,1101,16406012821,/g3t1_1,,fail
Status,1102,16406049863,/g3t1_2,,fail
Status,1103,16406481738,/g3t1_3,,running
Status,1104,16407074931,/g3t1_3,,fail
Status,1105,16435548833,/g4t1,,success
Status,1106,16455456410,/g3t1_1,,running
Status,1107,16455479681,/g3t1_1,,fail
Status,1108,16455503474,/g3t1_2,,running
Status,1109,16455591456,/g3t1_2,,fail
Status,1110,16456157167,/g3t1_3,,running
Status,1111,16456227133,/g3t1_3,,fail
Status,1112,16505818343,/g3t1_1,,running
Status,1113,16505967084,/g3t1_1,,fail
Status,1114,16506098380,/g3t1_2,,running
Status,1115,16506133463,/g3t1_2,,fail
Status,1116,16506500773,/g3t1_3,,running
Status,1117,16506686393,/g3t1_3,,fail
Status,1121,16535753307,/g4t1,,success
Status,1122,16556389461,/g3t1_1,,running
Status,1123,16556477816,/g3t1_2,,running
Status,1124,16556514946,/g3t1_1,,fail
Status,1125,16556910757,/g3t1_2,,fail
Status,1126,16557109075,/g3t1_3,,running
Status,1127,16557712778,/g3t1_3,,fail
Status,1128,16606476954,/g3t1_1,,running
Status,1129,16606570275,/g3t1_2,,running
Status,1130,16606692485,/g3t1_1,,fail
Status,1131,16606734488,/g3t1_2,,fail
Status,1132,16607139488,/g3t1_3,,running
Status,1133,16607216385,/g3t1_3,,fail
Status,1134,16635785199,/g4t1,,success
Status,1135,16656573859,/g3t1_1,,running
Status,1136,16656657117,/g3t1_2,,running
Status,1137,16656809638,/g3t1_1,,fail
Status,1138,16657587413,/g3t1_2,,fail
Status,1139,16657649336,/g3t1_3,,running
Status,1140,16657746635,/g3t1_3,,fail
Status,1141,16706641455,/g3t1_1,,running
Status,1142,16706731475,/g3t1_2,,running
Status,1143,16707337198,/g3t1_1,,fail
Status,1144,16707408740,/g3t1_2,,fail
Status,1145,16707447341,/g3t1_3,,running
Status,1146,16707738753,/g3t1_3,,fail
Status,1150,16735991139,/g4t1,,success
Status,1151,16757528607,/g3t1_1,,running
Status,1152,16757597889,/g3t1_2,,running
Status,1153,16757674129,/g3t1_1,,fail
Status,1154,16758286626,/g3t1_3,,running
Status,1155,16758372234,/g3t1_3,,fail
Status,1156,16758501327,/g3t1_2,,fail
Status,1157,16807267676,/g3t1_1,,running
Status,1158,16807374269,/g3t1_2,,running
Status,1159,16807517314,/g3t1_1,,fail
Status,1160,16808092553,/g3t1_3,,running
Status,1161,16808166788,/g3t1_2,,fail
Status,1162,16808295411,/g3t1_3,,fail
Status,1163,16836247405,/g4t1,,success
Status,1164,16857243004,/g3t1_1,,running
Status,1165,16857445317,/g3t1_2,,running
Status,1166,16857583337,/g3t1_1,,fail
Status,1167,16858373841,/g3t1_3,,running
Status,1168,16858512080,/g3t1_2,,fail
Status,1169,16858556350,/g3t1_3,,fail
Status,1170,16907380122,/g3t1_1,,running
Status,1171,16907458856,/g3t1_2,,running
Status,1172,16907560731,/g3t1_1,,fail
Status,1173,16907602062,/g3t1_2,,fail
Status,1174,16907978606,/g3t1_3,,running
Status,1175,16908369489,/g3t1_3,,fail
Status,1179,16936293636,/g4t1,,success
Status,1180,16957057370,/g3t1_1,,running
Status,1181,16957124249,/g3t1_2,,running
Status,1182,16957627090,/g3t1_2,,success
Status,1183,16957686066,/g3t1_1,,fail
Status,1184,16958050989,/g3t1_3,,running
Status,1185,16958437506,/g3t1_3,,fail
Status,1186,17006858091,/g3t1_1,,running
Status,1187,17006958278,/g3t1_1,,fail
Status,1188,17006976140,/g3t1_2,,running
Status,1189,17007003927,/g3t1_2,,fail
Status,1190,17007609636,/g3t1_3,,running
Status,1191,17007749928,/g3t1_3,,fail
Status,1192,17035975237,/g4t1,,success
Status,1193,17057615196,/g3t1_1,,running
Status,1194,17057743930,/g3t1_2,,running
Status,1195,17057857724,/g3t1_1,,fail
Status,1196,17058259572,/g3t1_2,,success
Status,1197,17058338215,/g3t1_3,,running
Status,1198,17058816130,/g3t1_3,,fail
Status,1199,17108086443,/g3t1_1,,running
Status,1200,17108397539,/g3t1_2,,running
Status,1201,17108464263,/g3t1_1,,fail
Status,1202,17109411472,/g3t1_2,,success
Status,1203,17110081193,/g3t1_3,,running
Status,1204,17110151422,/g3t1_3,,fail
Status,1208,17136557682,/g4t1,,success
Status,1209,17157796887,/g3t1_1,,running
Status,1210,17157881814,/g3t1_1,,fail
Status,1211,17157924569,/g3t1_2,,running
Status,1212,17158523453,/g3t1_2,,fail
Status,1213,17158585606,/g3t1_3,,running
Status,1214,17158627980,/g3t1_3,,fail
Status,1215,17207950136,/g3t1_1,,running
Status,1216,17208298601,/g3t1_2,,running
Status,1217,17208408982,/g3t1_1,,fail
Status,1218,17208532619,/g3t1_2,,fail
Status,1219,17208769260,/g3t1_3,,running
Status,1220,17208915235,/g3t1_3,,fail
Status,1221,17236752816,/g4t1,,success
Status,1222,17258074882,/g3t1_1,,running
Status,1223,17258163554,/g3t1_2,,running
Status,1224,17259086031,/g3t1_2,,fail
Status,1225,17259154190,/g3t1_3,,running
Status,1226,17259180198,/g3t1_3,,fail
Status,1227,17259204444,/g3t1_1,,fail
Status,1228,17308397937,/g3t1_1,,running
Status,1229,17308497718,/g3t1_1,,fail
Status,1230,17309062567,/g3t1_2,,running
Status,1231,17309108483,/g3t1_2,,fail
Status,1232,17309136588,/g3t1_3,,running
Status,1233,17309231169,/g3t1_3,,fail
Status,1237,17336300961,/g4t1,,success
Status,1238,17357532667,/g3t1_1,,running
Status,1239,17357872866,/g3t1_2,,running
Status,1240,17357954918,/g3t1_1,,success
Status,1241,17357971801,/g3t1_2,,fail
Status,1242,17358503006,/g3t1_3,,running
Status,1243,17358542425,/g3t1_3,,fail
Status,1244,17407533020,/g3t1_1,,running
Status,1245,17407623728,/g3t1_1,,fail
Status,1246,17407793710,/g3t1_2,,running
Status,1247,17408123892,/g3t1_2,,fail
Status,1248,17408367839,/g3t1_3,,running
Status,1249,17408649270,/g3t1_3,,fail
Status,1250,17436257553,/g4t1,,success
Status,1251,17457988046,/g3t1_1,,running
Status,1252,17458131188,/g3t1_2,,running
Status,1253,17458156214,/g3t1_2,,fail
Status,1254,17458169084,/g3t1_1,,fail
Status,1255,17458494795,/g3t1_3,,running
Status,1256,17458610840,/g3t1_3,,fail
Status,1257,17508032673,/g3t1_1,,running
Status,1258,17508081672,/g3t1_2,,running
Status,1259,17508094004,/g3t1_2,,fail
Status,1260,17508112073,/g3t1_1,,success
Status,1261,17508648981,/g3t1_3,,running
Status,1262,17508675351,/g3t1_3,,fail
Status,1266,17536400778,/g4t1,,success
Status,1267,17557927943,/g3t1_1,,running
Status,1268,17557963047,/g3t1_1,,fail
Status,1269,17558013006,/g3t1_2,,running
Status,1270,17558146833,/g3t1_2,,fail
Status,1271,17558711905,/g3t1_3,,running
Status,1272,17558747952,/g3t1_3,,fail
Status,1273,17609352467,/g3t1_1,,running
Status,1274,17609772944,/g3t1_2,,running
Status,1275,17609840475,/g3t1_2,,fail
Status,1276,17609897824,/g3t1_1,,fail
Status,1277,17610210039,/g3t1_3,,running
Status,1278,17610417129,/g3t1_3,,fail
Status,1279,17636970513,/g4t1,,success
Status,1280,17658743465,/g3t1_1,,running
Status,1281,17658817730,/g3t1_2,,running
Status,1282,17659185231,/g3t1_1,,fail
Status,1283,17659243039,/g3t1_3,,running
Status,1284,17659350297,/g3t1_2,,fail
Status,1285,17659811885,/g3t1_3,,fail
Status,1286,17709256878,/g3t1_2,,running
Status,1287,17709874948,/g3t1_1,,running
Status,1288,17710268494,/g3t1_3,,running
Status,1289,17710316323,/g3t1_2,,fail
Status,1290,17710636180,/g3t1_1,,fail
Status,1291,17710694561,/g3t1_3,,fail
Status,1295,17736547989,/g4t1,,success
Status,1296,17758705707,/g3t1_1,,running
Status,1297,17758766221,/g3t1_1,,fail
Status,1298,17758817418,/g3t1_2,,running
Status,1299,17758838325,/g3t1_2,,fail
Status,1300,17759288911,/g3t1_3,,running
Status,1301,17759626536,/g3t1_3,,fail
Status,1302,17808688253,/g3t1_1,,running
Status,1303,17808760146,/g3t1_2,,running
Status,1304,17808816097,/g3t1_1,,fail
Status,1305,17808895483,/g3t1_2,,fail
Status,1306,17809190130,/g3t1_3,,running
Status,1307,17809908589,/g3t1_3,,fail
Status,1308,17837076750,/g4t1,,success
Status,1309,17859000807,/g3t1_1,,running
Status,1310,17859078638,/g3t1_2,,running
Status,1311,17859700862,/g3t1_2,,fail
Status,1312,17859743730,/g3t1_1,,fail
Status,1313,17859768998,/g3t1_3,,running
Status,1314,17860237468,/g3t1_3,,fail
Status,1315,17910270726,/g3t1_1,,running
Status,1316,17910376615,/g3t1_1,,fail
Status,1317,17910503011,/g3t1_2,,running
Status,1318,17910540457,/g3t1_2,,fail
Status,1319,17910573173,/g3t1_3,,running
Status,1320,17910603633,/g3t1_3,,fail
Status,1324,17936638482,/g4t1,,success
Status,1325,17958774118,/g3t1_1,,running
Status,1326,17958886433,/g3t1_1,,fail
Status,1327,17958908431,/g3t1_2,,running
Status,1328,17958942840,/g3t1_2,,fail
Status,1329,17959386077,/g3t1_3,,running
Status,1330,17959513471,/g3t1_3,,fail
Status,1331,18009923037,/g3t1_1,,running
Status,1332,18010067699,/g3t1_2,,running
Status,1333,18010894241,/g3t1_1,,fail
Status,1334,18010967308,/g3t1_3,,running
Status,1335,18011117933,/g3t1_3,,fail
Status,1336,18011692541,/g3t1_2,,fail
Status,1337,18037399338,/g4t1,,success
Status,1338,18059736188,/g3t1_1,,running
Status,1339,18059805745,/g3t1_1,,fail
Status,1340,18059840870,/g3t1_2,,running
Status,1341,18059873079,/g3t1_2,,fail
Status,1342,18060479555,/g3t1_3,,running
Status,1343,18060557966,/g3t1_3,,fail
Status,1344,18109768348,/g3t1_2,,running
Status,1345,18109914495,/g3t1_1,,running
Status,1346,18109954959,/g3t1_1,,fail
Status,1347,18110245703,/g3t1_2,,fail
Status,1348,18110579322,/g3t1_3,,running
Status,1349,18110644593,/g3t1_3,,fail
Status,1353,18137424881,/g4t1,,success
Status,1354,18159275433,/g3t1_1,,running
Status,1355,18159317976,/g3t1_2,,running
Status,1356,18159438106,/g3t1_1,,fail
Status,1357,18159461670,/g3t1_2,,success
Status,1358,18159948861,/g3t1_3,,running
Status,1359,18160090935,/g3t1_3,,fail
Status,1360,18210382060,/g3t1_2,,running
Status,1361,18210426827,/g3t1_2,,success
Status,1362,18210444307,/g3t1_1,,running
Status,1363,18210460408,/g3t1_3,,running
Status,1364,18210475474,/g3t1_3,,fail
Status,1365,18211039492,/g3t1_1,,fail
Status,1366,18237324527,/g4t1,,success
Status,1367,18259292023,/g3t1_1,,running
Status,1368,18259321232,/g3t1_1,,fail
Status,1369,18259377996,/g3t1_2,,running
Status,1370,18259392342,/g3t1_2,,fail
Status,1371,18260014741,/g3t1_3,,running
Status,1372,18260042395,/g3t1_3,,fail
Status,1373,18309317782,/g3t1_1,,running
Status,1374,18309357010,/g3t1_2,,running
Status,1375,18309393278,/g3t1_1,,fail
Status,1376,18309406128,/g3t1_2,,fail
Status,1377,18310042154,/g3t1_3,,running
Status,1378,18310139564,/g3t1_3,,fail
Status,1382,18337186514,/g4t1,,success
Status,1383,18359500096,/g3t1_1,,running
Status,1384,18359544468,/g3t1_2,,running
Status,1385,18359561905,/g3t1_1,,fail
Status,1386,18359582587,/g3t1_2,,fail
Status,1387,18360128966,/g3t1_3,,running
Status,1388,18360236775,/g3t1_3,,success
Status,1389,18409737152,/g3t1_1,,running
Status,1390,18409774848,/g3t1_2,,running
Status,1391,18409791000,/g3t1_1,,fail
Status,1392,18409956948,/g3t1_2,,fail
Status,1393,18410375360,/g3t1_3,,running
Status,1394,18410584375,/g3t1_3,,fail
Status,1395,18437840837,/g4t1,,success
Status,1396,18459938092,/g3t1_1,,running
Status,1397,18460029173,/g3t1_2,,running
Status,1398,18460379937,/g3t1_1,,fail
Status,1399,18460440833,/g3t1_2,,fail
Status,1400,18461109758,/g3t1_3,,running
Status,1401,18461155554,/g3t1_3,,fail
Status,1402,18509799705,/g3t1_1,,running
Status,1403,18509823434,/g3t1_2,,running
Status,1404,18509857208,/g3t1_2,,fail
Status,1405,18509864938,/g3t1_1,,fail
Status,1406,18510375257,/g3t1_3,,running
Status,1407,18510487027,/g3t1_3,,fail
Status,1411,18537066577,/g4t1,,success
Status,1412,18560026468,/g3t1_2,,running
Status,1413,18560049017,/g3t1_1,,running
Status,1414,18560056905,/g3t1_1,,fail
Status,1415,18560064342,/g3t1_2,,success
Status,1416,18560599795,/g3t1_3,,running
Status,1417,18560619852,/g3t1_3,,fail
Status,1418,18610372769,/g3t1_1,,running
Status,1419,18610432891,/g3t1_2,,running
Status,1420,18610647843,/g3t1_1,,fail
Status,1421,18610705226,/g3t1_2,,success
Status,1422,18611565459,/g3t1_3,,running
Status,1423,18611619330,/g3t1_3,,success
Status,1424,18637937655,/g4t1,,success
Status,1425,18660476888,/g3t1_1,,running
Status,1426,18660600638,/g3t1_2,,running
Status,1427,18661116175,/g3t1_2,,fail
Status,1428,18661540072,/g3t1_1,,fail
Status,1429,18661584298,/g3t1_3,,running
Status,1430,18661879697,/g3t1_3,,fail
Status,1431,18710709136,/g3t1_1,,running
Status,1432,18710782024,/g3t1_2,,running
Status,1433,18711061827,/g3t1_1,,fail
Status,1434,18711113189,/g3t1_2,,fail
Status,1435,18711490339,/g3t1_3,,running
Status,1436,18712174164,/g3t1_3,,success
Status,1440,18738053098,/g4t1,,success
Status,1441,18761316443,/g3t1_2,,running
Status,1442,18761421815,/g3t1_1,,running
Status,1443,18761465719,/g3t1_2,,fail
Status,1444,18761916581,/g3t1_1,,fail
Status,1445,18761996487,/g3t1_3,,running
Status,1446,18762711226,/g3t1_3,,fail
Status,1447,18811061458,/g3t1_1,,running
Status,1448,18811168479,/g3t1_2,,running
Status,1449,18811207942,/g3t1_1,,fail
Status,1450,18811243478,/g3t1_2,,fail
Status,1451,18811710300,/g3t1_3,,running
Status,1452,18812456524,/g3t1_3,,success
Status,1453,18838344652,/g4t1,,success
Status,1454,18861849805,/g3t1_2,,running
Status,1455,18862383424,/g3t1_1,,running
Status,1456,18862447072,/g3t1_1,,fail
Status,1457,18862483506,/g3t1_2,,fail
Status,1458,18863543808,/g3t1_3,,running
Status,1459,18863609155,/g3t1_3,,success
Status,1460,18911330022,/g3t1_1,,running
Status,1461,18911428000,/g3t1_2,,running
Status,1462,18911830113,/g3t1_1,,fail
Status,1463,18911909918,/g3t1_2,,fail
Status,1464,18913406147,/g3t1_3,,running
Status,1465,18913480756,/g3t1_3,,success
Status,1469,18938438198,/g4t1,,success
Status,1470,18961783126,/g3t1_1,,running
Status,1471,18961888814,/g3t1_2,,running
Status,1472,18961918718,/g3t1_2,,fail
Status,1473,18961976366,/g3t1_1,,fail
Status,1474,18962674671,/g3t1_3,,running
Status,1475,18963011105,/g3t1_3,,fail
Status,1476,19011231275,/g3t1_2,,running
Status,1477,19011299491,/g3t1_1,,running
Status,1478,19011389225,/g3t1_1,,fail
Status,1479,19011421158,/g3t1_2,,fail
Status,1480,19012392065,/g3t1_3,,running
Status,1481,19012603352,/g3t1_3,,fail
Status,1482,19038504974,/g4t1,,success
Status,1483,19062063724,/g3t1_2,,running
Status,1484,19062462261,/g3t1_1,,running
Status,1485,19062601386,/g3t1_2,,fail
Status,1486,19062641786,/g3t1_1,,success
Status,1487,19062925962,/g3t1_3,,running
Status,1488,19063538344,/g3t1_3,,fail
Status,1489,19112122257,/g3t1_2,,running
Status,1490,19112192429,/g3t1_1,,running
Status,1491,19112219267,/g3t1_1,,fail
Status,1492,19112244596,/g3t1_2,,fail
Status,1493,19113242970,/g3t1_3,,running
Status,1494,19113326863,/g3t1_3,,fail
Status,1498,19138496558,/g4t1,,success
Status,1499,19162307438,/g3t1_1,,running
Status,1500,19162439693,/g3t1_2,,running
Status,1501,19162592025,/g3t1_2,,success
Status,1502,19162638358,/g3t1_1,,fail
Status,1503,19163386430,/g3t1_3,,running
Status,1504,19163762896,/g3t1_3,,fail
Status,1505,19212151382,/g3t1_1,,running
Status,1506,19212246876,/g3t1_2,,running
Status,1507,19212636011,/g3t1_2,,fail
Status,1508,19212690954,/g3t1_1,,fail
Status,1509,19213339954,/g3t1_3,,running
Status,1510,19214045347,/g3t1_3,,fail
Status,1511,19238672719,/g4t1,,success
Status,1512,19262638897,/g3t1_2,,running
Status,1513,19262743510,/g3t1_1,,running
Status,1514,19262785915,/g3t1_1,,fail
Status,1515,19263449864,/g3t1_2,,success
Status,1516,19264093242,/g3t1_3,,running
Status,1517,19264163351,/g3t1_3,,fail
Status,1518,19312548640,/g3t1_1,,running
Status,1519,19312615580,/g3t1_2,,running
Status,1520,19312641907,/g3t1_2,,success
Status,1521,19312686965,/g3t1_1,,fail
Status,1522,19313717666,/g3t1_3,,running
Status,1523,19314157761,/g3t1_3,,fail
Status,1527,19338872781,/g4t1,,success
Status,1528,19362743587,/g3t1_2,,running
Status,1529,19363097024,/g3t1_1,,running
Status,1530,19363290008,/g3t1_1,,fail
Status,1531,19363332079,/g3t1_2,,fail
Status,1532,19364442639,/g3t1_3,,running
Status,1533,19364540649,/g3t1_3,,fail
Status,1534,19412578487,/g3t1_2,,running
Status,1535,19412698158,/g3t1_1,,running
Status,1536,19413646595,/g3t1_2,,fail
Status,1537,19413750012,/g3t1_1,,fail
Status,1538,19414121858,/g3t1_3,,running
Status,1539,19414775541,/g3t1_3,,fail
Status,1540,19438945134,/g4t1,,success
Status,1541,19463107361,/g3t1_2,,running
Status,1542,19463215910,/g3t1_1,,running
Status,1543,19463895875,/g3t1_2,,fail
Status,1544,19463964166,/g3t1_1,,success
Status,1545,19464171488,/g3t1_3,,running
Status,1546,19464246285,/g3t1_3,,fail
Status,1547,19512914947,/g3t1_2,,running
Status,1548,19512983877,/g3t1_1,,running
Status,1549,19513058660,/g3t1_2,,fail
Status,1550,19513083318,/g3t1_1,,fail
Status,1551,19514017794,/g3t1_3,,running
Status,1552,19514426105,/g3t1_3,,fail
Status,1553,19539089212,/g4t1,,success
Status,1554,19562912438,/g3t1_2,,running
Status,1555,19562988567,/g3t1_1,,running
Status,1556,19563334412,/g3t1_2,,fail
Status,1557,19563406421,/g3t1_1,,fail
Status,1558,19564182319,/g3t1_3,,running
Status,1559,19564273990,/g3t1_3,,fail
Status,1560,19613381165,/g3t1_2,,running
Status,1561,19613467139,/g3t1_1,,running
Status,1562,19613589002,/g3t1_2,,fail
Status,1563,19613847810,/g3t1_1,,success
Status,1564,19614198116,/g3t1_3,,running
Status,1565,19614552482,/g3t1_3,,fail
Status,1566,19639335882,/g4t1,,success
Status,1567,19663619961,/g3t1_2,,running
Status,1568,19663700094,/g3t1_1,,running
Status,1569,19663830711,/g3t1_1,,fail
Status,1570,19664201812,/g3t1_2,,fail
Status,1571,19664259968,/g3t1_3,,running
Status,1572,19664736567,/g3t1_3,,fail
Status,1573,19714536550,/g3t1_2,,running
Status,1574,19714603419,/g3t1_1,,running
Status,1575,19714715401,/g3t1_1,,success
Status,1576,19714739205,/g3t1_2,,fail
Status,1577,19714760258,/g3t1_3,,running
Status,1578,19714818307,/g3t1_3,,fail
Status,1579,19739354563,/g4t1,,success
Status,1580,19763551037,/g3t1_2,,running
Status,1581,19763634144,/g3t1_1,,running
Status,1582,19763719446,/g3t1_2,,fail
Status,1583,19763752468,/g3t1_1,,fail
Status,1584,19764661559,/g3t1_3,,running
Status,1585,19764743838,/g3t1_3,,fail
Status,1586,19813966254,/g3t1_1,,running
Status,1587,19814072451,/g3t1_2,,running
Status,1588,19814328743,/g3t1_2,,fail
Status,1589,19814393952,/g3t1_1,,success
Status,1590,19814621047,/g3t1_3,,running
Status,1591,19814881944,/g3t1_3,,fail
Status,1592,19839535526,/g4t1,,success
Status,1593,19864061990,/g3t1_2,,running
Status,1594,19864217331,/g3t1_1,,running
Status,1595,19864260552,/g3t1_2,,fail
Status,1596,19864294039,/g3t1_1,,success
Status,1597,19864775541,/g3t1_3,,running
Status,1598,19865358938,/g3t1_3,,fail
Status,1599,19914002833,/g3t1_2,,running
Status,1600,19914071306,/g3t1_2,,fail
Status,1601,19914094566,/g3t1_1,,running
Status,1602,19914117426,/g3t1_1,,fail
Status,1603,19915075149,/g3t1_3,,running
Status,1604,19915149794,/g3t1_3,,fail
Status,1605,19939677308,/g4t1,,success
Status,1606,19964089245,/g3t1_1,,running
Status,1607,19964185632,/g3t1_2,,running
Status,1608,19964282604,/g3t1_2,,fail
Status,1609,19964317657,/g3t1_1,,fail
Status,1610,19964939146,/g3t1_3,,running
Status,1611,19965692609,/g3t1_3,,fail
Status,1612,20014381056,/g3t1_1,,running
Status,1613,20014582147,/g3t1_2,,running
Status,1614,20014631540,/g3t1_2,,fail
Status,1615,20015063316,/g3t1_1,,success
Status,1616,20015262516,/g3t1_3,,running
Status,1617,20015374838,/g3t1_3,,fail
Status,1618,20039728100,/g4t1,,success
Status,1619,20064435855,/g3t1_2,,running
Status,1620,20064574539,/g3t1_1,,running
Status,1621,20064675928,/g3t1_2,,fail
Status,1622,20065041610,/g3t1_1,,fail
Status,1623,20065493872,/g3t1_3,,running
Status,1624,20065576871,/g3t1_3,,fail
Status,1625,20114430085,/g3t1_2,,running
Status,1626,20114555007,/g3t1_1,,running
Status,1627,20114902027,/g3t1_1,,fail
Status,1628,20114942701,/g3t1_2,,fail
Status,1629,20115815805,/g3t1_3,,running
Status,1630,20115887972,/g3t1_3,,fail
Status,1631,20139830343,/g4t1,,success
Status,1632,20164598380,/g3t1_1,,running
Status,1633,20164683047,/g3t1_2,,running
Status,1634,20164777863,/g3t1_2,,fail
Status,1635,20164813564,/g3t1_1,,fail
Status,1636,20165648214,/g3t1_3,,running
Status,1637,20165723350,/g3t1_3,,fail
Status,1638,20214928640,/g3t1_1,,running
Status,1639,20215018503,/g3t1_2,,running
Status,1640,20215122478,/g3t1_1,,fail
Status,1641,20215152373,/g3t1_2,,fail
Status,1642,20215643324,/g3t1_3,,running
Status,1643,20215998687,/g3t1_3,,fail
Status,1644,20239795870,/g4t1,,success
Status,1645,20265000412,/g3t1_1,,running
Status,1646,20265078345,/g3t1_2,,running
Status,1647,20265308358,/g3t1_2,,fail
Status,1648,20265432256,/g3t1_1,,fail
Status,1649,20265792585,/g3t1_3,,running
Status,1650,20266141561,/g3t1_3,,fail
Status,1651,20314983058,/g3t1_1,,running
Status,1652,20315079733,/g3t1_2,,running
Status,1653,20315152297,/g3t1_2,,fail
Status,1654,20315193805,/g3t1_1,,fail
Status,1655,20315664481,/g3t1_3,,running
Status,1656,20315803733,/g3t1_3,,fail
Status,1660,20339980407,/g4t1,,success
Status,1661,20365348550,/g3t1_1,,running
Status,1662,20365434767,/g3t1_2,,running
Status,1663,20365570544,/g3t1_1,,fail
Status,1664,20365609888,/g3t1_2,,fail
Status,1665,20366033195,/g3t1_3,,running
Status,1666,20366169047,/g3t1_3,,fail
Status,1667,20415314889,/g3t1_1,,running
Status,1668,20415491217,/g3t1_2,,running
Status,1669,20416277113,/g3t1_1,,fail
Status,1670,20416337807,/g3t1_2,,fail
Status,1671,20416373436,/g3t1_3,,running
Status,1672,20416471764,/g3t1_3,,fail
Status,1673,20440053523,/g4t1,,success
Status,1674,20465553888,/g3t1_1,,running
Status,1675,20465663374,/g3t1_2,,running
Status,1676,20465777573,/g3t1_1,,fail
Status,1677,20465813180,/g3t1_2,,fail
Status,1678,20466128899,/g3t1_3,,running
Status,1679,20466210741,/g3t1_3,,fail
Status,1680,20514852033,/g3t1_1,,running
Status,1681,20514891171,/g3t1_2,,running
Status,1682,20515089244,/g3t1_1,,success
Status,1683,20515144087,/g3t1_2,,fail
Status,1684,20515658684,/g3t1_3,,running
Status,1685,20515798330,/g3t1_3,,fail
