
Status,1,20769139269,/g4t1,,init
Status,4,25780429784,/g3t1_2,,init
Status,5,25789334536,/g3t1_2,,init
Status,6,25789351415,/g3t1_2,,running
Status,7,25789666077,/g3t1_2,,success
Status,8,25989440937,/g3t1_2,,running
Status,9,25989818419,/g3t1_2,,success
Status,10,26189853127,/g3t1_2,,running
Status,11,26189884443,/g3t1_2,,success
Status,12,26389669528,/g3t1_2,,running
Status,13,26389685349,/g3t1_2,,success
Status,14,26589789544,/g3t1_2,,running
Status,15,26589942635,/g3t1_2,,success
Status,16,26780903464,/g4t1,,success
Status,17,26789916701,/g3t1_2,,running
Status,18,26789942791,/g3t1_2,,success
Status,19,26990421891,/g3t1_2,,running
Status,20,26991177877,/g3t1_2,,success
Status,21,27190877689,/g3t1_2,,running
Status,22,27191405428,/g3t1_2,,success
Status,23,27390457674,/g3t1_2,,running
Status,24,27390480924,/g3t1_2,,success
Status,25,27590771231,/g3t1_2,,running
Status,26,27591092740,/g3t1_2,,success
Status,27,27780880071,/g4t1,,success
Status,28,27790531049,/g3t1_2,,running
Status,29,27790654761,/g3t1_2,,success
Status,30,27991345624,/g3t1_2,,running
Status,31,27991713477,/g3t1_2,,success
Status,32,28191613933,/g3t1_2,,running
Status,33,28191843099,/g3t1_2,,success
Status,34,28391811231,/g3t1_2,,running
Status,35,28392218493,/g3t1_2,,success
Status,36,28592047784,/g3t1_2,,running
Status,37,28592885100,/g3t1_2,,success
Status,38,28781732600,/g4t1,,success
Status,39,28792715323,/g3t1_2,,running
Status,40,28792790411,/g3t1_2,,success
Status,41,28992460763,/g3t1_2,,running
Status,42,28992869776,/g3t1_2,,success
Status,43,29192762966,/g3t1_2,,running
Status,44,29193111095,/g3t1_2,,success
Status,45,29392960855,/g3t1_2,,running
Status,46,29393408089,/g3t1_2,,success
Status,47,29593017191,/g3t1_2,,running
Status,48,29593591005,/g3t1_2,,success
Status,49,29781810486,/g4t1,,success
Status,50,29793022297,/g3t1_2,,running
Status,51,29793617819,/g3t1_2,,success
Status,52,29992835380,/g3t1_2,,running
Status,53,29992862098,/g3t1_2,,success
Status,54,30192799071,/g3t1_2,,running
Status,55,30192830372,/g3t1_2,,success
Status,56,30393602991,/g3t1_2,,running
Status,57,30394048868,/g3t1_2,,success
Status,58,30593896407,/g3t1_2,,running
Status,59,30593972969,/g3t1_2,,success
Status,60,30781995148,/g4t1,,success
Status,61,30793849997,/g3t1_2,,running
Status,62,30793923618,/g3t1_2,,success
Status,63,30994128881,/g3t1_2,,running
Status,64,30994268132,/g3t1_2,,success
Status,65,31193922591,/g3t1_2,,running
Status,66,31194208162,/g3t1_2,,success
Status,67,31394231763,/g3t1_2,,running
Status,68,31394979552,/g3t1_2,,success
Status,69,31594479060,/g3t1_2,,running
Status,70,31595085938,/g3t1_2,,success
Status,71,31782081979,/g4t1,,success
Status,72,31794282545,/g3t1_2,,running
Status,73,31794710635,/g3t1_2,,success
Status,74,31994471538,/g3t1_2,,running
Status,75,31994951831,/g3t1_2,,success
Status,76,32193971842,/g3t1_2,,running
Status,77,32194070555,/g3t1_2,,success
Status,78,32394077482,/g3t1_2,,running
Status,79,32394213929,/g3t1_2,,success
Status,80,32594430498,/g3t1_2,,running
Status,81,32594580709,/g3t1_2,,success
Status,82,32781582530,/g4t1,,success
Status,83,32794467600,/g3t1_2,,running
Status,84,32794495224,/g3t1_2,,success
Status,85,32994685280,/g3t1_2,,running
Status,86,32994753726,/g3t1_2,,success
Status,87,33195756617,/g3t1_2,,running
Status,88,33196403349,/g3t1_2,,success
Status,89,33395708024,/g3t1_2,,running
Status,90,33396066461,/g3t1_2,,success
Status,91,33595862528,/g3t1_2,,running
Status,92,33596533037,/g3t1_2,,success
Status,93,33782403141,/g4t1,,success
Status,94,33795903105,/g3t1_2,,running
Status,95,33796015563,/g3t1_2,,success
Status,96,33996207306,/g3t1_2,,running
Status,97,33996717268,/g3t1_2,,success
Status,98,34196573576,/g3t1_2,,running
Status,99,34196922400,/g3t1_2,,success
Status,100,34396655629,/g3t1_2,,running
Status,101,34397212395,/g3t1_2,,success
Status,102,34596862051,/g3t1_2,,running
Status,103,34597246216,/g3t1_2,,success
Status,104,34782680575,/g4t1,,success
Status,105,34796873109,/g3t1_2,,running
Status,106,34797408253,/g3t1_2,,success
Status,107,34996289337,/g3t1_2,,running
Status,108,34996315996,/g3t1_2,,success
Status,109,35196268791,/g3t1_2,,running
Status,110,35196291177,/g3t1_2,,success
Status,111,35396365584,/g3t1_2,,running
Status,112,35396385702,/g3t1_2,,success
Status,113,35596399383,/g3t1_2,,running
Status,114,35596515915,/g3t1_2,,success
Status,115,35781878609,/g4t1,,success
Status,116,35796476413,/g3t1_2,,running
Status,117,35796559921,/g3t1_2,,success
Status,118,35996622462,/g3t1_2,,running
Status,119,35996684732,/g3t1_2,,success
Status,120,36196690101,/g3t1_2,,running
Status,121,36196780860,/g3t1_2,,success
Status,122,36397284937,/g3t1_2,,running
Status,123,36397484933,/g3t1_2,,success
Status,124,36597608079,/g3t1_2,,running
Status,125,36597858679,/g3t1_2,,success
Status,126,36782941593,/g4t1,,success
Status,127,36797871013,/g3t1_2,,running
Status,128,36798304336,/g3t1_2,,success
Status,129,36997910751,/g3t1_2,,running
Status,130,36998340056,/g3t1_2,,success
Status,131,37197331852,/g3t1_2,,running
Status,132,37197428137,/g3t1_2,,success
Status,133,37397984914,/g3t1_2,,running
Status,134,37398329265,/g3t1_2,,success
Status,135,37597565594,/g3t1_2,,running
Status,136,37597667250,/g3t1_2,,success
Status,137,37783086431,/g4t1,,success
Status,138,37798254110,/g3t1_2,,running
Status,139,37798409730,/g3t1_2,,success
Status,140,37998134436,/g3t1_2,,running
Status,141,37998318545,/g3t1_2,,success
Status,142,38198529637,/g3t1_2,,running
Status,143,38198948848,/g3t1_2,,success
Status,144,38398579876,/g3t1_2,,running
Status,145,38399051588,/g3t1_2,,success
Status,146,38598903211,/g3t1_2,,running
Status,147,38598975766,/g3t1_2,,success
Status,148,38783210024,/g4t1,,success
Status,149,38798549515,/g3t1_2,,running
Status,150,38798589538,/g3t1_2,,success
Status,151,38998400863,/g3t1_2,,running
Status,152,38998425695,/g3t1_2,,success
Status,153,39198569780,/g3t1_2,,running
Status,154,39198700625,/g3t1_2,,success
Status,155,39399309727,/g3t1_2,,running
Status,156,39399772328,/g3t1_2,,success
Status,157,39599573822,/g3t1_2,,running
Status,158,39599913536,/g3t1_2,,success
Status,159,39783464833,/g4t1,,success
Status,160,39799607833,/g3t1_2,,running
Status,161,39800192281,/g3t1_2,,success
Status,162,40000476129,/g3t1_2,,running
Status,163,40000879974,/g3t1_2,,success
Status,164,40200336139,/g3t1_2,,running
Status,165,40200675647,/g3t1_2,,success
Status,166,40400503868,/g3t1_2,,running
Status,167,40400578703,/g3t1_2,,success
Status,168,40600748684,/g3t1_2,,running
Status,169,40601262166,/g3t1_2,,success
Status,170,40783888857,/g4t1,,success
Status,171,40800603690,/g3t1_2,,running
Status,172,40801040578,/g3t1_2,,success
Status,173,41000726545,/g3t1_2,,running
Status,174,41000879935,/g3t1_2,,success
Status,175,41201096428,/g3t1_2,,running
Status,176,41201400843,/g3t1_2,,success
Status,177,41401576921,/g3t1_2,,running
Status,178,41402010069,/g3t1_2,,success
Status,179,41600992877,/g3t1_2,,running
Status,180,41601239637,/g3t1_2,,success
Status,181,41784207051,/g4t1,,success
Status,182,41801562645,/g3t1_2,,running
Status,183,41802409847,/g3t1_2,,success
Status,184,42001614598,/g3t1_2,,running
Status,185,42002333394,/g3t1_2,,success
Status,186,42201903748,/g3t1_2,,running
Status,187,42202205500,/g3t1_2,,success
Status,188,42402193016,/g3t1_2,,running
Status,189,42402281650,/g3t1_2,,success
Status,190,42602322780,/g3t1_2,,running
Status,191,42603182599,/g3t1_2,,success
Status,192,42784386516,/g4t1,,success
Status,193,42802483646,/g3t1_2,,running
Status,194,42803268042,/g3t1_2,,success
Status,195,43002422453,/g3t1_2,,running
Status,196,43003081889,/g3t1_2,,success
Status,197,43202740550,/g3t1_2,,running
Status,198,43203368993,/g3t1_2,,success
Status,199,43402580395,/g3t1_2,,running
Status,200,43402834765,/g3t1_2,,success
Status,201,43603084118,/g3t1_2,,running
Status,202,43603151334,/g3t1_2,,success
Status,203,43784191574,/g4t1,,success
Status,204,43802712930,/g3t1_2,,running
Status,205,43803315653,/g3t1_2,,success
Status,206,44003016943,/g3t1_2,,running
Status,207,44003443791,/g3t1_2,,success
Status,208,44203291346,/g3t1_2,,running
Status,209,44203680999,/g3t1_2,,success
Status,210,44403484523,/g3t1_2,,running
Status,211,44403799773,/g3t1_2,,success
Status,212,44603449736,/g3t1_2,,running
Status,213,44603857115,/g3t1_2,,success
Status,214,44784496507,/g4t1,,success
Status,215,44803532268,/g3t1_2,,running
Status,216,44803979483,/g3t1_2,,success
Status,217,45003815134,/g3t1_2,,running
Status,218,45004348167,/g3t1_2,,success
Status,219,45204562728,/g3t1_2,,running
Status,220,45204638924,/g3t1_2,,success
Status,221,45404439042,/g3t1_2,,running
Status,222,45405015518,/g3t1_2,,success
Status,223,45604206439,/g3t1_2,,running
Status,224,45604300982,/g3t1_2,,success
Status,225,45784959213,/g4t1,,success
Status,226,45804621412,/g3t1_2,,running
Status,227,45805127264,/g3t1_2,,success
Status,228,46005141788,/g3t1_2,,running
Status,229,46005599935,/g3t1_2,,success
Status,230,46205645792,/g3t1_2,,running
Status,231,46205743045,/g3t1_2,,success
Status,232,46405402956,/g3t1_2,,running
Status,233,46405902272,/g3t1_2,,success
Status,234,46606073202,/g3t1_2,,running
Status,235,46606424823,/g3t1_2,,success
Status,236,46785070257,/g4t1,,success
Status,237,46805717854,/g3t1_2,,running
Status,238,46806165966,/g3t1_2,,success
Status,239,47006166393,/g3t1_2,,running
Status,240,47006670715,/g3t1_2,,success
Status,241,47206038861,/g3t1_2,,running
Status,242,47206326289,/g3t1_2,,success
Status,243,47405909369,/g3t1_2,,running
Status,244,47406280235,/g3t1_2,,success
Status,245,47606443929,/g3t1_2,,running
Status,246,47606680509,/g3t1_2,,success
Status,247,47785570482,/g4t1,,success
Status,248,47806635002,/g3t1_2,,running
Status,249,47807036199,/g3t1_2,,success
Status,250,48006650784,/g3t1_2,,running
Status,251,48007041636,/g3t1_2,,success
Status,252,48206965419,/g3t1_2,,running
Status,253,48207291376,/g3t1_2,,success
Status,254,48407095015,/g3t1_2,,running
Status,255,48407492392,/g3t1_2,,success
Status,256,48607245770,/g3t1_2,,running
Status,257,48607373630,/g3t1_2,,success
Status,258,48785545601,/g4t1,,success
Status,259,48807503967,/g3t1_2,,running
Status,260,48807576299,/g3t1_2,,success
Status,261,49007757100,/g3t1_2,,running
Status,262,49008403243,/g3t1_2,,success
Status,263,49208038829,/g3t1_2,,running
Status,264,49208906672,/g3t1_2,,success
Status,265,49408432383,/g3t1_2,,running
Status,266,49409314151,/g3t1_2,,success
Status,267,49608712129,/g3t1_2,,running
Status,268,49609220056,/g3t1_2,,success
Status,269,49785757492,/g4t1,,success
Status,270,49808594650,/g3t1_2,,running
Status,271,49809042657,/g3t1_2,,success
Status,272,50009137356,/g3t1_2,,running
Status,273,50009642746,/g3t1_2,,success
Status,274,50209610368,/g3t1_2,,running
Status,275,50209700699,/g3t1_2,,success
Status,276,50409599953,/g3t1_2,,running
Status,277,50410122031,/g3t1_2,,success
Status,278,50609635251,/g3t1_2,,running
Status,279,50610380368,/g3t1_2,,success
Status,280,50785797621,/g4t1,,success
Status,281,50809732716,/g3t1_2,,running
Status,282,50809805301,/g3t1_2,,success
Status,283,51009975019,/g3t1_2,,running
Status,284,51010088375,/g3t1_2,,success
Status,285,51210065555,/g3t1_2,,running
Status,286,51210441138,/g3t1_2,,success
Status,287,51410086884,/g3t1_2,,running
Status,288,51410470638,/g3t1_2,,success
Status,289,51609992071,/g3t1_2,,running
Status,290,51610466112,/g3t1_2,,success
Status,291,51785853540,/g4t1,,success
Status,292,51810337014,/g3t1_2,,running
Status,293,51810427633,/g3t1_2,,success
Status,294,52010826235,/g3t1_2,,running
Status,295,52010919693,/g3t1_2,,success
Status,296,52210835577,/g3t1_2,,running
Status,297,52211715553,/g3t1_2,,success
Status,298,52411142428,/g3t1_2,,running
Status,299,52411796988,/g3t1_2,,success
Status,300,52610547895,/g3t1_2,,running
Status,301,52610784794,/g3t1_2,,success
Status,302,52786090979,/g4t1,,success
Status,303,52811395846,/g3t1_2,,running
Status,304,52811866448,/g3t1_2,,success
Status,305,53011563443,/g3t1_2,,running
Status,306,53012044700,/g3t1_2,,success
Status,307,53211758186,/g3t1_2,,running
Status,308,53212215185,/g3t1_2,,success
Status,309,53412356620,/g3t1_2,,running
Status,310,53413126838,/g3t1_2,,success
Status,311,53612398558,/g3t1_2,,running
Status,312,53612925997,/g3t1_2,,success
Status,313,53786136597,/g4t1,,success
Status,314,53812177875,/g3t1_2,,running
Status,315,53812433703,/g3t1_2,,success
Status,316,54012883996,/g3t1_2,,running
Status,317,54013321529,/g3t1_2,,success
Status,318,54212862705,/g3t1_2,,running
Status,319,54213181099,/g3t1_2,,success
Status,320,54413038889,/g3t1_2,,running
Status,321,54413110756,/g3t1_2,,success
Status,322,54613487987,/g3t1_2,,running
Status,323,54614306383,/g3t1_2,,success
Status,324,54786475245,/g4t1,,success
Status,325,54813494633,/g3t1_2,,running
Status,326,54814015067,/g3t1_2,,success
Status,327,55013722965,/g3t1_2,,running
Status,328,55014301496,/g3t1_2,,success
Status,329,55213762371,/g3t1_2,,running
Status,330,55214476586,/g3t1_2,,success
Status,332,55413802140,/g3t1_2,,running
Status,333,55414258076,/g3t1_2,,fail
Status,336,55614203184,/g3t1_2,,running
Status,337,55614732223,/g3t1_2,,success
Status,339,55786680955,/g4t1,,success
Status,340,55814438158,/g3t1_2,,running
Status,341,55815093472,/g3t1_2,,success
Status,343,56014578882,/g3t1_2,,running
Status,344,56014856765,/g3t1_2,,success
Status,346,56214848291,/g3t1_2,,running
Status,347,56214929663,/g3t1_2,,fail
Status,349,56415225227,/g3t1_2,,running
Status,350,56415311422,/g3t1_2,,success
Status,352,56615347129,/g3t1_2,,running
Status,353,56615945667,/g3t1_2,,success
Status,355,56786860548,/g4t1,,success
Status,356,56815455914,/g3t1_2,,running
Status,357,56815961868,/g3t1_2,,success
Status,359,57015514461,/g3t1_2,,running
Status,360,57015581238,/g3t1_2,,fail
Status,362,57215775969,/g3t1_2,,running
Status,363,57216327188,/g3t1_2,,success
Status,365,57416406465,/g3t1_2,,running
Status,366,57416803004,/g3t1_2,,success
Status,368,57615467508,/g3t1_2,,running
Status,369,57615709761,/g3t1_2,,success
Status,372,57786966751,/g4t1,,success
Status,373,57816308268,/g3t1_2,,running
Status,374,57816389438,/g3t1_2,,success
Status,376,58016477000,/g3t1_2,,running
Status,377,58017234787,/g3t1_2,,success
Status,379,58216868942,/g3t1_2,,running
Status,380,58217485961,/g3t1_2,,success
Status,382,58417182492,/g3t1_2,,running
Status,383,58417690806,/g3t1_2,,success
Status,385,58617264496,/g3t1_2,,running
Status,386,58617866990,/g3t1_2,,success
Status,388,58787093006,/g4t1,,success
Status,389,58817277541,/g3t1_2,,running
Status,390,58817356214,/g3t1_2,,fail
Status,392,59017571725,/g3t1_2,,running
Status,393,59018130039,/g3t1_2,,success
Status,395,59217621234,/g3t1_2,,running
Status,396,59218057825,/g3t1_2,,success
Status,398,59417618114,/g3t1_2,,running
Status,399,59418050829,/g3t1_2,,success
Status,401,59617798018,/g3t1_2,,running
Status,402,59618247555,/g3t1_2,,success
Status,404,59787414729,/g4t1,,success
Status,405,59817842707,/g3t1_2,,running
Status,406,59818198563,/g3t1_2,,success
Status,409,60018128619,/g3t1_2,,running
Status,410,60018593464,/g3t1_2,,success
Status,412,60218182401,/g3t1_2,,running
Status,413,60218329465,/g3t1_2,,success
Status,415,60418240090,/g3t1_2,,running
Status,416,60418848753,/g3t1_2,,success
Status,418,60618735997,/g3t1_2,,running
Status,419,60619089607,/g3t1_2,,success
Status,421,60787621141,/g4t1,,success
Status,422,60818664454,/g3t1_2,,running
Status,423,60818739853,/g3t1_2,,success
Status,425,61018082585,/g3t1_2,,running
Status,426,61018117679,/g3t1_2,,success
Status,428,61218671614,/g3t1_2,,running
Status,429,61218952704,/g3t1_2,,success
Status,431,61418819756,/g3t1_2,,running
Status,432,61419503865,/g3t1_2,,success
Status,434,61619013651,/g3t1_2,,running
Status,435,61619902092,/g3t1_2,,success
Status,437,61787554568,/g4t1,,success
Status,438,61819460176,/g3t1_2,,running
Status,439,61819554767,/g3t1_2,,fail
Status,441,62019436740,/g3t1_2,,running
Status,442,62019887551,/g3t1_2,,success
Status,445,62219304606,/g3t1_2,,running
Status,446,62219745510,/g3t1_2,,success
Status,448,62418768978,/g3t1_2,,running
Status,449,62418901971,/g3t1_2,,success
Status,451,62618939571,/g3t1_2,,running
Status,452,62618966339,/g3t1_2,,success
Status,454,62786948952,/g4t1,,success
Status,455,62819059224,/g3t1_2,,running
Status,456,62819515489,/g3t1_2,,success
Status,458,63019242966,/g3t1_2,,running
Status,459,63019271629,/g3t1_2,,success
Status,461,63219746379,/g3t1_2,,running
Status,462,63220104145,/g3t1_2,,success
Status,464,63420056695,/g3t1_2,,running
Status,465,63420922772,/g3t1_2,,success
Status,467,63620179584,/g3t1_2,,running
Status,468,63620314121,/g3t1_2,,success
Status,470,63788214534,/g4t1,,success
Status,471,63820332733,/g3t1_2,,running
Status,472,63820681231,/g3t1_2,,success
Status,474,64020739410,/g3t1_2,,running
Status,475,64021271931,/g3t1_2,,success
Status,477,64220853939,/g3t1_2,,running
Status,478,64221419161,/g3t1_2,,success
Status,481,64421044033,/g3t1_2,,running
Status,482,64421380401,/g3t1_2,,success
Status,484,64621271791,/g3t1_2,,running
Status,485,64621557579,/g3t1_2,,success
Status,487,64788159443,/g4t1,,success
Status,488,64821456913,/g3t1_2,,running
Status,489,64821900365,/g3t1_2,,success
Status,491,65021682343,/g3t1_2,,running
Status,492,65021789482,/g3t1_2,,fail
Status,494,65221803652,/g3t1_2,,running
Status,495,65222631970,/g3t1_2,,success
Status,497,65421799916,/g3t1_2,,running
Status,498,65421893487,/g3t1_2,,success
Status,500,65621904290,/g3t1_2,,running
Status,501,65622367507,/g3t1_2,,success
Status,503,65788526959,/g4t1,,success
Status,504,65821906774,/g3t1_2,,running
Status,505,65822315012,/g3t1_2,,success
Status,507,66022433162,/g3t1_2,,running
Status,508,66022935408,/g3t1_2,,success
Status,510,66221580592,/g3t1_2,,running
Status,511,66221605964,/g3t1_2,,fail
Status,513,66422367522,/g3t1_2,,running
Status,514,66422864779,/g3t1_2,,success
Status,517,66622577297,/g3t1_2,,running
Status,518,66623005212,/g3t1_2,,success
Status,520,66788087328,/g4t1,,success
Status,521,66822689942,/g3t1_2,,running
Status,522,66822964524,/g3t1_2,,success
Status,524,67023553789,/g3t1_2,,running
Status,525,67023796827,/g3t1_2,,success
Status,527,67223399527,/g3t1_2,,running
Status,528,67223948564,/g3t1_2,,success
Status,530,67423633684,/g3t1_2,,running
Status,531,67424024164,/g3t1_2,,success
Status,533,67624231183,/g3t1_2,,running
Status,534,67624839895,/g3t1_2,,success
Status,536,67788988815,/g4t1,,success
Status,537,67824081698,/g3t1_2,,running
Status,538,67824791992,/g3t1_2,,success
Status,540,68024604210,/g3t1_2,,running
Status,541,68024712909,/g3t1_2,,success
Status,543,68224593443,/g3t1_2,,running
Status,544,68224970467,/g3t1_2,,success
Status,546,68425224877,/g3t1_2,,running
Status,547,68425353001,/g3t1_2,,success
Status,549,68625179000,/g3t1_2,,running
Status,550,68625676275,/g3t1_2,,success
Status,553,68789125925,/g4t1,,success
Status,554,68825146802,/g3t1_2,,running
Status,555,68825598712,/g3t1_2,,success
Status,557,69025657252,/g3t1_2,,running
Status,558,69026499356,/g3t1_2,,success
Status,560,69225788520,/g3t1_2,,running
Status,561,69226760012,/g3t1_2,,success
Status,563,69426220347,/g3t1_2,,running
Status,564,69426289111,/g3t1_2,,success
Status,566,69625838543,/g3t1_2,,running
Status,567,69626261954,/g3t1_2,,success
Status,569,69789260957,/g4t1,,success
Status,570,69826050322,/g3t1_2,,running
Status,571,69826443782,/g3t1_2,,success
Status,573,70026484027,/g3t1_2,,running
Status,574,70026990952,/g3t1_2,,success
Status,576,70226488616,/g3t1_2,,running
Status,577,70226984235,/g3t1_2,,success
Status,579,70426843434,/g3t1_2,,running
Status,580,70426924287,/g3t1_2,,fail
Status,582,70626811270,/g3t1_2,,running
Status,583,70627455433,/g3t1_2,,success
Status,585,70789674705,/g4t1,,success
Status,586,70826805146,/g3t1_2,,running
Status,587,70826972185,/g3t1_2,,fail
Status,590,71027141776,/g3t1_2,,running
Status,591,71028201107,/g3t1_2,,success
Status,593,71227173263,/g3t1_2,,running
Status,594,71227579028,/g3t1_2,,success
Status,596,71427623518,/g3t1_2,,running
Status,597,71427989852,/g3t1_2,,success
Status,599,71627003869,/g3t1_2,,running
Status,600,71627209759,/g3t1_2,,success
Status,602,71789653964,/g4t1,,success
Status,603,71827665853,/g3t1_2,,running
Status,604,71828154790,/g3t1_2,,success
Status,606,72027948621,/g3t1_2,,running
Status,607,72028809800,/g3t1_2,,success
Status,609,72227268103,/g3t1_2,,running
Status,610,72227296773,/g3t1_2,,success
Status,612,72427273974,/g3t1_2,,running
Status,613,72427293101,/g3t1_2,,success
Status,615,72627543040,/g3t1_2,,running
Status,616,72627954182,/g3t1_2,,success
Status,618,72789419442,/g4t1,,success
Status,619,72827703887,/g3t1_2,,running
Status,620,72827732457,/g3t1_2,,fail
Status,622,73027790749,/g3t1_2,,running
Status,623,73027822138,/g3t1_2,,success
Status,626,73228634245,/g3t1_2,,running
Status,627,73229444417,/g3t1_2,,success
Status,629,73427947743,/g3t1_2,,running
Status,630,73428082964,/g3t1_2,,success
Status,632,73627988575,/g3t1_2,,running
Status,633,73628094389,/g3t1_2,,success
Status,635,73789063085,/g4t1,,success
Status,636,73828127332,/g3t1_2,,running
Status,637,73828151460,/g3t1_2,,success
Status,639,74028994513,/g3t1_2,,running
Status,640,74029628993,/g3t1_2,,success
Status,642,74228540539,/g3t1_2,,running
Status,643,74228733771,/g3t1_2,,success
Status,645,74429188123,/g3t1_2,,running
Status,646,74429273276,/g3t1_2,,success
Status,648,74629582521,/g3t1_2,,running
Status,649,74630176717,/g3t1_2,,success
Status,651,74789974212,/g4t1,,success
Status,652,74829587381,/g3t1_2,,running
Status,653,74830441097,/g3t1_2,,success
Status,655,75029925807,/g3t1_2,,running
Status,656,75030650860,/g3t1_2,,success
Status,658,75229393036,/g3t1_2,,running
Status,659,75229427677,/g3t1_2,,success
Status,662,75430127301,/g3t1_2,,running
Status,663,75430197662,/g3t1_2,,success
Status,665,75630153861,/g3t1_2,,running
Status,666,75631829968,/g3t1_2,,success
Status,668,75789543211,/g4t1,,success
Status,669,75829680134,/g3t1_2,,running
Status,670,75829852399,/g3t1_2,,fail
Status,672,76029563560,/g3t1_2,,running
Status,673,76029758375,/g3t1_2,,success
Status,675,76229751867,/g3t1_2,,running
Status,676,76229895846,/g3t1_2,,success
Status,678,76429895981,/g3t1_2,,running
Status,679,76429919634,/g3t1_2,,success
Status,681,76630620356,/g3t1_2,,running
Status,682,76630749179,/g3t1_2,,success
Status,684,76789478281,/g4t1,,success
Status,685,76830195807,/g3t1_2,,running
Status,686,76830237975,/g3t1_2,,success
Status,688,77030554155,/g3t1_2,,running
Status,689,77030800127,/g3t1_2,,success
Status,691,77230574228,/g3t1_2,,running
Status,692,77230716281,/g3t1_2,,success
Status,694,77431072094,/g3t1_2,,running
Status,695,77431774963,/g3t1_2,,success
Status,698,77631326542,/g3t1_2,,running
Status,699,77632102788,/g3t1_2,,success
Status,701,77790328824,/g4t1,,success
Status,702,77830862912,/g3t1_2,,running
Status,703,77831166066,/g3t1_2,,success
Status,705,78031707532,/g3t1_2,,running
Status,706,78032573079,/g3t1_2,,success
Status,708,78232381277,/g3t1_2,,running
Status,709,78232781847,/g3t1_2,,success
Status,711,78432139940,/g3t1_2,,running
Status,712,78432932278,/g3t1_2,,success
Status,714,78632611767,/g3t1_2,,running
Status,715,78633491382,/g3t1_2,,success
Status,717,78790610104,/g4t1,,success
Status,718,78832505340,/g3t1_2,,running
Status,719,78832581684,/g3t1_2,,success
Status,721,79032921860,/g3t1_2,,running
Status,722,79033686612,/g3t1_2,,success
Status,724,79233113308,/g3t1_2,,running
Status,725,79233184192,/g3t1_2,,success
Status,727,79433322200,/g3t1_2,,running
Status,728,79433878108,/g3t1_2,,success
Status,730,79633448319,/g3t1_2,,running
Status,731,79634290406,/g3t1_2,,success
Status,734,79790845969,/g4t1,,success
Status,735,79833619632,/g3t1_2,,running
Status,736,79833691200,/g3t1_2,,success
Status,738,80033745851,/g3t1_2,,running
Status,739,80034162782,/g3t1_2,,success
Status,741,80233956147,/g3t1_2,,running
Status,742,80234273071,/g3t1_2,,success
Status,744,80434321299,/g3t1_2,,running
Status,745,80434418907,/g3t1_2,,fail
Status,747,80634170623,/g3t1_2,,running
Status,748,80634782848,/g3t1_2,,success
Status,750,80791060532,/g4t1,,success
Status,751,80834374186,/g3t1_2,,running
Status,752,80834654708,/g3t1_2,,success
Status,754,81033861910,/g3t1_2,,running
Status,755,81034100678,/g3t1_2,,success
Status,757,81234713892,/g3t1_2,,running
Status,758,81235492125,/g3t1_2,,success
Status,760,81434722243,/g3t1_2,,running
Status,761,81435285050,/g3t1_2,,success
Status,763,81635226075,/g3t1_2,,running
Status,764,81635541561,/g3t1_2,,success
Status,766,81791191685,/g4t1,,success
Status,767,81834931303,/g3t1_2,,running
Status,768,81835235469,/g3t1_2,,success
Status,771,82035398423,/g3t1_2,,running
Status,772,82035479573,/g3t1_2,,success
Status,774,82235929644,/g3t1_2,,running
Status,775,82236321406,/g3t1_2,,success
Status,777,82435004430,/g3t1_2,,running
Status,778,82435231330,/g3t1_2,,success
Status,780,82635092545,/g3t1_2,,running
Status,781,82635247446,/g3t1_2,,success
Status,783,82791418842,/g4t1,,success
Status,784,82835724163,/g3t1_2,,running
Status,785,82836296010,/g3t1_2,,success
Status,787,83036126629,/g3t1_2,,running
Status,788,83036560603,/g3t1_2,,success
Status,790,83236900980,/g3t1_2,,running
Status,791,83236980726,/g3t1_2,,success
Status,793,83436413854,/g3t1_2,,running
Status,794,83436923150,/g3t1_2,,success
Status,796,83636063415,/g3t1_2,,running
Status,797,83636429553,/g3t1_2,,success
Status,799,83791601526,/g4t1,,success
Status,800,83836913535,/g3t1_2,,running
Status,801,83837278308,/g3t1_2,,success
Status,803,84036941950,/g3t1_2,,running
Status,804,84037016322,/g3t1_2,,success
Status,807,84237391234,/g3t1_2,,running
Status,808,84237490705,/g3t1_2,,fail
Status,810,84436339209,/g3t1_2,,running
Status,811,84436457279,/g3t1_2,,success
Status,813,84637399248,/g3t1_2,,running
Status,814,84637470941,/g3t1_2,,success
Status,816,84791578564,/g4t1,,success
Status,817,84837400171,/g3t1_2,,running
Status,818,84837808439,/g3t1_2,,success
Status,820,85037547119,/g3t1_2,,running
Status,821,85037797255,/g3t1_2,,success
Status,823,85237109225,/g3t1_2,,running
Status,824,85237295961,/g3t1_2,,success
Status,826,85438054001,/g3t1_2,,running
Status,827,85438135886,/g3t1_2,,success
Status,829,85638033611,/g3t1_2,,running
Status,830,85639532474,/g3t1_2,,success
Status,832,85791782801,/g4t1,,success
Status,833,85837297949,/g3t1_2,,running
Status,834,85837432364,/g3t1_2,,success
Status,836,86038487861,/g3t1_2,,running
Status,837,86038567477,/g3t1_2,,success
Status,839,86238580183,/g3t1_2,,running
Status,840,86239145977,/g3t1_2,,success
Status,843,86438680676,/g3t1_2,,running
Status,844,86439151582,/g3t1_2,,success
Status,846,86638474613,/g3t1_2,,running
Status,847,86638874781,/g3t1_2,,success
Status,849,86792396742,/g4t1,,success
Status,850,86838856934,/g3t1_2,,running
Status,851,86839013486,/g3t1_2,,success
Status,853,87039143777,/g3t1_2,,running
Status,854,87039928783,/g3t1_2,,success
Status,856,87238546504,/g3t1_2,,running
Status,857,87238762931,/g3t1_2,,success
Status,859,87439694716,/g3t1_2,,running
Status,860,87439784914,/g3t1_2,,success
Status,862,87639629831,/g3t1_2,,running
Status,863,87640235023,/g3t1_2,,success
Status,865,87792346665,/g4t1,,success
Status,866,87839712706,/g3t1_2,,running
Status,867,87840178825,/g3t1_2,,success
Status,869,88039989989,/g3t1_2,,running
Status,870,88040700390,/g3t1_2,,success
Status,872,88239988812,/g3t1_2,,running
Status,873,88240215270,/g3t1_2,,success
Status,875,88440204781,/g3t1_2,,running
Status,876,88440388483,/g3t1_2,,fail
Status,879,88640562327,/g3t1_2,,running
Status,880,88641079376,/g3t1_2,,success
Status,882,88792293163,/g4t1,,success
Status,883,88839830518,/g3t1_2,,running
Status,884,88839858791,/g3t1_2,,success
Status,886,89040614289,/g3t1_2,,running
Status,887,89041129660,/g3t1_2,,success
Status,889,89239940408,/g3t1_2,,running
Status,890,89239960480,/g3t1_2,,success
Status,892,89440094805,/g3t1_2,,running
Status,893,89440118900,/g3t1_2,,success
Status,895,89641068848,/g3t1_2,,running
Status,896,89641145228,/g3t1_2,,success
Status,898,89792423991,/g4t1,,success
Status,899,89840999454,/g3t1_2,,running
Status,900,89841460580,/g3t1_2,,success
Status,902,90040477693,/g3t1_2,,running
Status,903,90040648396,/g3t1_2,,success
Status,905,90241612274,/g3t1_2,,running
Status,906,90241683859,/g3t1_2,,fail
Status,908,90441350391,/g3t1_2,,running
Status,909,90441730266,/g3t1_2,,success
Status,911,90640892370,/g3t1_2,,running
Status,912,90640922426,/g3t1_2,,success
Status,915,90791831276,/g4t1,,success
Status,916,90841082919,/g3t1_2,,running
Status,917,90841123405,/g3t1_2,,success
Status,919,91041906127,/g3t1_2,,running
Status,920,91042007796,/g3t1_2,,success
Status,922,91242223180,/g3t1_2,,running
Status,923,91242325474,/g3t1_2,,fail
Status,925,91442385834,/g3t1_2,,running
Status,926,91443310531,/g3t1_2,,success
Status,928,91642550277,/g3t1_2,,running
Status,929,91643158816,/g3t1_2,,success
Status,931,91791926207,/g4t1,,success
Status,932,91841781725,/g3t1_2,,running
Status,933,91841896323,/g3t1_2,,success
Status,935,92042432295,/g3t1_2,,running
Status,936,92042716329,/g3t1_2,,success
Status,938,92242657980,/g3t1_2,,running
Status,939,92243074429,/g3t1_2,,success
Status,941,92442670664,/g3t1_2,,running
Status,942,92443149267,/g3t1_2,,success
Status,944,92642956677,/g3t1_2,,running
Status,945,92643451194,/g3t1_2,,success
Status,947,92792198619,/g4t1,,success
Status,948,92843014437,/g3t1_2,,running
Status,949,92843453777,/g3t1_2,,success
Status,952,93043381498,/g3t1_2,,running
Status,953,93043777572,/g3t1_2,,success
Status,955,93243072200,/g3t1_2,,running
Status,956,93243266137,/g3t1_2,,success
Status,958,93443750896,/g3t1_2,,running
Status,959,93444226224,/g3t1_2,,success
Status,961,93643055791,/g3t1_2,,running
Status,962,93643079539,/g3t1_2,,success
Status,964,93792890965,/g4t1,,success
Status,965,93844175673,/g3t1_2,,running
Status,966,93844305860,/g3t1_2,,success
Status,968,94044341866,/g3t1_2,,running
Status,969,94044921312,/g3t1_2,,success
Status,971,94244858518,/g3t1_2,,running
Status,972,94245227863,/g3t1_2,,success
Status,974,94444795999,/g3t1_2,,running
Status,975,94445313829,/g3t1_2,,success
Status,977,94643872383,/g3t1_2,,running
Status,978,94643903325,/g3t1_2,,success
Status,980,94793235634,/g4t1,,success
Status,981,94844822898,/g3t1_2,,running
Status,982,94844894372,/g3t1_2,,success
Status,984,95045513734,/g3t1_2,,running
Status,985,95045848425,/g3t1_2,,success
Status,988,95245647020,/g3t1_2,,running
Status,989,95246572731,/g3t1_2,,success
Status,991,95446011714,/g3t1_2,,running
Status,992,95446307989,/g3t1_2,,success
Status,994,95645871523,/g3t1_2,,running
Status,995,95645942622,/g3t1_2,,success
Status,997,95793279403,/g4t1,,success
Status,998,95846119541,/g3t1_2,,running
Status,999,95846211758,/g3t1_2,,success
Status,1001,96046381105,/g3t1_2,,running
Status,1002,96046919177,/g3t1_2,,success
Status,1004,96246351189,/g3t1_2,,running
Status,1005,96246421490,/g3t1_2,,success
Status,1007,96446366206,/g3t1_2,,running
Status,1008,96446862400,/g3t1_2,,success
Status,1010,96646074792,/g3t1_2,,running
Status,1011,96646120171,/g3t1_2,,success
Status,1013,96793557341,/g4t1,,success
Status,1014,96846855433,/g3t1_2,,running
Status,1015,96846940156,/g3t1_2,,success
Status,1017,97046852583,/g3t1_2,,running
Status,1018,97047108759,/g3t1_2,,success
Status,1020,97246991157,/g3t1_2,,running
Status,1021,97247476995,/g3t1_2,,success
Status,1024,97447454240,/g3t1_2,,running
Status,1025,97448588880,/g3t1_2,,success
Status,1027,97647460953,/g3t1_2,,running
Status,1028,97647551595,/g3t1_2,,fail
Status,1030,97793641019,/g4t1,,success
Status,1031,97847403348,/g3t1_2,,running
Status,1032,97847686741,/g3t1_2,,success
Status,1034,98047905277,/g3t1_2,,running
Status,1035,98048737977,/g3t1_2,,success
Status,1037,98248489489,/g3t1_2,,running
Status,1038,98248592506,/g3t1_2,,success
Status,1040,98448345331,/g3t1_2,,running
Status,1041,98448864627,/g3t1_2,,success
Status,1043,98648656854,/g3t1_2,,running
Status,1044,98649187438,/g3t1_2,,success
Status,1046,98793903509,/g4t1,,success
Status,1047,98848137686,/g3t1_2,,running
Status,1048,98848352993,/g3t1_2,,success
Status,1050,99048768582,/g3t1_2,,running
Status,1051,99049319241,/g3t1_2,,success
Status,1053,99249342571,/g3t1_2,,running
Status,1054,99249565469,/g3t1_2,,success
Status,1056,99448494208,/g3t1_2,,running
Status,1057,99448547461,/g3t1_2,,success
Status,1060,99649177528,/g3t1_2,,running
Status,1061,99649516503,/g3t1_2,,success
Status,1063,99793968577,/g4t1,,success
Status,1064,99849165594,/g3t1_2,,running
Status,1065,99849648475,/g3t1_2,,success
Status,1067,100049898051,/g3t1_2,,running
Status,1068,100049978211,/g3t1_2,,success
Status,1070,100249318711,/g3t1_2,,running
Status,1071,100250485029,/g3t1_2,,success
Status,1073,100449790333,/g3t1_2,,running
Status,1074,100450298809,/g3t1_2,,success
Status,1076,100649718552,/g3t1_2,,running
Status,1077,100649779182,/g3t1_2,,fail
Status,1079,100793617494,/g4t1,,success
Status,1080,100849910491,/g3t1_2,,running
Status,1081,100850328222,/g3t1_2,,success
Status,1083,101049995803,/g3t1_2,,running
Status,1084,101050410199,/g3t1_2,,success
Status,1086,101250636726,/g3t1_2,,running
Status,1087,101251152823,/g3t1_2,,success
Status,1089,101450511350,/g3t1_2,,running
Status,1090,101451055974,/g3t1_2,,success
Status,1092,101650901573,/g3t1_2,,running
Status,1093,101651433389,/g3t1_2,,success
Status,1096,101794276169,/g4t1,,success
Status,1097,101850678345,/g3t1_2,,running
Status,1098,101851095378,/g3t1_2,,success
Status,1100,102050618790,/g3t1_2,,running
Status,1101,102051364669,/g3t1_2,,success
Status,1103,102250899057,/g3t1_2,,running
Status,1104,102251607954,/g3t1_2,,success
Status,1106,102451359052,/g3t1_2,,running
Status,1107,102451902586,/g3t1_2,,success
Status,1109,102651322255,/g3t1_2,,running
Status,1110,102651854669,/g3t1_2,,success
Status,1112,102793841605,/g4t1,,success
Status,1113,102850801564,/g3t1_2,,running
Status,1114,102851023477,/g3t1_2,,success
Status,1116,103051539225,/g3t1_2,,running
Status,1117,103051889923,/g3t1_2,,success
Status,1119,103251927168,/g3t1_2,,running
Status,1120,103252478694,/g3t1_2,,success
Status,1122,103452153818,/g3t1_2,,running
Status,1123,103452228404,/g3t1_2,,success
Status,1125,103651816479,/g3t1_2,,running
Status,1126,103651858266,/g3t1_2,,success
Status,1128,103794525078,/g4t1,,success
Status,1129,103852378119,/g3t1_2,,running
Status,1130,103852726855,/g3t1_2,,success
Status,1133,104052716595,/g3t1_2,,running
Status,1134,104053352633,/g3t1_2,,success
Status,1136,104253164321,/g3t1_2,,running
Status,1137,104253504505,/g3t1_2,,success
Status,1139,104452967087,/g3t1_2,,running
Status,1140,104453317608,/g3t1_2,,success
Status,1142,104653115779,/g3t1_2,,running
Status,1143,104653757894,/g3t1_2,,success
Status,1145,104793969225,/g4t1,,success
Status,1146,104853330553,/g3t1_2,,running
Status,1147,104854115020,/g3t1_2,,success
Status,1149,105053664050,/g3t1_2,,running
Status,1150,105054310739,/g3t1_2,,success
Status,1152,105253362426,/g3t1_2,,running
Status,1153,105253742717,/g3t1_2,,success
Status,1155,105453681626,/g3t1_2,,running
Status,1156,105454190128,/g3t1_2,,success
Status,1158,105653797618,/g3t1_2,,running
Status,1159,105654519505,/g3t1_2,,success
Status,1161,105794932535,/g4t1,,success
Status,1162,105854279206,/g3t1_2,,running
Status,1163,105854345723,/g3t1_2,,success
Status,1165,106053888987,/g3t1_2,,running
Status,1166,106054232383,/g3t1_2,,success
Status,1169,106254140043,/g3t1_2,,running
Status,1170,106255047697,/g3t1_2,,success
Status,1172,106454287298,/g3t1_2,,running
Status,1173,106454363190,/g3t1_2,,success
Status,1175,106654146525,/g3t1_2,,running
Status,1176,106654612879,/g3t1_2,,success
Status,1178,106794894768,/g4t1,,success
Status,1179,106853870875,/g3t1_2,,running
Status,1180,106854036770,/g3t1_2,,success
Status,1182,107054413607,/g3t1_2,,running
Status,1183,107055297728,/g3t1_2,,success
Status,1185,107254335085,/g3t1_2,,running
Status,1186,107255090786,/g3t1_2,,success
Status,1188,107454091661,/g3t1_2,,running
Status,1189,107454250900,/g3t1_2,,success
Status,1191,107654888487,/g3t1_2,,running
Status,1192,107655266962,/g3t1_2,,success
Status,1194,107794948694,/g4t1,,success
Status,1195,107854537849,/g3t1_2,,running
Status,1196,107854779770,/g3t1_2,,success
Status,1198,108055273117,/g3t1_2,,running
Status,1199,108055698554,/g3t1_2,,success
Status,1201,108255267949,/g3t1_2,,running
Status,1202,108255932101,/g3t1_2,,success
Status,1205,108455397748,/g3t1_2,,running
Status,1206,108455941397,/g3t1_2,,success
Status,1208,108655710028,/g3t1_2,,running
Status,1209,108656489855,/g3t1_2,,success
Status,1211,108795009753,/g4t1,,success
Status,1212,108855654178,/g3t1_2,,running
Status,1213,108856233759,/g3t1_2,,success
Status,1215,109055819094,/g3t1_2,,running
Status,1216,109056187656,/g3t1_2,,success
Status,1218,109256363471,/g3t1_2,,running
Status,1219,109257136981,/g3t1_2,,success
Status,1221,109456229292,/g3t1_2,,running
Status,1222,109456768402,/g3t1_2,,success
Status,1224,109656402005,/g3t1_2,,running
Status,1225,109656681583,/g3t1_2,,success
Status,1227,109795256260,/g4t1,,success
Status,1228,109856551836,/g3t1_2,,running
Status,1229,109857242256,/g3t1_2,,success
Status,1231,110056919403,/g3t1_2,,running
Status,1232,110057417435,/g3t1_2,,success
Status,1234,110257710314,/g3t1_2,,running
Status,1235,110257796307,/g3t1_2,,success
Status,1237,110457583639,/g3t1_2,,running
Status,1238,110457678809,/g3t1_2,,fail
Status,1241,110657891303,/g3t1_2,,running
Status,1242,110658496673,/g3t1_2,,success
Status,1244,110795409256,/g4t1,,success
Status,1245,110857609827,/g3t1_2,,running
Status,1246,110857949250,/g3t1_2,,success
Status,1248,111057944101,/g3t1_2,,running
Status,1249,111058289936,/g3t1_2,,success
Status,1251,111258154094,/g3t1_2,,running
Status,1252,111258623633,/g3t1_2,,success
Status,1254,111458728139,/g3t1_2,,running
Status,1255,111458844875,/g3t1_2,,success
Status,1257,111658342571,/g3t1_2,,running
Status,1258,111658946952,/g3t1_2,,success
Status,1260,111795717684,/g4t1,,success
Status,1261,111858376124,/g3t1_2,,running
Status,1262,111858738167,/g3t1_2,,success
Status,1264,112058760879,/g3t1_2,,running
Status,1265,112059364316,/g3t1_2,,success
Status,1267,112258752614,/g3t1_2,,running
Status,1268,112259121091,/g3t1_2,,success
Status,1270,112458805620,/g3t1_2,,running
Status,1271,112459162505,/g3t1_2,,success
Status,1273,112658901260,/g3t1_2,,running
Status,1274,112659441980,/g3t1_2,,success
Status,1277,112795566556,/g4t1,,success
Status,1278,112859203514,/g3t1_2,,running
Status,1279,112859573655,/g3t1_2,,success
Status,1281,113058475470,/g3t1_2,,running
Status,1282,113058518583,/g3t1_2,,success
Status,1284,113258818578,/g3t1_2,,running
Status,1285,113258947957,/g3t1_2,,success
Status,1287,113459334293,/g3t1_2,,running
Status,1288,113460300608,/g3t1_2,,success
Status,1290,113659457528,/g3t1_2,,running
Status,1291,113659751673,/g3t1_2,,success
Status,1293,113795835542,/g4t1,,success
Status,1294,113859847018,/g3t1_2,,running
Status,1295,113860346638,/g3t1_2,,success
Status,1297,114059528804,/g3t1_2,,running
Status,1298,114059582464,/g3t1_2,,success
Status,1300,114259513603,/g3t1_2,,running
Status,1301,114259665602,/g3t1_2,,success
Status,1303,114460234366,/g3t1_2,,running
Status,1304,114460915734,/g3t1_2,,success
Status,1306,114660354924,/g3t1_2,,running
Status,1307,114660966597,/g3t1_2,,success
Status,1309,114796097644,/g4t1,,success
Status,1310,114860536682,/g3t1_2,,running
Status,1311,114860607430,/g3t1_2,,success
Status,1314,115060731191,/g3t1_2,,running
Status,1315,115061655666,/g3t1_2,,success
Status,1317,115260304504,/g3t1_2,,running
Status,1318,115260609699,/g3t1_2,,success
Status,1320,115460824287,/g3t1_2,,running
Status,1321,115461112799,/g3t1_2,,success
Status,1323,115660539752,/g3t1_2,,running
Status,1324,115660762897,/g3t1_2,,success
Status,1326,115796228810,/g4t1,,success
Status,1327,115860429068,/g3t1_2,,running
Status,1328,115860563540,/g3t1_2,,success
Status,1330,116060649256,/g3t1_2,,running
Status,1331,116060683804,/g3t1_2,,fail
Status,1333,116261494383,/g3t1_2,,running
Status,1334,116262252720,/g3t1_2,,success
Status,1336,116461202138,/g3t1_2,,running
Status,1337,116461254937,/g3t1_2,,success
Status,1339,116661738443,/g3t1_2,,running
Status,1340,116661849143,/g3t1_2,,fail
Status,1342,116796299538,/g4t1,,success
Status,1343,116861401782,/g3t1_2,,running
Status,1344,116861569461,/g3t1_2,,success
Status,1346,117061508210,/g3t1_2,,running
Status,1347,117061792307,/g3t1_2,,success
Status,1350,117261996098,/g3t1_2,,running
Status,1351,117262066820,/g3t1_2,,success
Status,1353,117462069225,/g3t1_2,,running
Status,1354,117462160197,/g3t1_2,,success
Status,1356,117661887109,/g3t1_2,,running
Status,1357,117662550691,/g3t1_2,,success
Status,1359,117796523439,/g4t1,,success
Status,1360,117861828924,/g3t1_2,,running
Status,1361,117861970535,/g3t1_2,,success
Status,1363,118062265857,/g3t1_2,,running
Status,1364,118062845982,/g3t1_2,,success
Status,1366,118261706957,/g3t1_2,,running
Status,1367,118261872843,/g3t1_2,,success
Status,1369,118461776414,/g3t1_2,,running
Status,1370,118461811749,/g3t1_2,,success
Status,1372,118661844194,/g3t1_2,,running
Status,1373,118662026591,/g3t1_2,,success
Status,1375,118795681701,/g4t1,,success
Status,1376,118862664575,/g3t1_2,,running
Status,1377,118863390659,/g3t1_2,,success
Status,1379,119062046745,/g3t1_2,,running
Status,1380,119062167863,/g3t1_2,,success
Status,1382,119262465677,/g3t1_2,,running
Status,1383,119262519872,/g3t1_2,,fail
Status,1386,119462411370,/g3t1_2,,running
Status,1387,119462439159,/g3t1_2,,success
Status,1389,119662416232,/g3t1_2,,running
Status,1390,119662613732,/g3t1_2,,success
Status,1392,119795786668,/g4t1,,success
Status,1393,119862514185,/g3t1_2,,running
Status,1394,119862537828,/g3t1_2,,success
Status,1396,120062572743,/g3t1_2,,running
Status,1397,120062683041,/g3t1_2,,success
Status,1399,120262679213,/g3t1_2,,running
Status,1400,120262791636,/g3t1_2,,success
Status,1402,120463502861,/g3t1_2,,running
Status,1403,120463963647,/g3t1_2,,success
Status,1405,120663060292,/g3t1_2,,running
Status,1406,120663089938,/g3t1_2,,success
Status,1408,120795804587,/g4t1,,success
Status,1409,120863064977,/g3t1_2,,running
Status,1410,120863208290,/g3t1_2,,success
Status,1412,121063857244,/g3t1_2,,running
Status,1413,121064208217,/g3t1_2,,success
Status,1415,121263343153,/g3t1_2,,running
Status,1416,121263364270,/g3t1_2,,fail
Status,1418,121464142602,/g3t1_2,,running
Status,1419,121464985572,/g3t1_2,,success
Status,1422,121663781508,/g3t1_2,,running
Status,1423,121663812194,/g3t1_2,,success
Status,1425,121796635213,/g4t1,,success
Status,1426,121864447399,/g3t1_2,,running
Status,1427,121865175303,/g3t1_2,,success
Status,1429,122064194390,/g3t1_2,,running
Status,1430,122065188717,/g3t1_2,,success
Status,1432,122264730585,/g3t1_2,,running
Status,1433,122265089372,/g3t1_2,,success
Status,1435,122464654199,/g3t1_2,,running
Status,1436,122464946405,/g3t1_2,,success
Status,1438,122665191859,/g3t1_2,,running
Status,1439,122665344829,/g3t1_2,,success
Status,1441,122796098563,/g4t1,,success
Status,1442,122864699911,/g3t1_2,,running
Status,1443,122864730646,/g3t1_2,,success
Status,1445,123065484857,/g3t1_2,,running
Status,1446,123065553851,/g3t1_2,,fail
Status,1448,123265529441,/g3t1_2,,running
Status,1449,123266159946,/g3t1_2,,success
Status,1451,123465673386,/g3t1_2,,running
Status,1452,123466356526,/g3t1_2,,success
Status,1454,123665067815,/g3t1_2,,running
Status,1455,123665220764,/g3t1_2,,success
Status,1458,123796227964,/g4t1,,success
Status,1459,123865416855,/g3t1_2,,running
Status,1460,123865821841,/g3t1_2,,success
Status,1462,124065840360,/g3t1_2,,running
Status,1463,124066212958,/g3t1_2,,success
Status,1465,124266254425,/g3t1_2,,running
Status,1466,124266326325,/g3t1_2,,success
Status,1468,124466391152,/g3t1_2,,running
Status,1469,124466806348,/g3t1_2,,success
Status,1471,124666465464,/g3t1_2,,running
Status,1472,124666903338,/g3t1_2,,success
Status,1474,124797104763,/g4t1,,success
Status,1475,124866111383,/g3t1_2,,running
Status,1476,124866382634,/g3t1_2,,success
Status,1478,125066956696,/g3t1_2,,running
Status,1479,125067633339,/g3t1_2,,success
Status,1481,125266444995,/g3t1_2,,running
Status,1482,125266828564,/g3t1_2,,success
Status,1484,125466608278,/g3t1_2,,running
Status,1485,125466729331,/g3t1_2,,success
Status,1487,125667325673,/g3t1_2,,running
Status,1488,125667381946,/g3t1_2,,success
Status,1490,125797255279,/g4t1,,success
Status,1491,125866977614,/g3t1_2,,running
Status,1492,125867164503,/g3t1_2,,success
Status,1495,126067675460,/g3t1_2,,running
Status,1496,126068120357,/g3t1_2,,success
Status,1498,126268485557,/g3t1_2,,running
Status,1499,126268567382,/g3t1_2,,success
Status,1501,126468383826,/g3t1_2,,running
Status,1502,126469324176,/g3t1_2,,success
Status,1504,126668379157,/g3t1_2,,running
Status,1505,126669196193,/g3t1_2,,success
Status,1507,126797478937,/g4t1,,success
Status,1508,126868380794,/g3t1_2,,running
Status,1509,126868687628,/g3t1_2,,success
Status,1511,127068522180,/g3t1_2,,running
Status,1512,127068993411,/g3t1_2,,success
Status,1514,127269128674,/g3t1_2,,running
Status,1515,127269688683,/g3t1_2,,success
Status,1517,127468968038,/g3t1_2,,running
Status,1518,127469423806,/g3t1_2,,success
Status,1520,127669083166,/g3t1_2,,running
Status,1521,127669726078,/g3t1_2,,success
Status,1523,127797593044,/g4t1,,success
Status,1524,127869234396,/g3t1_2,,running
Status,1525,127869949161,/g3t1_2,,success
Status,1527,128069402476,/g3t1_2,,running
Status,1528,128069841612,/g3t1_2,,success
Status,1531,128269666272,/g3t1_2,,running
Status,1532,128270161011,/g3t1_2,,success
Status,1534,128469973139,/g3t1_2,,running
Status,1535,128470517426,/g3t1_2,,success
Status,1537,128670022422,/g3t1_2,,running
Status,1538,128670139533,/g3t1_2,,success
Status,1540,128797961945,/g4t1,,success
Status,1541,128869700900,/g3t1_2,,running
Status,1542,128870266365,/g3t1_2,,success
Status,1544,129070065289,/g3t1_2,,running
Status,1545,129070140086,/g3t1_2,,success
Status,1547,129270400012,/g3t1_2,,running
Status,1548,129270826269,/g3t1_2,,success
Status,1550,129470662237,/g3t1_2,,running
Status,1551,129471095726,/g3t1_2,,success
Status,1553,129670724139,/g3t1_2,,running
Status,1554,129671249522,/g3t1_2,,success
Status,1556,129798244352,/g4t1,,success
Status,1557,129870807539,/g3t1_2,,running
Status,1558,129871554752,/g3t1_2,,success
Status,1560,130071586461,/g3t1_2,,running
Status,1561,130071670868,/g3t1_2,,success
Status,1563,130271273074,/g3t1_2,,running
Status,1564,130271660414,/g3t1_2,,success
Status,1567,130471741948,/g3t1_2,,running
Status,1568,130472478803,/g3t1_2,,success
Status,1570,130671644320,/g3t1_2,,running
Status,1571,130672698535,/g3t1_2,,success
Status,1573,130798124973,/g4t1,,success
Status,1574,130871943455,/g3t1_2,,running
Status,1575,130872460614,/g3t1_2,,success
Status,1577,131072119925,/g3t1_2,,running
Status,1578,131072770689,/g3t1_2,,success
Status,1580,131272516703,/g3t1_2,,running
Status,1581,131273473808,/g3t1_2,,success
Status,1583,131472760046,/g3t1_2,,running
Status,1584,131472943024,/g3t1_2,,success
Status,1586,131672900343,/g3t1_2,,running
Status,1587,131673586741,/g3t1_2,,success
Status,1589,131798315967,/g4t1,,success
Status,1590,131873117999,/g3t1_2,,running
Status,1591,131873931706,/g3t1_2,,success
Status,1593,132073093896,/g3t1_2,,running
Status,1594,132073476196,/g3t1_2,,success
Status,1596,132273523012,/g3t1_2,,running
Status,1597,132273979744,/g3t1_2,,success
Status,1599,132473890771,/g3t1_2,,running
Status,1600,132474369201,/g3t1_2,,success
Status,1603,132673876389,/g3t1_2,,running
Status,1604,132673992720,/g3t1_2,,success
Status,1606,132798446984,/g4t1,,success
Status,1607,132873824188,/g3t1_2,,running
Status,1608,132874244432,/g3t1_2,,success
Status,1610,133073725393,/g3t1_2,,running
Status,1611,133074162847,/g3t1_2,,success
Status,1613,133274161143,/g3t1_2,,running
Status,1614,133274999556,/g3t1_2,,success
Status,1616,133474109476,/g3t1_2,,running
Status,1617,133474552964,/g3t1_2,,success
Status,1619,133674669752,/g3t1_2,,running
Status,1620,133675020499,/g3t1_2,,success
Status,1622,133798741743,/g4t1,,success
Status,1623,133874362603,/g3t1_2,,running
Status,1624,133875015335,/g3t1_2,,success
Status,1626,134074496833,/g3t1_2,,running
Status,1627,134074587167,/g3t1_2,,fail
Status,1629,134274124009,/g3t1_2,,running
Status,1630,134274384578,/g3t1_2,,success
Status,1632,134474212163,/g3t1_2,,running
Status,1633,134474350275,/g3t1_2,,success
Status,1635,134675295270,/g3t1_2,,running
Status,1636,134675657813,/g3t1_2,,success
Status,1639,134798982324,/g4t1,,success
Status,1640,134875644808,/g3t1_2,,running
Status,1641,134875845072,/g3t1_2,,success
Status,1643,135075516153,/g3t1_2,,running
Status,1644,135076089583,/g3t1_2,,success
Status,1646,135275733197,/g3t1_2,,running
Status,1647,135276039840,/g3t1_2,,success
Status,1649,135476139295,/g3t1_2,,running
Status,1650,135476587378,/g3t1_2,,success
Status,1652,135676349384,/g3t1_2,,running
Status,1653,135677111333,/g3t1_2,,success
Status,1655,135798941548,/g4t1,,success
Status,1656,135876586544,/g3t1_2,,running
Status,1657,135876652884,/g3t1_2,,success
Status,1659,136075743535,/g3t1_2,,running
Status,1660,136075924852,/g3t1_2,,success
Status,1662,136276495665,/g3t1_2,,running
Status,1663,136276859821,/g3t1_2,,success
Status,1665,136476903454,/g3t1_2,,running
Status,1666,136477325843,/g3t1_2,,success
Status,1668,136677387972,/g3t1_2,,running
Status,1669,136677473257,/g3t1_2,,success
Status,1671,136799165163,/g4t1,,success
Status,1672,136877031273,/g3t1_2,,running
Status,1673,136877308624,/g3t1_2,,success
Status,1676,137077709652,/g3t1_2,,running
Status,1677,137077791642,/g3t1_2,,success
Status,1679,137277505589,/g3t1_2,,running
Status,1680,137277880909,/g3t1_2,,success
Status,1682,137477964717,/g3t1_2,,running
Status,1683,137478033671,/g3t1_2,,success
Status,1685,137678141302,/g3t1_2,,running
Status,1686,137678623244,/g3t1_2,,success
Status,1688,137799329176,/g4t1,,success
Status,1689,137877795334,/g3t1_2,,running
Status,1690,137878189956,/g3t1_2,,success
Status,1692,138078020782,/g3t1_2,,running
Status,1693,138078307474,/g3t1_2,,success
Status,1695,138278344235,/g3t1_2,,running
Status,1696,138278930712,/g3t1_2,,success
Status,1698,138478461738,/g3t1_2,,running
Status,1699,138479083520,/g3t1_2,,success
Status,1701,138678534720,/g3t1_2,,running
Status,1702,138679036913,/g3t1_2,,success
Status,1704,138799567035,/g4t1,,success
Status,1705,138878725454,/g3t1_2,,running
Status,1706,138878808757,/g3t1_2,,fail
Status,1708,139078977609,/g3t1_2,,running
Status,1709,139079757935,/g3t1_2,,success
Status,1712,139279230941,/g3t1_2,,running
Status,1713,139279723270,/g3t1_2,,success
Status,1715,139479442809,/g3t1_2,,running
Status,1716,139479978315,/g3t1_2,,success
Status,1718,139679588877,/g3t1_2,,running
Status,1719,139680118578,/g3t1_2,,success
Status,1721,139799404095,/g4t1,,success
Status,1722,139879792150,/g3t1_2,,running
Status,1723,139880128629,/g3t1_2,,success
Status,1725,140079954459,/g3t1_2,,running
Status,1726,140080496587,/g3t1_2,,success
Status,1728,140280145024,/g3t1_2,,running
Status,1729,140280231840,/g3t1_2,,success
Status,1731,140480158472,/g3t1_2,,running
Status,1732,140481042074,/g3t1_2,,success
Status,1734,140680469208,/g3t1_2,,running
Status,1735,140680568843,/g3t1_2,,success
Status,1737,140800017015,/g4t1,,success
Status,1738,140880641686,/g3t1_2,,running
Status,1739,140881166403,/g3t1_2,,success
Status,1741,141080961887,/g3t1_2,,running
Status,1742,141081322029,/g3t1_2,,success
Status,1744,141280756984,/g3t1_2,,running
Status,1745,141281144578,/g3t1_2,,success
Status,1748,141480983894,/g3t1_2,,running
Status,1749,141481529029,/g3t1_2,,fail
Status,1751,141681159558,/g3t1_2,,running
Status,1752,141681863589,/g3t1_2,,success
Status,1754,141800195895,/g4t1,,success
Status,1755,141881035385,/g3t1_2,,running
Status,1756,141881528908,/g3t1_2,,success
Status,1758,142081900138,/g3t1_2,,running
Status,1759,142082206034,/g3t1_2,,success
Status,1761,142281886301,/g3t1_2,,running
Status,1762,142281958011,/g3t1_2,,success
Status,1764,142481903993,/g3t1_2,,running
Status,1765,142482789400,/g3t1_2,,success
Status,1767,142681853495,/g3t1_2,,running
Status,1768,142682337307,/g3t1_2,,success
Status,1770,142799891828,/g4t1,,success
Status,1771,142882067253,/g3t1_2,,running
Status,1772,142882491223,/g3t1_2,,success
Status,1774,143081941915,/g3t1_2,,running
Status,1775,143082354380,/g3t1_2,,success
Status,1777,143282135218,/g3t1_2,,running
Status,1778,143282778942,/g3t1_2,,success
Status,1780,143482756681,/g3t1_2,,running
Status,1781,143482989322,/g3t1_2,,success
Status,1784,143682584605,/g3t1_2,,running
Status,1785,143683250405,/g3t1_2,,success
Status,1787,143800597825,/g4t1,,success
Status,1788,143883085880,/g3t1_2,,running
Status,1789,143883470564,/g3t1_2,,success
Status,1791,144082815373,/g3t1_2,,running
Status,1792,144082890874,/g3t1_2,,success
Status,1794,144283352640,/g3t1_2,,running
Status,1795,144284015916,/g3t1_2,,success
Status,1797,144482480149,/g3t1_2,,running
Status,1798,144482610027,/g3t1_2,,success
Status,1800,144683562579,/g3t1_2,,running
Status,1801,144683826887,/g3t1_2,,success
Status,1803,144799682435,/g4t1,,success
Status,1804,144882727222,/g3t1_2,,running
Status,1805,144882763445,/g3t1_2,,success
Status,1807,145082669026,/g3t1_2,,running
Status,1808,145082773777,/g3t1_2,,success
Status,1810,145283549314,/g3t1_2,,running
Status,1811,145284218914,/g3t1_2,,success
Status,1813,145483730133,/g3t1_2,,running
Status,1814,145484038255,/g3t1_2,,success
Status,1816,145683348588,/g3t1_2,,running
Status,1817,145683526954,/g3t1_2,,success
Status,1820,145800134347,/g4t1,,success
Status,1821,145883960624,/g3t1_2,,running
Status,1822,145884943855,/g3t1_2,,success
Status,1824,146083297189,/g3t1_2,,running
Status,1825,146083434497,/g3t1_2,,success
Status,1827,146283771067,/g3t1_2,,running
Status,1828,146283888240,/g3t1_2,,success
Status,1830,146483662329,/g3t1_2,,running
Status,1831,146483952185,/g3t1_2,,success
Status,1833,146684135349,/g3t1_2,,running
Status,1834,146684490521,/g3t1_2,,success
Status,1836,146800146899,/g4t1,,success
Status,1837,146884576909,/g3t1_2,,running
Status,1838,146885309371,/g3t1_2,,success
Status,1840,147084811969,/g3t1_2,,running
Status,1841,147085278092,/g3t1_2,,success
Status,1843,147284890501,/g3t1_2,,running
Status,1844,147285211853,/g3t1_2,,success
Status,1846,147485327710,/g3t1_2,,running
Status,1847,147485726001,/g3t1_2,,success
Status,1849,147685209187,/g3t1_2,,running
Status,1850,147685309337,/g3t1_2,,fail
Status,1852,147800682165,/g4t1,,success
Status,1853,147885155846,/g3t1_2,,running
Status,1854,147885603254,/g3t1_2,,success
Status,1857,148085282276,/g3t1_2,,running
Status,1858,148086018527,/g3t1_2,,success
Status,1860,148285443044,/g3t1_2,,running
Status,1861,148286360859,/g3t1_2,,success
Status,1863,148485688172,/g3t1_2,,running
Status,1864,148486404038,/g3t1_2,,success
Status,1866,148685758122,/g3t1_2,,running
Status,1867,148686334569,/g3t1_2,,success
Status,1869,148801561387,/g4t1,,success
Status,1870,148886040046,/g3t1_2,,running
Status,1871,148886524076,/g3t1_2,,success
Status,1873,149086717961,/g3t1_2,,running
Status,1874,149086797079,/g3t1_2,,success
Status,1876,149286148525,/g3t1_2,,running
Status,1877,149286723619,/g3t1_2,,success
Status,1879,149486543676,/g3t1_2,,running
Status,1880,149487131656,/g3t1_2,,success
Status,1882,149686443919,/g3t1_2,,running
Status,1883,149686835084,/g3t1_2,,success
Status,1885,149801445319,/g4t1,,success
Status,1886,149886891809,/g3t1_2,,running
Status,1887,149886963359,/g3t1_2,,fail
Status,1889,150087246553,/g3t1_2,,running
Status,1890,150087876070,/g3t1_2,,success
Status,1893,150287173313,/g3t1_2,,running
Status,1894,150287249018,/g3t1_2,,fail
Status,1896,150487824891,/g3t1_2,,running
Status,1897,150487905426,/g3t1_2,,fail
Status,1899,150688135417,/g3t1_2,,running
Status,1900,150688319830,/g3t1_2,,success
Status,1902,150801142185,/g4t1,,success
Status,1903,150887711153,/g3t1_2,,running
Status,1904,150888455195,/g3t1_2,,success
Status,1906,151088123333,/g3t1_2,,running
Status,1907,151089006669,/g3t1_2,,success
Status,1909,151288503423,/g3t1_2,,running
Status,1910,151289348058,/g3t1_2,,success
Status,1912,151488501053,/g3t1_2,,running
Status,1913,151488778177,/g3t1_2,,success
Status,1915,151688766086,/g3t1_2,,running
Status,1916,151689365354,/g3t1_2,,success
Status,1918,151801806679,/g4t1,,success
Status,1919,151888946613,/g3t1_2,,running
Status,1920,151889719393,/g3t1_2,,success
Status,1922,152089540646,/g3t1_2,,running
Status,1923,152089953196,/g3t1_2,,success
Status,1925,152289940788,/g3t1_2,,running
Status,1926,152290030524,/g3t1_2,,success
Status,1929,152489805113,/g3t1_2,,running
Status,1930,152489868890,/g3t1_2,,success
Status,1932,152690036809,/g3t1_2,,running
Status,1933,152690343171,/g3t1_2,,success
Status,1935,152801368533,/g4t1,,success
Status,1936,152889837812,/g3t1_2,,running
Status,1937,152890471684,/g3t1_2,,success
Status,1939,153089949642,/g3t1_2,,running
Status,1940,153090559992,/g3t1_2,,success
Status,1942,153289337247,/g3t1_2,,running
Status,1943,153289426905,/g3t1_2,,success
Status,1945,153490334716,/g3t1_2,,running
Status,1946,153491106916,/g3t1_2,,success
Status,1948,153690547178,/g3t1_2,,running
Status,1949,153691057165,/g3t1_2,,success
Status,1951,153801159109,/g4t1,,success
Status,1952,153889844848,/g3t1_2,,running
Status,1953,153890037454,/g3t1_2,,success
Status,1955,154090887544,/g3t1_2,,running
Status,1956,154091492680,/g3t1_2,,success
Status,1958,154291095286,/g3t1_2,,running
Status,1959,154291510645,/g3t1_2,,success
Status,1961,154490372931,/g3t1_2,,running
Status,1962,154490556829,/g3t1_2,,success
Status,1965,154690525212,/g3t1_2,,running
Status,1966,154690658879,/g3t1_2,,success
Status,1968,154801369784,/g4t1,,success
Status,1969,154890742468,/g3t1_2,,running
Status,1970,154890771256,/g3t1_2,,success
Status,1972,155091006431,/g3t1_2,,running
Status,1973,155091251043,/g3t1_2,,success
Status,1975,155292042682,/g3t1_2,,running
Status,1976,155292130669,/g3t1_2,,success
Status,1978,155492094665,/g3t1_2,,running
Status,1979,155492891438,/g3t1_2,,success
Status,1981,155692471613,/g3t1_2,,running
Status,1982,155692718198,/g3t1_2,,success
Status,1984,155801946498,/g4t1,,success
Status,1985,155892596996,/g3t1_2,,running
Status,1986,155892668425,/g3t1_2,,success
Status,1988,156093213708,/g3t1_2,,running
Status,1989,156093636991,/g3t1_2,,success
Status,1991,156292941207,/g3t1_2,,running
Status,1992,156293591574,/g3t1_2,,success
Status,1994,156493797757,/g3t1_2,,running
Status,1995,156494070187,/g3t1_2,,success
Status,1997,156693429860,/g3t1_2,,running
Status,1998,156693881475,/g3t1_2,,success
Status,2001,156802398283,/g4t1,,success
Status,2002,156893780826,/g3t1_2,,running
Status,2003,156894311716,/g3t1_2,,success
Status,2005,157093925348,/g3t1_2,,running
Status,2006,157094742250,/g3t1_2,,success
Status,2008,157294215005,/g3t1_2,,running
Status,2009,157294669373,/g3t1_2,,success
Status,2011,157494297198,/g3t1_2,,running
Status,2012,157494394751,/g3t1_2,,success
Status,2014,157694511892,/g3t1_2,,running
Status,2015,157695051444,/g3t1_2,,success
Status,2017,157802493829,/g4t1,,success
Status,2018,157894580406,/g3t1_2,,running
Status,2019,157895080210,/g3t1_2,,success
Status,2021,158094949088,/g3t1_2,,running
Status,2022,158095754402,/g3t1_2,,success
Status,2024,158294875704,/g3t1_2,,running
Status,2025,158295185312,/g3t1_2,,success
Status,2027,158495453827,/g3t1_2,,running
Status,2028,158496329897,/g3t1_2,,success
Status,2030,158695214738,/g3t1_2,,running
Status,2031,158695465663,/g3t1_2,,success
Status,2033,158802606660,/g4t1,,success
Status,2034,158895744113,/g3t1_2,,running
Status,2035,158896197053,/g3t1_2,,success
Status,2038,159095911298,/g3t1_2,,running
Status,2039,159096424375,/g3t1_2,,success
Status,2041,159295996865,/g3t1_2,,running
Status,2042,159296120571,/g3t1_2,,success
Status,2044,159496333077,/g3t1_2,,running
Status,2045,159496559173,/g3t1_2,,success
Status,2047,159696604873,/g3t1_2,,running
Status,2048,159697299905,/g3t1_2,,success
Status,2050,159802828034,/g4t1,,success
