
Status,2,3353761827,/g4t1,,init
Status,4,8538612182,/g3t1_1,,init
Status,5,8546622922,/g3t1_1,,init
Status,6,8546641526,/g3t1_1,,running
Status,7,8547087452,/g3t1_1,,success
Status,8,8596655141,/g3t1_1,,running
Status,9,8596738686,/g3t1_1,,success
Status,10,8646733006,/g3t1_1,,running
Status,11,8646898303,/g3t1_1,,success
Status,12,8696786493,/g3t1_1,,running
Status,13,8696862855,/g3t1_1,,success
Status,14,8746952383,/g3t1_1,,running
Status,15,8746969058,/g3t1_1,,success
Status,16,8764631245,/g3t1_2,,init
Status,18,8773412598,/g3t1_2,,init
Status,19,8773429125,/g3t1_2,,running
Status,20,8773923714,/g3t1_2,,success
Status,21,8797051793,/g3t1_1,,running
Status,22,8797089008,/g3t1_1,,success
Status,23,8823546849,/g3t1_2,,running
Status,24,8823649746,/g3t1_2,,success
Status,25,8847078521,/g3t1_1,,running
Status,26,8847168242,/g3t1_1,,success
Status,28,8865547000,/g3t1_3,,init
Status,29,8870487405,/g4t1,,success
Status,30,8873619368,/g3t1_2,,running
Status,31,8873704940,/g3t1_2,,success
Status,32,8875004990,/g3t1_3,,init
Status,33,8875043745,/g3t1_3,,running
Status,34,8875657592,/g3t1_3,,success
Status,38,8897141596,/g3t1_1,,running
Status,39,8897172000,/g3t1_1,,success
Status,40,8923940624,/g3t1_2,,running
Status,41,8924114327,/g3t1_2,,success
Status,42,8925269365,/g3t1_3,,running
Status,43,8925537081,/g3t1_3,,success
Status,44,8947796459,/g3t1_1,,running
Status,45,8948199615,/g3t1_1,,success
Status,46,8971537039,/g4t1,,success
Status,47,8974516515,/g3t1_2,,running
Status,48,8975030178,/g3t1_2,,success
Status,49,8975895913,/g3t1_3,,running
Status,50,8976191072,/g3t1_3,,success
Status,51,8997814962,/g3t1_1,,running
Status,52,8998208239,/g3t1_1,,success
Status,53,9024530031,/g3t1_2,,running
Status,54,9024967545,/g3t1_2,,success
Status,55,9026103892,/g3t1_3,,running
Status,56,9026409721,/g3t1_3,,success
Status,57,9047622411,/g3t1_1,,running
Status,58,9047835656,/g3t1_1,,success
Status,59,9070858206,/g4t1,,success
Status,60,9074250643,/g3t1_2,,running
Status,61,9074274922,/g3t1_2,,success
Status,62,9075439219,/g3t1_3,,running
Status,63,9075645755,/g3t1_3,,success
Status,67,9097890403,/g3t1_1,,running
Status,68,9097973174,/g3t1_1,,success
Status,69,9124422329,/g3t1_2,,running
Status,70,9124649755,/g3t1_2,,success
Status,71,9125549217,/g3t1_3,,running
Status,72,9125765804,/g3t1_3,,success
Status,73,9147705423,/g3t1_1,,running
Status,74,9147745089,/g3t1_1,,success
Status,75,9171035923,/g4t1,,fail
Status,76,9174357276,/g3t1_2,,running
Status,77,9174492208,/g3t1_2,,success
Status,78,9175657558,/g3t1_3,,running
Status,79,9175676799,/g3t1_3,,success
Status,80,9197970229,/g3t1_1,,running
Status,81,9197999326,/g3t1_1,,success
Status,82,9224586746,/g3t1_2,,running
Status,83,9224727745,/g3t1_2,,success
Status,84,9225758364,/g3t1_3,,running
Status,85,9225873769,/g3t1_3,,success
Status,86,9248445827,/g3t1_1,,running
Status,87,9248731177,/g3t1_1,,success
Status,88,9271627581,/g4t1,,fail
Status,89,9274932961,/g3t1_2,,running
Status,90,9275890642,/g3t1_2,,success
Status,91,9276280533,/g3t1_3,,running
Status,92,9276625860,/g3t1_3,,success
Status,96,9298161421,/g3t1_1,,running
Status,97,9298633906,/g3t1_1,,success
Status,98,9325252335,/g3t1_2,,running
Status,99,9325514594,/g3t1_2,,success
Status,100,9326353411,/g3t1_3,,running
Status,101,9326756863,/g3t1_3,,success
Status,102,9348322364,/g3t1_1,,running
Status,103,9348688396,/g3t1_1,,success
Status,104,9371801298,/g4t1,,fail
Status,105,9375137250,/g3t1_2,,running
Status,106,9375494547,/g3t1_2,,success
Status,107,9376327225,/g3t1_3,,running
Status,108,9376871684,/g3t1_3,,success
Status,109,9398389412,/g3t1_1,,running
Status,110,9398725889,/g3t1_1,,success
Status,111,9425400121,/g3t1_2,,running
Status,112,9425759831,/g3t1_2,,success
Status,113,9426365891,/g3t1_3,,running
Status,114,9426905424,/g3t1_3,,success
Status,115,9448554599,/g3t1_1,,running
Status,116,9448886513,/g3t1_1,,success
Status,117,9472067007,/g4t1,,fail
Status,118,9475516169,/g3t1_2,,running
Status,119,9476169031,/g3t1_2,,success
Status,120,9476760083,/g3t1_3,,running
Status,121,9477357786,/g3t1_3,,success
Status,125,9498925227,/g3t1_1,,running
Status,126,9499183207,/g3t1_1,,success
Status,127,9525761019,/g3t1_2,,running
Status,128,9526103673,/g3t1_2,,success
Status,129,9527167059,/g3t1_3,,running
Status,130,9527520444,/g3t1_3,,success
Status,131,9549046348,/g3t1_1,,running
Status,132,9549422855,/g3t1_1,,success
Status,133,9572709617,/g4t1,,fail
Status,134,9575862178,/g3t1_2,,running
Status,135,9576167483,/g3t1_2,,success
Status,136,9577350213,/g3t1_3,,running
Status,137,9577417376,/g3t1_3,,success
Status,138,9599420280,/g3t1_1,,running
Status,139,9599490486,/g3t1_1,,success
Status,140,9626070473,/g3t1_2,,running
Status,141,9626466227,/g3t1_2,,success
Status,142,9627062417,/g3t1_3,,running
Status,143,9627713421,/g3t1_3,,success
Status,144,9649356927,/g3t1_1,,running
Status,145,9649677456,/g3t1_1,,success
Status,146,9671700893,/g4t1,,fail
Status,147,9675444165,/g3t1_2,,running
Status,148,9675555850,/g3t1_2,,success
Status,149,9676599069,/g3t1_3,,running
Status,150,9676731777,/g3t1_3,,success
Status,154,9698762920,/g3t1_1,,running
Status,155,9698872513,/g3t1_1,,success
Status,156,9725747525,/g3t1_2,,running
Status,157,9725771158,/g3t1_2,,success
Status,158,9726824013,/g3t1_3,,running
Status,159,9726848642,/g3t1_3,,success
Status,160,9749360664,/g3t1_1,,running
Status,161,9749498344,/g3t1_1,,success
Status,162,9772085032,/g4t1,,fail
Status,163,9776071648,/g3t1_2,,running
Status,164,9776113578,/g3t1_2,,success
Status,165,9777180347,/g3t1_3,,running
Status,166,9777318270,/g3t1_3,,success
Status,167,9799319024,/g3t1_1,,running
Status,168,9799702331,/g3t1_1,,success
Status,169,9826109457,/g3t1_2,,running
Status,170,9826523405,/g3t1_2,,success
Status,171,9827692096,/g3t1_3,,running
Status,172,9827969296,/g3t1_3,,success
Status,173,9850174230,/g3t1_1,,running
Status,174,9850223866,/g3t1_1,,success
Status,175,9871933891,/g4t1,,fail
Status,176,9875893332,/g3t1_2,,running
Status,177,9876073011,/g3t1_2,,success
Status,178,9877373442,/g3t1_3,,running
Status,179,9877796137,/g3t1_3,,success
Status,183,9899390405,/g3t1_1,,running
Status,184,9899636351,/g3t1_1,,success
Status,185,9926136512,/g3t1_2,,running
Status,186,9926359835,/g3t1_2,,success
Status,187,9927288967,/g3t1_3,,running
Status,188,9927694842,/g3t1_3,,success
Status,189,9950430004,/g3t1_1,,running
Status,190,9951428264,/g3t1_1,,success
Status,191,9972360140,/g4t1,,fail
Status,192,9976255166,/g3t1_2,,running
Status,193,9976803863,/g3t1_2,,success
Status,194,9977768114,/g3t1_3,,running
Status,195,9977950768,/g3t1_3,,success
Status,196,9999914782,/g3t1_1,,running
Status,197,10000223840,/g3t1_1,,success
Status,198,10026188861,/g3t1_2,,running
Status,199,10026325367,/g3t1_2,,success
Status,200,10027262530,/g3t1_3,,running
Status,201,10027490778,/g3t1_3,,fail
Status,202,10050205056,/g3t1_1,,running
Status,203,10050396293,/g3t1_1,,success
Status,204,10071940685,/g4t1,,fail
Status,205,10076143684,/g3t1_2,,running
Status,206,10076162380,/g3t1_2,,success
Status,207,10077501751,/g3t1_3,,running
Status,208,10077520959,/g3t1_3,,success
Status,212,10100120163,/g3t1_1,,running
Status,213,10100161829,/g3t1_1,,success
Status,214,10126601528,/g3t1_2,,running
Status,215,10126835251,/g3t1_2,,success
Status,216,10127655545,/g3t1_3,,running
Status,217,10127992650,/g3t1_3,,success
Status,218,10150652364,/g3t1_1,,running
Status,219,10150944318,/g3t1_1,,success
Status,220,10172179113,/g4t1,,fail
Status,221,10176382393,/g3t1_2,,running
Status,222,10176416102,/g3t1_2,,success
Status,223,10177540430,/g3t1_3,,running
Status,224,10177681363,/g3t1_3,,success
Status,225,10200042604,/g3t1_1,,running
Status,226,10200191906,/g3t1_1,,success
Status,227,10226597724,/g3t1_2,,running
Status,228,10226621758,/g3t1_2,,success
Status,229,10227650913,/g3t1_3,,running
Status,230,10227819443,/g3t1_3,,success
Status,231,10250530817,/g3t1_1,,running
Status,232,10250719196,/g3t1_1,,success
Status,233,10272818688,/g4t1,,fail
Status,234,10277163967,/g3t1_2,,running
Status,235,10277516678,/g3t1_2,,success
Status,236,10278115941,/g3t1_3,,running
Status,237,10278672902,/g3t1_3,,success
Status,241,10300844866,/g3t1_1,,running
Status,242,10301523246,/g3t1_1,,success
Status,243,10327147350,/g3t1_2,,running
Status,244,10327295771,/g3t1_2,,success
Status,245,10328054754,/g3t1_3,,running
Status,246,10328320105,/g3t1_3,,success
Status,247,10350561484,/g3t1_1,,running
Status,248,10350806981,/g3t1_1,,success
Status,249,10373042184,/g4t1,,fail
Status,250,10377482195,/g3t1_2,,running
Status,251,10377546048,/g3t1_2,,success
Status,252,10378441354,/g3t1_3,,running
Status,253,10378698783,/g3t1_3,,success
Status,254,10401166599,/g3t1_1,,running
Status,255,10401968802,/g3t1_1,,success
Status,256,10427534970,/g3t1_2,,running
Status,257,10428502770,/g3t1_2,,success
Status,258,10428950411,/g3t1_3,,running
Status,259,10430067286,/g3t1_3,,success
Status,260,10451302689,/g3t1_1,,running
Status,261,10451419692,/g3t1_1,,success
Status,262,10473164312,/g4t1,,fail
Status,263,10477379164,/g3t1_2,,running
Status,264,10477964052,/g3t1_2,,success
Status,265,10478461714,/g3t1_3,,running
Status,266,10479194965,/g3t1_3,,success
Status,270,10501481217,/g3t1_1,,running
Status,271,10502645115,/g3t1_1,,fail
Status,272,10527293047,/g3t1_2,,running
Status,273,10527399171,/g3t1_2,,success
Status,274,10528319050,/g3t1_3,,running
Status,275,10528492285,/g3t1_3,,success
Status,276,10551295842,/g3t1_1,,running
Status,277,10551777429,/g3t1_1,,success
Status,278,10573680981,/g4t1,,fail
Status,279,10577722240,/g3t1_2,,running
Status,280,10577967476,/g3t1_2,,success
Status,281,10578887018,/g3t1_3,,running
Status,282,10579238270,/g3t1_3,,success
Status,283,10602038280,/g3t1_1,,running
Status,284,10602574808,/g3t1_1,,success
Status,285,10628067853,/g3t1_2,,running
Status,286,10628594059,/g3t1_2,,success
Status,287,10629299940,/g3t1_3,,running
Status,288,10629462476,/g3t1_3,,success
Status,289,10651789160,/g3t1_1,,running
Status,290,10652242837,/g3t1_1,,success
Status,291,10672792016,/g4t1,,fail
Status,292,10677462065,/g3t1_2,,running
Status,293,10677488343,/g3t1_2,,success
Status,294,10678413043,/g3t1_3,,running
Status,295,10678545374,/g3t1_3,,success
Status,299,10701117425,/g3t1_1,,running
Status,300,10701223955,/g3t1_1,,success
Status,301,10727975445,/g3t1_2,,running
Status,302,10728283647,/g3t1_2,,success
Status,303,10728915258,/g3t1_3,,running
Status,304,10729323023,/g3t1_3,,success
Status,305,10752203150,/g3t1_1,,running
Status,306,10752299516,/g3t1_1,,success
Status,307,10773362064,/g4t1,,fail
Status,308,10778054768,/g3t1_2,,running
Status,309,10778507040,/g3t1_2,,success
Status,310,10779295629,/g3t1_3,,running
Status,311,10779343825,/g3t1_3,,success
Status,312,10801934864,/g3t1_1,,running
Status,313,10801993064,/g3t1_1,,success
Status,314,10828316735,/g3t1_2,,running
Status,315,10828622046,/g3t1_2,,success
Status,316,10829226766,/g3t1_3,,running
Status,317,10829518486,/g3t1_3,,success
Status,318,10852490812,/g3t1_1,,running
Status,319,10853172749,/g3t1_1,,success
Status,320,10873594665,/g4t1,,fail
Status,321,10878371582,/g3t1_2,,running
Status,322,10878607501,/g3t1_2,,success
Status,323,10879624705,/g3t1_3,,running
Status,324,10879732474,/g3t1_3,,success
Status,328,10902105564,/g3t1_1,,running
Status,329,10902634263,/g3t1_1,,success
Status,330,10928776359,/g3t1_2,,running
Status,331,10929167819,/g3t1_2,,success
Status,332,10930186046,/g3t1_3,,running
Status,333,10930267681,/g3t1_3,,success
Status,334,10952024513,/g3t1_1,,running
Status,335,10952068463,/g3t1_1,,success
Status,336,10973857689,/g4t1,,fail
Status,337,10978682764,/g3t1_2,,running
Status,338,10979084972,/g3t1_2,,success
Status,339,10979970087,/g3t1_3,,running
Status,340,10980046179,/g3t1_3,,success
Status,341,11002272188,/g3t1_1,,running
Status,342,11002647232,/g3t1_1,,success
Status,343,11029008283,/g3t1_2,,running
Status,344,11029093139,/g3t1_2,,success
Status,345,11029656611,/g3t1_3,,running
Status,346,11030194534,/g3t1_3,,success
Status,347,11052694326,/g3t1_1,,running
Status,348,11053227746,/g3t1_1,,success
Status,349,11073892414,/g4t1,,fail
Status,350,11078905231,/g3t1_2,,running
Status,351,11079387544,/g3t1_2,,success
Status,352,11080076718,/g3t1_3,,running
Status,353,11080141443,/g3t1_3,,success
Status,357,11102535889,/g3t1_1,,running
Status,358,11102853136,/g3t1_1,,success
Status,359,11129046095,/g3t1_2,,running
Status,360,11129093407,/g3t1_2,,success
Status,361,11129565516,/g3t1_3,,running
Status,362,11129800026,/g3t1_3,,success
Status,363,11152320099,/g3t1_1,,running
Status,364,11152525423,/g3t1_1,,success
Status,365,11173159438,/g4t1,,fail
Status,366,11178729143,/g3t1_2,,running
Status,367,11178944043,/g3t1_2,,success
Status,368,11179348869,/g3t1_3,,running
Status,369,11179438966,/g3t1_3,,success
Status,370,11202185542,/g3t1_1,,running
Status,371,11202364643,/g3t1_1,,success
Status,372,11228680767,/g3t1_2,,running
Status,373,11228858308,/g3t1_2,,success
Status,374,11229402235,/g3t1_3,,running
Status,375,11229538807,/g3t1_3,,success
Status,376,11252513630,/g3t1_1,,running
Status,377,11252882408,/g3t1_1,,success
Status,378,11273833223,/g4t1,,fail
Status,379,11279158529,/g3t1_2,,running
Status,380,11279620406,/g3t1_2,,success
Status,381,11279937204,/g3t1_3,,running
Status,382,11280266114,/g3t1_3,,success
Status,386,11302865426,/g3t1_1,,running
Status,387,11303157071,/g3t1_1,,success
Status,388,11329449543,/g3t1_2,,running
Status,389,11329509245,/g3t1_2,,success
Status,390,11330342245,/g3t1_3,,running
Status,391,11330402367,/g3t1_3,,success
Status,392,11353138737,/g3t1_1,,running
Status,393,11353628975,/g3t1_1,,success
Status,394,11374228157,/g4t1,,fail
Status,395,11379414807,/g3t1_2,,running
Status,396,11380269389,/g3t1_2,,success
Status,397,11380330069,/g3t1_3,,running
Status,398,11381201225,/g3t1_3,,success
Status,399,11403088474,/g3t1_1,,running
Status,400,11403518763,/g3t1_1,,success
Status,401,11429585912,/g3t1_2,,running
Status,402,11430268719,/g3t1_2,,success
Status,403,11430399376,/g3t1_3,,running
Status,404,11430802227,/g3t1_3,,success
Status,405,11453939244,/g3t1_1,,running
Status,406,11454398553,/g3t1_1,,success
Status,407,11474224041,/g4t1,,fail
Status,408,11479730359,/g3t1_2,,running
Status,409,11480653419,/g3t1_2,,success
Status,410,11480819071,/g3t1_3,,running
Status,411,11481320490,/g3t1_3,,success
Status,415,11503548254,/g3t1_1,,running
Status,416,11503957458,/g3t1_1,,success
Status,417,11529971065,/g3t1_2,,running
Status,418,11530387546,/g3t1_2,,success
Status,419,11531040975,/g3t1_3,,running
Status,420,11531102977,/g3t1_3,,success
Status,421,11554085529,/g3t1_1,,running
Status,422,11554204566,/g3t1_1,,fail
Status,423,11574455621,/g4t1,,fail
Status,424,11580692211,/g3t1_2,,running
Status,425,11580856161,/g3t1_2,,success
Status,426,11581378129,/g3t1_3,,running
Status,427,11581428175,/g3t1_3,,success
Status,428,11604006835,/g3t1_1,,running
Status,429,11604171234,/g3t1_1,,success
Status,430,11630276557,/g3t1_2,,running
Status,431,11630771337,/g3t1_2,,success
Status,432,11630849464,/g3t1_3,,running
Status,433,11631383945,/g3t1_3,,success
Status,434,11653609281,/g3t1_1,,running
Status,435,11653893494,/g3t1_1,,success
Status,436,11673634083,/g4t1,,fail
Status,437,11679643462,/g3t1_2,,running
Status,438,11679745397,/g3t1_2,,success
Status,439,11680340523,/g3t1_3,,running
Status,440,11680458028,/g3t1_3,,success
Status,444,11703510703,/g3t1_1,,running
Status,445,11703651647,/g3t1_1,,success
Status,446,11730459908,/g3t1_2,,running
Status,447,11731361558,/g3t1_2,,success
Status,448,11731475499,/g3t1_3,,running
Status,449,11731900729,/g3t1_3,,success
Status,450,11754332269,/g3t1_1,,running
Status,451,11755590613,/g3t1_1,,success
Status,452,11774475773,/g4t1,,fail
Status,453,11780459337,/g3t1_2,,running
Status,454,11781292963,/g3t1_2,,success
Status,455,11781358567,/g3t1_3,,running
Status,456,11781755955,/g3t1_3,,success
Status,457,11804231893,/g3t1_1,,running
Status,458,11804695976,/g3t1_1,,success
Status,459,11830574352,/g3t1_2,,running
Status,460,11831048848,/g3t1_2,,success
Status,461,11831368825,/g3t1_3,,running
Status,462,11832135648,/g3t1_3,,success
Status,463,11854705728,/g3t1_1,,running
Status,464,11855067080,/g3t1_1,,success
Status,465,11874654913,/g4t1,,fail
Status,466,11880919181,/g3t1_2,,running
Status,467,11881073445,/g3t1_2,,success
Status,468,11881884999,/g3t1_3,,running
Status,469,11882063029,/g3t1_3,,success
Status,473,11904731600,/g3t1_1,,running
Status,474,11905192262,/g3t1_1,,success
Status,475,11931021668,/g3t1_2,,running
Status,476,11931666562,/g3t1_2,,success
Status,477,11931744995,/g3t1_3,,running
Status,478,11932341339,/g3t1_3,,success
Status,479,11954919023,/g3t1_1,,running
Status,480,11955647320,/g3t1_1,,success
Status,481,11974687874,/g4t1,,fail
Status,482,11981076185,/g3t1_2,,running
Status,483,11981789141,/g3t1_3,,running
Status,484,11981859970,/g3t1_2,,success
Status,485,11982102686,/g3t1_3,,success
Status,486,12004909527,/g3t1_1,,running
Status,487,12005329819,/g3t1_1,,success
Status,488,12031149094,/g3t1_2,,running
Status,489,12031727749,/g3t1_2,,success
Status,490,12032302652,/g3t1_3,,running
Status,491,12032368533,/g3t1_3,,success
Status,492,12054986852,/g3t1_1,,running
Status,493,12055572918,/g3t1_1,,success
Status,494,12074925589,/g4t1,,fail
Status,495,12081241195,/g3t1_2,,running
Status,496,12082002171,/g3t1_2,,success
Status,497,12082083357,/g3t1_3,,running
Status,498,12082225516,/g3t1_3,,success
Status,502,12105345415,/g3t1_1,,running
Status,503,12105840411,/g3t1_1,,success
Status,504,12132189739,/g3t1_2,,running
Status,505,12132271560,/g3t1_2,,success
Status,506,12132301562,/g3t1_3,,running
Status,507,12132972223,/g3t1_3,,success
Status,508,12154940987,/g3t1_1,,running
Status,509,12155214524,/g3t1_1,,success
Status,510,12174303180,/g4t1,,fail
Status,511,12180845413,/g3t1_2,,running
Status,512,12180956927,/g3t1_2,,success
Status,513,12181732894,/g3t1_3,,running
Status,514,12181830657,/g3t1_3,,success
Status,515,12204651464,/g3t1_1,,running
Status,516,12204721230,/g3t1_1,,success
Status,517,12231140100,/g3t1_2,,running
Status,518,12231286431,/g3t1_2,,success
Status,519,12231917203,/g3t1_3,,running
Status,520,12232066583,/g3t1_3,,success
Status,521,12254983275,/g3t1_1,,running
Status,522,12255018577,/g3t1_1,,success
Status,523,12275185707,/g4t1,,fail
Status,524,12281650808,/g3t1_2,,running
Status,525,12281955641,/g3t1_2,,success
Status,526,12282900769,/g3t1_3,,running
Status,527,12282954322,/g3t1_3,,success
Status,531,12306007363,/g3t1_1,,running
Status,532,12306075641,/g3t1_1,,fail
Status,533,12331916072,/g3t1_2,,running
Status,534,12332283543,/g3t1_2,,success
Status,535,12332815042,/g3t1_3,,running
Status,536,12333544795,/g3t1_3,,success
Status,537,12355706830,/g3t1_1,,running
Status,538,12355787368,/g3t1_1,,fail
Status,539,12375257697,/g4t1,,fail
Status,540,12382058917,/g3t1_2,,running
Status,541,12382669560,/g3t1_2,,success
Status,542,12382810629,/g3t1_3,,running
Status,543,12384211415,/g3t1_3,,success
Status,544,12406126128,/g3t1_1,,running
Status,545,12407081729,/g3t1_1,,success
Status,546,12432476628,/g3t1_2,,running
Status,547,12432609729,/g3t1_2,,success
Status,548,12433180350,/g3t1_3,,running
Status,549,12433642979,/g3t1_3,,success
Status,550,12455806133,/g3t1_1,,running
Status,551,12455893882,/g3t1_1,,fail
Status,552,12475448988,/g4t1,,fail
Status,553,12482278001,/g3t1_2,,running
Status,554,12482969031,/g3t1_2,,success
Status,555,12483051216,/g3t1_3,,running
Status,556,12483629404,/g3t1_3,,success
Status,560,12506221410,/g3t1_1,,running
Status,561,12506791698,/g3t1_1,,success
Status,562,12532557633,/g3t1_2,,running
Status,563,12533026716,/g3t1_2,,success
Status,564,12533105340,/g3t1_3,,running
Status,565,12533680132,/g3t1_3,,success
Status,566,12556336634,/g3t1_1,,running
Status,567,12556482495,/g3t1_1,,success
Status,568,12575766664,/g4t1,,fail
Status,569,12582508263,/g3t1_2,,running
Status,570,12583245911,/g3t1_3,,running
Status,571,12583333462,/g3t1_2,,success
Status,572,12584172477,/g3t1_3,,success
Status,573,12606598467,/g3t1_1,,running
Status,574,12606669623,/g3t1_1,,success
Status,575,12632747684,/g3t1_2,,running
Status,576,12633601235,/g3t1_3,,running
Status,577,12633699840,/g3t1_2,,success
Status,578,12633747113,/g3t1_3,,success
Status,579,12656085136,/g3t1_1,,running
Status,580,12656391334,/g3t1_1,,fail
Status,581,12674850575,/g4t1,,fail
Status,582,12682279769,/g3t1_2,,running
Status,583,12682306325,/g3t1_2,,success
Status,584,12682993144,/g3t1_3,,running
Status,585,12683011517,/g3t1_3,,success
Status,589,12706057523,/g3t1_1,,running
Status,590,12706206473,/g3t1_1,,success
Status,591,12732607533,/g3t1_2,,running
Status,592,12732633937,/g3t1_2,,success
Status,593,12732907142,/g3t1_3,,running
Status,594,12733094550,/g3t1_3,,success
Status,595,12756480955,/g3t1_1,,running
Status,596,12756666724,/g3t1_1,,success
Status,597,12775742505,/g4t1,,fail
Status,598,12782809755,/g3t1_2,,running
Status,599,12783631128,/g3t1_2,,success
Status,600,12783708142,/g3t1_3,,running
Status,601,12784146496,/g3t1_3,,success
Status,602,12807072322,/g3t1_1,,running
Status,603,12807141438,/g3t1_1,,success
Status,604,12833491377,/g3t1_2,,running
Status,605,12833707556,/g3t1_3,,running
Status,606,12833801006,/g3t1_2,,success
Status,607,12834261455,/g3t1_3,,success
Status,608,12857027183,/g3t1_1,,running
Status,609,12857473601,/g3t1_1,,success
Status,610,12875976875,/g4t1,,fail
Status,611,12883156492,/g3t1_2,,running
Status,612,12884175349,/g3t1_2,,success
Status,613,12884239562,/g3t1_3,,running
Status,614,12884264475,/g3t1_3,,success
Status,618,12907163640,/g3t1_1,,running
Status,619,12907541910,/g3t1_1,,success
Status,620,12933603577,/g3t1_2,,running
Status,621,12933750547,/g3t1_2,,success
Status,622,12933795653,/g3t1_3,,running
Status,623,12934666163,/g3t1_3,,success
Status,624,12957250397,/g3t1_1,,running
Status,625,12957593599,/g3t1_1,,success
Status,626,12976055495,/g4t1,,fail
Status,627,12984095794,/g3t1_2,,running
Status,628,12984173642,/g3t1_3,,running
Status,629,12984268734,/g3t1_2,,success
Status,630,12984583457,/g3t1_3,,success
Status,631,13007240605,/g3t1_1,,running
Status,632,13007588458,/g3t1_1,,success
Status,633,13033464955,/g3t1_2,,running
Status,634,13033846421,/g3t1_2,,success
Status,635,13034074189,/g3t1_3,,running
Status,636,13034631557,/g3t1_3,,success
Status,637,13057621907,/g3t1_1,,running
Status,638,13058082771,/g3t1_1,,success
Status,639,13076211491,/g4t1,,fail
Status,640,13083919602,/g3t1_2,,running
Status,641,13084049216,/g3t1_2,,success
Status,642,13084224328,/g3t1_3,,running
Status,643,13084661203,/g3t1_3,,success
Status,647,13107897111,/g3t1_1,,running
Status,648,13108149366,/g3t1_1,,success
Status,649,13133844795,/g3t1_2,,running
Status,650,13134191927,/g3t1_2,,success
Status,651,13134432810,/g3t1_3,,running
Status,652,13134966367,/g3t1_3,,success
Status,653,13157780964,/g3t1_1,,running
Status,654,13158216964,/g3t1_1,,success
Status,655,13175418040,/g4t1,,fail
Status,656,13183117903,/g3t1_2,,running
Status,657,13183252359,/g3t1_2,,success
Status,658,13183615713,/g3t1_3,,running
Status,659,13183779949,/g3t1_3,,success
Status,660,13208006656,/g3t1_1,,running
Status,661,13208225682,/g3t1_1,,success
Status,662,13233766982,/g3t1_2,,running
Status,663,13234082802,/g3t1_2,,success
Status,664,13234376749,/g3t1_3,,running
Status,665,13234675449,/g3t1_3,,success
Status,666,13257791382,/g3t1_1,,running
Status,667,13258028278,/g3t1_1,,success
Status,668,13275998579,/g4t1,,fail
Status,669,13284003335,/g3t1_2,,running
Status,670,13284308537,/g3t1_2,,success
Status,671,13284449059,/g3t1_3,,running
Status,672,13284859006,/g3t1_3,,success
Status,676,13307942516,/g3t1_1,,running
Status,677,13308332876,/g3t1_1,,success
Status,678,13334701639,/g3t1_2,,running
Status,679,13334776419,/g3t1_3,,running
Status,680,13335189267,/g3t1_2,,success
Status,681,13335274293,/g3t1_3,,success
Status,682,13358198626,/g3t1_1,,running
Status,683,13358256125,/g3t1_1,,fail
Status,684,13376499000,/g4t1,,fail
Status,685,13385117676,/g3t1_2,,running
Status,686,13385409289,/g3t1_2,,success
Status,687,13385470796,/g3t1_3,,running
Status,688,13385878520,/g3t1_3,,success
Status,689,13408309353,/g3t1_1,,running
Status,690,13408742325,/g3t1_1,,success
Status,691,13434768265,/g3t1_2,,running
Status,692,13435001847,/g3t1_3,,running
Status,693,13435809211,/g3t1_2,,success
Status,694,13435933836,/g3t1_3,,success
Status,695,13458291404,/g3t1_1,,running
Status,696,13458997552,/g3t1_1,,success
Status,697,13476788337,/g4t1,,fail
Status,698,13485153854,/g3t1_2,,running
Status,699,13485264808,/g3t1_3,,running
Status,700,13486035567,/g3t1_3,,success
Status,701,13486178945,/g3t1_2,,success
Status,705,13508591292,/g3t1_1,,running
Status,706,13508961204,/g3t1_1,,success
Status,707,13535251954,/g3t1_2,,running
Status,708,13535348312,/g3t1_3,,running
Status,709,13535604964,/g3t1_2,,success
Status,710,13535967600,/g3t1_3,,success
Status,711,13559042345,/g3t1_1,,running
Status,712,13559115620,/g3t1_1,,fail
Status,713,13576712838,/g4t1,,fail
Status,714,13585395543,/g3t1_2,,running
Status,715,13585494762,/g3t1_3,,running
Status,716,13586018090,/g3t1_2,,success
Status,717,13586108992,/g3t1_3,,success
Status,718,13608968237,/g3t1_1,,running
Status,719,13609430054,/g3t1_1,,success
Status,720,13635398272,/g3t1_2,,running
Status,721,13635535244,/g3t1_3,,running
Status,722,13636343727,/g3t1_3,,success
Status,723,13636539857,/g3t1_2,,success
Status,724,13658466760,/g3t1_1,,running
Status,725,13658728072,/g3t1_1,,success
Status,726,13675979408,/g4t1,,fail
Status,727,13684637586,/g3t1_2,,running
Status,728,13684739395,/g3t1_2,,success
Status,729,13684952048,/g3t1_3,,running
Status,730,13685080294,/g3t1_3,,success
Status,734,13708591007,/g3t1_1,,running
Status,735,13708729915,/g3t1_1,,success
Status,736,13735037239,/g3t1_2,,running
Status,737,13735425673,/g3t1_3,,running
Status,738,13735467270,/g3t1_2,,success
Status,739,13735517887,/g3t1_3,,success
Status,740,13759297142,/g3t1_1,,running
Status,741,13759576985,/g3t1_1,,success
Status,742,13776770049,/g4t1,,fail
Status,743,13785829158,/g3t1_2,,running
Status,744,13785902487,/g3t1_3,,running
Status,745,13786480117,/g3t1_3,,success
Status,746,13786584155,/g3t1_2,,success
Status,747,13809197767,/g3t1_1,,running
Status,748,13809517815,/g3t1_1,,success
Status,749,13835756534,/g3t1_2,,running
Status,750,13835834593,/g3t1_3,,running
Status,751,13835946566,/g3t1_2,,success
Status,752,13836353187,/g3t1_3,,success
Status,753,13859468615,/g3t1_1,,running
Status,754,13859821056,/g3t1_1,,success
Status,755,13877063743,/g4t1,,fail
Status,756,13885971562,/g3t1_2,,running
Status,757,13886087757,/g3t1_3,,running
Status,758,13886528662,/g3t1_2,,success
Status,759,13886604600,/g3t1_3,,success
Status,763,13909505940,/g3t1_1,,running
Status,764,13910043501,/g3t1_1,,success
Status,765,13936528822,/g3t1_2,,running
Status,766,13936679180,/g3t1_3,,running
Status,767,13936722198,/g3t1_2,,success
Status,768,13937114323,/g3t1_3,,success
Status,769,13959726528,/g3t1_1,,running
Status,770,13960566674,/g3t1_1,,success
Status,771,13977220289,/g4t1,,fail
Status,772,13986292449,/g3t1_2,,running
Status,773,13986412096,/g3t1_3,,running
Status,774,13986907628,/g3t1_2,,success
Status,775,13986980874,/g3t1_3,,success
Status,776,14009970385,/g3t1_1,,running
Status,777,14010414053,/g3t1_1,,success
Status,778,14036239055,/g3t1_2,,running
Status,779,14036440804,/g3t1_3,,running
Status,780,14036498964,/g3t1_2,,success
Status,781,14036534186,/g3t1_3,,success
Status,782,14059844679,/g3t1_1,,running
Status,783,14060268311,/g3t1_1,,success
Status,784,14077289612,/g4t1,,fail
Status,785,14086499173,/g3t1_2,,running
Status,786,14086592117,/g3t1_3,,running
Status,787,14086969003,/g3t1_2,,success
Status,788,14087032183,/g3t1_3,,success
Status,792,14110035320,/g3t1_1,,running
Status,793,14110594143,/g3t1_1,,success
Status,794,14137074728,/g3t1_2,,running
Status,795,14137149385,/g3t1_3,,running
Status,796,14137356867,/g3t1_2,,success
Status,797,14137446882,/g3t1_3,,success
Status,798,14159790266,/g3t1_1,,running
Status,799,14160069918,/g3t1_1,,success
Status,800,14176588684,/g4t1,,fail
Status,801,14185664529,/g3t1_2,,running
Status,802,14185799778,/g3t1_2,,success
Status,803,14186089739,/g3t1_3,,running
Status,804,14186106886,/g3t1_3,,success
Status,805,14209798113,/g3t1_1,,running
Status,806,14209932767,/g3t1_1,,success
Status,807,14236661610,/g3t1_2,,running
Status,808,14236783327,/g3t1_3,,running
Status,809,14237208410,/g3t1_2,,success
Status,810,14237267169,/g3t1_3,,success
Status,811,14260283095,/g3t1_1,,running
Status,812,14260675655,/g3t1_1,,success
Status,813,14277493226,/g4t1,,fail
Status,814,14286772233,/g3t1_2,,running
Status,815,14286895285,/g3t1_3,,running
Status,816,14287266212,/g3t1_2,,success
Status,817,14287846818,/g3t1_3,,success
Status,821,14310484516,/g3t1_1,,running
Status,822,14310877115,/g3t1_1,,success
Status,823,14336936762,/g3t1_2,,running
Status,824,14337275530,/g3t1_3,,running
Status,825,14337378545,/g3t1_2,,success
Status,826,14337644142,/g3t1_3,,success
Status,827,14360592971,/g3t1_1,,running
Status,828,14360939284,/g3t1_1,,success
Status,829,14377606627,/g4t1,,fail
Status,830,14386476611,/g3t1_2,,running
Status,831,14386840358,/g3t1_3,,running
Status,832,14387078805,/g3t1_2,,success
Status,833,14387243237,/g3t1_3,,success
Status,834,14410268310,/g3t1_1,,running
Status,835,14410295159,/g3t1_1,,success
Status,836,14437560255,/g3t1_2,,running
Status,837,14437817916,/g3t1_3,,running
Status,838,14437893805,/g3t1_2,,success
Status,839,14438408601,/g3t1_3,,success
Status,840,14460917120,/g3t1_1,,running
Status,841,14461372910,/g3t1_1,,success
Status,842,14477764974,/g4t1,,fail
Status,843,14487776095,/g3t1_2,,running
Status,844,14487863727,/g3t1_3,,running
Status,845,14488044622,/g3t1_2,,success
Status,846,14488533359,/g3t1_3,,success
Status,850,14511229967,/g3t1_1,,running
Status,851,14511692374,/g3t1_1,,success
Status,852,14537721643,/g3t1_2,,running
Status,853,14537794050,/g3t1_3,,running
Status,854,14537863907,/g3t1_2,,success
Status,855,14537887517,/g3t1_3,,success
Status,856,14561218395,/g3t1_1,,running
Status,857,14561707816,/g3t1_1,,success
Status,858,14577931000,/g4t1,,fail
Status,859,14587861200,/g3t1_2,,running
Status,860,14587961849,/g3t1_3,,running
Status,861,14588671868,/g3t1_2,,success
Status,862,14588796504,/g3t1_3,,success
Status,863,14611457971,/g3t1_1,,running
Status,864,14612287280,/g3t1_1,,success
Status,865,14637729129,/g3t1_2,,running
Status,866,14638028089,/g3t1_3,,running
Status,867,14638150194,/g3t1_2,,success
Status,868,14638560946,/g3t1_3,,success
Status,869,14661472778,/g3t1_1,,running
Status,870,14661978480,/g3t1_1,,success
Status,871,14677244385,/g4t1,,fail
Status,872,14686922740,/g3t1_2,,running
Status,873,14687044948,/g3t1_2,,success
Status,874,14687226493,/g3t1_3,,running
Status,875,14687414744,/g3t1_3,,success
Status,879,14710930369,/g3t1_1,,running
Status,880,14711145573,/g3t1_1,,success
Status,881,14737236355,/g3t1_2,,running
Status,882,14737329792,/g3t1_2,,success
Status,883,14737352644,/g3t1_3,,running
Status,884,14737523726,/g3t1_3,,success
Status,885,14761100598,/g3t1_1,,running
Status,886,14761323971,/g3t1_1,,success
Status,887,14777798224,/g4t1,,fail
Status,888,14787737516,/g3t1_2,,running
Status,889,14788122030,/g3t1_3,,running
Status,890,14788185188,/g3t1_2,,success
Status,891,14788260746,/g3t1_3,,success
Status,892,14811612750,/g3t1_1,,running
Status,893,14811671713,/g3t1_1,,fail
Status,894,14838026981,/g3t1_2,,running
Status,895,14838105222,/g3t1_3,,running
Status,896,14838406359,/g3t1_2,,success
Status,897,14838650912,/g3t1_3,,success
Status,898,14861726359,/g3t1_1,,running
Status,899,14861804244,/g3t1_1,,fail
Status,900,14877972671,/g4t1,,fail
Status,901,14888032507,/g3t1_2,,running
Status,902,14888526259,/g3t1_2,,success
Status,903,14888993699,/g3t1_3,,running
Status,904,14889059769,/g3t1_3,,success
Status,908,14911953906,/g3t1_1,,running
Status,909,14912390752,/g3t1_1,,success
Status,910,14938654329,/g3t1_2,,running
Status,911,14938749222,/g3t1_3,,running
Status,912,14939390415,/g3t1_3,,success
Status,913,14939449381,/g3t1_2,,success
Status,914,14962121078,/g3t1_1,,running
Status,915,14962626856,/g3t1_1,,success
Status,916,14978298433,/g4t1,,fail
Status,917,14988392018,/g3t1_2,,running
Status,918,14988576721,/g3t1_3,,running
Status,919,14989095189,/g3t1_2,,success
Status,920,14989313260,/g3t1_3,,success
Status,921,15012493449,/g3t1_1,,running
Status,922,15012572004,/g3t1_1,,success
Status,923,15038930319,/g3t1_2,,running
Status,924,15039032038,/g3t1_3,,running
Status,925,15039124861,/g3t1_2,,success
Status,926,15039626473,/g3t1_3,,success
Status,927,15062562837,/g3t1_1,,running
Status,928,15062880698,/g3t1_1,,success
Status,929,15078593557,/g4t1,,fail
Status,930,15088972167,/g3t1_2,,running
Status,931,15089086316,/g3t1_3,,running
Status,932,15089190104,/g3t1_2,,success
Status,933,15089218730,/g3t1_3,,success
Status,937,15112630967,/g3t1_1,,running
Status,938,15112993580,/g3t1_1,,success
Status,939,15139216678,/g3t1_2,,running
Status,940,15139298962,/g3t1_3,,running
Status,941,15139486857,/g3t1_2,,success
Status,942,15139786759,/g3t1_3,,success
Status,943,15162814258,/g3t1_1,,running
Status,944,15162859712,/g3t1_1,,success
Status,945,15177872649,/g4t1,,fail
Status,946,15188284958,/g3t1_2,,running
Status,947,15188420229,/g3t1_2,,success
Status,948,15188456138,/g3t1_3,,running
Status,949,15188482410,/g3t1_3,,success
Status,950,15212850788,/g3t1_1,,running
Status,951,15212983266,/g3t1_1,,success
Status,952,15238706129,/g3t1_2,,running
Status,953,15238766893,/g3t1_3,,running
Status,954,15239129941,/g3t1_2,,success
Status,955,15239169638,/g3t1_3,,success
Status,956,15262762673,/g3t1_1,,running
Status,957,15263089039,/g3t1_1,,success
Status,958,15278409962,/g4t1,,fail
Status,959,15289065082,/g3t1_3,,running
Status,960,15289133963,/g3t1_2,,running
Status,961,15289228995,/g3t1_3,,success
Status,962,15289266378,/g3t1_2,,success
Status,966,15312956350,/g3t1_1,,running
Status,967,15313497740,/g3t1_1,,success
Status,968,15339423987,/g3t1_2,,running
Status,969,15339499019,/g3t1_3,,running
Status,970,15339579897,/g3t1_3,,success
Status,971,15339702648,/g3t1_2,,success
Status,972,15363094194,/g3t1_1,,running
Status,973,15363604416,/g3t1_1,,success
Status,974,15378785616,/g4t1,,fail
Status,975,15389667090,/g3t1_2,,running
Status,976,15389768824,/g3t1_3,,running
Status,977,15389987619,/g3t1_2,,success
Status,978,15390050818,/g3t1_3,,success
Status,979,15413466600,/g3t1_1,,running
Status,980,15413922696,/g3t1_1,,success
Status,981,15439741539,/g3t1_3,,running
Status,982,15439827525,/g3t1_2,,running
Status,983,15440236799,/g3t1_2,,success
Status,984,15440297175,/g3t1_3,,success
Status,985,15463572311,/g3t1_1,,running
Status,986,15463941647,/g3t1_1,,success
Status,987,15478903923,/g4t1,,fail
Status,988,15490074891,/g3t1_2,,running
Status,989,15490144177,/g3t1_3,,running
Status,990,15490179881,/g3t1_2,,success
Status,991,15490279692,/g3t1_3,,success
Status,995,15513780195,/g3t1_1,,running
Status,996,15513970821,/g3t1_1,,success
Status,997,15540340323,/g3t1_2,,running
Status,998,15540453936,/g3t1_3,,running
Status,999,15540502288,/g3t1_3,,success
Status,1000,15540544052,/g3t1_2,,success
Status,1001,15563799624,/g3t1_1,,running
Status,1002,15564170492,/g3t1_1,,success
Status,1003,15579101798,/g4t1,,fail
Status,1004,15590158908,/g3t1_2,,running
Status,1005,15590247369,/g3t1_3,,running
Status,1006,15590648781,/g3t1_2,,success
Status,1007,15590718477,/g3t1_3,,success
Status,1008,15614093431,/g3t1_1,,running
Status,1009,15614164799,/g3t1_1,,success
Status,1010,15640264881,/g3t1_2,,running
Status,1011,15640354617,/g3t1_3,,running
Status,1012,15640849685,/g3t1_3,,success
Status,1013,15640922800,/g3t1_2,,success
Status,1014,15664304372,/g3t1_1,,running
Status,1015,15664373517,/g3t1_1,,success
Status,1016,15678370526,/g4t1,,fail
Status,1017,15689762916,/g3t1_2,,running
Status,1018,15689787065,/g3t1_3,,running
Status,1019,15689816194,/g3t1_2,,success
Status,1020,15689824697,/g3t1_3,,success
Status,1024,15713640668,/g3t1_1,,running
Status,1025,15713664871,/g3t1_1,,success
Status,1026,15740848968,/g3t1_3,,running
Status,1027,15740965607,/g3t1_2,,running
Status,1028,15741158996,/g3t1_3,,success
Status,1029,15741511872,/g3t1_2,,success
Status,1030,15764185274,/g3t1_1,,running
Status,1031,15764249578,/g3t1_1,,fail
Status,1032,15779240177,/g4t1,,fail
Status,1033,15790683664,/g3t1_2,,running
Status,1034,15790760741,/g3t1_3,,running
Status,1035,15791008048,/g3t1_3,,success
Status,1036,15791064317,/g3t1_2,,success
Status,1037,15814447771,/g3t1_1,,running
Status,1038,15814742420,/g3t1_1,,success
Status,1039,15840970677,/g3t1_2,,running
Status,1040,15841104332,/g3t1_3,,running
Status,1041,15841176227,/g3t1_2,,success
Status,1042,15841266475,/g3t1_3,,success
Status,1043,15864608647,/g3t1_1,,running
Status,1044,15864673022,/g3t1_1,,success
Status,1045,15879202090,/g4t1,,fail
Status,1046,15891079778,/g3t1_2,,running
Status,1047,15891166009,/g3t1_3,,running
Status,1048,15891465686,/g3t1_2,,success
Status,1049,15891512214,/g3t1_3,,success
Status,1053,15914754120,/g3t1_1,,running
Status,1054,15914824300,/g3t1_1,,fail
Status,1055,15941521289,/g3t1_2,,running
Status,1056,15941597700,/g3t1_3,,running
Status,1057,15942131195,/g3t1_3,,success
Status,1058,15942216689,/g3t1_2,,success
Status,1059,15964817779,/g3t1_1,,running
Status,1060,15965608232,/g3t1_1,,success
Status,1061,15979325546,/g4t1,,fail
Status,1062,15991560911,/g3t1_3,,running
Status,1063,15991655039,/g3t1_2,,running
Status,1064,15991894304,/g3t1_3,,success
Status,1065,15992083491,/g3t1_2,,success
Status,1066,16014946171,/g3t1_1,,running
Status,1067,16015387944,/g3t1_1,,success
Status,1068,16041484441,/g3t1_2,,running
Status,1069,16041600174,/g3t1_3,,running
Status,1070,16041945879,/g3t1_2,,success
Status,1071,16041998670,/g3t1_3,,success
Status,1072,16065033206,/g3t1_1,,running
Status,1073,16065486725,/g3t1_1,,success
Status,1074,16079460851,/g4t1,,fail
Status,1075,16091841080,/g3t1_2,,running
Status,1076,16091923473,/g3t1_3,,running
Status,1077,16092195552,/g3t1_2,,success
Status,1078,16092324273,/g3t1_3,,success
Status,1082,16115071667,/g3t1_1,,running
Status,1083,16115126762,/g3t1_1,,fail
Status,1084,16141081042,/g3t1_2,,running
Status,1085,16141131474,/g3t1_3,,running
Status,1086,16141314201,/g3t1_3,,success
Status,1087,16141337560,/g3t1_2,,success
Status,1088,16164662028,/g3t1_1,,running
Status,1089,16164864285,/g3t1_1,,success
Status,1090,16178812410,/g4t1,,fail
Status,1091,16190990354,/g3t1_2,,running
Status,1092,16191025516,/g3t1_3,,running
Status,1093,16191113037,/g3t1_2,,success
Status,1094,16191144675,/g3t1_3,,success
Status,1095,16215129172,/g3t1_1,,running
Status,1096,16215194161,/g3t1_1,,success
Status,1097,16241777837,/g3t1_2,,running
Status,1098,16241892963,/g3t1_3,,running
Status,1099,16242443144,/g3t1_2,,success
Status,1100,16242521262,/g3t1_3,,success
Status,1101,16265052606,/g3t1_1,,running
Status,1102,16265341670,/g3t1_1,,success
Status,1103,16279624082,/g4t1,,fail
Status,1104,16291615016,/g3t1_3,,running
Status,1105,16291691334,/g3t1_2,,running
Status,1106,16292380365,/g3t1_2,,success
Status,1107,16292492229,/g3t1_3,,success
Status,1111,16315377231,/g3t1_1,,running
Status,1112,16315879881,/g3t1_1,,success
Status,1113,16341799394,/g3t1_3,,running
Status,1114,16341911817,/g3t1_2,,running
Status,1115,16342671522,/g3t1_3,,success
Status,1116,16342792242,/g3t1_2,,success
Status,1117,16365408888,/g3t1_1,,running
Status,1118,16365774739,/g3t1_1,,success
Status,1119,16379707691,/g4t1,,fail
Status,1120,16392161201,/g3t1_3,,running
Status,1121,16392232622,/g3t1_2,,running
Status,1122,16392554230,/g3t1_2,,success
Status,1123,16392610020,/g3t1_3,,success
Status,1124,16415655088,/g3t1_1,,running
Status,1125,16416032886,/g3t1_1,,success
Status,1126,16441977470,/g3t1_3,,running
Status,1127,16442018787,/g3t1_2,,running
Status,1128,16442088295,/g3t1_3,,success
Status,1129,16442108680,/g3t1_2,,success
Status,1130,16465441496,/g3t1_1,,running
Status,1131,16465735617,/g3t1_1,,success
Status,1132,16479592273,/g4t1,,fail
Status,1133,16492045636,/g3t1_3,,running
Status,1134,16492119379,/g3t1_2,,running
Status,1135,16492683633,/g3t1_2,,success
Status,1136,16492734919,/g3t1_3,,success
Status,1140,16515684091,/g3t1_1,,running
Status,1141,16515729026,/g3t1_1,,success
Status,1142,16542105508,/g3t1_3,,running
Status,1143,16542161919,/g3t1_2,,running
Status,1144,16542339240,/g3t1_3,,success
Status,1145,16542392775,/g3t1_2,,success
Status,1146,16565564703,/g3t1_1,,running
Status,1147,16565720909,/g3t1_1,,success
Status,1148,16579665083,/g4t1,,fail
Status,1149,16593010528,/g3t1_3,,running
Status,1150,16593103839,/g3t1_2,,running
Status,1151,16593205870,/g3t1_3,,success
Status,1152,16593231098,/g3t1_2,,success
Status,1153,16616060918,/g3t1_1,,running
Status,1154,16616258077,/g3t1_1,,success
Status,1155,16642751062,/g3t1_2,,running
Status,1156,16642853913,/g3t1_3,,running
Status,1157,16643342816,/g3t1_2,,success
Status,1158,16643405756,/g3t1_3,,success
Status,1159,16666139142,/g3t1_1,,running
Status,1160,16666529032,/g3t1_1,,success
Status,1161,16679591146,/g4t1,,fail
Status,1162,16692158402,/g3t1_3,,running
Status,1163,16692180450,/g3t1_3,,success
Status,1164,16692289512,/g3t1_2,,running
Status,1165,16692302985,/g3t1_2,,success
Status,1169,16715711107,/g3t1_1,,running
Status,1170,16715757642,/g3t1_1,,fail
Status,1171,16742285370,/g3t1_2,,running
Status,1172,16742350431,/g3t1_3,,running
Status,1173,16742360591,/g3t1_2,,success
Status,1174,16742467410,/g3t1_3,,success
Status,1175,16766150369,/g3t1_1,,running
Status,1176,16766182888,/g3t1_1,,fail
Status,1177,16780135999,/g4t1,,fail
Status,1178,16793042929,/g3t1_3,,running
Status,1179,16793438779,/g3t1_2,,running
Status,1180,16793538474,/g3t1_2,,success
Status,1181,16793644652,/g3t1_3,,success
Status,1182,16816061721,/g3t1_1,,running
Status,1183,16816284493,/g3t1_1,,fail
Status,1184,16842451725,/g3t1_2,,running
Status,1185,16842480296,/g3t1_3,,running
Status,1186,16842513829,/g3t1_3,,success
Status,1187,16842522623,/g3t1_2,,success
Status,1188,16865893669,/g3t1_1,,running
Status,1189,16865982888,/g3t1_1,,success
Status,1190,16880209991,/g4t1,,fail
Status,1191,16892711324,/g3t1_2,,running
Status,1192,16892748736,/g3t1_3,,running
Status,1193,16892781624,/g3t1_3,,success
Status,1194,16892791565,/g3t1_2,,success
Status,1198,16916392854,/g3t1_1,,running
Status,1199,16916713852,/g3t1_1,,success
Status,1200,16943376210,/g3t1_2,,running
Status,1201,16943433882,/g3t1_3,,running
Status,1202,16943506082,/g3t1_2,,success
Status,1203,16943581677,/g3t1_3,,success
Status,1204,16966960706,/g3t1_1,,running
Status,1205,16967407388,/g3t1_1,,success
Status,1206,16980316376,/g4t1,,fail
Status,1207,16993616959,/g3t1_3,,running
Status,1208,16993739770,/g3t1_2,,running
Status,1209,16993781118,/g3t1_3,,success
Status,1210,16993824297,/g3t1_2,,success
Status,1211,17016608565,/g3t1_1,,running
Status,1212,17016652334,/g3t1_1,,success
Status,1213,17043527153,/g3t1_2,,running
Status,1214,17043587503,/g3t1_3,,running
Status,1215,17043627163,/g3t1_2,,success
Status,1216,17043973754,/g3t1_3,,success
Status,1217,17066939493,/g3t1_1,,running
Status,1218,17067370632,/g3t1_1,,success
Status,1219,17080703008,/g4t1,,fail
Status,1220,17093903422,/g3t1_2,,running
Status,1221,17094034311,/g3t1_3,,running
Status,1222,17094145074,/g3t1_3,,success
Status,1223,17094175908,/g3t1_2,,success
Status,1227,17117220345,/g3t1_1,,running
Status,1228,17117723170,/g3t1_1,,fail
Status,1229,17144027013,/g3t1_2,,running
Status,1230,17144104281,/g3t1_3,,running
Status,1231,17144138372,/g3t1_2,,success
Status,1232,17144202464,/g3t1_3,,success
Status,1233,17167367881,/g3t1_1,,running
Status,1234,17167431016,/g3t1_1,,success
Status,1235,17179875231,/g4t1,,fail
Status,1236,17193223988,/g3t1_2,,running
Status,1237,17193249150,/g3t1_3,,running
Status,1238,17193282245,/g3t1_2,,success
Status,1239,17193296371,/g3t1_3,,success
Status,1240,17217247792,/g3t1_1,,running
Status,1241,17217286386,/g3t1_1,,fail
Status,1242,17243409700,/g3t1_3,,running
Status,1243,17243462368,/g3t1_2,,running
Status,1244,17243491060,/g3t1_3,,success
Status,1245,17243505113,/g3t1_2,,success
Status,1246,17267140802,/g3t1_1,,running
Status,1247,17267181183,/g3t1_1,,fail
Status,1248,17280470789,/g4t1,,fail
Status,1249,17293872004,/g3t1_3,,running
Status,1250,17293952490,/g3t1_2,,running
Status,1251,17294403623,/g3t1_2,,success
Status,1252,17294472736,/g3t1_3,,success
Status,1256,17317866766,/g3t1_1,,running
Status,1257,17317926120,/g3t1_1,,fail
Status,1258,17343989148,/g3t1_3,,running
Status,1259,17344067657,/g3t1_2,,running
Status,1260,17344333046,/g3t1_3,,success
Status,1261,17344678744,/g3t1_2,,success
Status,1262,17368342718,/g3t1_1,,running
Status,1263,17369217007,/g3t1_1,,success
Status,1264,17380690478,/g4t1,,fail
Status,1265,17394379361,/g3t1_3,,running
Status,1266,17394481655,/g3t1_2,,running
Status,1267,17394566432,/g3t1_3,,success
Status,1268,17394895610,/g3t1_2,,success
Status,1269,17417879734,/g3t1_1,,running
Status,1270,17418077929,/g3t1_1,,fail
Status,1271,17444822715,/g3t1_2,,running
Status,1272,17444903191,/g3t1_3,,running
Status,1273,17445018856,/g3t1_3,,success
Status,1274,17445043544,/g3t1_2,,success
Status,1275,17468291994,/g3t1_1,,running
Status,1276,17469115551,/g3t1_1,,success
Status,1277,17480924749,/g4t1,,fail
Status,1278,17494820864,/g3t1_3,,running
Status,1279,17494915223,/g3t1_2,,running
Status,1280,17494975619,/g3t1_3,,success
Status,1281,17495402348,/g3t1_2,,success
Status,1285,17518461480,/g3t1_1,,running
Status,1286,17518527618,/g3t1_1,,success
Status,1287,17544840421,/g3t1_2,,running
Status,1288,17544925498,/g3t1_3,,running
Status,1289,17545331463,/g3t1_3,,success
Status,1290,17545381839,/g3t1_2,,success
Status,1291,17568370170,/g3t1_1,,running
Status,1292,17568763783,/g3t1_1,,success
Status,1293,17581176330,/g4t1,,fail
Status,1294,17595095936,/g3t1_2,,running
Status,1295,17595204873,/g3t1_3,,running
Status,1296,17595505798,/g3t1_2,,success
Status,1297,17595815891,/g3t1_3,,success
Status,1298,17618475397,/g3t1_1,,running
Status,1299,17619144643,/g3t1_1,,success
Status,1300,17644679614,/g3t1_3,,running
Status,1301,17644788753,/g3t1_2,,running
Status,1302,17644996530,/g3t1_3,,success
Status,1303,17645075659,/g3t1_2,,success
Status,1304,17668606587,/g3t1_1,,running
Status,1305,17669076352,/g3t1_1,,success
Status,1306,17680540586,/g4t1,,fail
Status,1307,17694201065,/g3t1_3,,running
Status,1308,17694347964,/g3t1_2,,running
Status,1309,17694384239,/g3t1_3,,success
Status,1310,17694420490,/g3t1_2,,success
Status,1314,17718240290,/g3t1_1,,running
Status,1315,17718270922,/g3t1_1,,success
Status,1316,17744952724,/g3t1_2,,running
Status,1317,17744999088,/g3t1_3,,running
Status,1318,17745042145,/g3t1_3,,success
Status,1319,17745055273,/g3t1_2,,success
Status,1320,17768467726,/g3t1_1,,running
Status,1321,17768518273,/g3t1_1,,success
Status,1322,17780357151,/g4t1,,fail
Status,1323,17794564126,/g3t1_2,,running
Status,1324,17794589775,/g3t1_3,,running
Status,1325,17794617578,/g3t1_2,,success
Status,1326,17794625195,/g3t1_3,,success
Status,1327,17819193318,/g3t1_1,,running
Status,1328,17819294983,/g3t1_1,,fail
Status,1329,17845077174,/g3t1_2,,running
Status,1330,17845159280,/g3t1_3,,running
Status,1331,17845615059,/g3t1_3,,success
Status,1332,17845788092,/g3t1_2,,success
Status,1333,17869236311,/g3t1_1,,running
Status,1334,17869311752,/g3t1_1,,success
Status,1335,17881290867,/g4t1,,fail
Status,1336,17894962210,/g3t1_3,,running
Status,1337,17895167241,/g3t1_2,,running
Status,1338,17895195088,/g3t1_2,,success
Status,1339,17895294782,/g3t1_3,,success
Status,1343,17918881315,/g3t1_1,,running
Status,1344,17919297270,/g3t1_1,,success
Status,1345,17945036135,/g3t1_2,,running
Status,1346,17945064088,/g3t1_3,,running
Status,1347,17945102733,/g3t1_2,,success
Status,1348,17945112140,/g3t1_3,,success
Status,1349,17969051082,/g3t1_1,,running
Status,1350,17969088511,/g3t1_1,,success
Status,1351,17980664289,/g4t1,,fail
Status,1352,17995010089,/g3t1_3,,running
Status,1353,17995050219,/g3t1_2,,running
Status,1354,17995110936,/g3t1_2,,success
Status,1355,17995130330,/g3t1_3,,success
Status,1356,18019107975,/g3t1_1,,running
Status,1357,18019137123,/g3t1_1,,success
Status,1358,18045068763,/g3t1_3,,running
Status,1359,18045103073,/g3t1_2,,running
Status,1360,18045288905,/g3t1_3,,success
Status,1361,18045316050,/g3t1_2,,success
Status,1362,18069002290,/g3t1_1,,running
Status,1363,18069116167,/g3t1_1,,success
Status,1364,18081361176,/g4t1,,fail
Status,1365,18095799797,/g3t1_3,,running
Status,1366,18095873849,/g3t1_2,,running
Status,1367,18096517634,/g3t1_3,,success
Status,1368,18096836780,/g3t1_2,,success
Status,1372,18120085450,/g3t1_1,,running
Status,1373,18120195332,/g3t1_1,,fail
Status,1374,18145538657,/g3t1_3,,running
Status,1375,18145611501,/g3t1_2,,running
Status,1376,18145933211,/g3t1_3,,success
Status,1377,18145981653,/g3t1_2,,success
Status,1378,18169281829,/g3t1_1,,running
Status,1379,18169312727,/g3t1_1,,success
Status,1380,18180811424,/g4t1,,fail
Status,1381,18195767790,/g3t1_3,,running
Status,1382,18195801935,/g3t1_2,,running
Status,1383,18195874090,/g3t1_3,,success
Status,1384,18195893620,/g3t1_2,,success
Status,1385,18219413684,/g3t1_1,,running
Status,1386,18219439156,/g3t1_1,,fail
Status,1387,18245362355,/g3t1_3,,running
Status,1388,18245396970,/g3t1_2,,running
Status,1389,18245425760,/g3t1_3,,success
Status,1390,18245434919,/g3t1_2,,success
Status,1391,18269519438,/g3t1_1,,running
Status,1392,18269549111,/g3t1_1,,success
Status,1393,18281321293,/g4t1,,fail
Status,1394,18296085044,/g3t1_2,,running
Status,1395,18296472858,/g3t1_3,,running
Status,1396,18296534818,/g3t1_3,,success
Status,1397,18296621545,/g3t1_2,,success
Status,1401,18319843494,/g3t1_1,,running
Status,1402,18320134575,/g3t1_1,,fail
Status,1403,18346251794,/g3t1_2,,running
Status,1404,18346323413,/g3t1_3,,running
Status,1405,18346575306,/g3t1_3,,success
Status,1406,18346621705,/g3t1_2,,success
Status,1407,18370511200,/g3t1_1,,running
Status,1408,18370577179,/g3t1_1,,fail
Status,1409,18381238249,/g4t1,,fail
Status,1410,18395628384,/g3t1_2,,running
Status,1411,18395675940,/g3t1_3,,running
Status,1412,18395711583,/g3t1_2,,success
Status,1413,18395816236,/g3t1_3,,success
Status,1414,18419813232,/g3t1_1,,running
Status,1415,18419837884,/g3t1_1,,fail
Status,1416,18445671435,/g3t1_3,,running
Status,1417,18445698342,/g3t1_2,,running
Status,1418,18445736180,/g3t1_2,,success
Status,1419,18445756263,/g3t1_3,,success
Status,1420,18469930935,/g3t1_1,,running
Status,1421,18469953756,/g3t1_1,,fail
Status,1422,18481168007,/g4t1,,fail
Status,1423,18496005925,/g3t1_2,,running
Status,1424,18496041414,/g3t1_3,,running
Status,1425,18496081200,/g3t1_2,,success
Status,1426,18496190100,/g3t1_3,,success
Status,1430,18520837602,/g3t1_1,,running
Status,1431,18520904724,/g3t1_1,,fail
Status,1432,18546616270,/g3t1_2,,running
Status,1433,18546702667,/g3t1_3,,running
Status,1434,18547080991,/g3t1_2,,success
Status,1435,18547142855,/g3t1_3,,success
Status,1436,18570691261,/g3t1_1,,running
Status,1437,18571159042,/g3t1_1,,success
Status,1438,18581963851,/g4t1,,fail
Status,1439,18597119802,/g3t1_2,,running
Status,1440,18597238455,/g3t1_3,,running
Status,1441,18597286020,/g3t1_2,,success
Status,1442,18597454137,/g3t1_3,,success
Status,1443,18620536812,/g3t1_1,,running
Status,1444,18620576298,/g3t1_1,,success
Status,1445,18646251140,/g3t1_2,,running
Status,1446,18646295175,/g3t1_3,,running
Status,1447,18646440599,/g3t1_2,,success
Status,1448,18646478532,/g3t1_3,,success
Status,1449,18670405941,/g3t1_1,,running
Status,1450,18670610271,/g3t1_1,,success
Status,1451,18681286499,/g4t1,,fail
Status,1452,18696163606,/g3t1_2,,running
Status,1453,18696192620,/g3t1_3,,running
Status,1454,18696205306,/g3t1_2,,success
Status,1455,18696229460,/g3t1_3,,success
Status,1459,18720460406,/g3t1_1,,running
Status,1460,18720659706,/g3t1_1,,success
Status,1461,18747091493,/g3t1_3,,running
Status,1462,18747168115,/g3t1_2,,running
Status,1463,18747227353,/g3t1_2,,success
Status,1464,18747542091,/g3t1_3,,success
Status,1465,18771242326,/g3t1_1,,running
Status,1466,18771409796,/g3t1_1,,success
Status,1467,18782001229,/g4t1,,fail
Status,1468,18797351722,/g3t1_2,,running
Status,1469,18797415847,/g3t1_3,,running
Status,1470,18797440777,/g3t1_2,,success
Status,1471,18797659807,/g3t1_3,,success
Status,1472,18821654853,/g3t1_1,,running
Status,1473,18822099857,/g3t1_1,,success
Status,1474,18847139533,/g3t1_2,,running
Status,1475,18847232367,/g3t1_3,,running
Status,1476,18847612578,/g3t1_3,,success
Status,1477,18847712856,/g3t1_2,,success
Status,1478,18871284854,/g3t1_1,,running
Status,1479,18871571979,/g3t1_1,,fail
Status,1480,18882214248,/g4t1,,fail
Status,1481,18897258363,/g3t1_2,,running
Status,1482,18897375644,/g3t1_3,,running
Status,1483,18897834732,/g3t1_2,,success
Status,1484,18897885946,/g3t1_3,,success
Status,1488,18921953193,/g3t1_1,,running
Status,1489,18922041668,/g3t1_1,,success
Status,1490,18947535656,/g3t1_2,,running
Status,1491,18947707231,/g3t1_3,,running
Status,1492,18947746116,/g3t1_2,,success
Status,1493,18948521066,/g3t1_3,,success
Status,1494,18971423692,/g3t1_1,,running
Status,1495,18972009138,/g3t1_1,,success
Status,1496,18982411469,/g4t1,,fail
Status,1497,18997723684,/g3t1_2,,running
Status,1498,18997865292,/g3t1_3,,running
Status,1499,18997970972,/g3t1_2,,success
Status,1500,18998316555,/g3t1_3,,success
Status,1501,19021801985,/g3t1_1,,running
Status,1502,19022088675,/g3t1_1,,success
Status,1503,19047675993,/g3t1_2,,running
Status,1504,19048140669,/g3t1_3,,running
Status,1505,19048190975,/g3t1_3,,success
Status,1506,19048220850,/g3t1_2,,success
Status,1507,19072122777,/g3t1_1,,running
Status,1508,19072215356,/g3t1_1,,success
Status,1509,19082623029,/g4t1,,fail
Status,1510,19097884992,/g3t1_2,,running
Status,1511,19098271273,/g3t1_3,,running
Status,1512,19098375268,/g3t1_2,,success
Status,1513,19098671157,/g3t1_3,,success
Status,1517,19122531530,/g3t1_1,,running
Status,1518,19122957050,/g3t1_1,,success
Status,1519,19148315964,/g3t1_2,,running
Status,1520,19148499770,/g3t1_3,,running
Status,1521,19148542718,/g3t1_2,,success
Status,1522,19148903451,/g3t1_3,,success
Status,1523,19172106510,/g3t1_1,,running
Status,1524,19172525777,/g3t1_1,,success
Status,1525,19181925441,/g4t1,,fail
Status,1526,19197218630,/g3t1_2,,running
Status,1527,19197242343,/g3t1_2,,success
Status,1528,19197372435,/g3t1_3,,running
Status,1529,19197497560,/g3t1_3,,success
Status,1530,19221729944,/g3t1_1,,running
Status,1531,19221750243,/g3t1_1,,success
Status,1532,19247656514,/g3t1_2,,running
Status,1533,19247703229,/g3t1_3,,running
Status,1534,19248082400,/g3t1_3,,success
Status,1535,19248111205,/g3t1_2,,success
Status,1536,19272340819,/g3t1_1,,running
Status,1537,19272378478,/g3t1_1,,fail
Status,1538,19281928120,/g4t1,,fail
Status,1539,19297583182,/g3t1_2,,running
Status,1540,19297638667,/g3t1_3,,running
Status,1541,19297656775,/g3t1_2,,success
Status,1542,19297678968,/g3t1_3,,success
Status,1546,19322347600,/g3t1_1,,running
Status,1547,19322761466,/g3t1_1,,success
Status,1548,19349131074,/g3t1_3,,running
Status,1549,19349212573,/g3t1_2,,running
Status,1550,19349384868,/g3t1_2,,success
Status,1551,19349448648,/g3t1_3,,fail
Status,1552,19372385765,/g3t1_1,,running
Status,1553,19372950042,/g3t1_1,,fail
Status,1554,19382873136,/g4t1,,fail
Status,1555,19398025571,/g3t1_2,,running
Status,1556,19398078442,/g3t1_3,,running
Status,1557,19398139420,/g3t1_2,,success
Status,1558,19398344810,/g3t1_3,,success
Status,1559,19422225451,/g3t1_1,,running
Status,1560,19422387879,/g3t1_1,,success
Status,1561,19447833056,/g3t1_2,,running
Status,1562,19447854787,/g3t1_2,,success
Status,1563,19447881451,/g3t1_3,,running
Status,1564,19447892690,/g3t1_3,,success
Status,1565,19472257109,/g3t1_1,,running
Status,1566,19472282501,/g3t1_1,,success
Status,1567,19482200370,/g4t1,,fail
Status,1568,19497875388,/g3t1_2,,running
Status,1569,19497903802,/g3t1_2,,success
Status,1570,19497940699,/g3t1_3,,running
Status,1571,19497971014,/g3t1_3,,success
Status,1575,19522379372,/g3t1_1,,running
Status,1576,19522546764,/g3t1_1,,success
Status,1577,19548116801,/g3t1_2,,running
Status,1578,19548142021,/g3t1_3,,running
Status,1579,19548174310,/g3t1_2,,success
Status,1580,19548183954,/g3t1_3,,success
Status,1581,19572953394,/g3t1_1,,running
Status,1582,19573011098,/g3t1_1,,fail
Status,1583,19582770838,/g4t1,,fail
Status,1584,19598754240,/g3t1_2,,running
Status,1585,19598842309,/g3t1_3,,running
Status,1586,19599240082,/g3t1_2,,success
Status,1587,19599320277,/g3t1_3,,success
Status,1588,19623389002,/g3t1_1,,running
Status,1589,19623629116,/g3t1_1,,success
Status,1590,19648755003,/g3t1_2,,running
Status,1591,19648830421,/g3t1_3,,running
Status,1592,19648917407,/g3t1_2,,success
Status,1593,19649207005,/g3t1_3,,success
Status,1594,19672841306,/g3t1_1,,running
Status,1595,19673101254,/g3t1_1,,success
Status,1596,19682345768,/g4t1,,fail
Status,1597,19698234766,/g3t1_2,,running
Status,1598,19698376215,/g3t1_3,,running
Status,1599,19698399016,/g3t1_2,,success
Status,1600,19698418642,/g3t1_3,,success
Status,1604,19723023216,/g3t1_1,,running
Status,1605,19723146468,/g3t1_1,,success
Status,1606,19748320883,/g3t1_2,,running
Status,1607,19748352332,/g3t1_2,,success
Status,1608,19748379350,/g3t1_3,,running
Status,1609,19748510926,/g3t1_3,,success
Status,1610,19772813997,/g3t1_1,,running
Status,1611,19772963924,/g3t1_1,,success
Status,1612,19783028233,/g4t1,,fail
Status,1613,19798397528,/g3t1_2,,running
Status,1614,19798429146,/g3t1_3,,running
Status,1615,19798462960,/g3t1_2,,success
Status,1616,19798622510,/g3t1_3,,success
Status,1617,19823394962,/g3t1_1,,running
Status,1618,19823455844,/g3t1_1,,fail
Status,1619,19848881630,/g3t1_2,,running
Status,1620,19848929405,/g3t1_2,,success
Status,1621,19848973447,/g3t1_3,,running
Status,1622,19848988718,/g3t1_3,,success
Status,1623,19873155610,/g3t1_1,,running
Status,1624,19873178439,/g3t1_1,,success
Status,1625,19882481299,/g4t1,,fail
Status,1626,19898601418,/g3t1_3,,running
Status,1627,19898623281,/g3t1_2,,running
Status,1628,19898650717,/g3t1_2,,success
Status,1629,19898658275,/g3t1_3,,success
Status,1633,19923267936,/g3t1_1,,running
Status,1634,19923403683,/g3t1_1,,success
Status,1635,19949165135,/g3t1_2,,running
Status,1636,19949247426,/g3t1_3,,running
Status,1637,19949659023,/g3t1_2,,success
Status,1638,19949740263,/g3t1_3,,success
Status,1639,19973734788,/g3t1_1,,running
Status,1640,19973793603,/g3t1_1,,fail
Status,1641,19983343731,/g4t1,,fail
Status,1642,19999173738,/g3t1_2,,running
Status,1643,19999457351,/g3t1_3,,running
Status,1644,19999929865,/g3t1_3,,success
Status,1645,20000012321,/g3t1_2,,fail
Status,1646,20024252112,/g3t1_1,,running
Status,1647,20024325142,/g3t1_1,,success
Status,1648,20049460046,/g3t1_2,,running
Status,1649,20049600134,/g3t1_3,,running
Status,1650,20050071202,/g3t1_3,,success
Status,1651,20050152210,/g3t1_2,,success
Status,1652,20073975631,/g3t1_1,,running
Status,1653,20074347607,/g3t1_1,,success
Status,1654,20083642987,/g4t1,,fail
Status,1657,20100379435,/g3t1_2,,running
Status,1658,20100533114,/g3t1_3,,running
Status,1659,20100583577,/g3t1_2,,success
Status,1661,20101326244,/g3t1_3,,success
Status,1662,20124338720,/g3t1_1,,running
Status,1663,20124766517,/g3t1_1,,success
Status,1664,20150134086,/g3t1_2,,running
Status,1665,20150241796,/g3t1_3,,running
Status,1666,20150284422,/g3t1_2,,success
Status,1667,20150832215,/g3t1_3,,success
Status,1668,20173853650,/g3t1_1,,running
Status,1669,20173993190,/g3t1_1,,success
Status,1670,20182927237,/g4t1,,fail
Status,1671,20198939473,/g3t1_2,,running
Status,1672,20199169482,/g3t1_2,,success
Status,1673,20199198661,/g3t1_3,,running
Status,1674,20199348927,/g3t1_3,,success
Status,1675,20223967760,/g3t1_1,,running
Status,1676,20223992037,/g3t1_1,,fail
Status,1677,20249159660,/g3t1_2,,running
Status,1678,20249188792,/g3t1_2,,success
Status,1679,20249338466,/g3t1_3,,running
Status,1680,20249489938,/g3t1_3,,success
Status,1681,20274141315,/g3t1_1,,running
Status,1682,20274270099,/g3t1_1,,success
Status,1683,20283432713,/g4t1,,fail
